{"data":[[{"station_id":"PSE","is_transit":false,"i_lat":-6.174784,"station_name":"Pasar Senen","distance":0,"i_long":106.84368,"transit":false,"time":0,"line":11},{"station_name":"Kemayoran","station_id":"KMO","transit":false,"time":4,"i_lat":-6.161728,"is_transit":false,"i_long":106.839204,"distance":1436,"line":11},{"time":5,"i_lat":-6.14505,"i_long":106.836569,"transit":false,"distance":1901,"line":11,"station_id":"RJW","is_transit":false,"station_name":"Rajawali"},{"station_id":"KPB","distance":1444,"i_lat":-6.132549,"is_transit":true,"time":3,"i_long":106.826365,"transit":true,"station_name":"Kampung Bandan","line":4},{"i_lat":-6.144674,"is_transit":false,"transit":false,"station_id":"AK","time":9,"distance":4102,"line":1,"i_long":106.79867,"station_name":"Angke"},{"i_lat":-6.155215,"transit":false,"station_name":"Duri","distance":1230,"is_transit":false,"i_long":106.800832,"station_id":"DU","time":4,"line":1},{"i_long":106.811091,"station_id":"THB","station_name":"Tanah Abang","time":8,"is_transit":true,"distance":3632,"i_lat":-6.185545,"transit":true,"line":1},{"i_lat":-6.207404,"transit":false,"time":6,"station_name":"Palmerah","distance":3191,"is_transit":false,"line":6,"i_long":106.79689,"station_id":"PLM"},{"is_transit":false,"line":6,"station_id":"KBY","time":7,"i_lat":-6.237242,"station_name":"Kebayoran","transit":false,"distance":3737,"i_long":106.780334},{"station_id":"PDJ","distance":6218,"line":6,"station_name":"Pondokranji","i_lat":-6.276362,"time":8,"transit":false,"is_transit":false,"i_long":106.74273},{"i_long":106.728916,"i_lat":-6.288927,"station_name":"Jurangmangu","transit":false,"time":3,"line":6,"is_transit":false,"station_id":"JMU","distance":2179},{"distance":1994,"station_name":"Sudimara","line":6,"station_id":"SDM","is_transit":false,"transit":false,"i_lat":-6.296963,"i_long":106.712277,"time":4},{"i_long":106.675475,"line":6,"distance":4566,"station_id":"RU","is_transit":false,"time":6,"transit":false,"station_name":"Rawa Buntu","i_lat":-6.314823},{"line":6,"station_id":"SRP","distance":2413,"i_lat":-6.319871,"station_name":"Serpong","i_long":106.66566,"transit":false,"time":4,"is_transit":false},{"is_transit":false,"distance":1784,"i_long":106.640411,"transit":false,"line":3,"station_name":"Cisauk","station_id":"CSK","time":4,"i_lat":-6.32484}],[{"station_name":"Pasar Senen","station_id":"PSE","time":0,"i_lat":-6.174784,"distance":0,"line":11,"is_transit":false,"transit":false,"i_long":106.84368},{"time":8,"station_id":"GST","i_long":106.850107,"station_name":"Gang Sentiong","distance":1567,"transit":false,"is_transit":false,"line":11,"i_lat":-6.185975},{"line":11,"station_name":"Kramat","transit":false,"station_id":"KMT","i_long":106.855437,"i_lat":-6.193792,"time":1,"is_transit":false,"distance":973},{"distance":1829,"station_id":"POK","transit":false,"station_name":"Pondok Jati","i_long":106.861737,"i_lat":-6.209188,"line":11,"is_transit":false,"time":2},{"station_id":"JNG","time":9,"i_long":106.86807400000001,"line":1,"station_name":"Jatinegara","transit":true,"is_transit":true,"distance":1236,"i_lat":-6.215091},{"i_lat":-6.212485,"is_transit":false,"i_long":106.858896,"line":1,"transit":false,"station_id":"MTR","station_name":"Matraman","time":2,"distance":1377},{"station_id":"MRI","station_name":"Manggarai","time":2,"is_transit":false,"i_long":106.84912,"line":2,"transit":false,"i_lat":-6.209883,"distance":1275},{"i_lat":-6.202263,"distance":3186,"is_transit":false,"time":4,"station_id":"SUD","i_long":106.822649,"transit":false,"station_name":"Sudirman","line":1},{"is_transit":false,"time":1,"station_id":"SUDB","line":1,"transit":false,"station_name":"Sudirman Baru","i_lat":-6.201433,"i_long":106.819881,"distance":280},{"station_name":"Karet","i_long":106.816351,"time":1,"station_id":"KAT","line":1,"transit":false,"distance":471,"is_transit":false,"i_lat":-6.20132},{"time":5,"distance":2029,"transit":true,"station_id":"THB","i_lat":-6.185545,"station_name":"Tanah Abang","i_long":106.811091,"line":1,"is_transit":true},{"distance":3191,"i_lat":-6.207404,"i_long":106.79689,"line":6,"station_name":"Palmerah","station_id":"PLM","transit":false,"time":6,"is_transit":false},{"time":7,"station_id":"KBY","station_name":"Kebayoran","distance":3737,"line":6,"i_long":106.780334,"transit":false,"i_lat":-6.237242,"is_transit":false},{"i_lat":-6.276362,"distance":6218,"transit":false,"station_name":"Pondokranji","station_id":"PDJ","is_transit":false,"time":8,"i_long":106.74273,"line":6},{"line":6,"is_transit":false,"station_name":"Jurangmangu","time":3,"station_id":"JMU","i_lat":-6.288927,"i_long":106.728916,"transit":false,"distance":2179},{"time":4,"transit":false,"station_name":"Sudimara","i_long":106.712277,"distance":1994,"i_lat":-6.296963,"is_transit":false,"station_id":"SDM","line":6},{"is_transit":false,"i_lat":-6.314823,"line":6,"transit":false,"station_name":"Rawa Buntu","station_id":"RU","i_long":106.675475,"distance":4566,"time":6},{"transit":false,"time":4,"line":6,"is_transit":false,"i_long":106.66566,"i_lat":-6.319871,"station_name":"Serpong","distance":2413,"station_id":"SRP"},{"station_name":"Cisauk","i_lat":-6.32484,"time":4,"station_id":"CSK","line":3,"i_long":106.640411,"distance":1784,"transit":false,"is_transit":false}],[{"i_long":106.84368,"transit":false,"time":0,"i_lat":-6.174784,"station_id":"PSE","distance":0,"station_name":"Pasar Senen","is_transit":false,"line":11},{"i_lat":-6.161728,"time":4,"transit":false,"distance":1436,"i_long":106.839204,"is_transit":false,"station_id":"KMO","station_name":"Kemayoran","line":11},{"line":11,"transit":false,"station_id":"RJW","i_lat":-6.14505,"i_long":106.836569,"station_name":"Rajawali","distance":1901,"time":5,"is_transit":false},{"line":4,"i_lat":-6.132549,"station_id":"KPB","transit":true,"station_name":"Kampung Bandan","time":3,"is_transit":true,"distance":1444,"i_long":106.826365},{"time":3,"i_long":106.812439,"transit":true,"station_name":"Jakarta Kota","distance":1364,"line":2,"station_id":"JAKK","i_lat":-6.137569,"is_transit":true},{"station_name":"Jayakarta","transit":false,"i_lat":-6.141205,"line":2,"station_id":"JAY","is_transit":false,"i_long":106.820901,"distance":1264,"time":4},{"i_long":106.82482,"distance":1080,"time":2,"is_transit":false,"station_id":"MGB","transit":false,"i_lat":-6.149769,"station_name":"Manggabesar","line":2},{"distance":906,"i_lat":-6.160725,"transit":false,"station_id":"SW","is_transit":false,"line":2,"station_name":"Sawah Besar","i_long":106.827103,"time":2},{"time":2,"station_id":"JUA","distance":1149,"i_long":106.828284,"i_lat":-6.166716,"station_name":"Juanda","is_transit":false,"transit":false,"line":2},{"is_transit":false,"line":2,"transit":false,"i_long":106.832183,"station_id":"GDD","distance":2015,"station_name":"Gondangdia","time":4,"i_lat":-6.186295},{"time":3,"line":2,"is_transit":false,"i_lat":-6.198556,"station_id":"CKI","distance":1750,"i_long":106.840169,"transit":false,"station_name":"Cikini"},{"is_transit":true,"distance":1590,"station_id":"MRI","transit":true,"line":2,"station_name":"Manggarai","time":4,"i_lat":-6.209883,"i_long":106.84912},{"line":1,"distance":3186,"station_id":"SUD","i_lat":-6.202263,"transit":false,"station_name":"Sudirman","i_long":106.822649,"is_transit":false,"time":4},{"i_lat":-6.201433,"i_long":106.819881,"line":1,"is_transit":false,"transit":false,"time":1,"station_name":"Sudirman Baru","distance":280,"station_id":"SUDB"},{"i_long":106.816351,"is_transit":false,"i_lat":-6.20132,"line":1,"transit":false,"station_id":"KAT","time":1,"distance":471,"station_name":"Karet"},{"station_name":"Tanah Abang","station_id":"THB","time":5,"i_lat":-6.185545,"i_long":106.811091,"line":1,"is_transit":true,"distance":2029,"transit":true},{"station_name":"Palmerah","station_id":"PLM","line":6,"time":6,"i_lat":-6.207404,"i_long":106.79689,"distance":3191,"transit":false,"is_transit":false},{"station_name":"Kebayoran","transit":false,"is_transit":false,"time":7,"i_long":106.780334,"i_lat":-6.237242,"line":6,"station_id":"KBY","distance":3737},{"is_transit":false,"i_long":106.74273,"distance":6218,"station_name":"Pondokranji","time":8,"station_id":"PDJ","line":6,"transit":false,"i_lat":-6.276362},{"station_name":"Jurangmangu","is_transit":false,"station_id":"JMU","distance":2179,"i_long":106.728916,"i_lat":-6.288927,"transit":false,"line":6,"time":3},{"time":4,"i_lat":-6.296963,"station_id":"SDM","is_transit":false,"i_long":106.712277,"station_name":"Sudimara","distance":1994,"transit":false,"line":6},{"line":6,"is_transit":false,"station_id":"RU","time":6,"station_name":"Rawa Buntu","i_lat":-6.314823,"distance":4566,"i_long":106.675475,"transit":false},{"line":6,"station_name":"Serpong","station_id":"SRP","time":4,"i_lat":-6.319871,"i_long":106.66566,"is_transit":false,"distance":2413,"transit":false},{"i_long":106.640411,"station_name":"Cisauk","time":4,"distance":1784,"i_lat":-6.32484,"line":3,"is_transit":false,"transit":false,"station_id":"CSK"}],[{"distance":0,"line":11,"station_id":"PSE","time":0,"is_transit":false,"transit":false,"station_name":"Pasar Senen","i_lat":-6.174784,"i_long":106.84368},{"i_long":106.850107,"station_name":"Gang Sentiong","transit":false,"is_transit":false,"i_lat":-6.185975,"station_id":"GST","distance":1567,"line":11,"time":8},{"distance":973,"i_lat":-6.193792,"i_long":106.855437,"line":11,"station_name":"Kramat","transit":false,"station_id":"KMT","is_transit":false,"time":1},{"i_lat":-6.209188,"transit":false,"i_long":106.861737,"station_id":"POK","distance":1829,"line":11,"station_name":"Pondok Jati","time":2,"is_transit":false},{"distance":1236,"i_long":106.86807400000001,"i_lat":-6.215091,"station_id":"JNG","station_name":"Jatinegara","is_transit":true,"time":9,"line":1,"transit":true},{"station_name":"Matraman","time":2,"distance":1377,"i_lat":-6.212485,"station_id":"MTR","i_long":106.858896,"is_transit":false,"line":1,"transit":false},{"line":2,"i_long":106.84912,"is_transit":true,"station_name":"Manggarai","i_lat":-6.209883,"station_id":"MRI","distance":1275,"transit":true,"time":2},{"i_long":106.840169,"time":4,"transit":false,"station_id":"CKI","is_transit":false,"distance":1590,"i_lat":-6.198556,"line":2,"station_name":"Cikini"},{"i_long":106.832183,"station_name":"Gondangdia","station_id":"GDD","time":3,"is_transit":false,"transit":false,"distance":1750,"i_lat":-6.186295,"line":2},{"line":2,"distance":2015,"station_name":"Juanda","transit":false,"i_lat":-6.166716,"time":4,"i_long":106.828284,"station_id":"JUA","is_transit":false},{"time":2,"transit":false,"is_transit":false,"i_long":106.827103,"line":2,"i_lat":-6.160725,"station_name":"Sawah Besar","station_id":"SW","distance":1149},{"i_long":106.82482,"station_id":"MGB","line":2,"is_transit":false,"station_name":"Manggabesar","transit":false,"time":2,"distance":906,"i_lat":-6.149769},{"transit":false,"i_long":106.820901,"time":2,"line":2,"station_id":"JAY","i_lat":-6.141205,"is_transit":false,"station_name":"Jayakarta","distance":1080},{"line":2,"distance":1264,"i_lat":-6.137569,"station_name":"Jakarta Kota","is_transit":true,"transit":true,"station_id":"JAKK","time":4,"i_long":106.812439},{"i_lat":-6.132549,"time":3,"distance":1364,"station_name":"Kampung Bandan","station_id":"KPB","is_transit":true,"line":4,"i_long":106.826365,"transit":true},{"is_transit":false,"i_long":106.79867,"line":1,"transit":false,"distance":4102,"time":9,"station_name":"Angke","station_id":"AK","i_lat":-6.144674},{"distance":1230,"time":4,"station_name":"Duri","i_lat":-6.155215,"line":1,"transit":false,"i_long":106.800832,"is_transit":false,"station_id":"DU"},{"distance":3632,"i_lat":-6.185545,"station_id":"THB","transit":true,"time":8,"station_name":"Tanah Abang","is_transit":true,"i_long":106.811091,"line":1},{"i_lat":-6.207404,"transit":false,"i_long":106.79689,"station_id":"PLM","time":6,"is_transit":false,"station_name":"Palmerah","distance":3191,"line":6},{"transit":false,"i_lat":-6.237242,"time":7,"station_name":"Kebayoran","i_long":106.780334,"station_id":"KBY","line":6,"is_transit":false,"distance":3737},{"station_name":"Pondokranji","i_long":106.74273,"time":8,"line":6,"station_id":"PDJ","distance":6218,"i_lat":-6.276362,"transit":false,"is_transit":false},{"line":6,"station_id":"JMU","time":3,"i_lat":-6.288927,"i_long":106.728916,"station_name":"Jurangmangu","is_transit":false,"transit":false,"distance":2179},{"station_id":"SDM","time":4,"station_name":"Sudimara","line":6,"is_transit":false,"distance":1994,"transit":false,"i_long":106.712277,"i_lat":-6.296963},{"station_id":"RU","time":6,"i_lat":-6.314823,"i_long":106.675475,"distance":4566,"line":6,"is_transit":false,"station_name":"Rawa Buntu","transit":false},{"i_lat":-6.319871,"station_id":"SRP","distance":2413,"time":4,"i_long":106.66566,"is_transit":false,"transit":false,"line":6,"station_name":"Serpong"},{"i_lat":-6.32484,"i_long":106.640411,"line":3,"time":4,"transit":false,"station_name":"Cisauk","station_id":"CSK","is_transit":false,"distance":1784}]]}