{"data":[[{"i_lat":-6.174784,"time":0,"distance":0,"i_long":106.84368,"is_transit":false,"transit":false,"station_name":"Pasar Senen","station_id":"PSE","line":11},{"i_lat":-6.161728,"line":11,"transit":false,"station_name":"Kemayoran","station_id":"KMO","is_transit":false,"i_long":106.839204,"distance":1436,"time":4},{"station_name":"Rajawali","i_lat":-6.14505,"is_transit":false,"i_long":106.836569,"line":11,"distance":1901,"station_id":"RJW","time":5,"transit":false},{"time":3,"line":4,"transit":true,"i_long":106.826365,"distance":1444,"is_transit":true,"i_lat":-6.132549,"station_name":"Kampung Bandan","station_id":"KPB"},{"station_id":"AK","station_name":"Angke","i_long":106.79867,"line":1,"distance":4102,"is_transit":false,"time":9,"i_lat":-6.144674,"transit":false},{"line":1,"is_transit":false,"distance":1230,"station_name":"Duri","time":4,"transit":false,"station_id":"DU","i_lat":-6.155215,"i_long":106.800832},{"time":8,"station_name":"Tanah Abang","transit":true,"line":1,"is_transit":true,"i_long":106.811091,"distance":3632,"i_lat":-6.185545,"station_id":"THB"},{"distance":3191,"station_name":"Palmerah","transit":false,"i_long":106.79689,"time":6,"line":6,"station_id":"PLM","is_transit":false,"i_lat":-6.207404},{"distance":3737,"station_id":"KBY","is_transit":false,"i_long":106.780334,"station_name":"Kebayoran","line":6,"i_lat":-6.237242,"time":7,"transit":false},{"station_name":"Pondokranji","transit":false,"is_transit":false,"i_lat":-6.276362,"i_long":106.74273,"station_id":"PDJ","time":8,"distance":6218,"line":6},{"line":6,"station_name":"Jurangmangu","transit":false,"i_lat":-6.288927,"station_id":"JMU","distance":2179,"time":3,"i_long":106.728916,"is_transit":false},{"time":4,"distance":1994,"line":6,"station_id":"SDM","station_name":"Sudimara","i_long":106.712277,"transit":false,"is_transit":false,"i_lat":-6.296963}],[{"time":0,"station_name":"Pasar Senen","transit":false,"line":11,"station_id":"PSE","is_transit":false,"distance":0,"i_lat":-6.174784,"i_long":106.84368},{"line":11,"distance":1567,"station_id":"GST","i_lat":-6.185975,"transit":false,"i_long":106.850107,"time":8,"station_name":"Gang Sentiong","is_transit":false},{"station_name":"Kramat","distance":973,"transit":false,"station_id":"KMT","line":11,"i_long":106.855437,"time":1,"is_transit":false,"i_lat":-6.193792},{"distance":1829,"station_id":"POK","transit":false,"station_name":"Pondok Jati","is_transit":false,"time":2,"i_long":106.861737,"i_lat":-6.209188,"line":11},{"distance":1236,"is_transit":true,"transit":true,"station_name":"Jatinegara","i_long":106.86807400000001,"time":9,"i_lat":-6.215091,"station_id":"JNG","line":1},{"station_name":"Matraman","station_id":"MTR","is_transit":false,"time":2,"i_lat":-6.212485,"i_long":106.858896,"line":1,"transit":false,"distance":1377},{"line":2,"is_transit":false,"station_name":"Manggarai","station_id":"MRI","distance":1275,"transit":false,"time":2,"i_lat":-6.209883,"i_long":106.84912},{"i_lat":-6.202263,"transit":false,"station_id":"SUD","time":4,"distance":3186,"is_transit":false,"i_long":106.822649,"station_name":"Sudirman","line":1},{"station_id":"SUDB","line":1,"station_name":"Sudirman Baru","transit":false,"is_transit":false,"time":1,"i_lat":-6.201433,"i_long":106.819881,"distance":280},{"distance":471,"i_lat":-6.20132,"station_name":"Karet","transit":false,"time":1,"line":1,"station_id":"KAT","i_long":106.816351,"is_transit":false},{"transit":true,"station_id":"THB","i_lat":-6.185545,"line":1,"distance":2029,"is_transit":true,"time":5,"station_name":"Tanah Abang","i_long":106.811091},{"line":6,"station_id":"PLM","is_transit":false,"transit":false,"station_name":"Palmerah","time":6,"distance":3191,"i_long":106.79689,"i_lat":-6.207404},{"i_lat":-6.237242,"transit":false,"station_name":"Kebayoran","station_id":"KBY","time":7,"is_transit":false,"distance":3737,"i_long":106.780334,"line":6},{"line":6,"transit":false,"distance":6218,"is_transit":false,"i_lat":-6.276362,"time":8,"station_name":"Pondokranji","station_id":"PDJ","i_long":106.74273},{"distance":2179,"station_name":"Jurangmangu","i_long":106.728916,"line":6,"transit":false,"station_id":"JMU","time":3,"i_lat":-6.288927,"is_transit":false},{"distance":1994,"transit":false,"station_id":"SDM","is_transit":false,"i_lat":-6.296963,"time":4,"station_name":"Sudimara","i_long":106.712277,"line":6}],[{"i_lat":-6.174784,"line":11,"time":0,"station_name":"Pasar Senen","station_id":"PSE","i_long":106.84368,"transit":false,"distance":0,"is_transit":false},{"line":11,"i_lat":-6.161728,"station_id":"KMO","transit":false,"is_transit":false,"time":4,"station_name":"Kemayoran","distance":1436,"i_long":106.839204},{"transit":false,"station_id":"RJW","distance":1901,"line":11,"is_transit":false,"station_name":"Rajawali","i_lat":-6.14505,"i_long":106.836569,"time":5},{"station_id":"KPB","time":3,"station_name":"Kampung Bandan","i_long":106.826365,"is_transit":true,"transit":true,"i_lat":-6.132549,"line":4,"distance":1444},{"i_lat":-6.137569,"distance":1364,"transit":true,"i_long":106.812439,"line":2,"time":3,"station_name":"Jakarta Kota","station_id":"JAKK","is_transit":true},{"i_lat":-6.141205,"line":2,"i_long":106.820901,"station_id":"JAY","transit":false,"station_name":"Jayakarta","is_transit":false,"time":4,"distance":1264},{"line":2,"i_long":106.82482,"station_name":"Manggabesar","time":2,"distance":1080,"i_lat":-6.149769,"transit":false,"station_id":"MGB","is_transit":false},{"time":2,"distance":906,"station_name":"Sawah Besar","transit":false,"station_id":"SW","is_transit":false,"i_lat":-6.160725,"i_long":106.827103,"line":2},{"time":2,"station_name":"Juanda","station_id":"JUA","is_transit":false,"i_lat":-6.166716,"transit":false,"distance":1149,"i_long":106.828284,"line":2},{"i_long":106.832183,"station_id":"GDD","station_name":"Gondangdia","i_lat":-6.186295,"distance":2015,"transit":false,"time":4,"is_transit":false,"line":2},{"time":3,"station_name":"Cikini","is_transit":false,"line":2,"i_long":106.840169,"i_lat":-6.198556,"station_id":"CKI","distance":1750,"transit":false},{"is_transit":true,"line":2,"station_name":"Manggarai","station_id":"MRI","distance":1590,"i_lat":-6.209883,"time":4,"i_long":106.84912,"transit":true},{"station_id":"SUD","i_long":106.822649,"station_name":"Sudirman","is_transit":false,"line":1,"transit":false,"time":4,"distance":3186,"i_lat":-6.202263},{"transit":false,"station_name":"Sudirman Baru","distance":280,"station_id":"SUDB","line":1,"i_lat":-6.201433,"is_transit":false,"i_long":106.819881,"time":1},{"i_long":106.816351,"station_id":"KAT","time":1,"is_transit":false,"line":1,"transit":false,"distance":471,"station_name":"Karet","i_lat":-6.20132},{"i_long":106.811091,"transit":true,"i_lat":-6.185545,"time":5,"station_name":"Tanah Abang","distance":2029,"line":1,"is_transit":true,"station_id":"THB"},{"line":6,"i_lat":-6.207404,"i_long":106.79689,"station_id":"PLM","is_transit":false,"transit":false,"distance":3191,"station_name":"Palmerah","time":6},{"station_id":"KBY","i_long":106.780334,"transit":false,"is_transit":false,"time":7,"distance":3737,"line":6,"station_name":"Kebayoran","i_lat":-6.237242},{"is_transit":false,"distance":6218,"station_name":"Pondokranji","station_id":"PDJ","line":6,"i_long":106.74273,"i_lat":-6.276362,"transit":false,"time":8},{"time":3,"is_transit":false,"transit":false,"i_lat":-6.288927,"i_long":106.728916,"line":6,"station_id":"JMU","station_name":"Jurangmangu","distance":2179},{"transit":false,"line":6,"is_transit":false,"time":4,"distance":1994,"i_long":106.712277,"station_id":"SDM","station_name":"Sudimara","i_lat":-6.296963}],[{"station_name":"Pasar Senen","line":11,"i_long":106.84368,"station_id":"PSE","is_transit":false,"time":0,"distance":0,"transit":false,"i_lat":-6.174784},{"station_id":"GST","transit":false,"i_lat":-6.185975,"distance":1567,"is_transit":false,"line":11,"time":8,"i_long":106.850107,"station_name":"Gang Sentiong"},{"i_lat":-6.193792,"transit":false,"line":11,"is_transit":false,"distance":973,"station_name":"Kramat","station_id":"KMT","i_long":106.855437,"time":1},{"i_long":106.861737,"line":11,"station_id":"POK","station_name":"Pondok Jati","i_lat":-6.209188,"is_transit":false,"distance":1829,"time":2,"transit":false},{"transit":true,"station_id":"JNG","station_name":"Jatinegara","distance":1236,"i_long":106.86807400000001,"is_transit":true,"time":9,"line":1,"i_lat":-6.215091},{"transit":false,"is_transit":false,"time":2,"station_id":"MTR","i_long":106.858896,"station_name":"Matraman","distance":1377,"i_lat":-6.212485,"line":1},{"transit":true,"is_transit":true,"line":2,"station_name":"Manggarai","distance":1275,"time":2,"i_long":106.84912,"station_id":"MRI","i_lat":-6.209883},{"is_transit":false,"distance":1590,"transit":false,"time":4,"i_long":106.840169,"i_lat":-6.198556,"station_name":"Cikini","station_id":"CKI","line":2},{"transit":false,"time":3,"distance":1750,"station_name":"Gondangdia","i_lat":-6.186295,"station_id":"GDD","i_long":106.832183,"line":2,"is_transit":false},{"distance":2015,"is_transit":false,"line":2,"time":4,"transit":false,"i_long":106.828284,"station_id":"JUA","i_lat":-6.166716,"station_name":"Juanda"},{"transit":false,"is_transit":false,"i_long":106.827103,"distance":1149,"station_id":"SW","time":2,"station_name":"Sawah Besar","i_lat":-6.160725,"line":2},{"station_name":"Manggabesar","transit":false,"station_id":"MGB","i_lat":-6.149769,"i_long":106.82482,"is_transit":false,"distance":906,"time":2,"line":2},{"i_long":106.820901,"station_name":"Jayakarta","time":2,"distance":1080,"line":2,"is_transit":false,"transit":false,"station_id":"JAY","i_lat":-6.141205},{"station_id":"JAKK","time":4,"transit":true,"line":2,"distance":1264,"station_name":"Jakarta Kota","i_long":106.812439,"is_transit":true,"i_lat":-6.137569},{"i_lat":-6.132549,"transit":true,"station_name":"Kampung Bandan","distance":1364,"i_long":106.826365,"line":4,"time":3,"station_id":"KPB","is_transit":true},{"is_transit":false,"i_lat":-6.144674,"i_long":106.79867,"distance":4102,"time":9,"station_name":"Angke","station_id":"AK","line":1,"transit":false},{"i_long":106.800832,"transit":false,"station_id":"DU","station_name":"Duri","is_transit":false,"line":1,"distance":1230,"i_lat":-6.155215,"time":4},{"station_id":"THB","i_long":106.811091,"time":8,"transit":true,"is_transit":true,"station_name":"Tanah Abang","line":1,"distance":3632,"i_lat":-6.185545},{"station_name":"Palmerah","line":6,"time":6,"distance":3191,"transit":false,"i_long":106.79689,"i_lat":-6.207404,"station_id":"PLM","is_transit":false},{"time":7,"line":6,"distance":3737,"station_id":"KBY","station_name":"Kebayoran","transit":false,"i_long":106.780334,"i_lat":-6.237242,"is_transit":false},{"time":8,"line":6,"i_lat":-6.276362,"station_name":"Pondokranji","i_long":106.74273,"transit":false,"station_id":"PDJ","distance":6218,"is_transit":false},{"i_long":106.728916,"line":6,"distance":2179,"i_lat":-6.288927,"station_id":"JMU","station_name":"Jurangmangu","is_transit":false,"transit":false,"time":3},{"line":6,"station_id":"SDM","time":4,"i_long":106.712277,"i_lat":-6.296963,"is_transit":false,"station_name":"Sudimara","transit":false,"distance":1994}]]}