{"data":[[{"i_long":106.84368,"is_transit":false,"distance":0,"station_id":"PSE","line":11,"transit":false,"time":0,"station_name":"Pasar Senen","i_lat":-6.174784},{"is_transit":false,"distance":1567,"station_id":"GST","i_lat":-6.185975,"transit":false,"i_long":106.850107,"line":11,"time":8,"station_name":"Gang Sentiong"},{"station_name":"Kramat","line":11,"station_id":"KMT","transit":false,"distance":973,"i_long":106.855437,"is_transit":false,"i_lat":-6.193792,"time":1},{"i_lat":-6.209188,"line":11,"station_id":"POK","distance":1829,"transit":false,"station_name":"Pondok Jati","is_transit":false,"i_long":106.861737,"time":2},{"station_name":"Jatinegara","i_lat":-6.215091,"line":1,"distance":1236,"transit":true,"i_long":106.86807400000001,"time":9,"is_transit":true,"station_id":"JNG"},{"i_long":106.858896,"transit":false,"distance":1377,"time":2,"line":1,"is_transit":false,"i_lat":-6.212485,"station_name":"Matraman","station_id":"MTR"},{"station_name":"Manggarai","station_id":"MRI","i_long":106.84912,"i_lat":-6.209883,"time":2,"transit":true,"distance":1275,"line":2,"is_transit":true},{"is_transit":false,"transit":false,"time":4,"station_id":"CKI","distance":1590,"i_lat":-6.198556,"line":2,"i_long":106.840169,"station_name":"Cikini"},{"i_long":106.832183,"transit":false,"distance":1750,"line":2,"station_id":"GDD","is_transit":false,"station_name":"Gondangdia","i_lat":-6.186295,"time":3}],[{"is_transit":false,"station_name":"Pasar Senen","distance":0,"i_lat":-6.174784,"time":0,"line":11,"transit":false,"i_long":106.84368,"station_id":"PSE"},{"time":4,"station_id":"KMO","distance":1436,"station_name":"Kemayoran","i_long":106.839204,"transit":false,"is_transit":false,"i_lat":-6.161728,"line":11},{"distance":1901,"i_long":106.836569,"time":5,"transit":false,"is_transit":false,"station_id":"RJW","i_lat":-6.14505,"station_name":"Rajawali","line":11},{"i_lat":-6.132549,"distance":1444,"line":4,"is_transit":true,"time":3,"i_long":106.826365,"station_name":"Kampung Bandan","transit":true,"station_id":"KPB"},{"distance":1364,"i_long":106.812439,"station_name":"Jakarta Kota","line":2,"time":3,"is_transit":true,"station_id":"JAKK","i_lat":-6.137569,"transit":true},{"distance":1264,"line":2,"i_lat":-6.141205,"transit":false,"is_transit":false,"station_name":"Jayakarta","time":4,"i_long":106.820901,"station_id":"JAY"},{"is_transit":false,"station_id":"MGB","line":2,"station_name":"Manggabesar","transit":false,"distance":1080,"i_lat":-6.149769,"i_long":106.82482,"time":2},{"distance":906,"i_lat":-6.160725,"is_transit":false,"station_name":"Sawah Besar","station_id":"SW","i_long":106.827103,"line":2,"transit":false,"time":2},{"distance":1149,"transit":false,"time":2,"station_id":"JUA","i_long":106.828284,"is_transit":false,"i_lat":-6.166716,"line":2,"station_name":"Juanda"},{"distance":2015,"station_name":"Gondangdia","i_lat":-6.186295,"is_transit":false,"time":4,"transit":false,"i_long":106.832183,"station_id":"GDD","line":2}],[{"station_name":"Pasar Senen","station_id":"PSE","distance":0,"i_long":106.84368,"is_transit":false,"line":11,"transit":false,"time":0,"i_lat":-6.174784},{"i_lat":-6.161728,"is_transit":false,"time":4,"station_id":"KMO","distance":1436,"line":11,"transit":false,"i_long":106.839204,"station_name":"Kemayoran"},{"time":5,"i_lat":-6.14505,"station_name":"Rajawali","distance":1901,"station_id":"RJW","line":11,"transit":false,"i_long":106.836569,"is_transit":false},{"line":4,"transit":true,"time":3,"i_long":106.826365,"station_id":"KPB","i_lat":-6.132549,"station_name":"Kampung Bandan","is_transit":true,"distance":1444},{"is_transit":false,"distance":4102,"station_id":"AK","i_lat":-6.144674,"station_name":"Angke","transit":false,"time":9,"i_long":106.79867,"line":1},{"station_name":"Duri","distance":1230,"is_transit":false,"time":4,"i_lat":-6.155215,"i_long":106.800832,"line":1,"station_id":"DU","transit":false},{"i_long":106.811091,"i_lat":-6.185545,"station_id":"THB","transit":false,"distance":3632,"line":1,"time":8,"is_transit":false,"station_name":"Tanah Abang"},{"is_transit":false,"station_id":"KAT","distance":2029,"i_lat":-6.20132,"time":5,"i_long":106.816351,"line":1,"transit":false,"station_name":"Karet"},{"i_long":106.819881,"is_transit":false,"transit":false,"distance":471,"station_id":"SUDB","line":1,"time":1,"i_lat":-6.201433,"station_name":"Sudirman Baru"},{"line":1,"time":1,"station_id":"SUD","is_transit":false,"i_long":106.822649,"transit":false,"i_lat":-6.202263,"station_name":"Sudirman","distance":280},{"station_id":"MRI","time":4,"line":2,"is_transit":true,"i_long":106.84912,"transit":true,"i_lat":-6.209883,"distance":3186,"station_name":"Manggarai"},{"station_id":"CKI","i_long":106.840169,"distance":1590,"transit":false,"time":4,"is_transit":false,"line":2,"i_lat":-6.198556,"station_name":"Cikini"},{"line":2,"is_transit":false,"distance":1750,"transit":false,"i_long":106.832183,"i_lat":-6.186295,"station_name":"Gondangdia","time":3,"station_id":"GDD"}],[{"distance":0,"line":11,"transit":false,"time":0,"is_transit":false,"i_long":106.84368,"station_name":"Pasar Senen","i_lat":-6.174784,"station_id":"PSE"},{"time":8,"station_name":"Gang Sentiong","i_lat":-6.185975,"distance":1567,"transit":false,"line":11,"is_transit":false,"station_id":"GST","i_long":106.850107},{"time":1,"transit":false,"is_transit":false,"i_lat":-6.193792,"station_name":"Kramat","distance":973,"i_long":106.855437,"line":11,"station_id":"KMT"},{"is_transit":false,"station_id":"POK","i_long":106.861737,"distance":1829,"line":11,"i_lat":-6.209188,"station_name":"Pondok Jati","transit":false,"time":2},{"is_transit":true,"line":1,"distance":1236,"i_lat":-6.215091,"time":9,"station_name":"Jatinegara","i_long":106.86807400000001,"station_id":"JNG","transit":true},{"transit":false,"station_name":"Matraman","time":2,"is_transit":false,"i_lat":-6.212485,"i_long":106.858896,"line":1,"distance":1377,"station_id":"MTR"},{"i_lat":-6.209883,"station_id":"MRI","i_long":106.84912,"transit":false,"is_transit":false,"station_name":"Manggarai","distance":1275,"line":2,"time":2},{"time":4,"i_lat":-6.202263,"is_transit":false,"line":1,"transit":false,"station_id":"SUD","i_long":106.822649,"station_name":"Sudirman","distance":3186},{"station_name":"Sudirman Baru","time":1,"i_lat":-6.201433,"line":1,"transit":false,"is_transit":false,"distance":280,"station_id":"SUDB","i_long":106.819881},{"station_name":"Karet","line":1,"time":1,"station_id":"KAT","transit":false,"i_long":106.816351,"is_transit":false,"i_lat":-6.20132,"distance":471},{"i_long":106.811091,"line":1,"station_id":"THB","distance":2029,"i_lat":-6.185545,"station_name":"Tanah Abang","is_transit":false,"transit":false,"time":5},{"station_id":"DU","i_lat":-6.155215,"distance":3632,"transit":false,"is_transit":false,"i_long":106.800832,"station_name":"Duri","time":8,"line":1},{"is_transit":false,"transit":false,"station_name":"Angke","station_id":"AK","distance":1230,"time":4,"i_lat":-6.144674,"line":1,"i_long":106.79867},{"i_lat":-6.132549,"line":4,"station_name":"Kampung Bandan","station_id":"KPB","is_transit":true,"distance":4102,"time":9,"transit":true,"i_long":106.826365},{"transit":true,"i_long":106.812439,"is_transit":true,"station_name":"Jakarta Kota","distance":1364,"station_id":"JAKK","i_lat":-6.137569,"line":2,"time":3},{"i_long":106.820901,"distance":1264,"transit":false,"time":4,"i_lat":-6.141205,"is_transit":false,"station_name":"Jayakarta","station_id":"JAY","line":2},{"time":2,"i_long":106.82482,"is_transit":false,"station_id":"MGB","line":2,"station_name":"Manggabesar","i_lat":-6.149769,"transit":false,"distance":1080},{"transit":false,"i_long":106.827103,"i_lat":-6.160725,"station_id":"SW","is_transit":false,"time":2,"distance":906,"station_name":"Sawah Besar","line":2},{"i_lat":-6.166716,"distance":1149,"transit":false,"i_long":106.828284,"line":2,"station_name":"Juanda","station_id":"JUA","is_transit":false,"time":2},{"transit":false,"station_name":"Gondangdia","is_transit":false,"time":4,"line":2,"station_id":"GDD","i_lat":-6.186295,"i_long":106.832183,"distance":2015}]]}