{"data":[[{"is_transit":false,"time":0,"station_id":"PSE","i_lat":-6.174784,"i_long":106.84368,"distance":0,"line":11,"station_name":"Pasar Senen","transit":false},{"line":11,"station_name":"Gang Sentiong","transit":false,"i_long":106.850107,"distance":1567,"time":8,"station_id":"GST","i_lat":-6.185975,"is_transit":false},{"is_transit":false,"station_id":"KMT","transit":false,"line":11,"i_lat":-6.193792,"i_long":106.855437,"time":1,"station_name":"Kramat","distance":973},{"i_long":106.861737,"station_name":"Pondok Jati","is_transit":false,"time":2,"line":11,"station_id":"POK","distance":1829,"i_lat":-6.209188,"transit":false},{"station_id":"JNG","transit":true,"i_long":106.86807400000001,"distance":1236,"station_name":"Jatinegara","i_lat":-6.215091,"time":9,"line":1,"is_transit":true},{"i_long":106.858896,"distance":1377,"station_name":"Matraman","time":2,"is_transit":false,"transit":false,"i_lat":-6.212485,"station_id":"MTR","line":1},{"time":2,"distance":1275,"transit":true,"is_transit":true,"station_id":"MRI","i_lat":-6.209883,"station_name":"Manggarai","line":2,"i_long":106.84912},{"line":2,"i_long":106.857948,"distance":2610,"time":4,"is_transit":false,"station_id":"TEB","station_name":"Tebet","transit":false,"i_lat":-6.226659},{"station_name":"Cawang","line":2,"time":2,"station_id":"CW","is_transit":false,"transit":false,"i_lat":-6.242512,"i_long":106.856607,"distance":1230},{"i_lat":-6.255332,"line":2,"distance":1546,"time":3,"is_transit":false,"station_id":"DRN","transit":false,"i_long":106.85449,"station_name":"Duren Kalibata"},{"i_long":106.851577,"is_transit":false,"transit":false,"distance":824,"i_lat":-6.263214,"station_name":"Pasar Minggu Baru","line":2,"time":2,"station_id":"PSMB"},{"station_id":"PSM","time":2,"transit":false,"i_long":106.843999,"station_name":"Pasar Minggu","is_transit":false,"distance":2380,"line":2,"i_lat":-6.2842400000000005},{"distance":2820,"is_transit":false,"time":4,"i_lat":-6.3080680000000005,"i_long":106.838896,"transit":false,"line":2,"station_id":"TNT","station_name":"Tanjung Barat"},{"i_long":106.832616,"distance":2671,"station_name":"Lenteng Agung","i_lat":-6.330363,"time":3,"line":2,"station_id":"LNA","is_transit":false,"transit":false},{"line":2,"time":2,"station_id":"UP","is_transit":false,"i_lat":-6.339291,"transit":false,"i_long":106.834175,"distance":1029,"station_name":"Univ. Pancasila"},{"i_lat":-6.360749,"is_transit":false,"time":3,"transit":false,"distance":2264,"station_id":"UI","i_long":106.831474,"line":2,"station_name":"Univ. Indonesia"},{"time":2,"is_transit":false,"transit":false,"line":2,"station_name":"Pondok Cina","distance":1109,"i_lat":-6.369073,"i_long":106.831114,"station_id":"POC"},{"time":4,"i_lat":-6.391065,"station_id":"DPB","distance":2727,"station_name":"Depokbaru","i_long":106.819451,"line":2,"is_transit":false,"transit":false},{"station_name":"Depok","line":2,"i_lat":-6.405256,"is_transit":false,"i_long":106.816926,"distance":1584,"station_id":"DP","transit":false,"time":3},{"is_transit":true,"transit":true,"station_name":"Citayam","i_lat":-6.448811,"i_long":106.800298,"distance":5084,"line":2,"station_id":"CTA","time":6},{"i_lat":-6.460735,"distance":0,"transit":false,"time":0,"line":21,"is_transit":false,"station_id":"PDRG","i_long":106.824374,"station_name":"Pondok Rajeg"},{"time":0,"distance":0,"transit":false,"i_long":106.851978,"line":21,"i_lat":-6.46424,"station_name":"Cibinong","is_transit":false,"station_id":"CBN"}],[{"station_name":"Pasar Senen","is_transit":false,"transit":false,"station_id":"PSE","distance":0,"time":0,"line":11,"i_lat":-6.174784,"i_long":106.84368},{"transit":false,"distance":1436,"station_name":"Kemayoran","is_transit":false,"time":4,"station_id":"KMO","i_lat":-6.161728,"i_long":106.839204,"line":11},{"station_name":"Rajawali","time":5,"transit":false,"station_id":"RJW","i_long":106.836569,"line":11,"distance":1901,"i_lat":-6.14505,"is_transit":false},{"time":3,"i_lat":-6.132549,"is_transit":true,"station_name":"Kampung Bandan","i_long":106.826365,"distance":1444,"line":4,"transit":true,"station_id":"KPB"},{"is_transit":false,"station_name":"Angke","time":9,"station_id":"AK","i_long":106.79867,"line":1,"transit":false,"i_lat":-6.144674,"distance":4102},{"is_transit":false,"station_id":"DU","time":4,"i_long":106.800832,"transit":false,"station_name":"Duri","line":1,"distance":1230,"i_lat":-6.155215},{"transit":false,"is_transit":false,"i_lat":-6.185545,"time":8,"station_name":"Tanah Abang","station_id":"THB","line":1,"i_long":106.811091,"distance":3632},{"station_id":"KAT","is_transit":false,"i_long":106.816351,"station_name":"Karet","i_lat":-6.20132,"distance":2029,"line":1,"time":5,"transit":false},{"station_id":"SUDB","station_name":"Sudirman Baru","i_lat":-6.201433,"time":1,"distance":471,"is_transit":false,"transit":false,"i_long":106.819881,"line":1},{"transit":false,"station_name":"Sudirman","station_id":"SUD","i_lat":-6.202263,"i_long":106.822649,"is_transit":false,"line":1,"distance":280,"time":1},{"line":2,"station_name":"Manggarai","station_id":"MRI","transit":true,"i_lat":-6.209883,"is_transit":true,"i_long":106.84912,"time":4,"distance":3186},{"i_lat":-6.226659,"transit":false,"station_id":"TEB","is_transit":false,"station_name":"Tebet","line":2,"distance":2610,"time":4,"i_long":106.857948},{"distance":1230,"is_transit":false,"i_lat":-6.242512,"transit":false,"time":2,"i_long":106.856607,"station_name":"Cawang","station_id":"CW","line":2},{"station_name":"Duren Kalibata","station_id":"DRN","distance":1546,"is_transit":false,"i_lat":-6.255332,"transit":false,"i_long":106.85449,"line":2,"time":3},{"time":2,"station_id":"PSMB","line":2,"transit":false,"station_name":"Pasar Minggu Baru","i_lat":-6.263214,"i_long":106.851577,"is_transit":false,"distance":824},{"i_lat":-6.2842400000000005,"transit":false,"line":2,"distance":2380,"is_transit":false,"time":2,"station_name":"Pasar Minggu","station_id":"PSM","i_long":106.843999},{"is_transit":false,"i_long":106.838896,"time":4,"station_name":"Tanjung Barat","distance":2820,"transit":false,"station_id":"TNT","i_lat":-6.3080680000000005,"line":2},{"is_transit":false,"station_name":"Lenteng Agung","distance":2671,"transit":false,"time":3,"station_id":"LNA","i_lat":-6.330363,"line":2,"i_long":106.832616},{"transit":false,"is_transit":false,"i_lat":-6.339291,"time":2,"i_long":106.834175,"station_id":"UP","distance":1029,"line":2,"station_name":"Univ. Pancasila"},{"is_transit":false,"line":2,"time":3,"transit":false,"station_id":"UI","distance":2264,"i_lat":-6.360749,"station_name":"Univ. Indonesia","i_long":106.831474},{"station_name":"Pondok Cina","distance":1109,"time":2,"line":2,"station_id":"POC","i_lat":-6.369073,"i_long":106.831114,"is_transit":false,"transit":false},{"distance":2727,"i_lat":-6.391065,"transit":false,"is_transit":false,"time":4,"station_id":"DPB","i_long":106.819451,"station_name":"Depokbaru","line":2},{"is_transit":false,"distance":1584,"transit":false,"station_id":"DP","i_lat":-6.405256,"i_long":106.816926,"line":2,"station_name":"Depok","time":3},{"i_lat":-6.448811,"station_name":"Citayam","time":6,"distance":5084,"transit":true,"i_long":106.800298,"line":2,"station_id":"CTA","is_transit":true},{"transit":false,"time":0,"station_name":"Pondok Rajeg","distance":0,"is_transit":false,"station_id":"PDRG","i_long":106.824374,"line":21,"i_lat":-6.460735},{"i_lat":-6.46424,"transit":false,"i_long":106.851978,"line":21,"distance":0,"is_transit":false,"station_id":"CBN","time":0,"station_name":"Cibinong"}],[{"i_lat":-6.174784,"line":11,"is_transit":false,"distance":0,"i_long":106.84368,"station_id":"PSE","time":0,"transit":false,"station_name":"Pasar Senen"},{"is_transit":false,"station_name":"Kemayoran","distance":1436,"transit":false,"time":4,"station_id":"KMO","i_long":106.839204,"i_lat":-6.161728,"line":11},{"i_long":106.836569,"station_name":"Rajawali","is_transit":false,"distance":1901,"transit":false,"time":5,"line":11,"station_id":"RJW","i_lat":-6.14505},{"station_name":"Kampung Bandan","line":4,"i_long":106.826365,"time":3,"is_transit":true,"i_lat":-6.132549,"distance":1444,"transit":true,"station_id":"KPB"},{"i_lat":-6.137569,"is_transit":true,"line":2,"distance":1364,"time":3,"i_long":106.812439,"transit":true,"station_name":"Jakarta Kota","station_id":"JAKK"},{"station_name":"Jayakarta","transit":false,"distance":1264,"i_lat":-6.141205,"line":2,"is_transit":false,"station_id":"JAY","time":4,"i_long":106.820901},{"is_transit":false,"distance":1080,"time":2,"i_long":106.82482,"transit":false,"line":2,"station_name":"Manggabesar","station_id":"MGB","i_lat":-6.149769},{"is_transit":false,"transit":false,"station_id":"SW","i_lat":-6.160725,"i_long":106.827103,"time":2,"line":2,"distance":906,"station_name":"Sawah Besar"},{"transit":false,"station_id":"JUA","i_long":106.828284,"is_transit":false,"distance":1149,"line":2,"station_name":"Juanda","time":2,"i_lat":-6.166716},{"is_transit":false,"time":4,"line":2,"transit":false,"i_long":106.832183,"station_id":"GDD","distance":2015,"station_name":"Gondangdia","i_lat":-6.186295},{"time":3,"distance":1750,"transit":false,"station_name":"Cikini","i_lat":-6.198556,"line":2,"station_id":"CKI","is_transit":false,"i_long":106.840169},{"line":2,"distance":1590,"station_id":"MRI","i_long":106.84912,"station_name":"Manggarai","transit":false,"time":4,"i_lat":-6.209883,"is_transit":false},{"is_transit":false,"station_name":"Tebet","transit":false,"time":4,"i_long":106.857948,"line":2,"station_id":"TEB","distance":2610,"i_lat":-6.226659},{"distance":1230,"is_transit":false,"station_id":"CW","transit":false,"i_lat":-6.242512,"station_name":"Cawang","time":2,"i_long":106.856607,"line":2},{"i_long":106.85449,"line":2,"is_transit":false,"distance":1546,"transit":false,"station_id":"DRN","station_name":"Duren Kalibata","i_lat":-6.255332,"time":3},{"i_lat":-6.263214,"is_transit":false,"transit":false,"time":2,"line":2,"station_id":"PSMB","i_long":106.851577,"distance":824,"station_name":"Pasar Minggu Baru"},{"time":2,"i_lat":-6.2842400000000005,"transit":false,"is_transit":false,"distance":2380,"station_name":"Pasar Minggu","i_long":106.843999,"line":2,"station_id":"PSM"},{"time":4,"distance":2820,"station_name":"Tanjung Barat","i_lat":-6.3080680000000005,"transit":false,"station_id":"TNT","line":2,"is_transit":false,"i_long":106.838896},{"station_id":"LNA","transit":false,"station_name":"Lenteng Agung","time":3,"i_long":106.832616,"is_transit":false,"line":2,"distance":2671,"i_lat":-6.330363},{"transit":false,"i_lat":-6.339291,"time":2,"is_transit":false,"station_id":"UP","distance":1029,"station_name":"Univ. Pancasila","line":2,"i_long":106.834175},{"station_name":"Univ. Indonesia","transit":false,"time":3,"line":2,"i_lat":-6.360749,"is_transit":false,"i_long":106.831474,"station_id":"UI","distance":2264},{"i_lat":-6.369073,"i_long":106.831114,"line":2,"distance":1109,"station_id":"POC","transit":false,"is_transit":false,"station_name":"Pondok Cina","time":2},{"time":4,"transit":false,"is_transit":false,"distance":2727,"station_name":"Depokbaru","station_id":"DPB","i_long":106.819451,"line":2,"i_lat":-6.391065},{"time":3,"distance":1584,"i_lat":-6.405256,"i_long":106.816926,"station_id":"DP","line":2,"transit":false,"is_transit":false,"station_name":"Depok"},{"i_long":106.800298,"distance":5084,"transit":true,"is_transit":true,"station_name":"Citayam","line":2,"i_lat":-6.448811,"time":6,"station_id":"CTA"},{"line":21,"station_id":"PDRG","distance":0,"i_long":106.824374,"transit":false,"is_transit":false,"station_name":"Pondok Rajeg","time":0,"i_lat":-6.460735},{"station_id":"CBN","station_name":"Cibinong","is_transit":false,"time":0,"distance":0,"i_lat":-6.46424,"line":21,"transit":false,"i_long":106.851978}]]}