{"data":[[{"station_name":"Pasar Senen","is_transit":false,"distance":0,"i_lat":-6.174784,"line":11,"i_long":106.84368,"transit":false,"time":0,"station_id":"PSE"},{"time":4,"station_name":"Kemayoran","is_transit":false,"i_long":106.839204,"line":11,"distance":1436,"i_lat":-6.161728,"station_id":"KMO","transit":false},{"line":11,"transit":false,"station_name":"Rajawali","station_id":"RJW","time":5,"is_transit":false,"distance":1901,"i_lat":-6.14505,"i_long":106.836569},{"distance":1444,"transit":true,"station_name":"Kampung Bandan","time":3,"station_id":"KPB","line":4,"i_lat":-6.132549,"i_long":106.826365,"is_transit":true},{"line":4,"time":4,"i_lat":-6.128023,"is_transit":false,"transit":false,"i_long":106.84464,"station_name":"Ancol","station_id":"AC","distance":2185}],[{"i_long":106.84368,"transit":false,"is_transit":false,"station_id":"PSE","line":11,"distance":0,"time":0,"i_lat":-6.174784,"station_name":"Pasar Senen"},{"station_id":"GST","i_long":106.850107,"transit":false,"is_transit":false,"i_lat":-6.185975,"distance":1567,"time":8,"station_name":"Gang Sentiong","line":11},{"is_transit":false,"line":11,"distance":973,"time":1,"station_id":"KMT","station_name":"Kramat","i_long":106.855437,"transit":false,"i_lat":-6.193792},{"is_transit":false,"station_name":"Pondok Jati","i_long":106.861737,"time":2,"distance":1829,"i_lat":-6.209188,"line":11,"transit":false,"station_id":"POK"},{"distance":1236,"time":9,"i_lat":-6.215091,"is_transit":true,"station_id":"JNG","i_long":106.86807400000001,"line":1,"station_name":"Jatinegara","transit":true},{"transit":false,"time":2,"station_id":"MTR","i_lat":-6.212485,"i_long":106.858896,"line":1,"is_transit":false,"distance":1377,"station_name":"Matraman"},{"is_transit":false,"station_id":"MRI","line":2,"transit":false,"station_name":"Manggarai","i_long":106.84912,"i_lat":-6.209883,"time":2,"distance":1275},{"time":4,"transit":false,"station_id":"SUD","i_long":106.822649,"station_name":"Sudirman","line":1,"distance":3186,"is_transit":false,"i_lat":-6.202263},{"station_name":"Sudirman Baru","distance":280,"time":1,"is_transit":false,"i_long":106.819881,"line":1,"transit":false,"i_lat":-6.201433,"station_id":"SUDB"},{"is_transit":false,"time":1,"i_lat":-6.20132,"i_long":106.816351,"station_id":"KAT","line":1,"station_name":"Karet","transit":false,"distance":471},{"is_transit":false,"i_lat":-6.185545,"distance":2029,"station_name":"Tanah Abang","line":1,"i_long":106.811091,"transit":false,"station_id":"THB","time":5},{"time":8,"station_id":"DU","is_transit":false,"i_lat":-6.155215,"i_long":106.800832,"line":1,"station_name":"Duri","distance":3632,"transit":false},{"station_name":"Angke","distance":1230,"time":4,"i_lat":-6.144674,"is_transit":false,"line":1,"transit":false,"i_long":106.79867,"station_id":"AK"},{"line":4,"time":9,"transit":true,"station_name":"Kampung Bandan","i_long":106.826365,"is_transit":true,"distance":4102,"station_id":"KPB","i_lat":-6.132549},{"line":4,"transit":false,"time":4,"is_transit":false,"station_name":"Ancol","station_id":"AC","distance":2185,"i_lat":-6.128023,"i_long":106.84464}],[{"distance":0,"station_name":"Pasar Senen","i_long":106.84368,"transit":false,"time":0,"line":11,"i_lat":-6.174784,"is_transit":false,"station_id":"PSE"},{"station_name":"Gang Sentiong","time":8,"distance":1567,"i_long":106.850107,"i_lat":-6.185975,"line":11,"station_id":"GST","transit":false,"is_transit":false},{"is_transit":false,"line":11,"station_name":"Kramat","i_lat":-6.193792,"transit":false,"distance":973,"time":1,"i_long":106.855437,"station_id":"KMT"},{"is_transit":false,"station_id":"POK","i_lat":-6.209188,"i_long":106.861737,"station_name":"Pondok Jati","line":11,"distance":1829,"transit":false,"time":2},{"time":9,"is_transit":true,"i_lat":-6.215091,"station_id":"JNG","station_name":"Jatinegara","distance":1236,"i_long":106.86807400000001,"line":1,"transit":true},{"distance":1377,"i_lat":-6.212485,"station_id":"MTR","i_long":106.858896,"transit":false,"time":2,"is_transit":false,"station_name":"Matraman","line":1},{"transit":true,"i_long":106.84912,"is_transit":true,"distance":1275,"i_lat":-6.209883,"time":2,"line":2,"station_id":"MRI","station_name":"Manggarai"},{"distance":1590,"line":2,"station_id":"CKI","station_name":"Cikini","i_long":106.840169,"i_lat":-6.198556,"transit":false,"is_transit":false,"time":4},{"station_id":"GDD","station_name":"Gondangdia","time":3,"line":2,"distance":1750,"i_lat":-6.186295,"i_long":106.832183,"transit":false,"is_transit":false},{"time":4,"distance":2015,"is_transit":false,"i_long":106.828284,"station_name":"Juanda","transit":false,"i_lat":-6.166716,"station_id":"JUA","line":2},{"is_transit":false,"station_id":"SW","i_lat":-6.160725,"line":2,"station_name":"Sawah Besar","i_long":106.827103,"transit":false,"time":2,"distance":1149},{"i_long":106.82482,"i_lat":-6.149769,"station_name":"Manggabesar","transit":false,"time":2,"station_id":"MGB","distance":906,"line":2,"is_transit":false},{"line":2,"i_long":106.820901,"station_name":"Jayakarta","time":2,"transit":false,"station_id":"JAY","is_transit":false,"distance":1080,"i_lat":-6.141205},{"line":2,"distance":1264,"is_transit":true,"i_long":106.812439,"station_id":"JAKK","time":4,"station_name":"Jakarta Kota","transit":true,"i_lat":-6.137569},{"time":3,"station_id":"KPB","transit":true,"distance":1364,"i_lat":-6.132549,"station_name":"Kampung Bandan","line":4,"is_transit":true,"i_long":106.826365},{"i_lat":-6.128023,"time":4,"line":4,"station_id":"AC","transit":false,"is_transit":false,"i_long":106.84464,"distance":2185,"station_name":"Ancol"}]]}