{"data":[[{"station_name":"Pasar Senen","transit":false,"line":11,"i_lat":-6.174784,"station_id":"PSE","is_transit":false,"i_long":106.84368,"time":0,"distance":0},{"distance":1436,"line":11,"is_transit":false,"time":4,"i_lat":-6.161728,"transit":false,"station_name":"Kemayoran","station_id":"KMO","i_long":106.839204},{"station_name":"Rajawali","line":11,"transit":false,"time":5,"i_long":106.836569,"is_transit":false,"distance":1901,"station_id":"RJW","i_lat":-6.14505},{"i_long":106.826365,"line":0,"is_transit":true,"i_lat":-6.132549,"distance":1444,"station_id":"KPB","transit":true,"time":3,"station_name":"Kampung Bandan"},{"is_transit":true,"transit":true,"i_long":106.812439,"time":3,"line":0,"station_id":"JAKK","distance":1364,"station_name":"Jakarta Kota","i_lat":-6.137569},{"is_transit":false,"time":4,"i_lat":-6.141205,"transit":false,"i_long":106.820901,"distance":1264,"line":7,"station_name":"Jayakarta","station_id":"JAY"},{"station_name":"Manggabesar","distance":1080,"i_long":106.82482,"line":2,"is_transit":false,"time":2,"transit":false,"i_lat":-6.149769,"station_id":"MGB"}],[{"time":0,"distance":0,"transit":false,"line":11,"station_id":"PSE","is_transit":false,"station_name":"Pasar Senen","i_lat":-6.174784,"i_long":106.84368},{"station_id":"GST","i_lat":-6.185975,"is_transit":false,"station_name":"Gang Sentiong","transit":false,"i_long":106.850107,"distance":1567,"line":11,"time":8},{"station_name":"Kramat","line":11,"distance":973,"is_transit":false,"transit":false,"i_long":106.855437,"time":1,"station_id":"KMT","i_lat":-6.193792},{"station_id":"POK","distance":1829,"transit":false,"i_long":106.861737,"line":11,"station_name":"Pondok Jati","is_transit":false,"time":2,"i_lat":-6.209188},{"distance":1236,"i_long":106.86807400000001,"time":9,"is_transit":true,"transit":true,"i_lat":-6.215091,"station_id":"JNG","station_name":"Jatinegara","line":0},{"station_name":"Matraman","station_id":"MTR","transit":false,"i_long":106.858896,"line":1,"distance":1377,"is_transit":false,"time":2,"i_lat":-6.212485},{"i_long":106.84912,"i_lat":-6.209883,"is_transit":true,"station_id":"MRI","station_name":"Manggarai","time":2,"transit":true,"line":0,"distance":1275},{"i_long":106.840169,"line":0,"station_name":"Cikini","time":4,"station_id":"CKI","distance":1590,"transit":false,"i_lat":-6.198556,"is_transit":false},{"transit":false,"station_name":"Gondangdia","i_long":106.832183,"distance":1750,"station_id":"GDD","time":3,"line":2,"i_lat":-6.186295,"is_transit":false},{"is_transit":false,"i_long":106.828284,"distance":2015,"transit":false,"station_name":"Juanda","time":4,"line":2,"station_id":"JUA","i_lat":-6.166716},{"station_id":"SW","station_name":"Sawah Besar","distance":1149,"line":2,"is_transit":false,"i_lat":-6.160725,"transit":false,"time":2,"i_long":106.827103},{"distance":906,"time":2,"is_transit":false,"line":2,"station_name":"Manggabesar","transit":false,"station_id":"MGB","i_lat":-6.149769,"i_long":106.82482}],[{"transit":false,"station_name":"Pasar Senen","i_lat":-6.174784,"line":11,"is_transit":false,"distance":0,"time":0,"i_long":106.84368,"station_id":"PSE"},{"i_long":106.839204,"station_id":"KMO","transit":false,"i_lat":-6.161728,"line":11,"distance":1436,"is_transit":false,"time":4,"station_name":"Kemayoran"},{"station_id":"RJW","i_lat":-6.14505,"line":11,"station_name":"Rajawali","time":5,"is_transit":false,"distance":1901,"i_long":106.836569,"transit":false},{"station_id":"KPB","i_lat":-6.132549,"i_long":106.826365,"distance":1444,"line":0,"time":3,"transit":true,"station_name":"Kampung Bandan","is_transit":true},{"is_transit":false,"station_id":"AK","transit":false,"time":9,"i_lat":-6.144674,"i_long":106.79867,"distance":4102,"line":0,"station_name":"Angke"},{"transit":true,"station_id":"DU","i_long":106.800832,"line":1,"i_lat":-6.155215,"station_name":"Duri","time":4,"is_transit":true,"distance":1230},{"i_long":106.811091,"is_transit":true,"line":1,"i_lat":-6.185545,"time":8,"station_id":"THB","transit":false,"distance":3632,"station_name":"Tanah Abang"},{"distance":2029,"i_lat":-6.20132,"i_long":106.816351,"line":1,"time":5,"transit":false,"is_transit":false,"station_name":"Karet","station_id":"KAT"},{"i_long":106.819881,"line":1,"time":1,"station_name":"Sudirman Baru","i_lat":-6.201433,"station_id":"SUDB","is_transit":false,"distance":471,"transit":false},{"transit":false,"line":1,"is_transit":false,"i_lat":-6.202263,"time":1,"station_id":"SUD","distance":280,"i_long":106.822649,"station_name":"Sudirman"},{"station_name":"Manggarai","i_long":106.84912,"line":0,"transit":true,"is_transit":true,"i_lat":-6.209883,"station_id":"MRI","time":4,"distance":3186},{"line":0,"time":4,"transit":false,"distance":1590,"is_transit":false,"i_long":106.840169,"station_id":"CKI","i_lat":-6.198556,"station_name":"Cikini"},{"i_long":106.832183,"time":3,"station_name":"Gondangdia","is_transit":false,"transit":false,"station_id":"GDD","i_lat":-6.186295,"distance":1750,"line":2},{"line":2,"distance":2015,"is_transit":false,"station_id":"JUA","station_name":"Juanda","transit":false,"i_lat":-6.166716,"time":4,"i_long":106.828284},{"is_transit":false,"station_id":"SW","i_lat":-6.160725,"i_long":106.827103,"line":2,"station_name":"Sawah Besar","distance":1149,"transit":false,"time":2},{"transit":false,"line":2,"i_lat":-6.149769,"is_transit":false,"distance":906,"time":2,"station_id":"MGB","station_name":"Manggabesar","i_long":106.82482}],[{"distance":0,"time":0,"line":11,"station_id":"PSE","i_long":106.84368,"i_lat":-6.174784,"is_transit":false,"station_name":"Pasar Senen","transit":false},{"i_long":106.850107,"i_lat":-6.185975,"station_name":"Gang Sentiong","station_id":"GST","line":11,"distance":1567,"is_transit":false,"transit":false,"time":8},{"transit":false,"station_name":"Kramat","i_long":106.855437,"distance":973,"station_id":"KMT","time":1,"is_transit":false,"i_lat":-6.193792,"line":11},{"line":11,"time":2,"i_long":106.861737,"station_id":"POK","i_lat":-6.209188,"station_name":"Pondok Jati","is_transit":false,"transit":false,"distance":1829},{"station_id":"JNG","line":0,"i_long":106.86807400000001,"distance":1236,"station_name":"Jatinegara","time":9,"i_lat":-6.215091,"transit":true,"is_transit":true},{"station_id":"MTR","i_long":106.858896,"time":2,"transit":false,"distance":1377,"line":1,"is_transit":false,"station_name":"Matraman","i_lat":-6.212485},{"transit":false,"line":0,"station_name":"Manggarai","time":2,"is_transit":true,"i_long":106.84912,"station_id":"MRI","distance":1275,"i_lat":-6.209883},{"station_id":"SUD","time":4,"distance":3186,"is_transit":false,"station_name":"Sudirman","transit":false,"i_lat":-6.202263,"i_long":106.822649,"line":1},{"i_long":106.819881,"distance":280,"transit":false,"time":1,"line":1,"is_transit":false,"station_id":"SUDB","station_name":"Sudirman Baru","i_lat":-6.201433},{"station_id":"KAT","distance":471,"is_transit":false,"station_name":"Karet","time":1,"line":1,"i_lat":-6.20132,"i_long":106.816351,"transit":false},{"transit":false,"station_name":"Tanah Abang","station_id":"THB","i_long":106.811091,"is_transit":true,"i_lat":-6.185545,"time":5,"line":1,"distance":2029},{"is_transit":true,"station_id":"DU","time":8,"i_long":106.800832,"line":1,"i_lat":-6.155215,"station_name":"Duri","transit":true,"distance":3632},{"station_id":"AK","station_name":"Angke","time":4,"transit":false,"i_lat":-6.144674,"i_long":106.79867,"distance":1230,"is_transit":false,"line":0},{"i_long":106.826365,"is_transit":true,"time":9,"line":0,"station_id":"KPB","distance":4102,"transit":false,"station_name":"Kampung Bandan","i_lat":-6.132549},{"is_transit":true,"transit":true,"distance":1364,"station_name":"Jakarta Kota","i_lat":-6.137569,"time":3,"i_long":106.812439,"station_id":"JAKK","line":0},{"time":4,"transit":false,"station_name":"Jayakarta","station_id":"JAY","line":7,"is_transit":false,"i_lat":-6.141205,"distance":1264,"i_long":106.820901},{"station_id":"MGB","distance":1080,"i_long":106.82482,"transit":false,"line":2,"station_name":"Manggabesar","is_transit":false,"i_lat":-6.149769,"time":2}]]}