{"data":[[{"line":11,"time":0,"station_id":"PSE","distance":0,"is_transit":false,"transit":false,"station_name":"Pasar Senen","i_long":106.84368,"i_lat":-6.174784},{"transit":false,"station_id":"GST","station_name":"Gang Sentiong","distance":1567,"time":8,"is_transit":false,"i_lat":-6.185975,"line":11,"i_long":106.850107},{"i_long":106.855437,"time":1,"station_name":"Kramat","transit":false,"is_transit":false,"distance":973,"i_lat":-6.193792,"line":11,"station_id":"KMT"},{"station_name":"Pondok Jati","line":11,"transit":false,"distance":1829,"time":2,"station_id":"POK","is_transit":false,"i_lat":-6.209188,"i_long":106.861737},{"is_transit":true,"distance":1236,"line":1,"station_id":"JNG","time":9,"station_name":"Jatinegara","transit":true,"i_lat":-6.215091,"i_long":106.86807400000001},{"station_id":"MTR","is_transit":false,"i_lat":-6.212485,"line":1,"time":2,"distance":1377,"station_name":"Matraman","transit":false,"i_long":106.858896},{"is_transit":true,"line":2,"time":2,"station_name":"Manggarai","transit":true,"distance":1275,"i_long":106.84912,"station_id":"MRI","i_lat":-6.209883},{"station_id":"TEB","distance":2610,"i_lat":-6.226659,"i_long":106.857948,"time":4,"station_name":"Tebet","transit":false,"is_transit":false,"line":2},{"station_id":"CW","time":2,"i_lat":-6.242512,"distance":1230,"is_transit":false,"transit":false,"i_long":106.856607,"station_name":"Cawang","line":2},{"station_name":"Duren Kalibata","station_id":"DRN","distance":1546,"i_lat":-6.255332,"is_transit":false,"i_long":106.85449,"line":2,"time":3,"transit":false},{"distance":824,"line":2,"station_id":"PSMB","is_transit":false,"i_lat":-6.263214,"transit":false,"i_long":106.851577,"station_name":"Pasar Minggu Baru","time":2},{"station_id":"PSM","transit":false,"i_long":106.843999,"is_transit":false,"distance":2380,"station_name":"Pasar Minggu","i_lat":-6.2842400000000005,"line":2,"time":2},{"i_long":106.838896,"time":4,"distance":2820,"station_id":"TNT","is_transit":false,"line":2,"station_name":"Tanjung Barat","i_lat":-6.3080680000000005,"transit":false},{"station_name":"Lenteng Agung","i_lat":-6.330363,"is_transit":false,"distance":2671,"i_long":106.832616,"transit":false,"line":2,"station_id":"LNA","time":3},{"line":2,"station_name":"Univ. Pancasila","time":2,"i_long":106.834175,"station_id":"UP","distance":1029,"is_transit":false,"i_lat":-6.339291,"transit":false},{"transit":false,"distance":2264,"i_lat":-6.360749,"station_id":"UI","i_long":106.831474,"time":3,"station_name":"Univ. Indonesia","is_transit":false,"line":2},{"time":2,"station_id":"POC","station_name":"Pondok Cina","i_lat":-6.369073,"i_long":106.831114,"is_transit":false,"distance":1109,"line":2,"transit":false},{"is_transit":false,"station_id":"DPB","distance":2727,"time":4,"i_lat":-6.391065,"i_long":106.819451,"line":2,"station_name":"Depokbaru","transit":false},{"is_transit":false,"i_lat":-6.405256,"station_name":"Depok","time":3,"i_long":106.816926,"line":2,"transit":false,"station_id":"DP","distance":1584},{"line":2,"station_id":"CTA","transit":false,"is_transit":false,"time":6,"distance":5084,"station_name":"Citayam","i_long":106.800298,"i_lat":-6.448811},{"station_id":"BJD","distance":5197,"is_transit":false,"i_lat":-6.493243,"time":5,"line":2,"transit":false,"i_long":106.792719,"station_name":"Bojonggede"}],[{"time":0,"distance":0,"is_transit":false,"station_name":"Pasar Senen","i_lat":-6.174784,"i_long":106.84368,"station_id":"PSE","transit":false,"line":11},{"time":4,"station_id":"KMO","i_lat":-6.161728,"distance":1436,"i_long":106.839204,"line":11,"transit":false,"is_transit":false,"station_name":"Kemayoran"},{"time":5,"i_long":106.836569,"distance":1901,"transit":false,"station_name":"Rajawali","i_lat":-6.14505,"line":11,"station_id":"RJW","is_transit":false},{"distance":1444,"is_transit":true,"i_lat":-6.132549,"station_name":"Kampung Bandan","station_id":"KPB","transit":true,"time":3,"i_long":106.826365,"line":4},{"station_name":"Angke","station_id":"AK","time":9,"distance":4102,"transit":false,"i_long":106.79867,"line":1,"i_lat":-6.144674,"is_transit":false},{"transit":false,"station_id":"DU","i_long":106.800832,"i_lat":-6.155215,"is_transit":false,"distance":1230,"time":4,"line":1,"station_name":"Duri"},{"time":8,"is_transit":false,"transit":false,"station_id":"THB","line":1,"i_long":106.811091,"i_lat":-6.185545,"distance":3632,"station_name":"Tanah Abang"},{"i_lat":-6.20132,"time":5,"distance":2029,"transit":false,"station_id":"KAT","i_long":106.816351,"line":1,"is_transit":false,"station_name":"Karet"},{"line":1,"transit":false,"is_transit":false,"time":1,"station_name":"Sudirman Baru","i_lat":-6.201433,"station_id":"SUDB","distance":471,"i_long":106.819881},{"station_name":"Sudirman","i_long":106.822649,"i_lat":-6.202263,"distance":280,"transit":false,"time":1,"line":1,"is_transit":false,"station_id":"SUD"},{"i_lat":-6.209883,"time":4,"station_id":"MRI","station_name":"Manggarai","i_long":106.84912,"line":2,"is_transit":true,"distance":3186,"transit":true},{"is_transit":false,"station_id":"TEB","line":2,"i_long":106.857948,"i_lat":-6.226659,"distance":2610,"time":4,"station_name":"Tebet","transit":false},{"i_lat":-6.242512,"line":2,"time":2,"is_transit":false,"station_name":"Cawang","distance":1230,"station_id":"CW","transit":false,"i_long":106.856607},{"i_long":106.85449,"station_name":"Duren Kalibata","i_lat":-6.255332,"line":2,"transit":false,"station_id":"DRN","time":3,"distance":1546,"is_transit":false},{"i_lat":-6.263214,"transit":false,"is_transit":false,"i_long":106.851577,"station_name":"Pasar Minggu Baru","distance":824,"line":2,"time":2,"station_id":"PSMB"},{"transit":false,"line":2,"time":2,"is_transit":false,"station_id":"PSM","i_long":106.843999,"station_name":"Pasar Minggu","i_lat":-6.2842400000000005,"distance":2380},{"distance":2820,"is_transit":false,"transit":false,"station_id":"TNT","i_long":106.838896,"line":2,"station_name":"Tanjung Barat","time":4,"i_lat":-6.3080680000000005},{"distance":2671,"is_transit":false,"line":2,"i_long":106.832616,"time":3,"station_id":"LNA","transit":false,"i_lat":-6.330363,"station_name":"Lenteng Agung"},{"transit":false,"is_transit":false,"time":2,"station_name":"Univ. Pancasila","line":2,"station_id":"UP","distance":1029,"i_lat":-6.339291,"i_long":106.834175},{"i_lat":-6.360749,"i_long":106.831474,"transit":false,"time":3,"is_transit":false,"station_name":"Univ. Indonesia","line":2,"distance":2264,"station_id":"UI"},{"station_name":"Pondok Cina","transit":false,"i_long":106.831114,"is_transit":false,"station_id":"POC","time":2,"distance":1109,"i_lat":-6.369073,"line":2},{"station_id":"DPB","distance":2727,"station_name":"Depokbaru","transit":false,"is_transit":false,"time":4,"i_lat":-6.391065,"i_long":106.819451,"line":2},{"i_lat":-6.405256,"station_name":"Depok","transit":false,"station_id":"DP","time":3,"distance":1584,"line":2,"i_long":106.816926,"is_transit":false},{"i_lat":-6.448811,"distance":5084,"i_long":106.800298,"transit":false,"station_name":"Citayam","is_transit":false,"line":2,"station_id":"CTA","time":6},{"i_lat":-6.493243,"station_name":"Bojonggede","i_long":106.792719,"line":2,"station_id":"BJD","is_transit":false,"distance":5197,"time":5,"transit":false}],[{"i_long":106.84368,"distance":0,"is_transit":false,"i_lat":-6.174784,"station_name":"Pasar Senen","transit":false,"station_id":"PSE","line":11,"time":0},{"line":11,"distance":1436,"station_name":"Kemayoran","i_lat":-6.161728,"station_id":"KMO","i_long":106.839204,"is_transit":false,"time":4,"transit":false},{"is_transit":false,"station_id":"RJW","distance":1901,"station_name":"Rajawali","i_long":106.836569,"time":5,"line":11,"i_lat":-6.14505,"transit":false},{"station_name":"Kampung Bandan","line":4,"i_lat":-6.132549,"i_long":106.826365,"distance":1444,"time":3,"station_id":"KPB","transit":true,"is_transit":true},{"station_name":"Jakarta Kota","i_lat":-6.137569,"i_long":106.812439,"line":2,"distance":1364,"station_id":"JAKK","is_transit":true,"transit":true,"time":3},{"i_lat":-6.141205,"time":4,"station_name":"Jayakarta","distance":1264,"is_transit":false,"station_id":"JAY","i_long":106.820901,"transit":false,"line":2},{"time":2,"is_transit":false,"i_long":106.82482,"transit":false,"station_name":"Manggabesar","i_lat":-6.149769,"distance":1080,"station_id":"MGB","line":2},{"is_transit":false,"time":2,"i_long":106.827103,"i_lat":-6.160725,"station_name":"Sawah Besar","transit":false,"line":2,"station_id":"SW","distance":906},{"is_transit":false,"distance":1149,"i_long":106.828284,"station_id":"JUA","transit":false,"station_name":"Juanda","time":2,"i_lat":-6.166716,"line":2},{"distance":2015,"is_transit":false,"i_long":106.832183,"station_name":"Gondangdia","line":2,"time":4,"i_lat":-6.186295,"station_id":"GDD","transit":false},{"is_transit":false,"i_lat":-6.198556,"i_long":106.840169,"distance":1750,"time":3,"transit":false,"station_id":"CKI","station_name":"Cikini","line":2},{"distance":1590,"i_long":106.84912,"line":2,"is_transit":false,"time":4,"station_id":"MRI","station_name":"Manggarai","transit":false,"i_lat":-6.209883},{"time":4,"station_name":"Tebet","station_id":"TEB","i_lat":-6.226659,"i_long":106.857948,"is_transit":false,"transit":false,"distance":2610,"line":2},{"station_name":"Cawang","transit":false,"time":2,"i_lat":-6.242512,"is_transit":false,"distance":1230,"station_id":"CW","i_long":106.856607,"line":2},{"i_long":106.85449,"line":2,"transit":false,"station_id":"DRN","station_name":"Duren Kalibata","is_transit":false,"time":3,"distance":1546,"i_lat":-6.255332},{"i_lat":-6.263214,"station_id":"PSMB","transit":false,"i_long":106.851577,"station_name":"Pasar Minggu Baru","distance":824,"line":2,"is_transit":false,"time":2},{"i_long":106.843999,"distance":2380,"transit":false,"line":2,"station_id":"PSM","i_lat":-6.2842400000000005,"is_transit":false,"time":2,"station_name":"Pasar Minggu"},{"line":2,"time":4,"transit":false,"station_id":"TNT","is_transit":false,"station_name":"Tanjung Barat","distance":2820,"i_lat":-6.3080680000000005,"i_long":106.838896},{"distance":2671,"station_name":"Lenteng Agung","is_transit":false,"time":3,"station_id":"LNA","transit":false,"i_lat":-6.330363,"i_long":106.832616,"line":2},{"is_transit":false,"line":2,"time":2,"station_id":"UP","i_lat":-6.339291,"station_name":"Univ. Pancasila","distance":1029,"i_long":106.834175,"transit":false},{"i_long":106.831474,"line":2,"is_transit":false,"transit":false,"station_id":"UI","station_name":"Univ. Indonesia","time":3,"distance":2264,"i_lat":-6.360749},{"i_long":106.831114,"station_name":"Pondok Cina","i_lat":-6.369073,"distance":1109,"transit":false,"line":2,"station_id":"POC","is_transit":false,"time":2},{"i_long":106.819451,"transit":false,"distance":2727,"station_id":"DPB","time":4,"station_name":"Depokbaru","is_transit":false,"line":2,"i_lat":-6.391065},{"distance":1584,"is_transit":false,"station_name":"Depok","time":3,"i_lat":-6.405256,"line":2,"i_long":106.816926,"transit":false,"station_id":"DP"},{"i_long":106.800298,"station_id":"CTA","distance":5084,"station_name":"Citayam","is_transit":false,"time":6,"line":2,"i_lat":-6.448811,"transit":false},{"distance":5197,"transit":false,"is_transit":false,"time":5,"i_long":106.792719,"station_id":"BJD","station_name":"Bojonggede","i_lat":-6.493243,"line":2}]]}