{"data":[[{"station_id":"PSE","i_long":106.84368,"transit":false,"station_name":"Pasar Senen","time":0,"line":11,"is_transit":false,"distance":0,"i_lat":-6.174784},{"transit":false,"station_id":"GST","line":11,"is_transit":false,"distance":1567,"i_lat":-6.185975,"station_name":"Gang Sentiong","time":8,"i_long":106.850107},{"i_lat":-6.193792,"distance":973,"line":11,"is_transit":false,"station_name":"Kramat","station_id":"KMT","time":1,"i_long":106.855437,"transit":false},{"distance":1829,"i_lat":-6.209188,"station_name":"Pondok Jati","station_id":"POK","i_long":106.861737,"time":2,"is_transit":false,"transit":false,"line":11},{"time":9,"line":1,"distance":1236,"i_lat":-6.215091,"is_transit":true,"station_id":"JNG","transit":true,"station_name":"Jatinegara","i_long":106.86807400000001},{"distance":3395,"station_name":"Klender","i_long":106.899548,"station_id":"KLD","transit":false,"i_lat":-6.2135,"line":1,"is_transit":false,"time":3},{"is_transit":false,"transit":false,"station_id":"BUA","i_lat":-6.215568,"line":1,"station_name":"Buaran","i_long":106.922662,"distance":3100,"time":2}],[{"station_name":"Pasar Senen","is_transit":false,"transit":false,"station_id":"PSE","i_long":106.84368,"distance":0,"time":0,"line":11,"i_lat":-6.174784},{"distance":1436,"transit":false,"station_id":"KMO","i_lat":-6.161728,"time":4,"i_long":106.839204,"station_name":"Kemayoran","is_transit":false,"line":11},{"time":5,"distance":1901,"station_name":"Rajawali","line":11,"transit":false,"is_transit":false,"i_lat":-6.14505,"i_long":106.836569,"station_id":"RJW"},{"transit":true,"line":4,"station_name":"Kampung Bandan","time":3,"distance":1444,"station_id":"KPB","is_transit":true,"i_long":106.826365,"i_lat":-6.132549},{"station_name":"Angke","time":9,"distance":4102,"transit":false,"station_id":"AK","line":1,"is_transit":false,"i_lat":-6.144674,"i_long":106.79867},{"transit":false,"line":1,"i_lat":-6.155215,"station_name":"Duri","is_transit":false,"station_id":"DU","i_long":106.800832,"time":4,"distance":1230},{"i_long":106.811091,"time":8,"line":1,"station_id":"THB","is_transit":false,"station_name":"Tanah Abang","transit":false,"distance":3632,"i_lat":-6.185545},{"time":5,"i_lat":-6.20132,"distance":2029,"i_long":106.816351,"station_name":"Karet","is_transit":false,"transit":false,"station_id":"KAT","line":1},{"is_transit":false,"station_name":"Sudirman Baru","i_long":106.819881,"distance":471,"transit":false,"station_id":"SUDB","time":1,"line":1,"i_lat":-6.201433},{"is_transit":false,"i_lat":-6.202263,"time":1,"i_long":106.822649,"station_name":"Sudirman","distance":280,"line":1,"station_id":"SUD","transit":false},{"station_name":"Manggarai","line":2,"i_lat":-6.209883,"station_id":"MRI","time":4,"distance":3186,"is_transit":false,"transit":false,"i_long":106.84912},{"station_id":"MTR","transit":false,"is_transit":false,"time":2,"line":1,"i_long":106.858896,"station_name":"Matraman","distance":1275,"i_lat":-6.212485},{"is_transit":false,"station_id":"JNG","transit":false,"i_long":106.86807400000001,"station_name":"Jatinegara","line":1,"i_lat":-6.215091,"time":8,"distance":1377},{"i_lat":-6.2135,"time":3,"distance":3395,"transit":false,"is_transit":false,"station_id":"KLD","line":1,"station_name":"Klender","i_long":106.899548},{"station_id":"BUA","i_long":106.922662,"time":2,"distance":3100,"line":1,"station_name":"Buaran","is_transit":false,"i_lat":-6.215568,"transit":false}],[{"distance":0,"i_lat":-6.174784,"line":11,"transit":false,"station_name":"Pasar Senen","is_transit":false,"time":0,"station_id":"PSE","i_long":106.84368},{"i_long":106.839204,"time":4,"is_transit":false,"station_name":"Kemayoran","transit":false,"line":11,"station_id":"KMO","distance":1436,"i_lat":-6.161728},{"line":11,"i_long":106.836569,"time":5,"is_transit":false,"station_id":"RJW","transit":false,"distance":1901,"station_name":"Rajawali","i_lat":-6.14505},{"station_name":"Kampung Bandan","is_transit":true,"transit":true,"distance":1444,"station_id":"KPB","time":3,"i_lat":-6.132549,"i_long":106.826365,"line":4},{"i_long":106.812439,"station_name":"Jakarta Kota","line":2,"station_id":"JAKK","is_transit":true,"transit":true,"i_lat":-6.137569,"time":3,"distance":1364},{"i_long":106.820901,"time":4,"station_name":"Jayakarta","transit":false,"distance":1264,"line":2,"station_id":"JAY","is_transit":false,"i_lat":-6.141205},{"distance":1080,"i_lat":-6.149769,"station_name":"Manggabesar","i_long":106.82482,"time":2,"station_id":"MGB","line":2,"transit":false,"is_transit":false},{"distance":906,"transit":false,"i_long":106.827103,"line":2,"station_name":"Sawah Besar","station_id":"SW","time":2,"i_lat":-6.160725,"is_transit":false},{"station_id":"JUA","station_name":"Juanda","transit":false,"time":2,"distance":1149,"i_long":106.828284,"line":2,"i_lat":-6.166716,"is_transit":false},{"line":2,"station_name":"Gondangdia","distance":2015,"i_long":106.832183,"time":4,"station_id":"GDD","transit":false,"is_transit":false,"i_lat":-6.186295},{"transit":false,"station_id":"CKI","station_name":"Cikini","i_long":106.840169,"line":2,"time":3,"is_transit":false,"distance":1750,"i_lat":-6.198556},{"station_name":"Manggarai","time":4,"i_long":106.84912,"line":2,"is_transit":true,"i_lat":-6.209883,"station_id":"MRI","transit":true,"distance":1590},{"is_transit":false,"station_name":"Matraman","transit":false,"line":1,"time":2,"distance":1275,"i_lat":-6.212485,"i_long":106.858896,"station_id":"MTR"},{"is_transit":false,"station_name":"Jatinegara","i_long":106.86807400000001,"time":8,"distance":1377,"transit":false,"station_id":"JNG","line":1,"i_lat":-6.215091},{"line":1,"time":3,"station_name":"Klender","is_transit":false,"i_long":106.899548,"transit":false,"distance":3395,"station_id":"KLD","i_lat":-6.2135},{"line":1,"transit":false,"i_lat":-6.215568,"distance":3100,"is_transit":false,"i_long":106.922662,"station_name":"Buaran","station_id":"BUA","time":2}]]}