{"data":[[{"is_transit":false,"line":11,"i_long":106.84368,"distance":0,"i_lat":-6.174784,"station_id":"PSE","transit":false,"time":0,"station_name":"Pasar Senen"},{"station_id":"GST","transit":false,"time":8,"distance":1567,"line":11,"station_name":"Gang Sentiong","i_long":106.850107,"i_lat":-6.185975,"is_transit":false},{"distance":973,"station_id":"KMT","station_name":"Kramat","time":1,"is_transit":false,"line":11,"transit":false,"i_lat":-6.193792,"i_long":106.855437},{"transit":false,"distance":1829,"i_lat":-6.209188,"time":2,"station_id":"POK","line":11,"is_transit":false,"i_long":106.861737,"station_name":"Pondok Jati"},{"distance":1236,"i_long":106.86807400000001,"is_transit":true,"station_name":"Jatinegara","time":9,"transit":true,"i_lat":-6.215091,"station_id":"JNG","line":0},{"station_id":"MTR","station_name":"Matraman","distance":1377,"line":1,"time":2,"i_long":106.858896,"transit":false,"i_lat":-6.212485,"is_transit":false},{"is_transit":true,"station_id":"MRI","station_name":"Manggarai","time":2,"i_long":106.84912,"i_lat":-6.209883,"distance":1275,"line":0,"transit":true},{"station_id":"TEB","time":4,"i_lat":-6.226659,"line":2,"i_long":106.857948,"distance":2610,"is_transit":false,"station_name":"Tebet","transit":false},{"distance":1230,"station_name":"Cawang","is_transit":false,"station_id":"CW","transit":false,"time":2,"i_long":106.856607,"i_lat":-6.242512,"line":0},{"i_long":106.85449,"line":0,"i_lat":-6.255332,"is_transit":false,"transit":false,"station_name":"Duren Kalibata","station_id":"DRN","time":3,"distance":1546},{"i_lat":-6.263214,"distance":824,"time":2,"station_name":"Pasar Minggu Baru","line":2,"is_transit":false,"transit":false,"i_long":106.851577,"station_id":"PSMB"},{"is_transit":false,"station_name":"Pasar Minggu","distance":2380,"line":2,"time":2,"transit":false,"station_id":"PSM","i_long":106.843999,"i_lat":-6.2842400000000005},{"i_lat":-6.3080680000000005,"is_transit":false,"i_long":106.838896,"time":4,"distance":2820,"station_name":"Tanjung Barat","station_id":"TNT","transit":false,"line":2},{"line":2,"time":3,"i_long":106.832616,"station_id":"LNA","distance":2671,"transit":false,"i_lat":-6.330363,"is_transit":false,"station_name":"Lenteng Agung"},{"i_lat":-6.339291,"station_name":"Univ. Pancasila","transit":false,"line":2,"i_long":106.834175,"distance":1029,"station_id":"UP","is_transit":false,"time":2},{"i_lat":-6.360749,"station_id":"UI","station_name":"Univ. Indonesia","distance":2264,"is_transit":false,"time":3,"transit":false,"i_long":106.831474,"line":2},{"is_transit":false,"i_lat":-6.369073,"station_id":"POC","transit":false,"distance":1109,"time":2,"i_long":106.831114,"line":2,"station_name":"Pondok Cina"},{"time":4,"i_lat":-6.391065,"station_name":"Depokbaru","distance":2727,"station_id":"DPB","i_long":106.819451,"is_transit":false,"line":0,"transit":false},{"transit":false,"time":3,"station_name":"Depok","i_lat":-6.405256,"i_long":106.816926,"distance":1584,"line":0,"station_id":"DP","is_transit":false},{"station_name":"Citayam","time":6,"i_lat":-6.448811,"station_id":"CTA","i_long":106.800298,"line":1,"is_transit":true,"transit":false,"distance":5084},{"i_lat":-6.46424,"i_long":106.851978,"line":0,"station_id":"CBN","is_transit":false,"distance":6740,"transit":false,"time":10,"station_name":"Cibinong"}],[{"station_id":"PSE","is_transit":false,"i_lat":-6.174784,"time":0,"station_name":"Pasar Senen","line":11,"distance":0,"transit":false,"i_long":106.84368},{"station_name":"Kemayoran","line":11,"transit":false,"time":4,"station_id":"KMO","i_long":106.839204,"is_transit":false,"i_lat":-6.161728,"distance":1436},{"line":11,"is_transit":false,"i_long":106.836569,"station_id":"RJW","distance":1901,"transit":false,"station_name":"Rajawali","time":5,"i_lat":-6.14505},{"transit":true,"i_long":106.826365,"line":0,"distance":1444,"station_name":"Kampung Bandan","is_transit":true,"time":3,"i_lat":-6.132549,"station_id":"KPB"},{"i_lat":-6.144674,"station_name":"Angke","i_long":106.79867,"time":9,"station_id":"AK","transit":false,"distance":4102,"is_transit":false,"line":0},{"transit":true,"is_transit":true,"i_long":106.800832,"line":1,"distance":1230,"station_name":"Duri","station_id":"DU","time":4,"i_lat":-6.155215},{"i_long":106.811091,"station_name":"Tanah Abang","station_id":"THB","line":1,"distance":3632,"is_transit":true,"time":8,"transit":false,"i_lat":-6.185545},{"time":5,"distance":2029,"i_lat":-6.20132,"station_name":"Karet","i_long":106.816351,"is_transit":false,"line":1,"transit":false,"station_id":"KAT"},{"time":1,"station_name":"Sudirman Baru","line":1,"transit":false,"station_id":"SUDB","i_lat":-6.201433,"distance":471,"is_transit":false,"i_long":106.819881},{"i_long":106.822649,"line":1,"transit":false,"is_transit":false,"station_name":"Sudirman","distance":280,"station_id":"SUD","time":1,"i_lat":-6.202263},{"time":4,"transit":true,"distance":3186,"i_long":106.84912,"station_name":"Manggarai","is_transit":true,"station_id":"MRI","line":0,"i_lat":-6.209883},{"time":4,"i_long":106.857948,"i_lat":-6.226659,"station_name":"Tebet","is_transit":false,"distance":2610,"transit":false,"line":2,"station_id":"TEB"},{"i_long":106.856607,"is_transit":false,"distance":1230,"station_name":"Cawang","time":2,"i_lat":-6.242512,"line":0,"station_id":"CW","transit":false},{"time":3,"i_lat":-6.255332,"i_long":106.85449,"transit":false,"line":0,"is_transit":false,"distance":1546,"station_id":"DRN","station_name":"Duren Kalibata"},{"i_long":106.851577,"line":2,"station_name":"Pasar Minggu Baru","i_lat":-6.263214,"time":2,"is_transit":false,"transit":false,"distance":824,"station_id":"PSMB"},{"is_transit":false,"station_name":"Pasar Minggu","transit":false,"i_long":106.843999,"line":2,"time":2,"distance":2380,"station_id":"PSM","i_lat":-6.2842400000000005},{"distance":2820,"i_long":106.838896,"is_transit":false,"i_lat":-6.3080680000000005,"station_name":"Tanjung Barat","time":4,"line":2,"station_id":"TNT","transit":false},{"station_name":"Lenteng Agung","distance":2671,"station_id":"LNA","line":2,"is_transit":false,"i_lat":-6.330363,"transit":false,"i_long":106.832616,"time":3},{"is_transit":false,"station_id":"UP","transit":false,"i_long":106.834175,"distance":1029,"station_name":"Univ. Pancasila","i_lat":-6.339291,"line":2,"time":2},{"station_id":"UI","station_name":"Univ. Indonesia","is_transit":false,"i_lat":-6.360749,"line":2,"distance":2264,"time":3,"transit":false,"i_long":106.831474},{"time":2,"distance":1109,"is_transit":false,"station_name":"Pondok Cina","i_long":106.831114,"station_id":"POC","line":2,"i_lat":-6.369073,"transit":false},{"is_transit":false,"station_id":"DPB","transit":false,"time":4,"i_long":106.819451,"line":0,"i_lat":-6.391065,"distance":2727,"station_name":"Depokbaru"},{"transit":false,"time":3,"i_lat":-6.405256,"station_id":"DP","station_name":"Depok","is_transit":false,"distance":1584,"i_long":106.816926,"line":0},{"station_id":"CTA","line":1,"is_transit":true,"station_name":"Citayam","time":6,"i_lat":-6.448811,"distance":5084,"transit":false,"i_long":106.800298},{"i_lat":-6.46424,"station_name":"Cibinong","station_id":"CBN","is_transit":false,"distance":6740,"transit":false,"time":10,"i_long":106.851978,"line":0}],[{"station_name":"Pasar Senen","station_id":"PSE","i_lat":-6.174784,"distance":0,"time":0,"line":11,"i_long":106.84368,"is_transit":false,"transit":false},{"is_transit":false,"i_lat":-6.161728,"station_name":"Kemayoran","distance":1436,"station_id":"KMO","transit":false,"i_long":106.839204,"line":11,"time":4},{"transit":false,"distance":1901,"station_name":"Rajawali","station_id":"RJW","i_lat":-6.14505,"i_long":106.836569,"is_transit":false,"line":11,"time":5},{"i_long":106.826365,"line":0,"i_lat":-6.132549,"transit":true,"station_name":"Kampung Bandan","distance":1444,"is_transit":true,"station_id":"KPB","time":3},{"station_name":"Jakarta Kota","station_id":"JAKK","is_transit":true,"line":0,"transit":true,"distance":1364,"time":3,"i_lat":-6.137569,"i_long":106.812439},{"i_lat":-6.141205,"transit":false,"time":4,"is_transit":false,"i_long":106.820901,"station_name":"Jayakarta","line":7,"station_id":"JAY","distance":1264},{"time":2,"station_id":"MGB","line":2,"distance":1080,"station_name":"Manggabesar","transit":false,"i_long":106.82482,"i_lat":-6.149769,"is_transit":false},{"station_id":"SW","i_lat":-6.160725,"station_name":"Sawah Besar","i_long":106.827103,"time":2,"distance":906,"is_transit":false,"transit":false,"line":2},{"transit":false,"line":2,"station_id":"JUA","i_lat":-6.166716,"is_transit":false,"i_long":106.828284,"time":2,"station_name":"Juanda","distance":1149},{"i_long":106.832183,"transit":false,"station_id":"GDD","is_transit":false,"line":2,"distance":2015,"station_name":"Gondangdia","time":4,"i_lat":-6.186295},{"time":3,"i_long":106.840169,"station_name":"Cikini","i_lat":-6.198556,"is_transit":false,"station_id":"CKI","distance":1750,"transit":false,"line":0},{"station_name":"Manggarai","distance":1590,"transit":true,"time":4,"line":0,"i_lat":-6.209883,"is_transit":true,"station_id":"MRI","i_long":106.84912},{"transit":false,"station_name":"Tebet","is_transit":false,"i_long":106.857948,"i_lat":-6.226659,"station_id":"TEB","time":4,"distance":2610,"line":2},{"time":2,"i_lat":-6.242512,"station_name":"Cawang","i_long":106.856607,"station_id":"CW","distance":1230,"line":0,"transit":false,"is_transit":false},{"time":3,"line":0,"i_lat":-6.255332,"distance":1546,"station_id":"DRN","station_name":"Duren Kalibata","transit":false,"i_long":106.85449,"is_transit":false},{"station_id":"PSMB","station_name":"Pasar Minggu Baru","time":2,"i_lat":-6.263214,"transit":false,"i_long":106.851577,"distance":824,"is_transit":false,"line":2},{"i_long":106.843999,"is_transit":false,"i_lat":-6.2842400000000005,"transit":false,"line":2,"station_id":"PSM","station_name":"Pasar Minggu","distance":2380,"time":2},{"station_id":"TNT","transit":false,"is_transit":false,"time":4,"i_long":106.838896,"i_lat":-6.3080680000000005,"distance":2820,"line":2,"station_name":"Tanjung Barat"},{"is_transit":false,"time":3,"line":2,"station_name":"Lenteng Agung","transit":false,"i_lat":-6.330363,"station_id":"LNA","i_long":106.832616,"distance":2671},{"time":2,"transit":false,"distance":1029,"line":2,"i_long":106.834175,"is_transit":false,"station_id":"UP","station_name":"Univ. Pancasila","i_lat":-6.339291},{"distance":2264,"time":3,"i_lat":-6.360749,"station_name":"Univ. Indonesia","station_id":"UI","transit":false,"is_transit":false,"line":2,"i_long":106.831474},{"line":2,"i_lat":-6.369073,"i_long":106.831114,"transit":false,"distance":1109,"station_id":"POC","station_name":"Pondok Cina","time":2,"is_transit":false},{"i_long":106.819451,"distance":2727,"line":0,"time":4,"station_id":"DPB","station_name":"Depokbaru","is_transit":false,"transit":false,"i_lat":-6.391065},{"is_transit":false,"transit":false,"i_lat":-6.405256,"distance":1584,"line":0,"station_id":"DP","time":3,"i_long":106.816926,"station_name":"Depok"},{"station_name":"Citayam","i_lat":-6.448811,"station_id":"CTA","line":1,"transit":false,"time":6,"is_transit":true,"i_long":106.800298,"distance":5084},{"transit":false,"station_id":"CBN","distance":6740,"time":10,"i_lat":-6.46424,"line":0,"is_transit":false,"station_name":"Cibinong","i_long":106.851978}]]}