{"data":[[{"is_transit":false,"line":11,"station_name":"Pasar Senen","time":0,"i_lat":-6.174784,"i_long":106.84368,"station_id":"PSE","distance":0,"transit":false},{"i_long":106.839204,"is_transit":false,"station_id":"KMO","i_lat":-6.161728,"time":4,"distance":1436,"station_name":"Kemayoran","transit":false,"line":11},{"station_id":"RJW","line":11,"distance":1901,"time":5,"is_transit":false,"transit":false,"station_name":"Rajawali","i_lat":-6.14505,"i_long":106.836569},{"i_lat":-6.132549,"distance":1444,"i_long":106.826365,"time":3,"line":4,"transit":true,"station_name":"Kampung Bandan","is_transit":true,"station_id":"KPB"},{"station_id":"AK","distance":4102,"i_long":106.79867,"time":9,"i_lat":-6.144674,"station_name":"Angke","line":1,"transit":false,"is_transit":false},{"i_long":106.800832,"distance":1230,"line":1,"station_id":"DU","station_name":"Duri","transit":true,"time":4,"i_lat":-6.155215,"is_transit":true},{"i_long":106.788277,"time":3,"station_id":"GGL","is_transit":false,"i_lat":-6.162021,"distance":1700,"station_name":"Grogol","transit":false,"line":5},{"distance":2036,"i_lat":-6.161433,"station_id":"PSG","line":5,"i_long":106.771379,"station_name":"Pesing","is_transit":false,"transit":false,"time":2},{"station_name":"Taman Kota","i_long":106.756522,"i_lat":-6.1587309999999995,"transit":false,"is_transit":false,"line":5,"time":2,"distance":1614,"station_id":"TKO"},{"time":2,"is_transit":false,"i_long":106.737035,"distance":2334,"transit":false,"station_name":"Bojongindah","i_lat":-6.159876,"line":5,"station_id":"BOI"},{"line":5,"time":4,"distance":1152,"station_id":"RW","is_transit":false,"transit":false,"i_lat":-6.162758,"i_long":106.723064,"station_name":"Rawa Buaya"},{"station_id":"KDS","i_long":106.701612,"station_name":"Kalideres","is_transit":false,"transit":false,"i_lat":-6.166068,"distance":2504,"line":5,"time":3},{"i_long":106.679458,"time":3,"distance":2548,"transit":false,"line":5,"station_name":"Poris","i_lat":-6.169933,"station_id":"PI","is_transit":false},{"i_lat":-6.171811,"time":3,"distance":1834,"i_long":106.665036,"station_id":"BPR","transit":false,"line":5,"station_name":"Batuceper","is_transit":false}],[{"transit":false,"distance":0,"station_id":"PSE","i_lat":-6.174784,"station_name":"Pasar Senen","time":0,"is_transit":false,"i_long":106.84368,"line":11},{"line":11,"time":8,"transit":false,"station_name":"Gang Sentiong","i_lat":-6.185975,"i_long":106.850107,"is_transit":false,"distance":1567,"station_id":"GST"},{"line":11,"time":1,"transit":false,"distance":973,"station_name":"Kramat","is_transit":false,"i_lat":-6.193792,"station_id":"KMT","i_long":106.855437},{"distance":1829,"is_transit":false,"i_lat":-6.209188,"station_id":"POK","time":2,"station_name":"Pondok Jati","transit":false,"i_long":106.861737,"line":11},{"distance":1236,"i_lat":-6.215091,"line":1,"transit":true,"is_transit":true,"time":9,"station_name":"Jatinegara","station_id":"JNG","i_long":106.86807400000001},{"distance":1377,"station_id":"MTR","transit":false,"time":2,"i_long":106.858896,"line":1,"station_name":"Matraman","i_lat":-6.212485,"is_transit":false},{"i_long":106.84912,"line":2,"time":2,"is_transit":false,"station_id":"MRI","distance":1275,"station_name":"Manggarai","transit":false,"i_lat":-6.209883},{"line":1,"distance":3186,"i_lat":-6.202263,"station_name":"Sudirman","time":4,"is_transit":false,"i_long":106.822649,"station_id":"SUD","transit":false},{"time":1,"i_long":106.819881,"i_lat":-6.201433,"transit":false,"station_name":"Sudirman Baru","line":1,"is_transit":false,"distance":280,"station_id":"SUDB"},{"distance":471,"station_id":"KAT","time":1,"station_name":"Karet","line":1,"is_transit":false,"i_lat":-6.20132,"i_long":106.816351,"transit":false},{"transit":false,"time":5,"i_lat":-6.185545,"distance":2029,"station_name":"Tanah Abang","station_id":"THB","i_long":106.811091,"is_transit":false,"line":1},{"station_id":"DU","distance":3632,"is_transit":true,"i_lat":-6.155215,"line":1,"i_long":106.800832,"station_name":"Duri","transit":true,"time":8},{"transit":false,"i_lat":-6.162021,"station_name":"Grogol","is_transit":false,"line":5,"distance":1700,"i_long":106.788277,"time":3,"station_id":"GGL"},{"time":2,"distance":2036,"station_name":"Pesing","station_id":"PSG","i_lat":-6.161433,"i_long":106.771379,"line":5,"is_transit":false,"transit":false},{"station_name":"Taman Kota","i_long":106.756522,"time":2,"distance":1614,"i_lat":-6.1587309999999995,"is_transit":false,"line":5,"transit":false,"station_id":"TKO"},{"transit":false,"i_long":106.737035,"line":5,"station_id":"BOI","station_name":"Bojongindah","i_lat":-6.159876,"is_transit":false,"distance":2334,"time":2},{"transit":false,"station_name":"Rawa Buaya","i_long":106.723064,"time":4,"line":5,"i_lat":-6.162758,"station_id":"RW","distance":1152,"is_transit":false},{"is_transit":false,"i_lat":-6.166068,"i_long":106.701612,"line":5,"station_id":"KDS","time":3,"station_name":"Kalideres","transit":false,"distance":2504},{"transit":false,"time":3,"is_transit":false,"station_name":"Poris","i_lat":-6.169933,"i_long":106.679458,"line":5,"station_id":"PI","distance":2548},{"i_long":106.665036,"time":3,"line":5,"station_id":"BPR","distance":1834,"is_transit":false,"transit":false,"station_name":"Batuceper","i_lat":-6.171811}],[{"line":11,"distance":0,"is_transit":false,"time":0,"i_long":106.84368,"transit":false,"station_name":"Pasar Senen","station_id":"PSE","i_lat":-6.174784},{"distance":1567,"transit":false,"line":11,"is_transit":false,"station_id":"GST","station_name":"Gang Sentiong","time":8,"i_long":106.850107,"i_lat":-6.185975},{"line":11,"time":1,"distance":973,"is_transit":false,"transit":false,"station_name":"Kramat","station_id":"KMT","i_lat":-6.193792,"i_long":106.855437},{"i_long":106.861737,"time":2,"station_name":"Pondok Jati","i_lat":-6.209188,"line":11,"is_transit":false,"distance":1829,"station_id":"POK","transit":false},{"is_transit":true,"time":9,"station_id":"JNG","transit":true,"i_lat":-6.215091,"distance":1236,"i_long":106.86807400000001,"line":1,"station_name":"Jatinegara"},{"i_lat":-6.212485,"time":2,"station_id":"MTR","station_name":"Matraman","line":1,"is_transit":false,"transit":false,"i_long":106.858896,"distance":1377},{"line":2,"station_id":"MRI","is_transit":true,"transit":true,"station_name":"Manggarai","i_long":106.84912,"i_lat":-6.209883,"time":2,"distance":1275},{"is_transit":false,"transit":false,"station_name":"Cikini","line":2,"station_id":"CKI","i_lat":-6.198556,"distance":1590,"time":4,"i_long":106.840169},{"station_id":"GDD","distance":1750,"i_lat":-6.186295,"time":3,"i_long":106.832183,"transit":false,"station_name":"Gondangdia","is_transit":false,"line":2},{"line":2,"time":4,"station_name":"Juanda","is_transit":false,"i_lat":-6.166716,"transit":false,"i_long":106.828284,"station_id":"JUA","distance":2015},{"distance":1149,"is_transit":false,"transit":false,"line":2,"i_long":106.827103,"i_lat":-6.160725,"station_id":"SW","time":2,"station_name":"Sawah Besar"},{"station_name":"Manggabesar","i_long":106.82482,"distance":906,"is_transit":false,"i_lat":-6.149769,"time":2,"line":2,"transit":false,"station_id":"MGB"},{"distance":1080,"is_transit":false,"station_name":"Jayakarta","line":2,"i_lat":-6.141205,"i_long":106.820901,"transit":false,"station_id":"JAY","time":2},{"transit":true,"station_name":"Jakarta Kota","station_id":"JAKK","line":2,"distance":1264,"is_transit":true,"i_lat":-6.137569,"i_long":106.812439,"time":4},{"station_name":"Kampung Bandan","transit":true,"distance":1364,"time":3,"station_id":"KPB","i_long":106.826365,"i_lat":-6.132549,"line":4,"is_transit":true},{"time":9,"i_lat":-6.144674,"line":1,"station_name":"Angke","distance":4102,"is_transit":false,"station_id":"AK","transit":false,"i_long":106.79867},{"distance":1230,"time":4,"line":1,"transit":true,"station_name":"Duri","station_id":"DU","i_lat":-6.155215,"i_long":106.800832,"is_transit":true},{"time":3,"station_id":"GGL","station_name":"Grogol","line":5,"distance":1700,"i_long":106.788277,"i_lat":-6.162021,"is_transit":false,"transit":false},{"station_id":"PSG","transit":false,"i_lat":-6.161433,"line":5,"is_transit":false,"i_long":106.771379,"time":2,"station_name":"Pesing","distance":2036},{"time":2,"station_id":"TKO","station_name":"Taman Kota","distance":1614,"i_long":106.756522,"is_transit":false,"i_lat":-6.1587309999999995,"line":5,"transit":false},{"distance":2334,"line":5,"i_long":106.737035,"station_id":"BOI","time":2,"station_name":"Bojongindah","transit":false,"i_lat":-6.159876,"is_transit":false},{"i_lat":-6.162758,"time":4,"transit":false,"i_long":106.723064,"line":5,"is_transit":false,"station_id":"RW","station_name":"Rawa Buaya","distance":1152},{"transit":false,"i_lat":-6.166068,"time":3,"station_id":"KDS","station_name":"Kalideres","i_long":106.701612,"distance":2504,"is_transit":false,"line":5},{"station_id":"PI","distance":2548,"is_transit":false,"time":3,"i_lat":-6.169933,"transit":false,"i_long":106.679458,"line":5,"station_name":"Poris"},{"station_name":"Batuceper","distance":1834,"i_lat":-6.171811,"i_long":106.665036,"station_id":"BPR","is_transit":false,"time":3,"line":5,"transit":false}],[{"distance":0,"transit":false,"i_lat":-6.174784,"i_long":106.84368,"is_transit":false,"line":11,"time":0,"station_id":"PSE","station_name":"Pasar Senen"},{"i_long":106.839204,"time":4,"is_transit":false,"station_name":"Kemayoran","transit":false,"line":11,"i_lat":-6.161728,"distance":1436,"station_id":"KMO"},{"line":11,"station_id":"RJW","station_name":"Rajawali","i_lat":-6.14505,"time":5,"distance":1901,"transit":false,"is_transit":false,"i_long":106.836569},{"distance":1444,"line":4,"is_transit":true,"i_lat":-6.132549,"i_long":106.826365,"time":3,"station_id":"KPB","transit":true,"station_name":"Kampung Bandan"},{"is_transit":true,"station_name":"Jakarta Kota","station_id":"JAKK","i_lat":-6.137569,"transit":true,"line":2,"i_long":106.812439,"distance":1364,"time":3},{"station_name":"Jayakarta","line":2,"station_id":"JAY","distance":1264,"i_lat":-6.141205,"i_long":106.820901,"is_transit":false,"transit":false,"time":4},{"station_id":"MGB","station_name":"Manggabesar","transit":false,"i_lat":-6.149769,"distance":1080,"i_long":106.82482,"time":2,"is_transit":false,"line":2},{"i_lat":-6.160725,"transit":false,"distance":906,"station_name":"Sawah Besar","i_long":106.827103,"line":2,"is_transit":false,"station_id":"SW","time":2},{"station_id":"JUA","is_transit":false,"i_lat":-6.166716,"i_long":106.828284,"transit":false,"line":2,"time":2,"distance":1149,"station_name":"Juanda"},{"time":4,"line":2,"station_name":"Gondangdia","distance":2015,"is_transit":false,"station_id":"GDD","i_lat":-6.186295,"transit":false,"i_long":106.832183},{"station_name":"Cikini","time":3,"i_long":106.840169,"distance":1750,"i_lat":-6.198556,"is_transit":false,"transit":false,"line":2,"station_id":"CKI"},{"i_lat":-6.209883,"is_transit":true,"distance":1590,"time":4,"i_long":106.84912,"station_id":"MRI","transit":true,"station_name":"Manggarai","line":2},{"i_lat":-6.202263,"is_transit":false,"transit":false,"distance":3186,"station_name":"Sudirman","i_long":106.822649,"time":4,"station_id":"SUD","line":1},{"time":1,"transit":false,"distance":280,"i_lat":-6.201433,"line":1,"i_long":106.819881,"station_name":"Sudirman Baru","is_transit":false,"station_id":"SUDB"},{"time":1,"i_lat":-6.20132,"station_name":"Karet","line":1,"station_id":"KAT","distance":471,"is_transit":false,"i_long":106.816351,"transit":false},{"i_long":106.811091,"is_transit":false,"i_lat":-6.185545,"line":1,"distance":2029,"station_name":"Tanah Abang","station_id":"THB","time":5,"transit":false},{"station_name":"Duri","line":1,"is_transit":true,"transit":true,"distance":3632,"station_id":"DU","time":8,"i_lat":-6.155215,"i_long":106.800832},{"line":5,"time":3,"is_transit":false,"station_id":"GGL","distance":1700,"transit":false,"i_lat":-6.162021,"i_long":106.788277,"station_name":"Grogol"},{"i_long":106.771379,"i_lat":-6.161433,"station_id":"PSG","time":2,"station_name":"Pesing","is_transit":false,"transit":false,"distance":2036,"line":5},{"station_name":"Taman Kota","is_transit":false,"transit":false,"time":2,"i_long":106.756522,"station_id":"TKO","distance":1614,"line":5,"i_lat":-6.1587309999999995},{"is_transit":false,"station_id":"BOI","distance":2334,"transit":false,"station_name":"Bojongindah","i_lat":-6.159876,"time":2,"i_long":106.737035,"line":5},{"time":4,"station_name":"Rawa Buaya","distance":1152,"i_lat":-6.162758,"i_long":106.723064,"line":5,"transit":false,"is_transit":false,"station_id":"RW"},{"transit":false,"is_transit":false,"station_id":"KDS","distance":2504,"i_lat":-6.166068,"time":3,"i_long":106.701612,"line":5,"station_name":"Kalideres"},{"i_lat":-6.169933,"line":5,"station_name":"Poris","is_transit":false,"time":3,"i_long":106.679458,"transit":false,"distance":2548,"station_id":"PI"},{"i_long":106.665036,"i_lat":-6.171811,"transit":false,"distance":1834,"is_transit":false,"station_id":"BPR","time":3,"line":5,"station_name":"Batuceper"}]]}