{"data":[[{"station_id":"PSE","i_long":106.84368,"time":0,"is_transit":false,"line":11,"transit":false,"i_lat":-6.174784,"station_name":"Pasar Senen","distance":0},{"line":11,"transit":false,"station_id":"GST","i_lat":-6.185975,"is_transit":false,"time":8,"distance":1567,"station_name":"Gang Sentiong","i_long":106.850107},{"i_long":106.855437,"distance":973,"is_transit":false,"transit":false,"line":11,"station_name":"Kramat","station_id":"KMT","time":1,"i_lat":-6.193792},{"i_lat":-6.209188,"station_id":"POK","is_transit":false,"line":11,"distance":1829,"station_name":"Pondok Jati","transit":false,"i_long":106.861737,"time":2},{"station_id":"JNG","transit":true,"time":9,"i_lat":-6.215091,"is_transit":true,"line":1,"i_long":106.86807400000001,"station_name":"Jatinegara","distance":1236},{"station_id":"MTR","time":2,"transit":false,"i_lat":-6.212485,"line":1,"is_transit":false,"distance":1377,"station_name":"Matraman","i_long":106.858896},{"time":2,"i_lat":-6.209883,"line":2,"is_transit":true,"transit":true,"station_id":"MRI","distance":1275,"station_name":"Manggarai","i_long":106.84912},{"time":4,"is_transit":false,"line":2,"transit":false,"i_long":106.857948,"i_lat":-6.226659,"distance":2610,"station_id":"TEB","station_name":"Tebet"},{"line":2,"station_id":"CW","station_name":"Cawang","distance":1230,"i_long":106.856607,"time":2,"i_lat":-6.242512,"transit":false,"is_transit":false},{"is_transit":false,"transit":false,"i_long":106.85449,"time":3,"distance":1546,"station_name":"Duren Kalibata","station_id":"DRN","i_lat":-6.255332,"line":2},{"i_lat":-6.263214,"is_transit":false,"line":2,"station_name":"Pasar Minggu Baru","transit":false,"time":2,"i_long":106.851577,"station_id":"PSMB","distance":824},{"station_id":"PSM","time":2,"i_lat":-6.2842400000000005,"is_transit":false,"distance":2380,"i_long":106.843999,"transit":false,"station_name":"Pasar Minggu","line":2},{"i_lat":-6.3080680000000005,"time":4,"is_transit":false,"transit":false,"station_id":"TNT","station_name":"Tanjung Barat","i_long":106.838896,"line":2,"distance":2820},{"is_transit":false,"transit":false,"line":2,"distance":2671,"time":3,"station_id":"LNA","i_lat":-6.330363,"station_name":"Lenteng Agung","i_long":106.832616},{"transit":false,"i_long":106.834175,"distance":1029,"time":2,"line":2,"i_lat":-6.339291,"station_id":"UP","is_transit":false,"station_name":"Univ. Pancasila"}],[{"i_long":106.84368,"line":11,"i_lat":-6.174784,"station_id":"PSE","is_transit":false,"distance":0,"station_name":"Pasar Senen","time":0,"transit":false},{"i_long":106.839204,"time":4,"transit":false,"line":11,"distance":1436,"i_lat":-6.161728,"is_transit":false,"station_id":"KMO","station_name":"Kemayoran"},{"line":11,"is_transit":false,"i_lat":-6.14505,"distance":1901,"i_long":106.836569,"transit":false,"station_name":"Rajawali","time":5,"station_id":"RJW"},{"station_id":"KPB","transit":true,"station_name":"Kampung Bandan","is_transit":true,"distance":1444,"i_lat":-6.132549,"i_long":106.826365,"line":4,"time":3},{"transit":false,"station_name":"Angke","time":9,"i_long":106.79867,"line":1,"station_id":"AK","is_transit":false,"i_lat":-6.144674,"distance":4102},{"distance":1230,"i_lat":-6.155215,"i_long":106.800832,"transit":false,"line":1,"station_name":"Duri","station_id":"DU","time":4,"is_transit":false},{"station_id":"THB","station_name":"Tanah Abang","distance":3632,"line":1,"i_lat":-6.185545,"is_transit":false,"transit":false,"time":8,"i_long":106.811091},{"distance":2029,"station_name":"Karet","time":5,"is_transit":false,"station_id":"KAT","line":1,"transit":false,"i_lat":-6.20132,"i_long":106.816351},{"i_long":106.819881,"line":1,"time":1,"station_name":"Sudirman Baru","transit":false,"distance":471,"station_id":"SUDB","i_lat":-6.201433,"is_transit":false},{"transit":false,"station_name":"Sudirman","time":1,"distance":280,"line":1,"i_long":106.822649,"station_id":"SUD","is_transit":false,"i_lat":-6.202263},{"line":2,"time":4,"transit":true,"is_transit":true,"i_long":106.84912,"station_name":"Manggarai","station_id":"MRI","i_lat":-6.209883,"distance":3186},{"transit":false,"time":4,"distance":2610,"i_lat":-6.226659,"i_long":106.857948,"line":2,"is_transit":false,"station_name":"Tebet","station_id":"TEB"},{"time":2,"transit":false,"is_transit":false,"distance":1230,"station_id":"CW","station_name":"Cawang","line":2,"i_long":106.856607,"i_lat":-6.242512},{"transit":false,"i_long":106.85449,"line":2,"i_lat":-6.255332,"time":3,"distance":1546,"station_name":"Duren Kalibata","is_transit":false,"station_id":"DRN"},{"i_lat":-6.263214,"transit":false,"i_long":106.851577,"station_name":"Pasar Minggu Baru","is_transit":false,"station_id":"PSMB","time":2,"distance":824,"line":2},{"station_name":"Pasar Minggu","i_lat":-6.2842400000000005,"i_long":106.843999,"distance":2380,"is_transit":false,"transit":false,"line":2,"time":2,"station_id":"PSM"},{"time":4,"station_id":"TNT","i_lat":-6.3080680000000005,"transit":false,"distance":2820,"station_name":"Tanjung Barat","is_transit":false,"i_long":106.838896,"line":2},{"distance":2671,"i_long":106.832616,"line":2,"i_lat":-6.330363,"time":3,"is_transit":false,"station_id":"LNA","transit":false,"station_name":"Lenteng Agung"},{"i_long":106.834175,"time":2,"line":2,"distance":1029,"i_lat":-6.339291,"transit":false,"station_name":"Univ. Pancasila","station_id":"UP","is_transit":false}],[{"time":0,"is_transit":false,"distance":0,"station_id":"PSE","transit":false,"i_lat":-6.174784,"line":11,"station_name":"Pasar Senen","i_long":106.84368},{"station_id":"KMO","i_long":106.839204,"station_name":"Kemayoran","time":4,"is_transit":false,"transit":false,"distance":1436,"line":11,"i_lat":-6.161728},{"i_lat":-6.14505,"station_name":"Rajawali","is_transit":false,"i_long":106.836569,"transit":false,"station_id":"RJW","line":11,"time":5,"distance":1901},{"is_transit":true,"i_lat":-6.132549,"station_id":"KPB","i_long":106.826365,"transit":true,"line":4,"time":3,"distance":1444,"station_name":"Kampung Bandan"},{"station_id":"JAKK","time":3,"transit":true,"i_lat":-6.137569,"line":2,"i_long":106.812439,"distance":1364,"is_transit":true,"station_name":"Jakarta Kota"},{"i_long":106.820901,"line":2,"distance":1264,"time":4,"station_name":"Jayakarta","i_lat":-6.141205,"is_transit":false,"transit":false,"station_id":"JAY"},{"station_name":"Manggabesar","station_id":"MGB","transit":false,"i_long":106.82482,"time":2,"i_lat":-6.149769,"is_transit":false,"distance":1080,"line":2},{"i_long":106.827103,"is_transit":false,"transit":false,"line":2,"station_name":"Sawah Besar","i_lat":-6.160725,"station_id":"SW","time":2,"distance":906},{"i_long":106.828284,"station_name":"Juanda","i_lat":-6.166716,"time":2,"station_id":"JUA","line":2,"is_transit":false,"distance":1149,"transit":false},{"time":4,"station_id":"GDD","line":2,"i_long":106.832183,"distance":2015,"is_transit":false,"transit":false,"station_name":"Gondangdia","i_lat":-6.186295},{"time":3,"distance":1750,"is_transit":false,"station_name":"Cikini","i_long":106.840169,"transit":false,"station_id":"CKI","i_lat":-6.198556,"line":2},{"station_id":"MRI","distance":1590,"i_long":106.84912,"station_name":"Manggarai","time":4,"is_transit":false,"line":2,"transit":false,"i_lat":-6.209883},{"line":2,"is_transit":false,"station_name":"Tebet","distance":2610,"transit":false,"i_lat":-6.226659,"i_long":106.857948,"time":4,"station_id":"TEB"},{"i_long":106.856607,"line":2,"transit":false,"station_id":"CW","time":2,"distance":1230,"is_transit":false,"station_name":"Cawang","i_lat":-6.242512},{"i_lat":-6.255332,"is_transit":false,"i_long":106.85449,"station_id":"DRN","line":2,"time":3,"distance":1546,"station_name":"Duren Kalibata","transit":false},{"station_name":"Pasar Minggu Baru","station_id":"PSMB","line":2,"transit":false,"time":2,"i_lat":-6.263214,"distance":824,"is_transit":false,"i_long":106.851577},{"distance":2380,"is_transit":false,"transit":false,"station_id":"PSM","i_long":106.843999,"time":2,"i_lat":-6.2842400000000005,"line":2,"station_name":"Pasar Minggu"},{"i_long":106.838896,"time":4,"is_transit":false,"station_id":"TNT","i_lat":-6.3080680000000005,"distance":2820,"transit":false,"station_name":"Tanjung Barat","line":2},{"i_long":106.832616,"time":3,"station_name":"Lenteng Agung","transit":false,"line":2,"distance":2671,"is_transit":false,"i_lat":-6.330363,"station_id":"LNA"},{"i_lat":-6.339291,"station_name":"Univ. Pancasila","is_transit":false,"line":2,"distance":1029,"i_long":106.834175,"transit":false,"station_id":"UP","time":2}]]}