{"data":[[{"station_name":"Pasar Senen","i_lat":-6.174784,"line":11,"i_long":106.84368,"is_transit":false,"time":0,"station_id":"PSE","distance":0,"transit":false},{"station_id":"GST","time":8,"is_transit":false,"transit":false,"i_lat":-6.185975,"line":11,"distance":1567,"station_name":"Gang Sentiong","i_long":106.850107},{"is_transit":false,"time":1,"station_name":"Kramat","line":11,"transit":false,"i_lat":-6.193792,"distance":973,"i_long":106.855437,"station_id":"KMT"},{"is_transit":false,"transit":false,"time":2,"station_id":"POK","station_name":"Pondok Jati","distance":1829,"i_long":106.861737,"i_lat":-6.209188,"line":11},{"distance":1236,"is_transit":true,"transit":true,"i_long":106.86807400000001,"i_lat":-6.215091,"line":0,"station_id":"JNG","station_name":"Jatinegara","time":9},{"i_long":106.858896,"is_transit":false,"line":1,"station_id":"MTR","transit":false,"station_name":"Matraman","i_lat":-6.212485,"distance":1377,"time":2},{"i_lat":-6.209883,"is_transit":true,"station_name":"Manggarai","transit":true,"line":0,"time":2,"distance":1275,"station_id":"MRI","i_long":106.84912},{"distance":2610,"line":2,"transit":false,"time":4,"station_name":"Tebet","i_lat":-6.226659,"i_long":106.857948,"is_transit":false,"station_id":"TEB"},{"i_lat":-6.242512,"transit":false,"distance":1230,"time":2,"station_name":"Cawang","is_transit":false,"station_id":"CW","line":0,"i_long":106.856607},{"distance":1546,"is_transit":false,"station_name":"Duren Kalibata","line":0,"station_id":"DRN","transit":false,"i_long":106.85449,"i_lat":-6.255332,"time":3},{"i_long":106.851577,"station_name":"Pasar Minggu Baru","distance":824,"is_transit":false,"transit":false,"i_lat":-6.263214,"station_id":"PSMB","line":2,"time":2},{"time":2,"station_name":"Pasar Minggu","station_id":"PSM","distance":2380,"i_long":106.843999,"i_lat":-6.2842400000000005,"is_transit":false,"transit":false,"line":2},{"is_transit":false,"station_id":"TNT","time":4,"distance":2820,"station_name":"Tanjung Barat","transit":false,"i_long":106.838896,"line":2,"i_lat":-6.3080680000000005},{"transit":false,"i_long":106.832616,"station_id":"LNA","i_lat":-6.330363,"line":2,"station_name":"Lenteng Agung","is_transit":false,"distance":2671,"time":3},{"i_lat":-6.339291,"station_name":"Univ. Pancasila","time":2,"line":2,"transit":false,"i_long":106.834175,"is_transit":false,"distance":1029,"station_id":"UP"},{"line":2,"station_id":"UI","station_name":"Univ. Indonesia","transit":false,"i_lat":-6.360749,"time":3,"is_transit":false,"distance":2264,"i_long":106.831474},{"distance":1109,"station_name":"Pondok Cina","i_lat":-6.369073,"line":2,"time":2,"station_id":"POC","is_transit":false,"transit":false,"i_long":106.831114},{"distance":2727,"line":0,"station_name":"Depokbaru","station_id":"DPB","time":4,"transit":false,"is_transit":false,"i_lat":-6.391065,"i_long":106.819451},{"station_name":"Depok","station_id":"DP","transit":false,"is_transit":false,"time":3,"i_long":106.816926,"line":0,"i_lat":-6.405256,"distance":1584},{"station_id":"CTA","station_name":"Citayam","is_transit":true,"transit":false,"line":1,"time":6,"i_lat":-6.448811,"i_long":106.800298,"distance":5084},{"transit":false,"i_lat":-6.493243,"line":0,"i_long":106.792719,"time":5,"station_id":"BJD","distance":5197,"is_transit":false,"station_name":"Bojonggede"}],[{"i_lat":-6.174784,"distance":0,"i_long":106.84368,"station_id":"PSE","line":11,"transit":false,"is_transit":false,"station_name":"Pasar Senen","time":0},{"station_name":"Kemayoran","station_id":"KMO","time":4,"i_long":106.839204,"transit":false,"i_lat":-6.161728,"is_transit":false,"distance":1436,"line":11},{"station_name":"Rajawali","is_transit":false,"transit":false,"station_id":"RJW","i_lat":-6.14505,"i_long":106.836569,"line":11,"time":5,"distance":1901},{"i_lat":-6.132549,"i_long":106.826365,"time":3,"distance":1444,"is_transit":true,"station_id":"KPB","transit":true,"line":0,"station_name":"Kampung Bandan"},{"station_name":"Angke","station_id":"AK","line":0,"transit":false,"i_long":106.79867,"distance":4102,"is_transit":false,"i_lat":-6.144674,"time":9},{"station_id":"DU","transit":true,"i_long":106.800832,"time":4,"i_lat":-6.155215,"is_transit":true,"distance":1230,"station_name":"Duri","line":1},{"time":8,"station_id":"THB","distance":3632,"i_lat":-6.185545,"i_long":106.811091,"line":1,"is_transit":true,"transit":false,"station_name":"Tanah Abang"},{"is_transit":false,"transit":false,"distance":2029,"time":5,"line":1,"station_name":"Karet","i_lat":-6.20132,"station_id":"KAT","i_long":106.816351},{"transit":false,"line":1,"time":1,"i_lat":-6.201433,"is_transit":false,"station_id":"SUDB","distance":471,"i_long":106.819881,"station_name":"Sudirman Baru"},{"transit":false,"line":1,"station_id":"SUD","station_name":"Sudirman","i_lat":-6.202263,"distance":280,"is_transit":false,"i_long":106.822649,"time":1},{"is_transit":true,"distance":3186,"station_id":"MRI","line":0,"time":4,"transit":true,"station_name":"Manggarai","i_lat":-6.209883,"i_long":106.84912},{"is_transit":false,"i_lat":-6.226659,"i_long":106.857948,"station_id":"TEB","line":2,"time":4,"transit":false,"distance":2610,"station_name":"Tebet"},{"i_long":106.856607,"time":2,"transit":false,"station_id":"CW","distance":1230,"is_transit":false,"station_name":"Cawang","line":0,"i_lat":-6.242512},{"transit":false,"time":3,"station_id":"DRN","station_name":"Duren Kalibata","distance":1546,"i_lat":-6.255332,"i_long":106.85449,"line":0,"is_transit":false},{"line":2,"transit":false,"i_long":106.851577,"distance":824,"time":2,"station_id":"PSMB","i_lat":-6.263214,"is_transit":false,"station_name":"Pasar Minggu Baru"},{"station_name":"Pasar Minggu","line":2,"transit":false,"time":2,"is_transit":false,"station_id":"PSM","i_long":106.843999,"distance":2380,"i_lat":-6.2842400000000005},{"i_long":106.838896,"i_lat":-6.3080680000000005,"time":4,"is_transit":false,"distance":2820,"station_id":"TNT","transit":false,"line":2,"station_name":"Tanjung Barat"},{"is_transit":false,"i_lat":-6.330363,"time":3,"i_long":106.832616,"line":2,"transit":false,"distance":2671,"station_id":"LNA","station_name":"Lenteng Agung"},{"time":2,"transit":false,"is_transit":false,"i_long":106.834175,"line":2,"station_name":"Univ. Pancasila","distance":1029,"i_lat":-6.339291,"station_id":"UP"},{"line":2,"distance":2264,"station_id":"UI","is_transit":false,"i_lat":-6.360749,"station_name":"Univ. Indonesia","transit":false,"time":3,"i_long":106.831474},{"station_name":"Pondok Cina","distance":1109,"is_transit":false,"station_id":"POC","transit":false,"time":2,"i_long":106.831114,"line":2,"i_lat":-6.369073},{"station_id":"DPB","station_name":"Depokbaru","line":0,"i_long":106.819451,"i_lat":-6.391065,"transit":false,"is_transit":false,"distance":2727,"time":4},{"station_name":"Depok","transit":false,"station_id":"DP","line":0,"i_lat":-6.405256,"distance":1584,"i_long":106.816926,"time":3,"is_transit":false},{"station_id":"CTA","line":1,"is_transit":true,"distance":5084,"time":6,"i_long":106.800298,"station_name":"Citayam","transit":false,"i_lat":-6.448811},{"station_id":"BJD","distance":5197,"time":5,"transit":false,"line":0,"station_name":"Bojonggede","is_transit":false,"i_lat":-6.493243,"i_long":106.792719}],[{"time":0,"i_lat":-6.174784,"station_id":"PSE","station_name":"Pasar Senen","transit":false,"i_long":106.84368,"line":11,"distance":0,"is_transit":false},{"station_name":"Kemayoran","line":11,"transit":false,"time":4,"i_long":106.839204,"station_id":"KMO","distance":1436,"is_transit":false,"i_lat":-6.161728},{"is_transit":false,"time":5,"transit":false,"station_id":"RJW","i_long":106.836569,"i_lat":-6.14505,"line":11,"distance":1901,"station_name":"Rajawali"},{"station_id":"KPB","station_name":"Kampung Bandan","is_transit":true,"time":3,"i_long":106.826365,"distance":1444,"line":0,"transit":true,"i_lat":-6.132549},{"distance":1364,"station_id":"JAKK","station_name":"Jakarta Kota","i_lat":-6.137569,"time":3,"i_long":106.812439,"line":0,"transit":true,"is_transit":true},{"transit":false,"line":7,"i_long":106.820901,"station_name":"Jayakarta","time":4,"is_transit":false,"distance":1264,"station_id":"JAY","i_lat":-6.141205},{"station_name":"Manggabesar","distance":1080,"i_long":106.82482,"i_lat":-6.149769,"is_transit":false,"line":2,"transit":false,"time":2,"station_id":"MGB"},{"station_name":"Sawah Besar","i_long":106.827103,"transit":false,"distance":906,"station_id":"SW","time":2,"i_lat":-6.160725,"line":2,"is_transit":false},{"is_transit":false,"station_id":"JUA","i_long":106.828284,"distance":1149,"i_lat":-6.166716,"line":2,"time":2,"station_name":"Juanda","transit":false},{"distance":2015,"i_lat":-6.186295,"is_transit":false,"i_long":106.832183,"station_id":"GDD","transit":false,"station_name":"Gondangdia","time":4,"line":2},{"distance":1750,"station_id":"CKI","i_long":106.840169,"is_transit":false,"transit":false,"station_name":"Cikini","line":0,"time":3,"i_lat":-6.198556},{"transit":true,"i_long":106.84912,"distance":1590,"line":0,"is_transit":true,"time":4,"station_id":"MRI","station_name":"Manggarai","i_lat":-6.209883},{"time":4,"station_name":"Tebet","is_transit":false,"line":2,"distance":2610,"transit":false,"i_long":106.857948,"i_lat":-6.226659,"station_id":"TEB"},{"time":2,"station_name":"Cawang","i_long":106.856607,"transit":false,"i_lat":-6.242512,"line":0,"distance":1230,"is_transit":false,"station_id":"CW"},{"i_long":106.85449,"time":3,"station_name":"Duren Kalibata","line":0,"station_id":"DRN","is_transit":false,"distance":1546,"transit":false,"i_lat":-6.255332},{"distance":824,"is_transit":false,"station_name":"Pasar Minggu Baru","transit":false,"station_id":"PSMB","time":2,"i_lat":-6.263214,"i_long":106.851577,"line":2},{"transit":false,"line":2,"distance":2380,"i_long":106.843999,"is_transit":false,"station_name":"Pasar Minggu","i_lat":-6.2842400000000005,"time":2,"station_id":"PSM"},{"i_lat":-6.3080680000000005,"line":2,"station_name":"Tanjung Barat","station_id":"TNT","time":4,"is_transit":false,"i_long":106.838896,"distance":2820,"transit":false},{"distance":2671,"i_lat":-6.330363,"is_transit":false,"transit":false,"i_long":106.832616,"station_name":"Lenteng Agung","line":2,"time":3,"station_id":"LNA"},{"line":2,"is_transit":false,"station_name":"Univ. Pancasila","distance":1029,"station_id":"UP","i_long":106.834175,"transit":false,"i_lat":-6.339291,"time":2},{"station_name":"Univ. Indonesia","i_lat":-6.360749,"is_transit":false,"station_id":"UI","time":3,"distance":2264,"line":2,"transit":false,"i_long":106.831474},{"is_transit":false,"i_long":106.831114,"station_name":"Pondok Cina","transit":false,"station_id":"POC","time":2,"distance":1109,"i_lat":-6.369073,"line":2},{"is_transit":false,"station_id":"DPB","i_lat":-6.391065,"i_long":106.819451,"station_name":"Depokbaru","time":4,"distance":2727,"transit":false,"line":0},{"is_transit":false,"line":0,"i_long":106.816926,"distance":1584,"i_lat":-6.405256,"time":3,"station_id":"DP","transit":false,"station_name":"Depok"},{"distance":5084,"is_transit":true,"station_id":"CTA","time":6,"transit":false,"i_long":106.800298,"station_name":"Citayam","line":1,"i_lat":-6.448811},{"distance":5197,"transit":false,"i_long":106.792719,"line":0,"station_name":"Bojonggede","station_id":"BJD","is_transit":false,"time":5,"i_lat":-6.493243}]]}