{"data":[[{"station_id":"PSE","is_transit":false,"distance":0,"i_long":106.84368,"transit":false,"line":11,"time":0,"i_lat":-6.174784,"station_name":"Pasar Senen"},{"station_id":"KMO","station_name":"Kemayoran","distance":1436,"i_lat":-6.161728,"i_long":106.839204,"is_transit":false,"line":11,"transit":false,"time":4},{"i_long":106.836569,"station_id":"RJW","time":5,"distance":1901,"i_lat":-6.14505,"is_transit":false,"line":11,"station_name":"Rajawali","transit":false},{"distance":1444,"station_name":"Kampung Bandan","line":4,"i_lat":-6.132549,"transit":true,"station_id":"KPB","time":3,"is_transit":true,"i_long":106.826365},{"is_transit":true,"i_long":106.812439,"station_name":"Jakarta Kota","time":3,"i_lat":-6.137569,"distance":1364,"line":2,"transit":true,"station_id":"JAKK"},{"station_id":"JAY","time":4,"i_lat":-6.141205,"is_transit":false,"transit":false,"station_name":"Jayakarta","i_long":106.820901,"line":2,"distance":1264},{"time":2,"station_id":"MGB","distance":1080,"is_transit":false,"line":2,"transit":false,"station_name":"Manggabesar","i_long":106.82482,"i_lat":-6.149769}],[{"line":11,"station_id":"PSE","station_name":"Pasar Senen","is_transit":false,"transit":false,"time":0,"distance":0,"i_lat":-6.174784,"i_long":106.84368},{"distance":1567,"i_lat":-6.185975,"i_long":106.850107,"time":8,"station_name":"Gang Sentiong","is_transit":false,"transit":false,"station_id":"GST","line":11},{"station_id":"KMT","time":1,"distance":973,"line":11,"i_lat":-6.193792,"i_long":106.855437,"transit":false,"station_name":"Kramat","is_transit":false},{"transit":false,"distance":1829,"i_lat":-6.209188,"station_id":"POK","time":2,"station_name":"Pondok Jati","i_long":106.861737,"line":11,"is_transit":false},{"time":9,"line":1,"transit":true,"station_id":"JNG","distance":1236,"i_long":106.86807400000001,"i_lat":-6.215091,"is_transit":true,"station_name":"Jatinegara"},{"i_lat":-6.212485,"distance":1377,"transit":false,"station_id":"MTR","i_long":106.858896,"station_name":"Matraman","time":2,"is_transit":false,"line":1},{"time":2,"i_lat":-6.209883,"i_long":106.84912,"line":2,"transit":true,"station_id":"MRI","station_name":"Manggarai","is_transit":true,"distance":1275},{"transit":false,"station_id":"CKI","is_transit":false,"i_lat":-6.198556,"station_name":"Cikini","time":4,"distance":1590,"line":2,"i_long":106.840169},{"station_id":"GDD","transit":false,"is_transit":false,"time":3,"i_lat":-6.186295,"station_name":"Gondangdia","line":2,"i_long":106.832183,"distance":1750},{"time":4,"station_name":"Juanda","i_lat":-6.166716,"line":2,"is_transit":false,"distance":2015,"transit":false,"station_id":"JUA","i_long":106.828284},{"i_long":106.827103,"transit":false,"is_transit":false,"time":2,"station_name":"Sawah Besar","station_id":"SW","distance":1149,"line":2,"i_lat":-6.160725},{"transit":false,"station_id":"MGB","is_transit":false,"time":2,"distance":906,"i_lat":-6.149769,"i_long":106.82482,"station_name":"Manggabesar","line":2}],[{"station_id":"PSE","station_name":"Pasar Senen","line":11,"time":0,"i_lat":-6.174784,"i_long":106.84368,"distance":0,"is_transit":false,"transit":false},{"distance":1436,"i_long":106.839204,"station_name":"Kemayoran","transit":false,"station_id":"KMO","time":4,"is_transit":false,"line":11,"i_lat":-6.161728},{"time":5,"station_name":"Rajawali","line":11,"transit":false,"station_id":"RJW","is_transit":false,"distance":1901,"i_lat":-6.14505,"i_long":106.836569},{"transit":true,"i_long":106.826365,"station_id":"KPB","is_transit":true,"distance":1444,"i_lat":-6.132549,"station_name":"Kampung Bandan","time":3,"line":4},{"time":9,"station_id":"AK","distance":4102,"i_long":106.79867,"i_lat":-6.144674,"station_name":"Angke","transit":false,"line":1,"is_transit":false},{"i_long":106.800832,"transit":false,"i_lat":-6.155215,"line":1,"station_id":"DU","time":4,"station_name":"Duri","distance":1230,"is_transit":false},{"time":8,"i_long":106.811091,"is_transit":false,"station_name":"Tanah Abang","transit":false,"station_id":"THB","distance":3632,"i_lat":-6.185545,"line":1},{"line":1,"station_id":"KAT","is_transit":false,"i_long":106.816351,"transit":false,"station_name":"Karet","time":5,"distance":2029,"i_lat":-6.20132},{"i_long":106.819881,"transit":false,"line":1,"time":1,"station_name":"Sudirman Baru","is_transit":false,"i_lat":-6.201433,"station_id":"SUDB","distance":471},{"is_transit":false,"i_long":106.822649,"station_id":"SUD","station_name":"Sudirman","i_lat":-6.202263,"time":1,"line":1,"transit":false,"distance":280},{"i_long":106.84912,"transit":true,"line":2,"i_lat":-6.209883,"station_name":"Manggarai","station_id":"MRI","is_transit":true,"time":4,"distance":3186},{"line":2,"time":4,"station_id":"CKI","is_transit":false,"station_name":"Cikini","i_long":106.840169,"i_lat":-6.198556,"distance":1590,"transit":false},{"station_id":"GDD","is_transit":false,"distance":1750,"station_name":"Gondangdia","line":2,"i_lat":-6.186295,"time":3,"transit":false,"i_long":106.832183},{"i_long":106.828284,"station_name":"Juanda","station_id":"JUA","is_transit":false,"time":4,"distance":2015,"transit":false,"i_lat":-6.166716,"line":2},{"station_name":"Sawah Besar","i_lat":-6.160725,"distance":1149,"transit":false,"i_long":106.827103,"is_transit":false,"line":2,"time":2,"station_id":"SW"},{"i_lat":-6.149769,"i_long":106.82482,"line":2,"distance":906,"transit":false,"is_transit":false,"station_id":"MGB","station_name":"Manggabesar","time":2}],[{"i_long":106.84368,"distance":0,"station_id":"PSE","is_transit":false,"time":0,"transit":false,"station_name":"Pasar Senen","i_lat":-6.174784,"line":11},{"is_transit":false,"distance":1567,"station_name":"Gang Sentiong","transit":false,"i_lat":-6.185975,"line":11,"i_long":106.850107,"station_id":"GST","time":8},{"station_name":"Kramat","transit":false,"i_lat":-6.193792,"time":1,"station_id":"KMT","distance":973,"line":11,"is_transit":false,"i_long":106.855437},{"i_lat":-6.209188,"i_long":106.861737,"station_name":"Pondok Jati","transit":false,"station_id":"POK","time":2,"line":11,"distance":1829,"is_transit":false},{"line":1,"time":9,"i_lat":-6.215091,"transit":true,"station_id":"JNG","is_transit":true,"distance":1236,"station_name":"Jatinegara","i_long":106.86807400000001},{"i_lat":-6.212485,"station_id":"MTR","i_long":106.858896,"is_transit":false,"transit":false,"station_name":"Matraman","time":2,"line":1,"distance":1377},{"is_transit":false,"time":2,"i_long":106.84912,"line":2,"transit":false,"station_id":"MRI","i_lat":-6.209883,"station_name":"Manggarai","distance":1275},{"station_name":"Sudirman","i_long":106.822649,"distance":3186,"is_transit":false,"line":1,"transit":false,"station_id":"SUD","time":4,"i_lat":-6.202263},{"i_lat":-6.201433,"line":1,"time":1,"is_transit":false,"distance":280,"i_long":106.819881,"station_name":"Sudirman Baru","transit":false,"station_id":"SUDB"},{"station_name":"Karet","transit":false,"time":1,"i_lat":-6.20132,"i_long":106.816351,"station_id":"KAT","line":1,"is_transit":false,"distance":471},{"is_transit":false,"station_name":"Tanah Abang","i_lat":-6.185545,"line":1,"station_id":"THB","transit":false,"i_long":106.811091,"distance":2029,"time":5},{"line":1,"time":8,"transit":false,"is_transit":false,"station_name":"Duri","distance":3632,"i_lat":-6.155215,"i_long":106.800832,"station_id":"DU"},{"i_lat":-6.144674,"transit":false,"station_name":"Angke","distance":1230,"line":1,"time":4,"i_long":106.79867,"is_transit":false,"station_id":"AK"},{"i_long":106.826365,"distance":4102,"station_id":"KPB","station_name":"Kampung Bandan","time":9,"line":4,"is_transit":true,"transit":true,"i_lat":-6.132549},{"time":3,"i_long":106.812439,"is_transit":true,"distance":1364,"transit":true,"station_name":"Jakarta Kota","line":2,"i_lat":-6.137569,"station_id":"JAKK"},{"i_long":106.820901,"is_transit":false,"station_id":"JAY","distance":1264,"line":2,"station_name":"Jayakarta","time":4,"i_lat":-6.141205,"transit":false},{"i_long":106.82482,"distance":1080,"station_name":"Manggabesar","station_id":"MGB","is_transit":false,"transit":false,"line":2,"i_lat":-6.149769,"time":2}]]}