{"data":[[{"i_long":106.84368,"i_lat":-6.174784,"line":11,"station_id":"PSE","is_transit":false,"station_name":"Pasar Senen","distance":0,"transit":false,"time":0},{"time":8,"station_name":"Gang Sentiong","is_transit":false,"line":11,"distance":1567,"station_id":"GST","transit":false,"i_long":106.850107,"i_lat":-6.185975},{"transit":false,"distance":973,"station_name":"Kramat","time":1,"i_lat":-6.193792,"i_long":106.855437,"line":11,"is_transit":false,"station_id":"KMT"},{"time":2,"distance":1829,"line":11,"station_name":"Pondok Jati","transit":false,"i_long":106.861737,"is_transit":false,"station_id":"POK","i_lat":-6.209188},{"time":9,"i_lat":-6.215091,"i_long":106.86807400000001,"line":0,"station_id":"JNG","distance":1236,"is_transit":true,"transit":true,"station_name":"Jatinegara"},{"station_name":"Matraman","time":2,"is_transit":false,"line":1,"i_long":106.858896,"distance":1377,"station_id":"MTR","transit":false,"i_lat":-6.212485},{"line":0,"station_name":"Manggarai","time":2,"i_lat":-6.209883,"distance":1275,"is_transit":true,"i_long":106.84912,"transit":true,"station_id":"MRI"},{"transit":false,"station_id":"TEB","line":2,"i_long":106.857948,"i_lat":-6.226659,"is_transit":false,"time":4,"distance":2610,"station_name":"Tebet"},{"is_transit":false,"time":2,"i_long":106.856607,"station_id":"CW","line":0,"station_name":"Cawang","transit":false,"i_lat":-6.242512,"distance":1230},{"station_name":"Duren Kalibata","line":0,"time":3,"distance":1546,"i_lat":-6.255332,"i_long":106.85449,"transit":false,"is_transit":false,"station_id":"DRN"},{"station_id":"PSMB","transit":false,"line":2,"i_long":106.851577,"station_name":"Pasar Minggu Baru","is_transit":false,"distance":824,"i_lat":-6.263214,"time":2},{"i_long":106.843999,"line":2,"is_transit":false,"transit":false,"station_id":"PSM","i_lat":-6.2842400000000005,"time":2,"distance":2380,"station_name":"Pasar Minggu"},{"distance":2820,"station_name":"Tanjung Barat","time":4,"i_lat":-6.3080680000000005,"i_long":106.838896,"station_id":"TNT","transit":false,"is_transit":false,"line":2},{"line":2,"transit":false,"i_long":106.832616,"distance":2671,"station_id":"LNA","station_name":"Lenteng Agung","time":3,"i_lat":-6.330363,"is_transit":false},{"line":2,"i_lat":-6.339291,"transit":false,"time":2,"distance":1029,"station_id":"UP","is_transit":false,"station_name":"Univ. Pancasila","i_long":106.834175},{"distance":2264,"time":3,"i_lat":-6.360749,"i_long":106.831474,"station_id":"UI","is_transit":false,"line":2,"transit":false,"station_name":"Univ. Indonesia"},{"transit":false,"i_long":106.831114,"station_name":"Pondok Cina","line":2,"distance":1109,"time":2,"station_id":"POC","is_transit":false,"i_lat":-6.369073}],[{"distance":0,"time":0,"transit":false,"station_id":"PSE","station_name":"Pasar Senen","i_long":106.84368,"i_lat":-6.174784,"line":11,"is_transit":false},{"station_id":"KMO","transit":false,"station_name":"Kemayoran","i_lat":-6.161728,"time":4,"i_long":106.839204,"line":11,"is_transit":false,"distance":1436},{"station_id":"RJW","is_transit":false,"station_name":"Rajawali","line":11,"i_lat":-6.14505,"time":5,"distance":1901,"i_long":106.836569,"transit":false},{"station_id":"KPB","time":3,"i_lat":-6.132549,"station_name":"Kampung Bandan","line":0,"i_long":106.826365,"transit":true,"distance":1444,"is_transit":true},{"time":9,"station_id":"AK","i_lat":-6.144674,"transit":false,"i_long":106.79867,"line":0,"distance":4102,"is_transit":false,"station_name":"Angke"},{"is_transit":true,"i_long":106.800832,"time":4,"station_id":"DU","i_lat":-6.155215,"line":1,"transit":true,"station_name":"Duri","distance":1230},{"transit":false,"line":1,"i_lat":-6.185545,"distance":3632,"is_transit":true,"station_name":"Tanah Abang","i_long":106.811091,"time":8,"station_id":"THB"},{"distance":2029,"time":5,"station_id":"KAT","i_long":106.816351,"is_transit":false,"line":1,"i_lat":-6.20132,"station_name":"Karet","transit":false},{"distance":471,"station_id":"SUDB","i_lat":-6.201433,"is_transit":false,"transit":false,"i_long":106.819881,"time":1,"station_name":"Sudirman Baru","line":1},{"i_long":106.822649,"station_name":"Sudirman","time":1,"line":1,"is_transit":false,"distance":280,"transit":false,"i_lat":-6.202263,"station_id":"SUD"},{"transit":true,"time":4,"distance":3186,"station_id":"MRI","line":0,"i_lat":-6.209883,"i_long":106.84912,"station_name":"Manggarai","is_transit":true},{"i_long":106.857948,"is_transit":false,"time":4,"distance":2610,"line":2,"station_name":"Tebet","i_lat":-6.226659,"station_id":"TEB","transit":false},{"line":0,"transit":false,"station_name":"Cawang","time":2,"distance":1230,"is_transit":false,"station_id":"CW","i_lat":-6.242512,"i_long":106.856607},{"distance":1546,"is_transit":false,"station_id":"DRN","station_name":"Duren Kalibata","time":3,"i_lat":-6.255332,"line":0,"transit":false,"i_long":106.85449},{"line":2,"time":2,"transit":false,"station_id":"PSMB","station_name":"Pasar Minggu Baru","distance":824,"is_transit":false,"i_lat":-6.263214,"i_long":106.851577},{"distance":2380,"time":2,"is_transit":false,"station_id":"PSM","station_name":"Pasar Minggu","i_long":106.843999,"line":2,"transit":false,"i_lat":-6.2842400000000005},{"transit":false,"is_transit":false,"line":2,"time":4,"i_long":106.838896,"station_name":"Tanjung Barat","station_id":"TNT","i_lat":-6.3080680000000005,"distance":2820},{"is_transit":false,"station_id":"LNA","time":3,"i_long":106.832616,"line":2,"i_lat":-6.330363,"station_name":"Lenteng Agung","transit":false,"distance":2671},{"station_id":"UP","station_name":"Univ. Pancasila","time":2,"transit":false,"i_lat":-6.339291,"i_long":106.834175,"distance":1029,"is_transit":false,"line":2},{"i_long":106.831474,"is_transit":false,"time":3,"line":2,"station_id":"UI","distance":2264,"transit":false,"station_name":"Univ. Indonesia","i_lat":-6.360749},{"is_transit":false,"transit":false,"distance":1109,"station_name":"Pondok Cina","i_lat":-6.369073,"time":2,"i_long":106.831114,"station_id":"POC","line":2}],[{"time":0,"transit":false,"station_name":"Pasar Senen","station_id":"PSE","line":11,"is_transit":false,"i_lat":-6.174784,"distance":0,"i_long":106.84368},{"station_id":"KMO","distance":1436,"i_long":106.839204,"transit":false,"line":11,"station_name":"Kemayoran","is_transit":false,"i_lat":-6.161728,"time":4},{"distance":1901,"station_name":"Rajawali","station_id":"RJW","transit":false,"time":5,"i_long":106.836569,"line":11,"i_lat":-6.14505,"is_transit":false},{"i_lat":-6.132549,"transit":true,"is_transit":true,"station_name":"Kampung Bandan","distance":1444,"line":0,"i_long":106.826365,"station_id":"KPB","time":3},{"line":0,"station_id":"JAKK","time":3,"i_lat":-6.137569,"transit":true,"i_long":106.812439,"distance":1364,"is_transit":true,"station_name":"Jakarta Kota"},{"station_id":"JAY","station_name":"Jayakarta","transit":false,"i_lat":-6.141205,"i_long":106.820901,"is_transit":false,"time":4,"distance":1264,"line":7},{"line":2,"distance":1080,"is_transit":false,"transit":false,"i_lat":-6.149769,"i_long":106.82482,"station_id":"MGB","station_name":"Manggabesar","time":2},{"station_id":"SW","distance":906,"transit":false,"is_transit":false,"time":2,"i_lat":-6.160725,"line":2,"station_name":"Sawah Besar","i_long":106.827103},{"i_long":106.828284,"line":2,"transit":false,"distance":1149,"i_lat":-6.166716,"is_transit":false,"station_name":"Juanda","station_id":"JUA","time":2},{"time":4,"transit":false,"line":2,"is_transit":false,"station_name":"Gondangdia","i_lat":-6.186295,"i_long":106.832183,"station_id":"GDD","distance":2015},{"i_long":106.840169,"i_lat":-6.198556,"line":0,"is_transit":false,"station_name":"Cikini","distance":1750,"station_id":"CKI","transit":false,"time":3},{"is_transit":true,"station_name":"Manggarai","line":0,"time":4,"i_lat":-6.209883,"station_id":"MRI","distance":1590,"transit":true,"i_long":106.84912},{"distance":2610,"line":2,"time":4,"i_lat":-6.226659,"i_long":106.857948,"transit":false,"is_transit":false,"station_name":"Tebet","station_id":"TEB"},{"transit":false,"station_id":"CW","i_long":106.856607,"line":0,"time":2,"station_name":"Cawang","i_lat":-6.242512,"is_transit":false,"distance":1230},{"transit":false,"is_transit":false,"i_lat":-6.255332,"line":0,"distance":1546,"station_name":"Duren Kalibata","station_id":"DRN","time":3,"i_long":106.85449},{"i_long":106.851577,"distance":824,"time":2,"station_name":"Pasar Minggu Baru","i_lat":-6.263214,"line":2,"transit":false,"station_id":"PSMB","is_transit":false},{"station_name":"Pasar Minggu","time":2,"i_lat":-6.2842400000000005,"station_id":"PSM","line":2,"i_long":106.843999,"transit":false,"distance":2380,"is_transit":false},{"is_transit":false,"station_id":"TNT","station_name":"Tanjung Barat","i_lat":-6.3080680000000005,"i_long":106.838896,"transit":false,"line":2,"time":4,"distance":2820},{"is_transit":false,"distance":2671,"i_lat":-6.330363,"transit":false,"station_name":"Lenteng Agung","time":3,"i_long":106.832616,"line":2,"station_id":"LNA"},{"time":2,"i_lat":-6.339291,"station_name":"Univ. Pancasila","is_transit":false,"distance":1029,"line":2,"station_id":"UP","transit":false,"i_long":106.834175},{"transit":false,"distance":2264,"i_long":106.831474,"time":3,"station_id":"UI","i_lat":-6.360749,"is_transit":false,"station_name":"Univ. Indonesia","line":2},{"i_lat":-6.369073,"station_id":"POC","line":2,"is_transit":false,"station_name":"Pondok Cina","distance":1109,"time":2,"i_long":106.831114,"transit":false}]]}