{"data":[[{"station_id":"PSE","transit":false,"is_transit":false,"station_name":"Pasar Senen","time":0,"line":11,"distance":0,"i_long":106.84368,"i_lat":-6.174784},{"station_name":"Kemayoran","station_id":"KMO","transit":false,"time":4,"is_transit":false,"i_long":106.839204,"line":11,"i_lat":-6.161728,"distance":1436},{"distance":1901,"transit":false,"station_name":"Rajawali","line":11,"time":5,"station_id":"RJW","is_transit":false,"i_long":106.836569,"i_lat":-6.14505},{"i_long":106.826365,"distance":1444,"transit":true,"station_id":"KPB","is_transit":true,"line":4,"time":3,"i_lat":-6.132549,"station_name":"Kampung Bandan"},{"line":1,"station_id":"AK","time":9,"is_transit":false,"i_long":106.79867,"transit":false,"i_lat":-6.144674,"station_name":"Angke","distance":4102},{"station_name":"Duri","time":4,"line":1,"is_transit":false,"i_long":106.800832,"transit":false,"i_lat":-6.155215,"distance":1230,"station_id":"DU"},{"station_id":"THB","i_long":106.811091,"distance":3632,"transit":true,"time":8,"is_transit":true,"line":1,"i_lat":-6.185545,"station_name":"Tanah Abang"},{"line":6,"distance":3191,"is_transit":false,"transit":false,"i_long":106.79689,"i_lat":-6.207404,"station_name":"Palmerah","time":6,"station_id":"PLM"}],[{"distance":0,"line":11,"transit":false,"time":0,"is_transit":false,"i_long":106.84368,"station_name":"Pasar Senen","i_lat":-6.174784,"station_id":"PSE"},{"time":8,"station_name":"Gang Sentiong","i_lat":-6.185975,"distance":1567,"transit":false,"line":11,"is_transit":false,"station_id":"GST","i_long":106.850107},{"time":1,"transit":false,"is_transit":false,"i_lat":-6.193792,"station_name":"Kramat","distance":973,"i_long":106.855437,"line":11,"station_id":"KMT"},{"time":2,"is_transit":false,"i_long":106.861737,"distance":1829,"line":11,"i_lat":-6.209188,"station_name":"Pondok Jati","transit":false,"station_id":"POK"},{"is_transit":true,"line":1,"distance":1236,"i_lat":-6.215091,"time":9,"station_name":"Jatinegara","i_long":106.86807400000001,"station_id":"JNG","transit":true},{"transit":false,"station_name":"Matraman","time":2,"is_transit":false,"i_lat":-6.212485,"i_long":106.858896,"line":1,"station_id":"MTR","distance":1377},{"i_lat":-6.209883,"station_id":"MRI","i_long":106.84912,"transit":false,"distance":1275,"station_name":"Manggarai","is_transit":false,"line":2,"time":2},{"time":4,"i_lat":-6.202263,"is_transit":false,"line":1,"transit":false,"station_id":"SUD","i_long":106.822649,"distance":3186,"station_name":"Sudirman"},{"time":1,"station_name":"Sudirman Baru","i_lat":-6.201433,"line":1,"transit":false,"distance":280,"is_transit":false,"station_id":"SUDB","i_long":106.819881},{"station_name":"Karet","line":1,"time":1,"station_id":"KAT","transit":false,"i_long":106.816351,"is_transit":false,"i_lat":-6.20132,"distance":471},{"i_long":106.811091,"line":1,"station_id":"THB","distance":2029,"i_lat":-6.185545,"station_name":"Tanah Abang","is_transit":true,"transit":true,"time":5},{"station_id":"PLM","i_lat":-6.207404,"distance":3191,"transit":false,"is_transit":false,"i_long":106.79689,"station_name":"Palmerah","time":6,"line":6}],[{"station_id":"PSE","transit":false,"station_name":"Pasar Senen","is_transit":false,"distance":0,"time":0,"i_lat":-6.174784,"line":11,"i_long":106.84368},{"i_lat":-6.161728,"line":11,"station_name":"Kemayoran","station_id":"KMO","distance":1436,"time":4,"is_transit":false,"transit":false,"i_long":106.839204},{"transit":false,"i_long":106.836569,"distance":1901,"station_name":"Rajawali","is_transit":false,"station_id":"RJW","i_lat":-6.14505,"line":11,"time":5},{"i_long":106.826365,"distance":1444,"transit":true,"time":3,"i_lat":-6.132549,"is_transit":true,"station_name":"Kampung Bandan","station_id":"KPB","line":4},{"time":3,"i_long":106.812439,"station_id":"JAKK","is_transit":true,"line":2,"station_name":"Jakarta Kota","i_lat":-6.137569,"distance":1364,"transit":true},{"transit":false,"i_long":106.820901,"i_lat":-6.141205,"station_id":"JAY","time":4,"is_transit":false,"distance":1264,"station_name":"Jayakarta","line":2},{"i_lat":-6.149769,"distance":1080,"transit":false,"i_long":106.82482,"line":2,"station_name":"Manggabesar","station_id":"MGB","time":2,"is_transit":false},{"transit":false,"time":2,"station_name":"Sawah Besar","is_transit":false,"line":2,"station_id":"SW","i_lat":-6.160725,"i_long":106.827103,"distance":906},{"line":2,"distance":1149,"i_long":106.828284,"i_lat":-6.166716,"station_id":"JUA","is_transit":false,"time":2,"station_name":"Juanda","transit":false},{"is_transit":false,"distance":2015,"transit":false,"i_lat":-6.186295,"line":2,"i_long":106.832183,"station_id":"GDD","time":4,"station_name":"Gondangdia"},{"line":2,"station_id":"CKI","station_name":"Cikini","distance":1750,"i_lat":-6.198556,"is_transit":false,"time":3,"i_long":106.840169,"transit":false},{"is_transit":true,"distance":1590,"i_long":106.84912,"time":4,"transit":true,"i_lat":-6.209883,"station_name":"Manggarai","line":2,"station_id":"MRI"},{"i_long":106.822649,"line":1,"distance":3186,"transit":false,"is_transit":false,"time":4,"station_id":"SUD","i_lat":-6.202263,"station_name":"Sudirman"},{"station_name":"Sudirman Baru","time":1,"is_transit":false,"i_lat":-6.201433,"i_long":106.819881,"line":1,"transit":false,"distance":280,"station_id":"SUDB"},{"station_id":"KAT","distance":471,"line":1,"time":1,"transit":false,"station_name":"Karet","is_transit":false,"i_lat":-6.20132,"i_long":106.816351},{"station_name":"Tanah Abang","i_lat":-6.185545,"i_long":106.811091,"line":1,"time":5,"is_transit":true,"distance":2029,"station_id":"THB","transit":true},{"station_name":"Palmerah","distance":3191,"transit":false,"i_lat":-6.207404,"time":6,"station_id":"PLM","is_transit":false,"i_long":106.79689,"line":6}],[{"is_transit":false,"line":11,"time":0,"station_id":"PSE","transit":false,"station_name":"Pasar Senen","i_lat":-6.174784,"distance":0,"i_long":106.84368},{"line":11,"time":8,"i_lat":-6.185975,"station_name":"Gang Sentiong","i_long":106.850107,"distance":1567,"is_transit":false,"transit":false,"station_id":"GST"},{"line":11,"station_name":"Kramat","transit":false,"time":1,"is_transit":false,"i_long":106.855437,"station_id":"KMT","i_lat":-6.193792,"distance":973},{"i_long":106.861737,"line":11,"transit":false,"station_id":"POK","is_transit":false,"time":2,"station_name":"Pondok Jati","i_lat":-6.209188,"distance":1829},{"station_id":"JNG","station_name":"Jatinegara","is_transit":true,"i_long":106.86807400000001,"line":1,"time":9,"transit":true,"i_lat":-6.215091,"distance":1236},{"transit":false,"time":2,"i_lat":-6.212485,"i_long":106.858896,"line":1,"station_id":"MTR","distance":1377,"station_name":"Matraman","is_transit":false},{"station_id":"MRI","is_transit":true,"transit":true,"distance":1275,"i_lat":-6.209883,"i_long":106.84912,"station_name":"Manggarai","line":2,"time":2},{"transit":false,"distance":1590,"is_transit":false,"i_lat":-6.198556,"time":4,"station_id":"CKI","i_long":106.840169,"station_name":"Cikini","line":2},{"transit":false,"distance":1750,"i_long":106.832183,"is_transit":false,"i_lat":-6.186295,"time":3,"station_name":"Gondangdia","station_id":"GDD","line":2},{"transit":false,"is_transit":false,"distance":2015,"i_lat":-6.166716,"station_name":"Juanda","station_id":"JUA","i_long":106.828284,"time":4,"line":2},{"station_name":"Sawah Besar","transit":false,"distance":1149,"time":2,"is_transit":false,"i_long":106.827103,"line":2,"i_lat":-6.160725,"station_id":"SW"},{"transit":false,"distance":906,"is_transit":false,"i_lat":-6.149769,"line":2,"station_name":"Manggabesar","i_long":106.82482,"time":2,"station_id":"MGB"},{"station_id":"JAY","transit":false,"line":2,"is_transit":false,"station_name":"Jayakarta","distance":1080,"i_lat":-6.141205,"time":2,"i_long":106.820901},{"station_id":"JAKK","station_name":"Jakarta Kota","time":4,"transit":true,"is_transit":true,"i_long":106.812439,"i_lat":-6.137569,"line":2,"distance":1264},{"time":3,"station_id":"KPB","line":4,"i_lat":-6.132549,"transit":true,"distance":1364,"station_name":"Kampung Bandan","is_transit":true,"i_long":106.826365},{"line":1,"i_long":106.79867,"transit":false,"time":9,"i_lat":-6.144674,"station_id":"AK","distance":4102,"station_name":"Angke","is_transit":false},{"distance":1230,"is_transit":false,"station_id":"DU","time":4,"station_name":"Duri","i_lat":-6.155215,"i_long":106.800832,"line":1,"transit":false},{"station_name":"Tanah Abang","is_transit":true,"distance":3632,"transit":true,"time":8,"i_lat":-6.185545,"station_id":"THB","i_long":106.811091,"line":1},{"i_lat":-6.207404,"distance":3191,"transit":false,"i_long":106.79689,"time":6,"station_name":"Palmerah","line":6,"station_id":"PLM","is_transit":false}]]}