{"data":[[{"time":0,"station_id":"PSE","station_name":"Pasar Senen","i_long":106.84368,"line":11,"distance":0,"transit":false,"i_lat":-6.174784,"is_transit":false},{"i_long":106.839204,"distance":1436,"station_name":"Kemayoran","time":4,"line":11,"station_id":"KMO","is_transit":false,"i_lat":-6.161728,"transit":false},{"i_lat":-6.14505,"i_long":106.836569,"distance":1901,"line":11,"transit":false,"is_transit":false,"time":5,"station_id":"RJW","station_name":"Rajawali"},{"is_transit":true,"line":4,"station_name":"Kampung Bandan","station_id":"KPB","distance":1444,"time":3,"transit":true,"i_lat":-6.132549,"i_long":106.826365},{"transit":false,"station_name":"Angke","i_long":106.79867,"line":1,"distance":4102,"station_id":"AK","i_lat":-6.144674,"is_transit":false,"time":9},{"time":4,"transit":false,"is_transit":false,"i_long":106.800832,"station_id":"DU","i_lat":-6.155215,"line":1,"station_name":"Duri","distance":1230},{"is_transit":true,"line":1,"transit":true,"station_id":"THB","i_long":106.811091,"station_name":"Tanah Abang","i_lat":-6.185545,"time":8,"distance":3632},{"station_id":"PLM","transit":false,"i_long":106.79689,"distance":3191,"time":6,"is_transit":false,"station_name":"Palmerah","i_lat":-6.207404,"line":6},{"line":6,"i_lat":-6.237242,"i_long":106.780334,"time":7,"distance":3737,"station_name":"Kebayoran","is_transit":false,"transit":false,"station_id":"KBY"},{"distance":6218,"transit":false,"i_lat":-6.276362,"i_long":106.74273,"station_name":"Pondokranji","line":6,"time":8,"is_transit":false,"station_id":"PDJ"},{"station_name":"Jurangmangu","time":3,"station_id":"JMU","transit":false,"is_transit":false,"i_lat":-6.288927,"i_long":106.728916,"line":6,"distance":2179},{"station_id":"SDM","time":4,"i_lat":-6.296963,"line":6,"distance":1994,"station_name":"Sudimara","is_transit":false,"transit":false,"i_long":106.712277}],[{"station_id":"PSE","station_name":"Pasar Senen","transit":false,"distance":0,"i_lat":-6.174784,"time":0,"is_transit":false,"line":11,"i_long":106.84368},{"i_long":106.850107,"transit":false,"time":8,"distance":1567,"station_name":"Gang Sentiong","line":11,"station_id":"GST","i_lat":-6.185975,"is_transit":false},{"distance":973,"time":1,"station_name":"Kramat","line":11,"transit":false,"i_lat":-6.193792,"i_long":106.855437,"station_id":"KMT","is_transit":false},{"is_transit":false,"distance":1829,"station_name":"Pondok Jati","i_long":106.861737,"i_lat":-6.209188,"line":11,"transit":false,"time":2,"station_id":"POK"},{"i_long":106.86807400000001,"i_lat":-6.215091,"time":9,"station_name":"Jatinegara","is_transit":true,"line":1,"station_id":"JNG","distance":1236,"transit":true},{"distance":1377,"time":2,"transit":false,"station_name":"Matraman","line":1,"i_long":106.858896,"i_lat":-6.212485,"station_id":"MTR","is_transit":false},{"i_lat":-6.209883,"time":2,"i_long":106.84912,"line":2,"station_name":"Manggarai","station_id":"MRI","is_transit":false,"distance":1275,"transit":false},{"station_name":"Sudirman","is_transit":false,"i_long":106.822649,"transit":false,"station_id":"SUD","line":1,"i_lat":-6.202263,"time":4,"distance":3186},{"transit":false,"station_id":"SUDB","i_lat":-6.201433,"distance":280,"station_name":"Sudirman Baru","time":1,"i_long":106.819881,"line":1,"is_transit":false},{"station_name":"Karet","is_transit":false,"distance":471,"i_long":106.816351,"i_lat":-6.20132,"line":1,"time":1,"transit":false,"station_id":"KAT"},{"i_long":106.811091,"i_lat":-6.185545,"station_id":"THB","transit":true,"distance":2029,"time":5,"station_name":"Tanah Abang","is_transit":true,"line":1},{"i_long":106.79689,"line":6,"station_name":"Palmerah","station_id":"PLM","distance":3191,"transit":false,"i_lat":-6.207404,"time":6,"is_transit":false},{"i_lat":-6.237242,"i_long":106.780334,"time":7,"line":6,"transit":false,"station_id":"KBY","is_transit":false,"distance":3737,"station_name":"Kebayoran"},{"station_name":"Pondokranji","distance":6218,"i_long":106.74273,"is_transit":false,"station_id":"PDJ","i_lat":-6.276362,"transit":false,"line":6,"time":8},{"distance":2179,"time":3,"is_transit":false,"station_id":"JMU","i_long":106.728916,"transit":false,"line":6,"i_lat":-6.288927,"station_name":"Jurangmangu"},{"i_lat":-6.296963,"station_id":"SDM","distance":1994,"i_long":106.712277,"is_transit":false,"line":6,"time":4,"transit":false,"station_name":"Sudimara"}],[{"time":0,"station_id":"PSE","transit":false,"station_name":"Pasar Senen","i_long":106.84368,"is_transit":false,"line":11,"i_lat":-6.174784,"distance":0},{"line":11,"time":4,"distance":1436,"is_transit":false,"transit":false,"i_long":106.839204,"station_id":"KMO","station_name":"Kemayoran","i_lat":-6.161728},{"line":11,"distance":1901,"station_name":"Rajawali","station_id":"RJW","transit":false,"is_transit":false,"i_long":106.836569,"i_lat":-6.14505,"time":5},{"station_name":"Kampung Bandan","i_long":106.826365,"line":4,"time":3,"station_id":"KPB","i_lat":-6.132549,"is_transit":true,"transit":true,"distance":1444},{"station_name":"Jakarta Kota","line":2,"station_id":"JAKK","transit":true,"i_long":106.812439,"time":3,"is_transit":true,"i_lat":-6.137569,"distance":1364},{"station_name":"Jayakarta","i_lat":-6.141205,"i_long":106.820901,"line":2,"distance":1264,"transit":false,"station_id":"JAY","is_transit":false,"time":4},{"line":2,"time":2,"station_id":"MGB","i_long":106.82482,"distance":1080,"station_name":"Manggabesar","is_transit":false,"transit":false,"i_lat":-6.149769},{"station_id":"SW","transit":false,"i_long":106.827103,"line":2,"i_lat":-6.160725,"time":2,"distance":906,"station_name":"Sawah Besar","is_transit":false},{"distance":1149,"station_name":"Juanda","station_id":"JUA","i_lat":-6.166716,"i_long":106.828284,"transit":false,"is_transit":false,"time":2,"line":2},{"i_lat":-6.186295,"transit":false,"i_long":106.832183,"time":4,"is_transit":false,"line":2,"distance":2015,"station_name":"Gondangdia","station_id":"GDD"},{"station_name":"Cikini","station_id":"CKI","transit":false,"i_lat":-6.198556,"i_long":106.840169,"is_transit":false,"line":2,"time":3,"distance":1750},{"is_transit":true,"transit":true,"station_id":"MRI","i_long":106.84912,"i_lat":-6.209883,"station_name":"Manggarai","distance":1590,"line":2,"time":4},{"line":1,"distance":3186,"i_long":106.822649,"i_lat":-6.202263,"time":4,"station_id":"SUD","station_name":"Sudirman","is_transit":false,"transit":false},{"transit":false,"time":1,"distance":280,"is_transit":false,"station_name":"Sudirman Baru","station_id":"SUDB","i_long":106.819881,"i_lat":-6.201433,"line":1},{"line":1,"station_name":"Karet","i_lat":-6.20132,"transit":false,"i_long":106.816351,"is_transit":false,"distance":471,"time":1,"station_id":"KAT"},{"time":5,"distance":2029,"i_lat":-6.185545,"station_id":"THB","is_transit":true,"transit":true,"station_name":"Tanah Abang","i_long":106.811091,"line":1},{"station_name":"Palmerah","line":6,"transit":false,"is_transit":false,"distance":3191,"station_id":"PLM","i_long":106.79689,"time":6,"i_lat":-6.207404},{"line":6,"i_lat":-6.237242,"transit":false,"time":7,"station_id":"KBY","distance":3737,"i_long":106.780334,"station_name":"Kebayoran","is_transit":false},{"station_name":"Pondokranji","i_long":106.74273,"station_id":"PDJ","i_lat":-6.276362,"is_transit":false,"distance":6218,"transit":false,"line":6,"time":8},{"distance":2179,"station_name":"Jurangmangu","i_lat":-6.288927,"line":6,"time":3,"station_id":"JMU","is_transit":false,"i_long":106.728916,"transit":false},{"line":6,"time":4,"station_id":"SDM","i_lat":-6.296963,"transit":false,"station_name":"Sudimara","is_transit":false,"distance":1994,"i_long":106.712277}],[{"station_id":"PSE","time":0,"i_long":106.84368,"line":11,"transit":false,"distance":0,"station_name":"Pasar Senen","is_transit":false,"i_lat":-6.174784},{"station_name":"Gang Sentiong","station_id":"GST","transit":false,"i_long":106.850107,"time":8,"i_lat":-6.185975,"is_transit":false,"distance":1567,"line":11},{"i_lat":-6.193792,"i_long":106.855437,"station_id":"KMT","line":11,"transit":false,"time":1,"distance":973,"is_transit":false,"station_name":"Kramat"},{"time":2,"line":11,"station_id":"POK","distance":1829,"station_name":"Pondok Jati","is_transit":false,"i_lat":-6.209188,"i_long":106.861737,"transit":false},{"line":1,"station_id":"JNG","i_long":106.86807400000001,"station_name":"Jatinegara","is_transit":true,"time":9,"distance":1236,"i_lat":-6.215091,"transit":true},{"i_lat":-6.212485,"station_id":"MTR","distance":1377,"transit":false,"line":1,"is_transit":false,"station_name":"Matraman","i_long":106.858896,"time":2},{"line":2,"i_long":106.84912,"distance":1275,"station_id":"MRI","station_name":"Manggarai","i_lat":-6.209883,"is_transit":true,"transit":true,"time":2},{"i_long":106.840169,"line":2,"transit":false,"i_lat":-6.198556,"distance":1590,"station_name":"Cikini","station_id":"CKI","is_transit":false,"time":4},{"station_name":"Gondangdia","time":3,"i_long":106.832183,"transit":false,"distance":1750,"is_transit":false,"line":2,"station_id":"GDD","i_lat":-6.186295},{"is_transit":false,"transit":false,"i_lat":-6.166716,"time":4,"i_long":106.828284,"station_name":"Juanda","station_id":"JUA","distance":2015,"line":2},{"distance":1149,"transit":false,"i_long":106.827103,"time":2,"station_name":"Sawah Besar","line":2,"station_id":"SW","is_transit":false,"i_lat":-6.160725},{"time":2,"i_lat":-6.149769,"station_name":"Manggabesar","station_id":"MGB","transit":false,"i_long":106.82482,"line":2,"distance":906,"is_transit":false},{"line":2,"time":2,"transit":false,"station_name":"Jayakarta","distance":1080,"i_lat":-6.141205,"station_id":"JAY","is_transit":false,"i_long":106.820901},{"i_lat":-6.137569,"station_name":"Jakarta Kota","is_transit":true,"transit":true,"time":4,"station_id":"JAKK","line":2,"distance":1264,"i_long":106.812439},{"is_transit":true,"distance":1364,"line":4,"station_name":"Kampung Bandan","transit":true,"i_lat":-6.132549,"station_id":"KPB","time":3,"i_long":106.826365},{"station_id":"AK","transit":false,"is_transit":false,"i_lat":-6.144674,"station_name":"Angke","distance":4102,"time":9,"i_long":106.79867,"line":1},{"station_id":"DU","transit":false,"time":4,"i_lat":-6.155215,"i_long":106.800832,"line":1,"is_transit":false,"station_name":"Duri","distance":1230},{"station_id":"THB","is_transit":true,"distance":3632,"station_name":"Tanah Abang","time":8,"transit":true,"i_lat":-6.185545,"i_long":106.811091,"line":1},{"station_name":"Palmerah","time":6,"i_long":106.79689,"i_lat":-6.207404,"line":6,"transit":false,"is_transit":false,"station_id":"PLM","distance":3191},{"station_name":"Kebayoran","distance":3737,"is_transit":false,"transit":false,"time":7,"line":6,"i_long":106.780334,"station_id":"KBY","i_lat":-6.237242},{"transit":false,"distance":6218,"time":8,"station_name":"Pondokranji","i_lat":-6.276362,"is_transit":false,"station_id":"PDJ","i_long":106.74273,"line":6},{"distance":2179,"time":3,"transit":false,"station_name":"Jurangmangu","i_long":106.728916,"line":6,"is_transit":false,"i_lat":-6.288927,"station_id":"JMU"},{"station_name":"Sudimara","is_transit":false,"time":4,"i_long":106.712277,"station_id":"SDM","i_lat":-6.296963,"line":6,"distance":1994,"transit":false}]]}