{"data":[[{"i_lat":-6.174784,"station_name":"Pasar Senen","line":11,"time":0,"station_id":"PSE","distance":0,"i_long":106.84368,"is_transit":false,"transit":false},{"station_id":"KMO","time":4,"line":11,"station_name":"Kemayoran","i_lat":-6.161728,"transit":false,"i_long":106.839204,"distance":1436,"is_transit":false},{"i_long":106.836569,"station_id":"RJW","distance":1901,"is_transit":false,"station_name":"Rajawali","transit":false,"line":11,"i_lat":-6.14505,"time":5},{"time":3,"line":0,"transit":false,"is_transit":true,"i_lat":-6.132549,"i_long":106.826365,"station_id":"KPB","distance":1444,"station_name":"Kampung Bandan"}],[{"distance":0,"time":0,"transit":false,"is_transit":false,"station_id":"PSE","line":11,"station_name":"Pasar Senen","i_lat":-6.174784,"i_long":106.84368},{"i_long":106.850107,"transit":false,"time":8,"distance":1567,"i_lat":-6.185975,"is_transit":false,"station_id":"GST","line":11,"station_name":"Gang Sentiong"},{"time":1,"line":11,"i_long":106.855437,"station_id":"KMT","i_lat":-6.193792,"station_name":"Kramat","transit":false,"distance":973,"is_transit":false},{"line":11,"is_transit":false,"time":2,"i_long":106.861737,"distance":1829,"station_name":"Pondok Jati","station_id":"POK","transit":false,"i_lat":-6.209188},{"transit":true,"i_long":106.86807400000001,"line":0,"time":9,"distance":1236,"i_lat":-6.215091,"station_id":"JNG","station_name":"Jatinegara","is_transit":true},{"line":1,"i_long":106.858896,"i_lat":-6.212485,"time":2,"transit":false,"station_name":"Matraman","station_id":"MTR","is_transit":false,"distance":1377},{"is_transit":true,"time":2,"station_name":"Manggarai","line":0,"distance":1275,"i_long":106.84912,"station_id":"MRI","transit":false,"i_lat":-6.209883},{"distance":3186,"station_name":"Sudirman","line":1,"station_id":"SUD","transit":false,"is_transit":false,"time":4,"i_lat":-6.202263,"i_long":106.822649},{"distance":280,"i_long":106.819881,"station_name":"Sudirman Baru","i_lat":-6.201433,"line":1,"transit":false,"time":1,"is_transit":false,"station_id":"SUDB"},{"station_id":"KAT","i_lat":-6.20132,"line":1,"distance":471,"time":1,"i_long":106.816351,"station_name":"Karet","transit":false,"is_transit":false},{"transit":false,"distance":2029,"is_transit":true,"line":1,"station_id":"THB","time":5,"i_long":106.811091,"i_lat":-6.185545,"station_name":"Tanah Abang"},{"i_lat":-6.155215,"i_long":106.800832,"distance":3632,"station_id":"DU","transit":true,"station_name":"Duri","time":8,"line":1,"is_transit":true},{"i_lat":-6.144674,"station_id":"AK","station_name":"Angke","i_long":106.79867,"line":0,"distance":1230,"time":4,"is_transit":false,"transit":false},{"is_transit":true,"line":0,"transit":false,"time":9,"station_name":"Kampung Bandan","distance":4102,"station_id":"KPB","i_long":106.826365,"i_lat":-6.132549}],[{"distance":0,"station_id":"PSE","is_transit":false,"i_long":106.84368,"line":11,"station_name":"Pasar Senen","time":0,"i_lat":-6.174784,"transit":false},{"distance":1567,"is_transit":false,"transit":false,"station_id":"GST","time":8,"i_lat":-6.185975,"i_long":106.850107,"line":11,"station_name":"Gang Sentiong"},{"transit":false,"i_lat":-6.193792,"line":11,"distance":973,"is_transit":false,"station_id":"KMT","time":1,"i_long":106.855437,"station_name":"Kramat"},{"station_name":"Pondok Jati","i_long":106.861737,"distance":1829,"station_id":"POK","is_transit":false,"time":2,"i_lat":-6.209188,"line":11,"transit":false},{"i_lat":-6.215091,"transit":true,"time":9,"i_long":106.86807400000001,"line":0,"distance":1236,"station_id":"JNG","station_name":"Jatinegara","is_transit":true},{"i_lat":-6.212485,"distance":1377,"station_id":"MTR","transit":false,"is_transit":false,"i_long":106.858896,"line":1,"station_name":"Matraman","time":2},{"transit":true,"station_name":"Manggarai","i_lat":-6.209883,"distance":1275,"station_id":"MRI","time":2,"line":0,"is_transit":true,"i_long":106.84912},{"i_lat":-6.198556,"station_name":"Cikini","line":0,"transit":false,"station_id":"CKI","distance":1590,"time":4,"i_long":106.840169,"is_transit":false},{"i_long":106.832183,"station_id":"GDD","i_lat":-6.186295,"transit":false,"distance":1750,"time":3,"is_transit":false,"station_name":"Gondangdia","line":2},{"time":4,"station_id":"JUA","station_name":"Juanda","is_transit":false,"i_lat":-6.166716,"transit":false,"distance":2015,"line":2,"i_long":106.828284},{"station_name":"Sawah Besar","distance":1149,"transit":false,"line":2,"time":2,"i_lat":-6.160725,"station_id":"SW","is_transit":false,"i_long":106.827103},{"i_long":106.82482,"station_name":"Manggabesar","line":2,"time":2,"is_transit":false,"station_id":"MGB","transit":false,"distance":906,"i_lat":-6.149769},{"is_transit":false,"station_name":"Jayakarta","i_long":106.820901,"distance":1080,"i_lat":-6.141205,"time":2,"station_id":"JAY","transit":false,"line":7},{"is_transit":true,"transit":true,"i_lat":-6.137569,"line":0,"i_long":106.812439,"time":4,"distance":1264,"station_id":"JAKK","station_name":"Jakarta Kota"},{"is_transit":true,"station_name":"Kampung Bandan","distance":1364,"transit":false,"station_id":"KPB","i_lat":-6.132549,"line":0,"time":3,"i_long":106.826365}]]}