{"data":[[{"is_transit":false,"transit":false,"station_id":"PSE","i_lat":-6.174784,"station_name":"Pasar Senen","distance":0,"line":11,"i_long":106.84368,"time":0},{"station_id":"KMO","distance":1436,"line":11,"station_name":"Kemayoran","i_lat":-6.161728,"i_long":106.839204,"transit":false,"is_transit":false,"time":4},{"line":11,"transit":false,"is_transit":false,"distance":1901,"station_name":"Rajawali","time":5,"i_lat":-6.14505,"station_id":"RJW","i_long":106.836569},{"i_long":106.826365,"station_name":"Kampung Bandan","station_id":"KPB","is_transit":true,"time":3,"distance":1444,"line":4,"transit":true,"i_lat":-6.132549},{"station_name":"Angke","i_lat":-6.144674,"line":1,"station_id":"AK","transit":false,"time":9,"is_transit":false,"i_long":106.79867,"distance":4102},{"i_lat":-6.155215,"is_transit":false,"time":4,"line":1,"i_long":106.800832,"transit":false,"distance":1230,"station_name":"Duri","station_id":"DU"},{"i_long":106.811091,"time":8,"distance":3632,"i_lat":-6.185545,"station_name":"Tanah Abang","is_transit":true,"line":1,"transit":true,"station_id":"THB"},{"i_lat":-6.207404,"distance":3191,"transit":false,"station_name":"Palmerah","line":6,"i_long":106.79689,"is_transit":false,"time":6,"station_id":"PLM"},{"i_long":106.780334,"distance":3737,"i_lat":-6.237242,"transit":false,"station_name":"Kebayoran","time":7,"line":6,"station_id":"KBY","is_transit":false},{"i_long":106.74273,"line":6,"is_transit":false,"station_id":"PDJ","time":8,"i_lat":-6.276362,"transit":false,"station_name":"Pondokranji","distance":6218},{"station_name":"Jurangmangu","i_lat":-6.288927,"i_long":106.728916,"is_transit":false,"line":6,"station_id":"JMU","transit":false,"time":3,"distance":2179},{"time":4,"i_lat":-6.296963,"i_long":106.712277,"line":6,"station_name":"Sudimara","station_id":"SDM","transit":false,"is_transit":false,"distance":1994},{"i_long":106.675475,"distance":4566,"station_name":"Rawa Buntu","station_id":"RU","time":6,"is_transit":false,"line":6,"transit":false,"i_lat":-6.314823},{"station_name":"Serpong","distance":2413,"i_lat":-6.319871,"is_transit":false,"station_id":"SRP","time":4,"i_long":106.66566,"line":6,"transit":false},{"is_transit":false,"transit":false,"time":4,"station_id":"CSK","distance":1784,"i_long":106.640411,"i_lat":-6.32484,"line":3,"station_name":"Cisauk"},{"station_id":"CC","line":3,"transit":false,"i_lat":-6.329547,"is_transit":false,"time":4,"distance":2519,"i_long":106.617853,"station_name":"Cicayur"},{"i_lat":-6.3441410000000005,"i_long":106.568863,"station_id":"PRP","distance":5968,"station_name":"Parung Panjang","is_transit":false,"line":6,"transit":false,"time":8},{"transit":false,"station_name":"Cilejit","is_transit":false,"time":9,"distance":7025,"line":3,"i_lat":-6.354349,"i_long":106.508482,"station_id":"CJT"},{"transit":false,"station_id":"DAR","is_transit":false,"distance":2675,"time":6,"i_lat":-6.338021,"line":0,"i_long":106.491338,"station_name":"Daru"}],[{"station_id":"PSE","station_name":"Pasar Senen","i_lat":-6.174784,"transit":false,"time":0,"distance":0,"line":11,"i_long":106.84368,"is_transit":false},{"transit":false,"time":8,"i_lat":-6.185975,"i_long":106.850107,"station_name":"Gang Sentiong","station_id":"GST","line":11,"distance":1567,"is_transit":false},{"transit":false,"station_name":"Kramat","is_transit":false,"i_lat":-6.193792,"station_id":"KMT","line":11,"time":1,"i_long":106.855437,"distance":973},{"i_lat":-6.209188,"line":11,"time":2,"transit":false,"i_long":106.861737,"station_id":"POK","distance":1829,"station_name":"Pondok Jati","is_transit":false},{"i_long":106.86807400000001,"station_name":"Jatinegara","i_lat":-6.215091,"time":9,"distance":1236,"transit":true,"is_transit":true,"line":1,"station_id":"JNG"},{"i_lat":-6.212485,"station_name":"Matraman","is_transit":false,"line":1,"transit":false,"time":2,"distance":1377,"station_id":"MTR","i_long":106.858896},{"line":2,"transit":false,"is_transit":false,"distance":1275,"i_long":106.84912,"time":2,"station_name":"Manggarai","station_id":"MRI","i_lat":-6.209883},{"station_id":"SUD","line":1,"distance":3186,"is_transit":false,"i_long":106.822649,"i_lat":-6.202263,"time":4,"station_name":"Sudirman","transit":false},{"transit":false,"station_name":"Sudirman Baru","station_id":"SUDB","time":1,"i_lat":-6.201433,"line":1,"i_long":106.819881,"distance":280,"is_transit":false},{"station_name":"Karet","station_id":"KAT","i_lat":-6.20132,"transit":false,"time":1,"distance":471,"line":1,"is_transit":false,"i_long":106.816351},{"distance":2029,"i_lat":-6.185545,"station_id":"THB","time":5,"line":1,"transit":true,"station_name":"Tanah Abang","is_transit":true,"i_long":106.811091},{"station_id":"PLM","distance":3191,"time":6,"i_lat":-6.207404,"station_name":"Palmerah","i_long":106.79689,"transit":false,"is_transit":false,"line":6},{"station_name":"Kebayoran","time":7,"station_id":"KBY","distance":3737,"transit":false,"is_transit":false,"i_lat":-6.237242,"line":6,"i_long":106.780334},{"i_long":106.74273,"line":6,"distance":6218,"is_transit":false,"time":8,"transit":false,"station_name":"Pondokranji","station_id":"PDJ","i_lat":-6.276362},{"is_transit":false,"line":6,"station_name":"Jurangmangu","station_id":"JMU","i_lat":-6.288927,"time":3,"transit":false,"i_long":106.728916,"distance":2179},{"station_name":"Sudimara","is_transit":false,"transit":false,"station_id":"SDM","time":4,"distance":1994,"i_lat":-6.296963,"line":6,"i_long":106.712277},{"time":6,"distance":4566,"i_lat":-6.314823,"station_name":"Rawa Buntu","is_transit":false,"i_long":106.675475,"line":6,"station_id":"RU","transit":false},{"i_long":106.66566,"station_name":"Serpong","i_lat":-6.319871,"station_id":"SRP","distance":2413,"is_transit":false,"transit":false,"time":4,"line":6},{"time":4,"i_lat":-6.32484,"transit":false,"station_id":"CSK","is_transit":false,"line":3,"station_name":"Cisauk","distance":1784,"i_long":106.640411},{"station_id":"CC","is_transit":false,"i_long":106.617853,"station_name":"Cicayur","time":4,"transit":false,"line":3,"distance":2519,"i_lat":-6.329547},{"station_name":"Parung Panjang","i_long":106.568863,"line":6,"station_id":"PRP","i_lat":-6.3441410000000005,"time":8,"transit":false,"distance":5968,"is_transit":false},{"transit":false,"i_lat":-6.354349,"is_transit":false,"distance":7025,"station_id":"CJT","time":9,"line":3,"station_name":"Cilejit","i_long":106.508482},{"transit":false,"station_id":"DAR","distance":2675,"station_name":"Daru","is_transit":false,"time":6,"i_lat":-6.338021,"line":0,"i_long":106.491338}],[{"line":11,"time":0,"i_lat":-6.174784,"is_transit":false,"transit":false,"station_id":"PSE","station_name":"Pasar Senen","distance":0,"i_long":106.84368},{"i_long":106.839204,"line":11,"transit":false,"time":4,"distance":1436,"station_name":"Kemayoran","station_id":"KMO","is_transit":false,"i_lat":-6.161728},{"i_long":106.836569,"transit":false,"is_transit":false,"station_id":"RJW","time":5,"distance":1901,"station_name":"Rajawali","i_lat":-6.14505,"line":11},{"is_transit":true,"i_long":106.826365,"line":4,"time":3,"distance":1444,"transit":true,"i_lat":-6.132549,"station_name":"Kampung Bandan","station_id":"KPB"},{"i_long":106.812439,"line":2,"station_id":"JAKK","i_lat":-6.137569,"transit":true,"distance":1364,"time":3,"is_transit":true,"station_name":"Jakarta Kota"},{"is_transit":false,"i_lat":-6.141205,"station_id":"JAY","line":2,"time":4,"station_name":"Jayakarta","distance":1264,"i_long":106.820901,"transit":false},{"distance":1080,"station_name":"Manggabesar","station_id":"MGB","i_long":106.82482,"time":2,"transit":false,"i_lat":-6.149769,"line":2,"is_transit":false},{"i_lat":-6.160725,"transit":false,"line":2,"i_long":106.827103,"is_transit":false,"station_id":"SW","station_name":"Sawah Besar","distance":906,"time":2},{"time":2,"station_name":"Juanda","transit":false,"distance":1149,"i_lat":-6.166716,"i_long":106.828284,"line":2,"station_id":"JUA","is_transit":false},{"station_id":"GDD","is_transit":false,"distance":2015,"time":4,"i_lat":-6.186295,"line":2,"transit":false,"station_name":"Gondangdia","i_long":106.832183},{"station_id":"CKI","i_long":106.840169,"distance":1750,"transit":false,"line":2,"is_transit":false,"station_name":"Cikini","time":3,"i_lat":-6.198556},{"station_name":"Manggarai","is_transit":true,"i_lat":-6.209883,"line":2,"transit":true,"station_id":"MRI","i_long":106.84912,"distance":1590,"time":4},{"station_id":"SUD","i_lat":-6.202263,"distance":3186,"transit":false,"is_transit":false,"time":4,"i_long":106.822649,"line":1,"station_name":"Sudirman"},{"transit":false,"i_long":106.819881,"is_transit":false,"line":1,"station_id":"SUDB","time":1,"i_lat":-6.201433,"station_name":"Sudirman Baru","distance":280},{"line":1,"is_transit":false,"time":1,"i_long":106.816351,"station_name":"Karet","i_lat":-6.20132,"transit":false,"station_id":"KAT","distance":471},{"distance":2029,"station_name":"Tanah Abang","station_id":"THB","time":5,"i_lat":-6.185545,"line":1,"is_transit":true,"transit":true,"i_long":106.811091},{"transit":false,"is_transit":false,"distance":3191,"i_long":106.79689,"time":6,"station_id":"PLM","station_name":"Palmerah","line":6,"i_lat":-6.207404},{"line":6,"is_transit":false,"station_name":"Kebayoran","station_id":"KBY","distance":3737,"i_lat":-6.237242,"time":7,"i_long":106.780334,"transit":false},{"i_lat":-6.276362,"station_name":"Pondokranji","distance":6218,"transit":false,"time":8,"station_id":"PDJ","i_long":106.74273,"is_transit":false,"line":6},{"i_lat":-6.288927,"transit":false,"distance":2179,"is_transit":false,"i_long":106.728916,"station_id":"JMU","station_name":"Jurangmangu","time":3,"line":6},{"time":4,"transit":false,"distance":1994,"line":6,"station_id":"SDM","i_long":106.712277,"station_name":"Sudimara","i_lat":-6.296963,"is_transit":false},{"distance":4566,"i_long":106.675475,"station_id":"RU","station_name":"Rawa Buntu","i_lat":-6.314823,"line":6,"transit":false,"is_transit":false,"time":6},{"station_id":"SRP","is_transit":false,"line":6,"station_name":"Serpong","time":4,"distance":2413,"transit":false,"i_lat":-6.319871,"i_long":106.66566},{"transit":false,"station_name":"Cisauk","time":4,"i_long":106.640411,"line":3,"distance":1784,"i_lat":-6.32484,"station_id":"CSK","is_transit":false},{"distance":2519,"line":3,"transit":false,"station_name":"Cicayur","i_long":106.617853,"time":4,"i_lat":-6.329547,"station_id":"CC","is_transit":false},{"time":8,"line":6,"station_name":"Parung Panjang","i_lat":-6.3441410000000005,"is_transit":false,"station_id":"PRP","transit":false,"distance":5968,"i_long":106.568863},{"i_long":106.508482,"distance":7025,"i_lat":-6.354349,"time":9,"transit":false,"station_name":"Cilejit","station_id":"CJT","is_transit":false,"line":3},{"transit":false,"station_name":"Daru","is_transit":false,"time":6,"i_long":106.491338,"line":0,"i_lat":-6.338021,"station_id":"DAR","distance":2675}],[{"i_long":106.84368,"transit":false,"station_id":"PSE","is_transit":false,"line":11,"distance":0,"time":0,"station_name":"Pasar Senen","i_lat":-6.174784},{"station_name":"Gang Sentiong","i_long":106.850107,"station_id":"GST","distance":1567,"time":8,"i_lat":-6.185975,"is_transit":false,"line":11,"transit":false},{"i_lat":-6.193792,"distance":973,"time":1,"line":11,"i_long":106.855437,"station_name":"Kramat","station_id":"KMT","transit":false,"is_transit":false},{"transit":false,"line":11,"station_id":"POK","distance":1829,"i_lat":-6.209188,"is_transit":false,"i_long":106.861737,"station_name":"Pondok Jati","time":2},{"time":9,"line":1,"station_id":"JNG","i_lat":-6.215091,"transit":true,"distance":1236,"station_name":"Jatinegara","i_long":106.86807400000001,"is_transit":true},{"time":2,"station_name":"Matraman","line":1,"distance":1377,"i_long":106.858896,"transit":false,"station_id":"MTR","i_lat":-6.212485,"is_transit":false},{"i_lat":-6.209883,"time":2,"i_long":106.84912,"transit":true,"is_transit":true,"distance":1275,"line":2,"station_id":"MRI","station_name":"Manggarai"},{"time":4,"i_long":106.840169,"distance":1590,"line":2,"station_id":"CKI","transit":false,"is_transit":false,"i_lat":-6.198556,"station_name":"Cikini"},{"station_id":"GDD","is_transit":false,"distance":1750,"station_name":"Gondangdia","line":2,"i_long":106.832183,"i_lat":-6.186295,"time":3,"transit":false},{"station_name":"Juanda","distance":2015,"time":4,"transit":false,"i_lat":-6.166716,"is_transit":false,"i_long":106.828284,"line":2,"station_id":"JUA"},{"station_id":"SW","i_long":106.827103,"is_transit":false,"time":2,"distance":1149,"station_name":"Sawah Besar","transit":false,"i_lat":-6.160725,"line":2},{"i_lat":-6.149769,"station_id":"MGB","line":2,"distance":906,"i_long":106.82482,"transit":false,"station_name":"Manggabesar","is_transit":false,"time":2},{"i_lat":-6.141205,"transit":false,"station_name":"Jayakarta","line":2,"time":2,"station_id":"JAY","distance":1080,"i_long":106.820901,"is_transit":false},{"line":2,"distance":1264,"station_name":"Jakarta Kota","is_transit":true,"transit":true,"station_id":"JAKK","i_long":106.812439,"i_lat":-6.137569,"time":4},{"i_lat":-6.132549,"station_name":"Kampung Bandan","station_id":"KPB","time":3,"distance":1364,"is_transit":true,"transit":true,"i_long":106.826365,"line":4},{"time":9,"is_transit":false,"distance":4102,"station_name":"Angke","i_long":106.79867,"i_lat":-6.144674,"transit":false,"station_id":"AK","line":1},{"transit":false,"i_long":106.800832,"station_id":"DU","time":4,"distance":1230,"i_lat":-6.155215,"line":1,"station_name":"Duri","is_transit":false},{"time":8,"station_id":"THB","station_name":"Tanah Abang","is_transit":true,"line":1,"distance":3632,"transit":true,"i_long":106.811091,"i_lat":-6.185545},{"station_id":"PLM","station_name":"Palmerah","is_transit":false,"distance":3191,"i_long":106.79689,"transit":false,"time":6,"i_lat":-6.207404,"line":6},{"i_long":106.780334,"distance":3737,"station_name":"Kebayoran","transit":false,"i_lat":-6.237242,"station_id":"KBY","is_transit":false,"line":6,"time":7},{"i_long":106.74273,"distance":6218,"line":6,"transit":false,"time":8,"is_transit":false,"i_lat":-6.276362,"station_id":"PDJ","station_name":"Pondokranji"},{"is_transit":false,"time":3,"station_name":"Jurangmangu","i_lat":-6.288927,"transit":false,"station_id":"JMU","i_long":106.728916,"distance":2179,"line":6},{"station_name":"Sudimara","transit":false,"station_id":"SDM","is_transit":false,"i_lat":-6.296963,"i_long":106.712277,"time":4,"distance":1994,"line":6},{"station_name":"Rawa Buntu","station_id":"RU","is_transit":false,"i_lat":-6.314823,"i_long":106.675475,"time":6,"distance":4566,"transit":false,"line":6},{"distance":2413,"i_lat":-6.319871,"i_long":106.66566,"is_transit":false,"station_name":"Serpong","time":4,"station_id":"SRP","transit":false,"line":6},{"station_name":"Cisauk","distance":1784,"station_id":"CSK","transit":false,"line":3,"i_long":106.640411,"i_lat":-6.32484,"is_transit":false,"time":4},{"distance":2519,"i_long":106.617853,"time":4,"line":3,"station_name":"Cicayur","station_id":"CC","is_transit":false,"transit":false,"i_lat":-6.329547},{"time":8,"station_id":"PRP","distance":5968,"i_long":106.568863,"line":6,"transit":false,"is_transit":false,"station_name":"Parung Panjang","i_lat":-6.3441410000000005},{"i_long":106.508482,"transit":false,"station_name":"Cilejit","station_id":"CJT","is_transit":false,"distance":7025,"time":9,"i_lat":-6.354349,"line":3},{"distance":2675,"line":0,"i_lat":-6.338021,"station_name":"Daru","time":6,"station_id":"DAR","transit":false,"is_transit":false,"i_long":106.491338}]]}