{"data":[[{"distance":0,"line":11,"transit":false,"is_transit":false,"i_lat":-6.174784,"station_name":"Pasar Senen","station_id":"PSE","i_long":106.84368,"time":0},{"distance":1436,"i_long":106.839204,"station_name":"Kemayoran","i_lat":-6.161728,"station_id":"KMO","line":11,"transit":false,"is_transit":false,"time":4},{"time":5,"station_id":"RJW","distance":1901,"i_long":106.836569,"line":11,"i_lat":-6.14505,"is_transit":false,"transit":false,"station_name":"Rajawali"},{"time":3,"station_id":"KPB","station_name":"Kampung Bandan","is_transit":true,"distance":1444,"i_lat":-6.132549,"i_long":106.826365,"line":4,"transit":true},{"time":3,"i_lat":-6.137569,"transit":true,"i_long":106.812439,"line":2,"station_id":"JAKK","is_transit":true,"station_name":"Jakarta Kota","distance":1364},{"distance":1264,"station_id":"JAY","i_lat":-6.141205,"line":2,"i_long":106.820901,"station_name":"Jayakarta","transit":false,"is_transit":false,"time":4}],[{"station_name":"Pasar Senen","transit":false,"distance":0,"time":0,"is_transit":false,"i_lat":-6.174784,"line":11,"station_id":"PSE","i_long":106.84368},{"station_id":"GST","distance":1567,"transit":false,"i_lat":-6.185975,"i_long":106.850107,"time":8,"is_transit":false,"line":11,"station_name":"Gang Sentiong"},{"station_name":"Kramat","is_transit":false,"station_id":"KMT","line":11,"transit":false,"distance":973,"time":1,"i_long":106.855437,"i_lat":-6.193792},{"i_long":106.861737,"station_name":"Pondok Jati","time":2,"distance":1829,"is_transit":false,"transit":false,"i_lat":-6.209188,"station_id":"POK","line":11},{"station_id":"JNG","time":9,"station_name":"Jatinegara","transit":true,"line":1,"distance":1236,"i_long":106.86807400000001,"i_lat":-6.215091,"is_transit":true},{"station_name":"Matraman","time":2,"i_lat":-6.212485,"transit":false,"distance":1377,"is_transit":false,"station_id":"MTR","i_long":106.858896,"line":1},{"is_transit":true,"station_id":"MRI","line":2,"transit":true,"i_lat":-6.209883,"i_long":106.84912,"time":2,"station_name":"Manggarai","distance":1275},{"line":2,"i_long":106.840169,"time":4,"transit":false,"station_id":"CKI","station_name":"Cikini","is_transit":false,"distance":1590,"i_lat":-6.198556},{"line":2,"distance":1750,"transit":false,"station_name":"Gondangdia","station_id":"GDD","is_transit":false,"i_long":106.832183,"time":3,"i_lat":-6.186295},{"i_lat":-6.166716,"line":2,"transit":false,"station_name":"Juanda","distance":2015,"is_transit":false,"station_id":"JUA","time":4,"i_long":106.828284},{"i_long":106.827103,"i_lat":-6.160725,"line":2,"station_id":"SW","time":2,"is_transit":false,"station_name":"Sawah Besar","transit":false,"distance":1149},{"time":2,"i_long":106.82482,"transit":false,"i_lat":-6.149769,"station_name":"Manggabesar","is_transit":false,"station_id":"MGB","line":2,"distance":906},{"i_long":106.820901,"line":2,"station_name":"Jayakarta","time":2,"transit":false,"station_id":"JAY","distance":1080,"i_lat":-6.141205,"is_transit":false}],[{"station_name":"Pasar Senen","is_transit":false,"distance":0,"i_lat":-6.174784,"transit":false,"i_long":106.84368,"station_id":"PSE","line":11,"time":0},{"station_id":"GST","line":11,"is_transit":false,"transit":false,"station_name":"Gang Sentiong","distance":1567,"i_long":106.850107,"time":8,"i_lat":-6.185975},{"time":1,"station_id":"KMT","distance":973,"i_lat":-6.193792,"station_name":"Kramat","line":11,"transit":false,"is_transit":false,"i_long":106.855437},{"transit":false,"line":11,"station_id":"POK","distance":1829,"time":2,"is_transit":false,"i_lat":-6.209188,"i_long":106.861737,"station_name":"Pondok Jati"},{"i_long":106.86807400000001,"transit":true,"is_transit":true,"station_id":"JNG","distance":1236,"line":1,"time":9,"i_lat":-6.215091,"station_name":"Jatinegara"},{"line":1,"station_id":"MTR","time":2,"is_transit":false,"i_long":106.858896,"transit":false,"i_lat":-6.212485,"station_name":"Matraman","distance":1377},{"station_name":"Manggarai","time":2,"line":2,"is_transit":false,"i_long":106.84912,"transit":false,"i_lat":-6.209883,"distance":1275,"station_id":"MRI"},{"station_id":"SUD","i_long":106.822649,"distance":3186,"transit":false,"time":4,"is_transit":false,"line":1,"i_lat":-6.202263,"station_name":"Sudirman"},{"line":1,"is_transit":false,"distance":280,"transit":false,"i_long":106.819881,"i_lat":-6.201433,"station_name":"Sudirman Baru","time":1,"station_id":"SUDB"},{"distance":471,"line":1,"transit":false,"time":1,"is_transit":false,"i_long":106.816351,"station_name":"Karet","i_lat":-6.20132,"station_id":"KAT"},{"time":5,"station_name":"Tanah Abang","i_lat":-6.185545,"distance":2029,"transit":false,"line":1,"is_transit":false,"station_id":"THB","i_long":106.811091},{"time":8,"transit":false,"is_transit":false,"i_lat":-6.155215,"station_name":"Duri","distance":3632,"i_long":106.800832,"line":1,"station_id":"DU"},{"is_transit":false,"time":4,"i_long":106.79867,"distance":1230,"line":1,"i_lat":-6.144674,"station_name":"Angke","transit":false,"station_id":"AK"},{"is_transit":true,"line":4,"distance":4102,"i_lat":-6.132549,"time":9,"station_name":"Kampung Bandan","i_long":106.826365,"station_id":"KPB","transit":true},{"transit":true,"station_name":"Jakarta Kota","time":3,"is_transit":true,"i_lat":-6.137569,"i_long":106.812439,"line":2,"station_id":"JAKK","distance":1364},{"i_lat":-6.141205,"station_id":"JAY","i_long":106.820901,"transit":false,"station_name":"Jayakarta","is_transit":false,"distance":1264,"line":2,"time":4}],[{"time":0,"i_lat":-6.174784,"is_transit":false,"line":11,"transit":false,"station_id":"PSE","i_long":106.84368,"station_name":"Pasar Senen","distance":0},{"station_name":"Kemayoran","time":4,"i_lat":-6.161728,"line":11,"transit":false,"is_transit":false,"distance":1436,"station_id":"KMO","i_long":106.839204},{"station_name":"Rajawali","line":11,"time":5,"station_id":"RJW","transit":false,"i_long":106.836569,"is_transit":false,"i_lat":-6.14505,"distance":1901},{"i_long":106.826365,"line":4,"station_id":"KPB","distance":1444,"i_lat":-6.132549,"station_name":"Kampung Bandan","is_transit":true,"transit":true,"time":3},{"station_id":"AK","i_lat":-6.144674,"distance":4102,"transit":false,"is_transit":false,"i_long":106.79867,"station_name":"Angke","time":9,"line":1},{"station_id":"DU","transit":false,"station_name":"Duri","is_transit":false,"distance":1230,"time":4,"i_lat":-6.155215,"line":1,"i_long":106.800832},{"i_lat":-6.185545,"line":1,"station_name":"Tanah Abang","station_id":"THB","is_transit":false,"time":8,"distance":3632,"transit":false,"i_long":106.811091},{"transit":false,"i_long":106.816351,"is_transit":false,"station_name":"Karet","distance":2029,"station_id":"KAT","i_lat":-6.20132,"line":1,"time":5},{"i_long":106.819881,"distance":471,"transit":false,"time":1,"i_lat":-6.201433,"is_transit":false,"station_name":"Sudirman Baru","station_id":"SUDB","line":1},{"time":1,"i_long":106.822649,"station_id":"SUD","is_transit":false,"line":1,"station_name":"Sudirman","i_lat":-6.202263,"transit":false,"distance":280},{"transit":true,"i_long":106.84912,"i_lat":-6.209883,"station_id":"MRI","is_transit":true,"time":4,"distance":3186,"station_name":"Manggarai","line":2},{"i_lat":-6.198556,"distance":1590,"transit":false,"i_long":106.840169,"line":2,"station_name":"Cikini","station_id":"CKI","is_transit":false,"time":4},{"transit":false,"station_name":"Gondangdia","is_transit":false,"time":3,"line":2,"station_id":"GDD","i_lat":-6.186295,"i_long":106.832183,"distance":1750},{"line":2,"distance":2015,"i_long":106.828284,"i_lat":-6.166716,"station_id":"JUA","is_transit":false,"station_name":"Juanda","time":4,"transit":false},{"is_transit":false,"distance":1149,"transit":false,"i_lat":-6.160725,"line":2,"i_long":106.827103,"station_id":"SW","time":2,"station_name":"Sawah Besar"},{"line":2,"station_id":"MGB","station_name":"Manggabesar","distance":906,"i_lat":-6.149769,"is_transit":false,"time":2,"i_long":106.82482,"transit":false},{"is_transit":false,"distance":1080,"i_long":106.820901,"time":2,"transit":false,"i_lat":-6.141205,"station_name":"Jayakarta","line":2,"station_id":"JAY"}]]}