{"data":[[{"station_id":"PSE","transit":false,"is_transit":false,"time":0,"i_lat":-6.174784,"station_name":"Pasar Senen","i_long":106.84368,"line":11,"distance":0},{"line":11,"station_name":"Kemayoran","station_id":"KMO","is_transit":false,"i_long":106.839204,"transit":false,"distance":1436,"time":4,"i_lat":-6.161728},{"i_long":106.836569,"line":11,"station_name":"Rajawali","station_id":"RJW","is_transit":false,"distance":1901,"time":5,"i_lat":-6.14505,"transit":false},{"i_long":106.826365,"transit":true,"time":3,"station_name":"Kampung Bandan","i_lat":-6.132549,"distance":1444,"is_transit":true,"line":4,"station_id":"KPB"},{"station_name":"Angke","station_id":"AK","is_transit":false,"distance":4102,"line":1,"i_lat":-6.144674,"i_long":106.79867,"time":9,"transit":false},{"is_transit":false,"i_long":106.800832,"station_name":"Duri","i_lat":-6.155215,"line":1,"time":4,"distance":1230,"transit":false,"station_id":"DU"},{"distance":3632,"time":8,"i_lat":-6.185545,"station_name":"Tanah Abang","transit":true,"line":1,"station_id":"THB","i_long":106.811091,"is_transit":true},{"time":6,"station_name":"Palmerah","distance":3191,"i_lat":-6.207404,"i_long":106.79689,"line":6,"transit":false,"station_id":"PLM","is_transit":false},{"transit":false,"is_transit":false,"i_lat":-6.237242,"distance":3737,"i_long":106.780334,"station_name":"Kebayoran","line":6,"station_id":"KBY","time":7},{"line":6,"station_name":"Pondokranji","transit":false,"station_id":"PDJ","time":8,"i_lat":-6.276362,"is_transit":false,"i_long":106.74273,"distance":6218},{"transit":false,"station_id":"JMU","i_long":106.728916,"distance":2179,"line":6,"is_transit":false,"station_name":"Jurangmangu","time":3,"i_lat":-6.288927},{"station_name":"Sudimara","line":6,"transit":false,"station_id":"SDM","i_lat":-6.296963,"time":4,"i_long":106.712277,"distance":1994,"is_transit":false},{"i_long":106.675475,"is_transit":false,"i_lat":-6.314823,"station_name":"Rawa Buntu","transit":false,"station_id":"RU","distance":4566,"time":6,"line":6},{"station_id":"SRP","time":4,"i_long":106.66566,"i_lat":-6.319871,"is_transit":false,"distance":2413,"transit":false,"line":6,"station_name":"Serpong"},{"time":4,"i_lat":-6.32484,"station_id":"CSK","is_transit":false,"i_long":106.640411,"transit":false,"line":3,"distance":1784,"station_name":"Cisauk"},{"time":4,"station_id":"CC","station_name":"Cicayur","is_transit":false,"line":3,"distance":2519,"transit":false,"i_long":106.617853,"i_lat":-6.329547},{"station_id":"PRP","station_name":"Parung Panjang","is_transit":false,"distance":5968,"i_long":106.568863,"transit":false,"time":8,"i_lat":-6.3441410000000005,"line":6},{"station_id":"CJT","station_name":"Cilejit","time":9,"transit":false,"is_transit":false,"i_long":106.508482,"line":3,"distance":7025,"i_lat":-6.354349},{"i_lat":-6.338021,"line":0,"transit":false,"is_transit":false,"station_id":"DAR","i_long":106.491338,"distance":2675,"time":6,"station_name":"Daru"},{"line":6,"station_name":"Tenjo","distance":3902,"i_lat":-6.327251,"transit":false,"station_id":"TEJ","is_transit":false,"time":5,"i_long":106.460812},{"station_id":"TGS","time":5,"i_lat":-6.328533,"line":6,"station_name":"Tigaraksa","transit":false,"i_long":106.425991,"distance":2974,"is_transit":false}],[{"station_id":"PSE","is_transit":false,"station_name":"Pasar Senen","i_lat":-6.174784,"time":0,"line":11,"transit":false,"distance":0,"i_long":106.84368},{"i_lat":-6.185975,"i_long":106.850107,"station_name":"Gang Sentiong","station_id":"GST","is_transit":false,"line":11,"distance":1567,"transit":false,"time":8},{"is_transit":false,"transit":false,"i_long":106.855437,"station_id":"KMT","distance":973,"i_lat":-6.193792,"line":11,"time":1,"station_name":"Kramat"},{"i_long":106.861737,"i_lat":-6.209188,"station_name":"Pondok Jati","transit":false,"is_transit":false,"distance":1829,"time":2,"line":11,"station_id":"POK"},{"station_name":"Jatinegara","i_lat":-6.215091,"line":1,"station_id":"JNG","is_transit":true,"distance":1236,"time":9,"transit":true,"i_long":106.86807400000001},{"distance":1377,"time":2,"i_lat":-6.212485,"transit":false,"station_id":"MTR","is_transit":false,"i_long":106.858896,"station_name":"Matraman","line":1},{"i_lat":-6.209883,"time":2,"transit":false,"station_id":"MRI","i_long":106.84912,"station_name":"Manggarai","is_transit":false,"line":2,"distance":1275},{"i_lat":-6.202263,"transit":false,"station_name":"Sudirman","time":4,"i_long":106.822649,"line":1,"distance":3186,"station_id":"SUD","is_transit":false},{"distance":280,"i_long":106.819881,"station_id":"SUDB","line":1,"station_name":"Sudirman Baru","transit":false,"time":1,"i_lat":-6.201433,"is_transit":false},{"is_transit":false,"time":1,"i_long":106.816351,"line":1,"i_lat":-6.20132,"transit":false,"distance":471,"station_name":"Karet","station_id":"KAT"},{"line":1,"distance":2029,"time":5,"transit":true,"station_id":"THB","i_lat":-6.185545,"i_long":106.811091,"station_name":"Tanah Abang","is_transit":true},{"line":6,"station_name":"Palmerah","i_long":106.79689,"distance":3191,"i_lat":-6.207404,"station_id":"PLM","time":6,"transit":false,"is_transit":false},{"i_long":106.780334,"station_name":"Kebayoran","i_lat":-6.237242,"time":7,"transit":false,"distance":3737,"line":6,"station_id":"KBY","is_transit":false},{"distance":6218,"i_lat":-6.276362,"i_long":106.74273,"line":6,"station_id":"PDJ","is_transit":false,"station_name":"Pondokranji","time":8,"transit":false},{"station_name":"Jurangmangu","line":6,"transit":false,"station_id":"JMU","i_lat":-6.288927,"i_long":106.728916,"is_transit":false,"time":3,"distance":2179},{"station_name":"Sudimara","transit":false,"station_id":"SDM","time":4,"i_lat":-6.296963,"distance":1994,"i_long":106.712277,"line":6,"is_transit":false},{"transit":false,"i_lat":-6.314823,"i_long":106.675475,"is_transit":false,"line":6,"station_name":"Rawa Buntu","station_id":"RU","time":6,"distance":4566},{"station_name":"Serpong","is_transit":false,"station_id":"SRP","i_long":106.66566,"distance":2413,"transit":false,"line":6,"time":4,"i_lat":-6.319871},{"transit":false,"station_id":"CSK","distance":1784,"i_long":106.640411,"i_lat":-6.32484,"station_name":"Cisauk","is_transit":false,"time":4,"line":3},{"station_id":"CC","time":4,"line":3,"distance":2519,"i_long":106.617853,"transit":false,"station_name":"Cicayur","i_lat":-6.329547,"is_transit":false},{"time":8,"i_lat":-6.3441410000000005,"distance":5968,"station_id":"PRP","transit":false,"i_long":106.568863,"line":6,"station_name":"Parung Panjang","is_transit":false},{"station_id":"CJT","i_lat":-6.354349,"distance":7025,"is_transit":false,"transit":false,"time":9,"i_long":106.508482,"station_name":"Cilejit","line":3},{"distance":2675,"time":6,"station_id":"DAR","is_transit":false,"i_lat":-6.338021,"transit":false,"i_long":106.491338,"line":0,"station_name":"Daru"},{"station_name":"Tenjo","transit":false,"time":5,"line":6,"i_long":106.460812,"station_id":"TEJ","distance":3902,"is_transit":false,"i_lat":-6.327251},{"distance":2974,"station_name":"Tigaraksa","time":5,"transit":false,"is_transit":false,"line":6,"station_id":"TGS","i_long":106.425991,"i_lat":-6.328533}],[{"time":0,"line":11,"station_id":"PSE","transit":false,"station_name":"Pasar Senen","is_transit":false,"distance":0,"i_lat":-6.174784,"i_long":106.84368},{"i_lat":-6.161728,"i_long":106.839204,"transit":false,"time":4,"station_name":"Kemayoran","station_id":"KMO","line":11,"distance":1436,"is_transit":false},{"is_transit":false,"time":5,"station_name":"Rajawali","station_id":"RJW","i_long":106.836569,"distance":1901,"line":11,"transit":false,"i_lat":-6.14505},{"station_id":"KPB","is_transit":true,"i_lat":-6.132549,"station_name":"Kampung Bandan","distance":1444,"i_long":106.826365,"transit":true,"time":3,"line":4},{"is_transit":true,"station_name":"Jakarta Kota","station_id":"JAKK","distance":1364,"time":3,"i_lat":-6.137569,"line":2,"transit":true,"i_long":106.812439},{"is_transit":false,"i_long":106.820901,"transit":false,"distance":1264,"i_lat":-6.141205,"time":4,"station_id":"JAY","line":2,"station_name":"Jayakarta"},{"transit":false,"i_long":106.82482,"distance":1080,"is_transit":false,"i_lat":-6.149769,"station_name":"Manggabesar","line":2,"station_id":"MGB","time":2},{"distance":906,"i_long":106.827103,"i_lat":-6.160725,"station_name":"Sawah Besar","station_id":"SW","is_transit":false,"time":2,"line":2,"transit":false},{"station_id":"JUA","time":2,"station_name":"Juanda","is_transit":false,"distance":1149,"i_long":106.828284,"transit":false,"line":2,"i_lat":-6.166716},{"distance":2015,"i_lat":-6.186295,"station_id":"GDD","transit":false,"station_name":"Gondangdia","is_transit":false,"time":4,"line":2,"i_long":106.832183},{"station_name":"Cikini","line":2,"i_lat":-6.198556,"distance":1750,"i_long":106.840169,"time":3,"transit":false,"station_id":"CKI","is_transit":false},{"i_lat":-6.209883,"i_long":106.84912,"line":2,"station_id":"MRI","time":4,"is_transit":true,"station_name":"Manggarai","transit":true,"distance":1590},{"station_id":"SUD","is_transit":false,"i_lat":-6.202263,"transit":false,"distance":3186,"station_name":"Sudirman","time":4,"i_long":106.822649,"line":1},{"transit":false,"distance":280,"i_lat":-6.201433,"is_transit":false,"time":1,"station_id":"SUDB","station_name":"Sudirman Baru","i_long":106.819881,"line":1},{"station_name":"Karet","i_long":106.816351,"station_id":"KAT","distance":471,"time":1,"transit":false,"i_lat":-6.20132,"is_transit":false,"line":1},{"distance":2029,"line":1,"station_name":"Tanah Abang","is_transit":true,"transit":true,"time":5,"i_lat":-6.185545,"station_id":"THB","i_long":106.811091},{"i_lat":-6.207404,"station_name":"Palmerah","line":6,"transit":false,"is_transit":false,"distance":3191,"i_long":106.79689,"station_id":"PLM","time":6},{"distance":3737,"transit":false,"is_transit":false,"i_lat":-6.237242,"station_id":"KBY","time":7,"i_long":106.780334,"line":6,"station_name":"Kebayoran"},{"transit":false,"distance":6218,"i_long":106.74273,"station_name":"Pondokranji","station_id":"PDJ","is_transit":false,"time":8,"line":6,"i_lat":-6.276362},{"line":6,"transit":false,"i_long":106.728916,"i_lat":-6.288927,"time":3,"station_name":"Jurangmangu","is_transit":false,"station_id":"JMU","distance":2179},{"station_name":"Sudimara","is_transit":false,"transit":false,"i_long":106.712277,"distance":1994,"time":4,"i_lat":-6.296963,"station_id":"SDM","line":6},{"i_lat":-6.314823,"i_long":106.675475,"station_name":"Rawa Buntu","time":6,"station_id":"RU","line":6,"is_transit":false,"distance":4566,"transit":false},{"distance":2413,"i_long":106.66566,"station_id":"SRP","is_transit":false,"transit":false,"i_lat":-6.319871,"time":4,"station_name":"Serpong","line":6},{"i_lat":-6.32484,"i_long":106.640411,"distance":1784,"line":3,"station_id":"CSK","station_name":"Cisauk","transit":false,"time":4,"is_transit":false},{"station_name":"Cicayur","i_long":106.617853,"transit":false,"station_id":"CC","distance":2519,"is_transit":false,"time":4,"line":3,"i_lat":-6.329547},{"transit":false,"i_lat":-6.3441410000000005,"station_id":"PRP","is_transit":false,"distance":5968,"station_name":"Parung Panjang","time":8,"line":6,"i_long":106.568863},{"is_transit":false,"line":3,"time":9,"distance":7025,"station_id":"CJT","i_lat":-6.354349,"i_long":106.508482,"station_name":"Cilejit","transit":false},{"line":0,"station_id":"DAR","i_long":106.491338,"time":6,"distance":2675,"i_lat":-6.338021,"transit":false,"station_name":"Daru","is_transit":false},{"time":5,"is_transit":false,"i_long":106.460812,"distance":3902,"i_lat":-6.327251,"station_name":"Tenjo","line":6,"station_id":"TEJ","transit":false},{"distance":2974,"is_transit":false,"i_lat":-6.328533,"i_long":106.425991,"time":5,"transit":false,"line":6,"station_id":"TGS","station_name":"Tigaraksa"}],[{"station_id":"PSE","station_name":"Pasar Senen","is_transit":false,"time":0,"i_lat":-6.174784,"i_long":106.84368,"line":11,"transit":false,"distance":0},{"transit":false,"station_id":"GST","time":8,"station_name":"Gang Sentiong","i_lat":-6.185975,"is_transit":false,"line":11,"distance":1567,"i_long":106.850107},{"transit":false,"i_lat":-6.193792,"station_name":"Kramat","time":1,"i_long":106.855437,"is_transit":false,"distance":973,"station_id":"KMT","line":11},{"distance":1829,"station_id":"POK","time":2,"i_long":106.861737,"transit":false,"is_transit":false,"i_lat":-6.209188,"line":11,"station_name":"Pondok Jati"},{"time":9,"station_id":"JNG","i_long":106.86807400000001,"transit":true,"station_name":"Jatinegara","distance":1236,"i_lat":-6.215091,"line":1,"is_transit":true},{"station_name":"Matraman","time":2,"i_long":106.858896,"line":1,"station_id":"MTR","transit":false,"distance":1377,"is_transit":false,"i_lat":-6.212485},{"i_lat":-6.209883,"i_long":106.84912,"distance":1275,"station_id":"MRI","line":2,"is_transit":true,"time":2,"transit":true,"station_name":"Manggarai"},{"station_id":"CKI","i_long":106.840169,"station_name":"Cikini","i_lat":-6.198556,"distance":1590,"line":2,"is_transit":false,"time":4,"transit":false},{"line":2,"transit":false,"station_id":"GDD","i_lat":-6.186295,"i_long":106.832183,"is_transit":false,"distance":1750,"station_name":"Gondangdia","time":3},{"station_id":"JUA","time":4,"is_transit":false,"station_name":"Juanda","distance":2015,"i_long":106.828284,"transit":false,"i_lat":-6.166716,"line":2},{"is_transit":false,"i_lat":-6.160725,"station_id":"SW","line":2,"station_name":"Sawah Besar","time":2,"distance":1149,"i_long":106.827103,"transit":false},{"station_id":"MGB","i_long":106.82482,"line":2,"transit":false,"station_name":"Manggabesar","is_transit":false,"time":2,"distance":906,"i_lat":-6.149769},{"is_transit":false,"line":2,"distance":1080,"i_long":106.820901,"station_name":"Jayakarta","time":2,"i_lat":-6.141205,"station_id":"JAY","transit":false},{"time":4,"i_lat":-6.137569,"distance":1264,"station_id":"JAKK","line":2,"i_long":106.812439,"transit":true,"station_name":"Jakarta Kota","is_transit":true},{"station_id":"KPB","time":3,"i_long":106.826365,"line":4,"is_transit":true,"station_name":"Kampung Bandan","distance":1364,"i_lat":-6.132549,"transit":true},{"time":9,"distance":4102,"i_long":106.79867,"station_id":"AK","i_lat":-6.144674,"is_transit":false,"line":1,"station_name":"Angke","transit":false},{"station_name":"Duri","is_transit":false,"time":4,"i_long":106.800832,"line":1,"transit":false,"station_id":"DU","i_lat":-6.155215,"distance":1230},{"station_name":"Tanah Abang","i_lat":-6.185545,"distance":3632,"i_long":106.811091,"transit":true,"station_id":"THB","is_transit":true,"time":8,"line":1},{"time":6,"is_transit":false,"station_id":"PLM","transit":false,"line":6,"i_lat":-6.207404,"distance":3191,"station_name":"Palmerah","i_long":106.79689},{"time":7,"station_name":"Kebayoran","i_lat":-6.237242,"transit":false,"distance":3737,"line":6,"is_transit":false,"i_long":106.780334,"station_id":"KBY"},{"transit":false,"is_transit":false,"i_long":106.74273,"line":6,"station_id":"PDJ","time":8,"distance":6218,"i_lat":-6.276362,"station_name":"Pondokranji"},{"is_transit":false,"station_id":"JMU","time":3,"i_lat":-6.288927,"i_long":106.728916,"line":6,"station_name":"Jurangmangu","distance":2179,"transit":false},{"i_long":106.712277,"distance":1994,"transit":false,"is_transit":false,"line":6,"i_lat":-6.296963,"time":4,"station_id":"SDM","station_name":"Sudimara"},{"station_id":"RU","i_lat":-6.314823,"transit":false,"time":6,"station_name":"Rawa Buntu","is_transit":false,"distance":4566,"line":6,"i_long":106.675475},{"distance":2413,"station_id":"SRP","i_long":106.66566,"time":4,"station_name":"Serpong","i_lat":-6.319871,"is_transit":false,"line":6,"transit":false},{"station_id":"CSK","time":4,"transit":false,"i_long":106.640411,"station_name":"Cisauk","line":3,"i_lat":-6.32484,"is_transit":false,"distance":1784},{"transit":false,"i_lat":-6.329547,"line":3,"is_transit":false,"time":4,"station_name":"Cicayur","station_id":"CC","i_long":106.617853,"distance":2519},{"time":8,"i_long":106.568863,"line":6,"i_lat":-6.3441410000000005,"station_id":"PRP","is_transit":false,"transit":false,"station_name":"Parung Panjang","distance":5968},{"distance":7025,"station_name":"Cilejit","transit":false,"i_lat":-6.354349,"is_transit":false,"time":9,"line":3,"i_long":106.508482,"station_id":"CJT"},{"time":6,"transit":false,"station_id":"DAR","i_long":106.491338,"i_lat":-6.338021,"is_transit":false,"station_name":"Daru","line":0,"distance":2675},{"station_name":"Tenjo","i_long":106.460812,"distance":3902,"i_lat":-6.327251,"line":6,"transit":false,"station_id":"TEJ","is_transit":false,"time":5},{"station_name":"Tigaraksa","time":5,"distance":2974,"transit":false,"station_id":"TGS","i_lat":-6.328533,"is_transit":false,"line":6,"i_long":106.425991}]]}