{"data":[[{"is_transit":false,"i_lat":-6.174784,"i_long":106.84368,"distance":0,"line":11,"time":0,"station_id":"PSE","transit":false,"station_name":"Pasar Senen"},{"i_long":106.839204,"station_name":"Kemayoran","i_lat":-6.161728,"line":11,"transit":false,"station_id":"KMO","is_transit":false,"distance":1436,"time":4},{"transit":false,"station_id":"RJW","station_name":"Rajawali","is_transit":false,"i_lat":-6.14505,"i_long":106.836569,"line":11,"time":5,"distance":1901},{"distance":1444,"station_name":"Kampung Bandan","transit":true,"is_transit":true,"station_id":"KPB","i_lat":-6.132549,"time":3,"i_long":106.826365,"line":4},{"time":9,"station_name":"Angke","station_id":"AK","distance":4102,"is_transit":false,"i_long":106.79867,"i_lat":-6.144674,"transit":false,"line":1},{"line":1,"is_transit":false,"time":4,"station_id":"DU","transit":false,"i_lat":-6.155215,"distance":1230,"station_name":"Duri","i_long":106.800832},{"time":8,"distance":3632,"station_name":"Tanah Abang","i_long":106.811091,"is_transit":true,"line":1,"transit":true,"station_id":"THB","i_lat":-6.185545},{"i_long":106.79689,"distance":3191,"time":6,"station_name":"Palmerah","station_id":"PLM","is_transit":false,"line":6,"i_lat":-6.207404,"transit":false},{"station_id":"KBY","time":7,"i_lat":-6.237242,"is_transit":false,"station_name":"Kebayoran","distance":3737,"i_long":106.780334,"transit":false,"line":6}],[{"transit":false,"station_id":"PSE","i_lat":-6.174784,"time":0,"station_name":"Pasar Senen","i_long":106.84368,"is_transit":false,"distance":0,"line":11},{"distance":1567,"station_name":"Gang Sentiong","line":11,"time":8,"is_transit":false,"i_lat":-6.185975,"station_id":"GST","i_long":106.850107,"transit":false},{"time":1,"i_long":106.855437,"transit":false,"i_lat":-6.193792,"station_id":"KMT","is_transit":false,"station_name":"Kramat","line":11,"distance":973},{"station_name":"Pondok Jati","station_id":"POK","time":2,"distance":1829,"i_long":106.861737,"transit":false,"i_lat":-6.209188,"line":11,"is_transit":false},{"station_id":"JNG","station_name":"Jatinegara","i_long":106.86807400000001,"distance":1236,"i_lat":-6.215091,"line":1,"time":9,"transit":true,"is_transit":true},{"distance":1377,"i_lat":-6.212485,"station_name":"Matraman","time":2,"line":1,"station_id":"MTR","is_transit":false,"i_long":106.858896,"transit":false},{"distance":1275,"station_id":"MRI","is_transit":false,"i_lat":-6.209883,"station_name":"Manggarai","i_long":106.84912,"line":2,"transit":false,"time":2},{"i_long":106.822649,"transit":false,"time":4,"station_id":"SUD","line":1,"station_name":"Sudirman","distance":3186,"is_transit":false,"i_lat":-6.202263},{"distance":280,"station_id":"SUDB","transit":false,"i_long":106.819881,"time":1,"is_transit":false,"station_name":"Sudirman Baru","i_lat":-6.201433,"line":1},{"distance":471,"line":1,"station_id":"KAT","station_name":"Karet","time":1,"i_long":106.816351,"is_transit":false,"i_lat":-6.20132,"transit":false},{"i_long":106.811091,"transit":true,"distance":2029,"station_id":"THB","is_transit":true,"line":1,"time":5,"i_lat":-6.185545,"station_name":"Tanah Abang"},{"line":6,"station_id":"PLM","time":6,"is_transit":false,"i_long":106.79689,"transit":false,"i_lat":-6.207404,"station_name":"Palmerah","distance":3191},{"station_name":"Kebayoran","time":7,"line":6,"is_transit":false,"i_long":106.780334,"transit":false,"i_lat":-6.237242,"distance":3737,"station_id":"KBY"}],[{"station_id":"PSE","i_long":106.84368,"distance":0,"transit":false,"time":0,"is_transit":false,"line":11,"i_lat":-6.174784,"station_name":"Pasar Senen"},{"line":11,"distance":1436,"is_transit":false,"transit":false,"i_long":106.839204,"i_lat":-6.161728,"station_name":"Kemayoran","time":4,"station_id":"KMO"},{"distance":1901,"line":11,"transit":false,"time":5,"is_transit":false,"i_long":106.836569,"station_name":"Rajawali","i_lat":-6.14505,"station_id":"RJW"},{"time":3,"station_name":"Kampung Bandan","i_lat":-6.132549,"distance":1444,"transit":true,"line":4,"is_transit":true,"station_id":"KPB","i_long":106.826365},{"time":3,"transit":true,"is_transit":true,"i_lat":-6.137569,"station_name":"Jakarta Kota","distance":1364,"i_long":106.812439,"line":2,"station_id":"JAKK"},{"is_transit":false,"time":4,"i_long":106.820901,"distance":1264,"line":2,"i_lat":-6.141205,"station_name":"Jayakarta","transit":false,"station_id":"JAY"},{"is_transit":false,"line":2,"distance":1080,"i_lat":-6.149769,"time":2,"station_name":"Manggabesar","i_long":106.82482,"station_id":"MGB","transit":false},{"transit":false,"station_name":"Sawah Besar","time":2,"is_transit":false,"i_lat":-6.160725,"i_long":106.827103,"line":2,"station_id":"SW","distance":906},{"i_lat":-6.166716,"station_id":"JUA","i_long":106.828284,"transit":false,"distance":1149,"station_name":"Juanda","is_transit":false,"line":2,"time":2},{"time":4,"i_lat":-6.186295,"is_transit":false,"line":2,"transit":false,"station_id":"GDD","i_long":106.832183,"distance":2015,"station_name":"Gondangdia"},{"station_name":"Cikini","time":3,"i_lat":-6.198556,"line":2,"transit":false,"distance":1750,"is_transit":false,"station_id":"CKI","i_long":106.840169},{"station_name":"Manggarai","line":2,"time":4,"station_id":"MRI","transit":true,"i_long":106.84912,"is_transit":true,"i_lat":-6.209883,"distance":1590},{"i_long":106.822649,"line":1,"station_id":"SUD","distance":3186,"i_lat":-6.202263,"station_name":"Sudirman","is_transit":false,"transit":false,"time":4},{"station_id":"SUDB","i_lat":-6.201433,"distance":280,"transit":false,"is_transit":false,"i_long":106.819881,"station_name":"Sudirman Baru","time":1,"line":1},{"transit":false,"station_id":"KAT","station_name":"Karet","is_transit":false,"distance":471,"time":1,"i_lat":-6.20132,"line":1,"i_long":106.816351},{"i_lat":-6.185545,"line":1,"station_name":"Tanah Abang","station_id":"THB","distance":2029,"is_transit":true,"time":5,"transit":true,"i_long":106.811091},{"transit":false,"i_long":106.79689,"distance":3191,"station_name":"Palmerah","is_transit":false,"station_id":"PLM","i_lat":-6.207404,"line":6,"time":6},{"line":6,"is_transit":false,"i_lat":-6.237242,"time":7,"station_name":"Kebayoran","transit":false,"distance":3737,"station_id":"KBY","i_long":106.780334}],[{"station_id":"PSE","time":0,"distance":0,"i_long":106.84368,"line":11,"station_name":"Pasar Senen","transit":false,"i_lat":-6.174784,"is_transit":false},{"transit":false,"station_name":"Gang Sentiong","time":8,"is_transit":false,"i_lat":-6.185975,"distance":1567,"i_long":106.850107,"station_id":"GST","line":11},{"i_lat":-6.193792,"transit":false,"line":11,"is_transit":false,"distance":973,"i_long":106.855437,"station_id":"KMT","station_name":"Kramat","time":1},{"station_id":"POK","is_transit":false,"transit":false,"i_lat":-6.209188,"time":2,"i_long":106.861737,"line":11,"station_name":"Pondok Jati","distance":1829},{"station_name":"Jatinegara","distance":1236,"time":9,"i_lat":-6.215091,"line":1,"transit":true,"is_transit":true,"i_long":106.86807400000001,"station_id":"JNG"},{"station_name":"Matraman","line":1,"transit":false,"i_lat":-6.212485,"is_transit":false,"time":2,"i_long":106.858896,"distance":1377,"station_id":"MTR"},{"i_long":106.84912,"time":2,"transit":true,"is_transit":true,"line":2,"distance":1275,"station_name":"Manggarai","i_lat":-6.209883,"station_id":"MRI"},{"line":2,"station_id":"CKI","time":4,"i_long":106.840169,"transit":false,"distance":1590,"i_lat":-6.198556,"is_transit":false,"station_name":"Cikini"},{"transit":false,"distance":1750,"is_transit":false,"i_lat":-6.186295,"station_id":"GDD","station_name":"Gondangdia","time":3,"i_long":106.832183,"line":2},{"transit":false,"distance":2015,"is_transit":false,"i_lat":-6.166716,"station_name":"Juanda","time":4,"i_long":106.828284,"line":2,"station_id":"JUA"},{"i_long":106.827103,"is_transit":false,"transit":false,"time":2,"station_name":"Sawah Besar","distance":1149,"i_lat":-6.160725,"station_id":"SW","line":2},{"i_long":106.82482,"distance":906,"time":2,"i_lat":-6.149769,"station_name":"Manggabesar","is_transit":false,"line":2,"transit":false,"station_id":"MGB"},{"time":2,"station_id":"JAY","line":2,"i_long":106.820901,"i_lat":-6.141205,"distance":1080,"station_name":"Jayakarta","transit":false,"is_transit":false},{"is_transit":true,"line":2,"station_name":"Jakarta Kota","station_id":"JAKK","transit":true,"time":4,"i_lat":-6.137569,"distance":1264,"i_long":106.812439},{"line":4,"time":3,"i_lat":-6.132549,"station_name":"Kampung Bandan","i_long":106.826365,"distance":1364,"is_transit":true,"transit":true,"station_id":"KPB"},{"line":1,"station_name":"Angke","transit":false,"time":9,"is_transit":false,"i_long":106.79867,"station_id":"AK","i_lat":-6.144674,"distance":4102},{"i_long":106.800832,"line":1,"transit":false,"station_id":"DU","is_transit":false,"time":4,"station_name":"Duri","i_lat":-6.155215,"distance":1230},{"line":1,"i_lat":-6.185545,"transit":true,"station_name":"Tanah Abang","time":8,"is_transit":true,"i_long":106.811091,"station_id":"THB","distance":3632},{"transit":false,"distance":3191,"is_transit":false,"i_lat":-6.207404,"i_long":106.79689,"time":6,"station_id":"PLM","line":6,"station_name":"Palmerah"},{"i_long":106.780334,"distance":3737,"is_transit":false,"i_lat":-6.237242,"transit":false,"line":6,"station_id":"KBY","station_name":"Kebayoran","time":7}]]}