{"data":[[{"station_id":"PSE","time":0,"is_transit":false,"i_long":106.84368,"distance":0,"station_name":"Pasar Senen","transit":false,"i_lat":-6.174784,"line":11},{"time":4,"i_lat":-6.161728,"station_name":"Kemayoran","station_id":"KMO","transit":false,"distance":1436,"i_long":106.839204,"line":11,"is_transit":false},{"transit":false,"i_lat":-6.14505,"i_long":106.836569,"station_name":"Rajawali","line":11,"distance":1901,"time":5,"station_id":"RJW","is_transit":false},{"i_long":106.826365,"line":0,"station_id":"KPB","station_name":"Kampung Bandan","transit":true,"distance":1444,"time":3,"i_lat":-6.132549,"is_transit":true},{"distance":4102,"station_name":"Angke","is_transit":false,"transit":false,"i_long":106.79867,"line":0,"i_lat":-6.144674,"station_id":"AK","time":9},{"station_name":"Duri","transit":true,"line":1,"distance":1230,"time":4,"i_lat":-6.155215,"i_long":106.800832,"is_transit":true,"station_id":"DU"},{"i_lat":-6.185545,"station_id":"THB","transit":true,"time":8,"is_transit":true,"station_name":"Tanah Abang","distance":3632,"line":1,"i_long":106.811091},{"i_long":106.79689,"i_lat":-6.207404,"station_name":"Palmerah","line":6,"is_transit":false,"transit":false,"time":6,"distance":3191,"station_id":"PLM"},{"line":6,"time":7,"i_lat":-6.237242,"distance":3737,"is_transit":false,"station_id":"KBY","station_name":"Kebayoran","transit":false,"i_long":106.780334},{"time":8,"is_transit":false,"i_lat":-6.276362,"station_id":"PDJ","transit":false,"distance":6218,"station_name":"Pondokranji","i_long":106.74273,"line":6},{"station_id":"JMU","distance":2179,"line":6,"transit":false,"is_transit":false,"i_long":106.728916,"time":3,"i_lat":-6.288927,"station_name":"Jurangmangu"},{"transit":false,"time":4,"distance":1994,"station_name":"Sudimara","station_id":"SDM","i_long":106.712277,"is_transit":false,"i_lat":-6.296963,"line":6},{"transit":false,"station_id":"RU","i_long":106.675475,"is_transit":false,"station_name":"Rawa Buntu","time":6,"distance":4566,"i_lat":-6.314823,"line":6},{"time":4,"transit":false,"distance":2413,"i_long":106.66566,"is_transit":false,"station_id":"SRP","i_lat":-6.319871,"line":6,"station_name":"Serpong"},{"station_id":"CSK","distance":1784,"station_name":"Cisauk","time":4,"line":0,"i_lat":-6.32484,"i_long":106.640411,"transit":false,"is_transit":false}],[{"time":0,"distance":0,"is_transit":false,"station_id":"PSE","station_name":"Pasar Senen","transit":false,"i_lat":-6.174784,"line":11,"i_long":106.84368},{"time":8,"line":11,"i_long":106.850107,"distance":1567,"station_name":"Gang Sentiong","station_id":"GST","transit":false,"i_lat":-6.185975,"is_transit":false},{"i_long":106.855437,"is_transit":false,"i_lat":-6.193792,"distance":973,"station_name":"Kramat","transit":false,"time":1,"station_id":"KMT","line":11},{"time":2,"i_long":106.861737,"distance":1829,"station_name":"Pondok Jati","station_id":"POK","is_transit":false,"transit":false,"line":11,"i_lat":-6.209188},{"station_id":"JNG","distance":1236,"station_name":"Jatinegara","i_long":106.86807400000001,"is_transit":true,"transit":true,"time":9,"line":0,"i_lat":-6.215091},{"distance":1377,"i_long":106.858896,"station_id":"MTR","i_lat":-6.212485,"transit":false,"time":2,"line":1,"is_transit":false,"station_name":"Matraman"},{"time":2,"is_transit":true,"station_id":"MRI","i_long":106.84912,"station_name":"Manggarai","i_lat":-6.209883,"transit":false,"distance":1275,"line":0},{"station_id":"SUD","line":1,"station_name":"Sudirman","i_long":106.822649,"transit":false,"time":4,"is_transit":false,"i_lat":-6.202263,"distance":3186},{"is_transit":false,"station_id":"SUDB","station_name":"Sudirman Baru","line":1,"i_lat":-6.201433,"distance":280,"i_long":106.819881,"transit":false,"time":1},{"distance":471,"is_transit":false,"station_id":"KAT","transit":false,"time":1,"i_lat":-6.20132,"i_long":106.816351,"line":1,"station_name":"Karet"},{"station_id":"THB","transit":true,"i_long":106.811091,"is_transit":true,"time":5,"line":1,"station_name":"Tanah Abang","i_lat":-6.185545,"distance":2029},{"station_name":"Palmerah","time":6,"is_transit":false,"station_id":"PLM","transit":false,"i_lat":-6.207404,"i_long":106.79689,"distance":3191,"line":6},{"station_name":"Kebayoran","transit":false,"line":6,"station_id":"KBY","time":7,"i_lat":-6.237242,"i_long":106.780334,"is_transit":false,"distance":3737},{"i_long":106.74273,"station_name":"Pondokranji","station_id":"PDJ","transit":false,"i_lat":-6.276362,"line":6,"distance":6218,"time":8,"is_transit":false},{"transit":false,"station_id":"JMU","i_long":106.728916,"line":6,"distance":2179,"time":3,"i_lat":-6.288927,"station_name":"Jurangmangu","is_transit":false},{"distance":1994,"station_id":"SDM","time":4,"transit":false,"i_lat":-6.296963,"line":6,"station_name":"Sudimara","is_transit":false,"i_long":106.712277},{"station_id":"RU","transit":false,"i_lat":-6.314823,"time":6,"i_long":106.675475,"line":6,"station_name":"Rawa Buntu","is_transit":false,"distance":4566},{"transit":false,"is_transit":false,"i_long":106.66566,"station_name":"Serpong","distance":2413,"time":4,"line":6,"station_id":"SRP","i_lat":-6.319871},{"i_lat":-6.32484,"station_name":"Cisauk","line":0,"time":4,"station_id":"CSK","distance":1784,"i_long":106.640411,"is_transit":false,"transit":false}],[{"station_id":"PSE","time":0,"line":11,"station_name":"Pasar Senen","i_lat":-6.174784,"transit":false,"i_long":106.84368,"distance":0,"is_transit":false},{"i_long":106.839204,"station_id":"KMO","distance":1436,"is_transit":false,"station_name":"Kemayoran","transit":false,"line":11,"i_lat":-6.161728,"time":4},{"time":5,"line":11,"transit":false,"is_transit":false,"i_lat":-6.14505,"i_long":106.836569,"station_id":"RJW","distance":1901,"station_name":"Rajawali"},{"distance":1444,"time":3,"transit":true,"is_transit":true,"station_id":"KPB","line":0,"station_name":"Kampung Bandan","i_lat":-6.132549,"i_long":106.826365},{"i_long":106.812439,"transit":true,"time":3,"distance":1364,"i_lat":-6.137569,"is_transit":true,"station_id":"JAKK","line":0,"station_name":"Jakarta Kota"},{"time":4,"line":7,"i_long":106.820901,"station_id":"JAY","i_lat":-6.141205,"station_name":"Jayakarta","transit":false,"distance":1264,"is_transit":false},{"line":2,"is_transit":false,"time":2,"i_long":106.82482,"distance":1080,"station_name":"Manggabesar","station_id":"MGB","transit":false,"i_lat":-6.149769},{"transit":false,"i_long":106.827103,"line":2,"time":2,"distance":906,"i_lat":-6.160725,"station_id":"SW","station_name":"Sawah Besar","is_transit":false},{"line":2,"i_long":106.828284,"i_lat":-6.166716,"time":2,"transit":false,"station_name":"Juanda","station_id":"JUA","is_transit":false,"distance":1149},{"is_transit":false,"time":4,"station_name":"Gondangdia","line":2,"distance":2015,"i_long":106.832183,"station_id":"GDD","transit":false,"i_lat":-6.186295},{"distance":1750,"station_name":"Cikini","line":0,"station_id":"CKI","transit":false,"is_transit":false,"time":3,"i_lat":-6.198556,"i_long":106.840169},{"distance":1590,"i_long":106.84912,"station_name":"Manggarai","i_lat":-6.209883,"line":0,"transit":true,"time":4,"is_transit":true,"station_id":"MRI"},{"station_id":"SUD","i_lat":-6.202263,"line":1,"distance":3186,"time":4,"i_long":106.822649,"station_name":"Sudirman","transit":false,"is_transit":false},{"transit":false,"distance":280,"is_transit":false,"line":1,"station_id":"SUDB","time":1,"i_long":106.819881,"i_lat":-6.201433,"station_name":"Sudirman Baru"},{"i_lat":-6.20132,"i_long":106.816351,"distance":471,"station_id":"KAT","transit":false,"station_name":"Karet","time":1,"line":1,"is_transit":false},{"i_lat":-6.185545,"station_id":"THB","station_name":"Tanah Abang","i_long":106.811091,"line":1,"distance":2029,"time":5,"is_transit":true,"transit":true},{"is_transit":false,"line":6,"transit":false,"time":6,"station_name":"Palmerah","distance":3191,"station_id":"PLM","i_long":106.79689,"i_lat":-6.207404},{"is_transit":false,"time":7,"i_lat":-6.237242,"line":6,"station_id":"KBY","distance":3737,"transit":false,"i_long":106.780334,"station_name":"Kebayoran"},{"station_name":"Pondokranji","transit":false,"is_transit":false,"distance":6218,"i_long":106.74273,"station_id":"PDJ","time":8,"line":6,"i_lat":-6.276362},{"i_long":106.728916,"is_transit":false,"transit":false,"time":3,"i_lat":-6.288927,"station_name":"Jurangmangu","distance":2179,"station_id":"JMU","line":6},{"distance":1994,"is_transit":false,"station_id":"SDM","station_name":"Sudimara","transit":false,"time":4,"i_lat":-6.296963,"i_long":106.712277,"line":6},{"station_name":"Rawa Buntu","i_long":106.675475,"time":6,"transit":false,"i_lat":-6.314823,"distance":4566,"is_transit":false,"station_id":"RU","line":6},{"station_name":"Serpong","i_lat":-6.319871,"line":6,"station_id":"SRP","distance":2413,"transit":false,"is_transit":false,"i_long":106.66566,"time":4},{"i_lat":-6.32484,"station_id":"CSK","distance":1784,"transit":false,"i_long":106.640411,"line":0,"station_name":"Cisauk","time":4,"is_transit":false}],[{"i_lat":-6.174784,"distance":0,"station_id":"PSE","station_name":"Pasar Senen","is_transit":false,"transit":false,"time":0,"i_long":106.84368,"line":11},{"i_long":106.850107,"station_id":"GST","i_lat":-6.185975,"transit":false,"line":11,"is_transit":false,"station_name":"Gang Sentiong","time":8,"distance":1567},{"station_id":"KMT","station_name":"Kramat","time":1,"i_lat":-6.193792,"line":11,"transit":false,"i_long":106.855437,"is_transit":false,"distance":973},{"transit":false,"distance":1829,"station_id":"POK","i_lat":-6.209188,"time":2,"line":11,"station_name":"Pondok Jati","i_long":106.861737,"is_transit":false},{"station_name":"Jatinegara","is_transit":true,"distance":1236,"i_lat":-6.215091,"station_id":"JNG","time":9,"i_long":106.86807400000001,"line":0,"transit":true},{"is_transit":false,"station_name":"Matraman","i_long":106.858896,"line":1,"time":2,"station_id":"MTR","i_lat":-6.212485,"transit":false,"distance":1377},{"station_id":"MRI","i_lat":-6.209883,"distance":1275,"is_transit":true,"station_name":"Manggarai","line":0,"time":2,"i_long":106.84912,"transit":true},{"is_transit":false,"time":4,"line":0,"i_lat":-6.198556,"station_name":"Cikini","distance":1590,"station_id":"CKI","transit":false,"i_long":106.840169},{"i_long":106.832183,"time":3,"is_transit":false,"station_name":"Gondangdia","i_lat":-6.186295,"distance":1750,"transit":false,"line":2,"station_id":"GDD"},{"line":2,"i_lat":-6.166716,"is_transit":false,"time":4,"station_name":"Juanda","station_id":"JUA","i_long":106.828284,"distance":2015,"transit":false},{"i_lat":-6.160725,"line":2,"i_long":106.827103,"is_transit":false,"station_name":"Sawah Besar","station_id":"SW","distance":1149,"transit":false,"time":2},{"i_lat":-6.149769,"line":2,"transit":false,"station_name":"Manggabesar","i_long":106.82482,"distance":906,"station_id":"MGB","is_transit":false,"time":2},{"time":2,"is_transit":false,"line":7,"distance":1080,"transit":false,"i_lat":-6.141205,"i_long":106.820901,"station_id":"JAY","station_name":"Jayakarta"},{"time":4,"i_long":106.812439,"station_name":"Jakarta Kota","i_lat":-6.137569,"transit":true,"line":0,"distance":1264,"station_id":"JAKK","is_transit":true},{"time":3,"distance":1364,"station_name":"Kampung Bandan","line":0,"is_transit":true,"transit":false,"i_lat":-6.132549,"i_long":106.826365,"station_id":"KPB"},{"is_transit":false,"station_name":"Angke","transit":false,"time":9,"i_long":106.79867,"i_lat":-6.144674,"line":0,"station_id":"AK","distance":4102},{"transit":true,"station_id":"DU","distance":1230,"is_transit":true,"line":1,"time":4,"i_long":106.800832,"i_lat":-6.155215,"station_name":"Duri"},{"transit":true,"i_lat":-6.185545,"time":8,"distance":3632,"station_id":"THB","i_long":106.811091,"is_transit":true,"station_name":"Tanah Abang","line":1},{"i_long":106.79689,"station_id":"PLM","station_name":"Palmerah","transit":false,"distance":3191,"time":6,"line":6,"is_transit":false,"i_lat":-6.207404},{"i_long":106.780334,"distance":3737,"station_id":"KBY","station_name":"Kebayoran","time":7,"i_lat":-6.237242,"transit":false,"line":6,"is_transit":false},{"station_id":"PDJ","time":8,"is_transit":false,"i_lat":-6.276362,"i_long":106.74273,"distance":6218,"line":6,"station_name":"Pondokranji","transit":false},{"station_id":"JMU","distance":2179,"is_transit":false,"transit":false,"time":3,"i_long":106.728916,"station_name":"Jurangmangu","i_lat":-6.288927,"line":6},{"i_long":106.712277,"time":4,"transit":false,"is_transit":false,"station_id":"SDM","line":6,"station_name":"Sudimara","distance":1994,"i_lat":-6.296963},{"station_name":"Rawa Buntu","time":6,"i_lat":-6.314823,"station_id":"RU","i_long":106.675475,"line":6,"is_transit":false,"transit":false,"distance":4566},{"station_id":"SRP","station_name":"Serpong","distance":2413,"i_lat":-6.319871,"transit":false,"i_long":106.66566,"line":6,"is_transit":false,"time":4},{"is_transit":false,"station_id":"CSK","i_long":106.640411,"time":4,"i_lat":-6.32484,"line":0,"station_name":"Cisauk","distance":1784,"transit":false}]]}