{"data":[[{"distance":0,"station_id":"PSE","time":0,"line":11,"is_transit":false,"i_long":106.84368,"transit":false,"i_lat":-6.174784,"station_name":"Pasar Senen"},{"transit":false,"distance":1436,"i_lat":-6.161728,"is_transit":false,"station_name":"Kemayoran","i_long":106.839204,"station_id":"KMO","time":4,"line":11},{"i_lat":-6.14505,"transit":false,"station_name":"Rajawali","i_long":106.836569,"is_transit":false,"time":5,"station_id":"RJW","distance":1901,"line":11},{"transit":true,"station_id":"KPB","station_name":"Kampung Bandan","line":0,"i_lat":-6.132549,"distance":1444,"is_transit":true,"i_long":106.826365,"time":3},{"station_name":"Angke","distance":4102,"line":0,"station_id":"AK","transit":false,"time":9,"is_transit":false,"i_lat":-6.144674,"i_long":106.79867},{"i_lat":-6.155215,"station_name":"Duri","station_id":"DU","is_transit":true,"transit":true,"line":1,"i_long":106.800832,"distance":1230,"time":4},{"i_lat":-6.185545,"time":8,"i_long":106.811091,"line":1,"station_name":"Tanah Abang","station_id":"THB","transit":true,"distance":3632,"is_transit":true},{"i_lat":-6.207404,"station_name":"Palmerah","is_transit":false,"distance":3191,"i_long":106.79689,"station_id":"PLM","transit":false,"time":6,"line":6}],[{"transit":false,"i_lat":-6.174784,"time":0,"station_name":"Pasar Senen","i_long":106.84368,"station_id":"PSE","distance":0,"line":11,"is_transit":false},{"station_id":"GST","time":8,"distance":1567,"i_lat":-6.185975,"is_transit":false,"i_long":106.850107,"line":11,"transit":false,"station_name":"Gang Sentiong"},{"station_name":"Kramat","i_long":106.855437,"station_id":"KMT","transit":false,"line":11,"distance":973,"time":1,"i_lat":-6.193792,"is_transit":false},{"is_transit":false,"transit":false,"distance":1829,"i_long":106.861737,"line":11,"station_name":"Pondok Jati","i_lat":-6.209188,"station_id":"POK","time":2},{"is_transit":true,"station_id":"JNG","i_long":106.86807400000001,"i_lat":-6.215091,"station_name":"Jatinegara","time":9,"line":0,"distance":1236,"transit":true},{"station_name":"Matraman","i_lat":-6.212485,"line":1,"time":2,"station_id":"MTR","distance":1377,"transit":false,"i_long":106.858896,"is_transit":false},{"station_name":"Manggarai","is_transit":true,"line":0,"transit":false,"i_lat":-6.209883,"i_long":106.84912,"time":2,"distance":1275,"station_id":"MRI"},{"i_lat":-6.202263,"is_transit":false,"distance":3186,"station_name":"Sudirman","i_long":106.822649,"station_id":"SUD","transit":false,"time":4,"line":1},{"i_long":106.819881,"line":1,"distance":280,"time":1,"is_transit":false,"station_name":"Sudirman Baru","i_lat":-6.201433,"transit":false,"station_id":"SUDB"},{"station_id":"KAT","station_name":"Karet","time":1,"distance":471,"transit":false,"i_lat":-6.20132,"is_transit":false,"i_long":106.816351,"line":1},{"line":1,"distance":2029,"is_transit":true,"i_long":106.811091,"transit":true,"station_name":"Tanah Abang","i_lat":-6.185545,"station_id":"THB","time":5},{"i_lat":-6.207404,"transit":false,"distance":3191,"station_name":"Palmerah","line":6,"is_transit":false,"station_id":"PLM","i_long":106.79689,"time":6}],[{"distance":0,"station_name":"Pasar Senen","i_lat":-6.174784,"i_long":106.84368,"transit":false,"time":0,"station_id":"PSE","is_transit":false,"line":11},{"i_lat":-6.161728,"transit":false,"station_name":"Kemayoran","station_id":"KMO","i_long":106.839204,"is_transit":false,"distance":1436,"time":4,"line":11},{"time":5,"i_long":106.836569,"is_transit":false,"station_name":"Rajawali","line":11,"transit":false,"i_lat":-6.14505,"distance":1901,"station_id":"RJW"},{"station_id":"KPB","i_long":106.826365,"distance":1444,"station_name":"Kampung Bandan","line":0,"transit":true,"i_lat":-6.132549,"is_transit":true,"time":3},{"station_name":"Jakarta Kota","station_id":"JAKK","transit":true,"time":3,"i_long":106.812439,"line":0,"i_lat":-6.137569,"is_transit":true,"distance":1364},{"is_transit":false,"station_name":"Jayakarta","transit":false,"i_lat":-6.141205,"station_id":"JAY","time":4,"distance":1264,"line":7,"i_long":106.820901},{"station_id":"MGB","line":2,"time":2,"i_lat":-6.149769,"i_long":106.82482,"transit":false,"distance":1080,"station_name":"Manggabesar","is_transit":false},{"station_name":"Sawah Besar","line":2,"station_id":"SW","i_long":106.827103,"is_transit":false,"time":2,"transit":false,"distance":906,"i_lat":-6.160725},{"line":2,"station_name":"Juanda","transit":false,"is_transit":false,"distance":1149,"station_id":"JUA","time":2,"i_lat":-6.166716,"i_long":106.828284},{"station_id":"GDD","line":2,"station_name":"Gondangdia","transit":false,"is_transit":false,"distance":2015,"i_lat":-6.186295,"i_long":106.832183,"time":4},{"is_transit":false,"line":0,"time":3,"station_id":"CKI","i_lat":-6.198556,"distance":1750,"station_name":"Cikini","transit":false,"i_long":106.840169},{"line":0,"transit":true,"station_name":"Manggarai","i_lat":-6.209883,"distance":1590,"is_transit":true,"time":4,"i_long":106.84912,"station_id":"MRI"},{"i_long":106.822649,"line":1,"is_transit":false,"time":4,"station_id":"SUD","station_name":"Sudirman","i_lat":-6.202263,"transit":false,"distance":3186},{"i_lat":-6.201433,"line":1,"time":1,"distance":280,"i_long":106.819881,"station_id":"SUDB","station_name":"Sudirman Baru","is_transit":false,"transit":false},{"station_id":"KAT","station_name":"Karet","transit":false,"line":1,"time":1,"i_long":106.816351,"i_lat":-6.20132,"is_transit":false,"distance":471},{"station_name":"Tanah Abang","distance":2029,"transit":true,"i_lat":-6.185545,"i_long":106.811091,"line":1,"is_transit":true,"time":5,"station_id":"THB"},{"is_transit":false,"time":6,"i_lat":-6.207404,"line":6,"station_id":"PLM","i_long":106.79689,"station_name":"Palmerah","distance":3191,"transit":false}],[{"distance":0,"time":0,"i_long":106.84368,"line":11,"station_id":"PSE","transit":false,"is_transit":false,"station_name":"Pasar Senen","i_lat":-6.174784},{"time":8,"line":11,"distance":1567,"i_long":106.850107,"is_transit":false,"i_lat":-6.185975,"transit":false,"station_id":"GST","station_name":"Gang Sentiong"},{"station_id":"KMT","time":1,"i_long":106.855437,"is_transit":false,"i_lat":-6.193792,"line":11,"distance":973,"station_name":"Kramat","transit":false},{"i_lat":-6.209188,"is_transit":false,"station_name":"Pondok Jati","i_long":106.861737,"distance":1829,"station_id":"POK","transit":false,"line":11,"time":2},{"time":9,"station_id":"JNG","distance":1236,"i_long":106.86807400000001,"i_lat":-6.215091,"transit":true,"line":0,"is_transit":true,"station_name":"Jatinegara"},{"i_long":106.858896,"distance":1377,"is_transit":false,"line":1,"station_name":"Matraman","i_lat":-6.212485,"station_id":"MTR","time":2,"transit":false},{"station_name":"Manggarai","transit":true,"i_lat":-6.209883,"line":0,"distance":1275,"station_id":"MRI","is_transit":true,"i_long":106.84912,"time":2},{"distance":1590,"i_lat":-6.198556,"line":0,"i_long":106.840169,"station_name":"Cikini","transit":false,"is_transit":false,"station_id":"CKI","time":4},{"station_id":"GDD","is_transit":false,"i_lat":-6.186295,"line":2,"transit":false,"distance":1750,"i_long":106.832183,"time":3,"station_name":"Gondangdia"},{"station_name":"Juanda","line":2,"i_long":106.828284,"is_transit":false,"distance":2015,"station_id":"JUA","time":4,"i_lat":-6.166716,"transit":false},{"i_lat":-6.160725,"line":2,"time":2,"transit":false,"distance":1149,"is_transit":false,"i_long":106.827103,"station_id":"SW","station_name":"Sawah Besar"},{"i_long":106.82482,"station_id":"MGB","time":2,"is_transit":false,"i_lat":-6.149769,"station_name":"Manggabesar","distance":906,"line":2,"transit":false},{"station_name":"Jayakarta","time":2,"i_long":106.820901,"transit":false,"i_lat":-6.141205,"distance":1080,"station_id":"JAY","is_transit":false,"line":7},{"station_id":"JAKK","line":0,"is_transit":true,"time":4,"distance":1264,"i_long":106.812439,"transit":true,"station_name":"Jakarta Kota","i_lat":-6.137569},{"is_transit":true,"i_lat":-6.132549,"transit":false,"station_name":"Kampung Bandan","distance":1364,"time":3,"i_long":106.826365,"line":0,"station_id":"KPB"},{"line":0,"i_long":106.79867,"is_transit":false,"station_id":"AK","time":9,"station_name":"Angke","transit":false,"i_lat":-6.144674,"distance":4102},{"station_id":"DU","time":4,"station_name":"Duri","is_transit":true,"transit":true,"i_lat":-6.155215,"i_long":106.800832,"line":1,"distance":1230},{"is_transit":true,"station_id":"THB","distance":3632,"i_lat":-6.185545,"time":8,"i_long":106.811091,"line":1,"station_name":"Tanah Abang","transit":true},{"line":6,"is_transit":false,"station_id":"PLM","distance":3191,"i_long":106.79689,"transit":false,"time":6,"i_lat":-6.207404,"station_name":"Palmerah"}]]}