{"data":[[{"station_name":"Pasar Senen","i_long":106.84368,"distance":0,"time":0,"line":11,"station_id":"PSE","transit":false,"i_lat":-6.174784,"is_transit":false},{"station_id":"GST","transit":false,"i_long":106.850107,"i_lat":-6.185975,"distance":1567,"line":11,"is_transit":false,"time":8,"station_name":"Gang Sentiong"},{"line":11,"station_id":"KMT","time":1,"i_long":106.855437,"distance":973,"station_name":"Kramat","transit":false,"i_lat":-6.193792,"is_transit":false},{"station_name":"Pondok Jati","i_long":106.861737,"i_lat":-6.209188,"time":2,"is_transit":false,"transit":false,"distance":1829,"station_id":"POK","line":11},{"transit":true,"distance":1236,"line":1,"is_transit":true,"i_long":106.86807400000001,"i_lat":-6.215091,"station_id":"JNG","time":9,"station_name":"Jatinegara"},{"line":1,"station_id":"MTR","transit":false,"distance":1377,"i_lat":-6.212485,"station_name":"Matraman","time":2,"is_transit":false,"i_long":106.858896},{"i_lat":-6.209883,"time":2,"transit":true,"distance":1275,"line":2,"is_transit":true,"station_name":"Manggarai","i_long":106.84912,"station_id":"MRI"},{"time":4,"station_id":"TEB","i_long":106.857948,"station_name":"Tebet","is_transit":false,"line":2,"i_lat":-6.226659,"distance":2610,"transit":false},{"station_id":"CW","distance":1230,"line":2,"i_lat":-6.242512,"transit":false,"station_name":"Cawang","time":2,"i_long":106.856607,"is_transit":false},{"station_name":"Duren Kalibata","distance":1546,"i_lat":-6.255332,"time":3,"station_id":"DRN","i_long":106.85449,"transit":false,"line":2,"is_transit":false},{"i_lat":-6.263214,"transit":false,"time":2,"line":2,"distance":824,"station_id":"PSMB","i_long":106.851577,"station_name":"Pasar Minggu Baru","is_transit":false},{"i_lat":-6.2842400000000005,"station_id":"PSM","time":2,"transit":false,"line":2,"is_transit":false,"station_name":"Pasar Minggu","distance":2380,"i_long":106.843999},{"time":4,"station_id":"TNT","transit":false,"is_transit":false,"station_name":"Tanjung Barat","distance":2820,"i_lat":-6.3080680000000005,"i_long":106.838896,"line":2},{"line":2,"distance":2671,"transit":false,"station_id":"LNA","station_name":"Lenteng Agung","i_lat":-6.330363,"time":3,"is_transit":false,"i_long":106.832616},{"time":2,"distance":1029,"station_name":"Univ. Pancasila","i_lat":-6.339291,"transit":false,"is_transit":false,"i_long":106.834175,"station_id":"UP","line":2},{"distance":2264,"i_lat":-6.360749,"station_name":"Univ. Indonesia","station_id":"UI","line":2,"transit":false,"is_transit":false,"time":3,"i_long":106.831474},{"time":2,"i_long":106.831114,"i_lat":-6.369073,"line":2,"distance":1109,"is_transit":false,"transit":false,"station_name":"Pondok Cina","station_id":"POC"},{"station_id":"DPB","i_long":106.819451,"is_transit":false,"time":4,"distance":2727,"transit":false,"i_lat":-6.391065,"line":2,"station_name":"Depokbaru"},{"i_long":106.816926,"transit":false,"i_lat":-6.405256,"is_transit":false,"station_id":"DP","station_name":"Depok","distance":1584,"line":2,"time":3},{"distance":5084,"is_transit":true,"time":6,"line":2,"transit":true,"station_id":"CTA","station_name":"Citayam","i_long":106.800298,"i_lat":-6.448811},{"i_long":106.824374,"station_name":"Pondok Rajeg","transit":false,"is_transit":false,"i_lat":-6.460735,"station_id":"PDRG","line":21,"distance":0,"time":0},{"line":21,"station_name":"Cibinong","is_transit":false,"i_long":106.851978,"transit":false,"distance":0,"time":0,"station_id":"CBN","i_lat":-6.46424},{"distance":6527,"line":21,"time":10,"i_long":106.905196,"transit":false,"station_name":"Nambo","is_transit":false,"station_id":"NMO","i_lat":-6.466285}],[{"station_id":"PSE","i_long":106.84368,"is_transit":false,"time":0,"i_lat":-6.174784,"line":11,"transit":false,"distance":0,"station_name":"Pasar Senen"},{"line":11,"i_long":106.839204,"transit":false,"station_name":"Kemayoran","time":4,"i_lat":-6.161728,"station_id":"KMO","is_transit":false,"distance":1436},{"time":5,"i_lat":-6.14505,"line":11,"distance":1901,"i_long":106.836569,"transit":false,"station_name":"Rajawali","is_transit":false,"station_id":"RJW"},{"transit":true,"station_name":"Kampung Bandan","time":3,"i_lat":-6.132549,"i_long":106.826365,"distance":1444,"station_id":"KPB","is_transit":true,"line":4},{"station_name":"Angke","is_transit":false,"transit":false,"station_id":"AK","time":9,"i_lat":-6.144674,"line":1,"i_long":106.79867,"distance":4102},{"time":4,"is_transit":false,"i_long":106.800832,"station_name":"Duri","i_lat":-6.155215,"line":1,"distance":1230,"transit":false,"station_id":"DU"},{"station_id":"THB","is_transit":false,"time":8,"i_long":106.811091,"distance":3632,"station_name":"Tanah Abang","line":1,"i_lat":-6.185545,"transit":false},{"transit":false,"station_id":"KAT","is_transit":false,"time":5,"i_lat":-6.20132,"i_long":106.816351,"station_name":"Karet","distance":2029,"line":1},{"distance":471,"station_id":"SUDB","i_lat":-6.201433,"line":1,"i_long":106.819881,"station_name":"Sudirman Baru","transit":false,"is_transit":false,"time":1},{"i_long":106.822649,"transit":false,"line":1,"is_transit":false,"time":1,"distance":280,"i_lat":-6.202263,"station_name":"Sudirman","station_id":"SUD"},{"station_name":"Manggarai","time":4,"transit":true,"distance":3186,"is_transit":true,"i_lat":-6.209883,"i_long":106.84912,"station_id":"MRI","line":2},{"station_id":"TEB","is_transit":false,"time":4,"i_long":106.857948,"transit":false,"distance":2610,"line":2,"station_name":"Tebet","i_lat":-6.226659},{"i_lat":-6.242512,"time":2,"is_transit":false,"station_name":"Cawang","i_long":106.856607,"transit":false,"distance":1230,"line":2,"station_id":"CW"},{"station_name":"Duren Kalibata","transit":false,"i_lat":-6.255332,"distance":1546,"i_long":106.85449,"is_transit":false,"line":2,"station_id":"DRN","time":3},{"station_id":"PSMB","distance":824,"i_lat":-6.263214,"i_long":106.851577,"line":2,"transit":false,"is_transit":false,"time":2,"station_name":"Pasar Minggu Baru"},{"station_name":"Pasar Minggu","station_id":"PSM","time":2,"distance":2380,"i_lat":-6.2842400000000005,"i_long":106.843999,"transit":false,"is_transit":false,"line":2},{"i_lat":-6.3080680000000005,"station_name":"Tanjung Barat","is_transit":false,"time":4,"station_id":"TNT","distance":2820,"i_long":106.838896,"transit":false,"line":2},{"station_id":"LNA","transit":false,"i_long":106.832616,"station_name":"Lenteng Agung","is_transit":false,"distance":2671,"i_lat":-6.330363,"line":2,"time":3},{"time":2,"i_lat":-6.339291,"i_long":106.834175,"station_id":"UP","station_name":"Univ. Pancasila","transit":false,"is_transit":false,"distance":1029,"line":2},{"station_id":"UI","is_transit":false,"distance":2264,"station_name":"Univ. Indonesia","time":3,"i_long":106.831474,"transit":false,"line":2,"i_lat":-6.360749},{"is_transit":false,"i_long":106.831114,"station_id":"POC","line":2,"i_lat":-6.369073,"transit":false,"time":2,"distance":1109,"station_name":"Pondok Cina"},{"time":4,"i_long":106.819451,"line":2,"station_name":"Depokbaru","transit":false,"station_id":"DPB","i_lat":-6.391065,"distance":2727,"is_transit":false},{"transit":false,"i_lat":-6.405256,"time":3,"station_id":"DP","station_name":"Depok","is_transit":false,"line":2,"i_long":106.816926,"distance":1584},{"station_name":"Citayam","is_transit":true,"time":6,"line":2,"distance":5084,"station_id":"CTA","i_long":106.800298,"i_lat":-6.448811,"transit":true},{"i_long":106.824374,"station_id":"PDRG","i_lat":-6.460735,"is_transit":false,"distance":0,"station_name":"Pondok Rajeg","time":0,"transit":false,"line":21},{"line":21,"i_lat":-6.46424,"station_id":"CBN","is_transit":false,"time":0,"distance":0,"station_name":"Cibinong","transit":false,"i_long":106.851978},{"station_name":"Nambo","distance":6527,"is_transit":false,"time":10,"i_long":106.905196,"station_id":"NMO","i_lat":-6.466285,"line":21,"transit":false}],[{"time":0,"transit":false,"distance":0,"i_lat":-6.174784,"line":11,"station_name":"Pasar Senen","i_long":106.84368,"station_id":"PSE","is_transit":false},{"time":4,"line":11,"i_lat":-6.161728,"station_id":"KMO","distance":1436,"transit":false,"is_transit":false,"station_name":"Kemayoran","i_long":106.839204},{"line":11,"i_long":106.836569,"station_id":"RJW","is_transit":false,"time":5,"transit":false,"distance":1901,"i_lat":-6.14505,"station_name":"Rajawali"},{"transit":true,"station_name":"Kampung Bandan","is_transit":true,"distance":1444,"station_id":"KPB","time":3,"line":4,"i_long":106.826365,"i_lat":-6.132549},{"transit":true,"station_name":"Jakarta Kota","i_long":106.812439,"line":2,"i_lat":-6.137569,"is_transit":true,"time":3,"station_id":"JAKK","distance":1364},{"distance":1264,"i_lat":-6.141205,"station_name":"Jayakarta","time":4,"station_id":"JAY","is_transit":false,"transit":false,"i_long":106.820901,"line":2},{"station_name":"Manggabesar","distance":1080,"line":2,"station_id":"MGB","is_transit":false,"transit":false,"i_lat":-6.149769,"time":2,"i_long":106.82482},{"transit":false,"station_name":"Sawah Besar","i_long":106.827103,"is_transit":false,"station_id":"SW","time":2,"line":2,"distance":906,"i_lat":-6.160725},{"station_id":"JUA","is_transit":false,"distance":1149,"station_name":"Juanda","i_long":106.828284,"i_lat":-6.166716,"time":2,"line":2,"transit":false},{"line":2,"distance":2015,"time":4,"station_name":"Gondangdia","station_id":"GDD","i_lat":-6.186295,"transit":false,"is_transit":false,"i_long":106.832183},{"time":3,"transit":false,"i_long":106.840169,"line":2,"station_name":"Cikini","distance":1750,"is_transit":false,"station_id":"CKI","i_lat":-6.198556},{"i_long":106.84912,"distance":1590,"is_transit":false,"time":4,"transit":false,"line":2,"station_name":"Manggarai","station_id":"MRI","i_lat":-6.209883},{"time":4,"station_name":"Tebet","station_id":"TEB","distance":2610,"i_lat":-6.226659,"line":2,"is_transit":false,"transit":false,"i_long":106.857948},{"is_transit":false,"time":2,"line":2,"distance":1230,"i_lat":-6.242512,"station_name":"Cawang","i_long":106.856607,"transit":false,"station_id":"CW"},{"station_id":"DRN","i_long":106.85449,"transit":false,"time":3,"is_transit":false,"i_lat":-6.255332,"station_name":"Duren Kalibata","distance":1546,"line":2},{"station_name":"Pasar Minggu Baru","is_transit":false,"time":2,"station_id":"PSMB","i_lat":-6.263214,"transit":false,"i_long":106.851577,"line":2,"distance":824},{"i_lat":-6.2842400000000005,"i_long":106.843999,"station_name":"Pasar Minggu","transit":false,"is_transit":false,"distance":2380,"time":2,"line":2,"station_id":"PSM"},{"i_lat":-6.3080680000000005,"i_long":106.838896,"is_transit":false,"time":4,"line":2,"distance":2820,"transit":false,"station_id":"TNT","station_name":"Tanjung Barat"},{"transit":false,"station_id":"LNA","station_name":"Lenteng Agung","distance":2671,"i_long":106.832616,"line":2,"time":3,"is_transit":false,"i_lat":-6.330363},{"distance":1029,"station_id":"UP","i_lat":-6.339291,"transit":false,"is_transit":false,"line":2,"i_long":106.834175,"station_name":"Univ. Pancasila","time":2},{"is_transit":false,"station_name":"Univ. Indonesia","i_long":106.831474,"transit":false,"time":3,"station_id":"UI","distance":2264,"line":2,"i_lat":-6.360749},{"is_transit":false,"station_id":"POC","station_name":"Pondok Cina","transit":false,"time":2,"i_lat":-6.369073,"i_long":106.831114,"line":2,"distance":1109},{"is_transit":false,"i_long":106.819451,"transit":false,"station_name":"Depokbaru","station_id":"DPB","time":4,"i_lat":-6.391065,"distance":2727,"line":2},{"time":3,"i_lat":-6.405256,"station_id":"DP","distance":1584,"i_long":106.816926,"line":2,"station_name":"Depok","transit":false,"is_transit":false},{"station_id":"CTA","i_long":106.800298,"time":6,"station_name":"Citayam","distance":5084,"line":2,"i_lat":-6.448811,"is_transit":true,"transit":true},{"line":21,"station_name":"Pondok Rajeg","time":0,"station_id":"PDRG","i_lat":-6.460735,"distance":0,"transit":false,"i_long":106.824374,"is_transit":false},{"is_transit":false,"time":0,"station_name":"Cibinong","transit":false,"distance":0,"i_long":106.851978,"i_lat":-6.46424,"station_id":"CBN","line":21},{"station_id":"NMO","time":10,"station_name":"Nambo","i_lat":-6.466285,"transit":false,"is_transit":false,"i_long":106.905196,"distance":6527,"line":21}]]}