{"data":[[{"time":0,"station_name":"Pasar Senen","transit":false,"is_transit":false,"line":11,"distance":0,"i_lat":-6.174784,"i_long":106.84368,"station_id":"PSE"},{"is_transit":false,"line":11,"time":4,"distance":1436,"station_id":"KMO","station_name":"Kemayoran","transit":false,"i_lat":-6.161728,"i_long":106.839204},{"i_lat":-6.14505,"distance":1901,"station_name":"Rajawali","line":11,"i_long":106.836569,"time":5,"transit":false,"station_id":"RJW","is_transit":false},{"time":3,"line":4,"i_long":106.826365,"station_id":"KPB","station_name":"Kampung Bandan","transit":true,"i_lat":-6.132549,"distance":1444,"is_transit":true},{"station_name":"Ancol","time":4,"station_id":"AC","i_lat":-6.128023,"line":4,"distance":2185,"is_transit":false,"transit":false,"i_long":106.84464}],[{"transit":false,"i_lat":-6.174784,"is_transit":false,"station_name":"Pasar Senen","time":0,"line":11,"i_long":106.84368,"station_id":"PSE","distance":0},{"i_long":106.850107,"station_id":"GST","transit":false,"i_lat":-6.185975,"time":8,"distance":1567,"line":11,"station_name":"Gang Sentiong","is_transit":false},{"station_id":"KMT","line":11,"distance":973,"is_transit":false,"i_lat":-6.193792,"time":1,"transit":false,"station_name":"Kramat","i_long":106.855437},{"line":11,"i_lat":-6.209188,"i_long":106.861737,"station_name":"Pondok Jati","station_id":"POK","is_transit":false,"transit":false,"distance":1829,"time":2},{"is_transit":true,"station_name":"Jatinegara","time":9,"line":1,"transit":true,"distance":1236,"i_long":106.86807400000001,"station_id":"JNG","i_lat":-6.215091},{"i_lat":-6.212485,"is_transit":false,"station_id":"MTR","i_long":106.858896,"time":2,"station_name":"Matraman","distance":1377,"transit":false,"line":1},{"time":2,"distance":1275,"line":2,"station_name":"Manggarai","transit":false,"station_id":"MRI","is_transit":false,"i_long":106.84912,"i_lat":-6.209883},{"distance":3186,"transit":false,"station_id":"SUD","i_lat":-6.202263,"time":4,"line":1,"station_name":"Sudirman","is_transit":false,"i_long":106.822649},{"is_transit":false,"transit":false,"line":1,"station_id":"SUDB","i_long":106.819881,"distance":280,"station_name":"Sudirman Baru","time":1,"i_lat":-6.201433},{"line":1,"distance":471,"i_lat":-6.20132,"station_id":"KAT","is_transit":false,"i_long":106.816351,"time":1,"station_name":"Karet","transit":false},{"time":5,"station_name":"Tanah Abang","i_lat":-6.185545,"transit":false,"i_long":106.811091,"station_id":"THB","distance":2029,"is_transit":false,"line":1},{"transit":false,"is_transit":false,"distance":3632,"i_lat":-6.155215,"station_id":"DU","line":1,"station_name":"Duri","time":8,"i_long":106.800832},{"i_long":106.79867,"line":1,"time":4,"distance":1230,"is_transit":false,"i_lat":-6.144674,"station_id":"AK","transit":false,"station_name":"Angke"},{"i_lat":-6.132549,"i_long":106.826365,"line":4,"station_name":"Kampung Bandan","is_transit":true,"distance":4102,"station_id":"KPB","time":9,"transit":true},{"i_lat":-6.128023,"time":4,"i_long":106.84464,"transit":false,"station_id":"AC","line":4,"distance":2185,"is_transit":false,"station_name":"Ancol"}],[{"station_id":"PSE","i_long":106.84368,"line":11,"transit":false,"time":0,"station_name":"Pasar Senen","is_transit":false,"i_lat":-6.174784,"distance":0},{"i_lat":-6.185975,"line":11,"i_long":106.850107,"time":8,"station_name":"Gang Sentiong","distance":1567,"station_id":"GST","is_transit":false,"transit":false},{"time":1,"is_transit":false,"station_id":"KMT","i_long":106.855437,"transit":false,"distance":973,"i_lat":-6.193792,"line":11,"station_name":"Kramat"},{"station_id":"POK","i_long":106.861737,"line":11,"transit":false,"distance":1829,"station_name":"Pondok Jati","is_transit":false,"i_lat":-6.209188,"time":2},{"is_transit":true,"transit":true,"station_name":"Jatinegara","distance":1236,"station_id":"JNG","line":1,"i_lat":-6.215091,"time":9,"i_long":106.86807400000001},{"distance":1377,"is_transit":false,"station_name":"Matraman","station_id":"MTR","i_lat":-6.212485,"line":1,"i_long":106.858896,"transit":false,"time":2},{"i_lat":-6.209883,"station_name":"Manggarai","transit":true,"is_transit":true,"line":2,"i_long":106.84912,"time":2,"station_id":"MRI","distance":1275},{"i_lat":-6.198556,"transit":false,"i_long":106.840169,"line":2,"time":4,"station_name":"Cikini","station_id":"CKI","distance":1590,"is_transit":false},{"distance":1750,"i_lat":-6.186295,"time":3,"i_long":106.832183,"line":2,"station_id":"GDD","station_name":"Gondangdia","is_transit":false,"transit":false},{"transit":false,"station_name":"Juanda","station_id":"JUA","i_lat":-6.166716,"line":2,"i_long":106.828284,"time":4,"is_transit":false,"distance":2015},{"station_name":"Sawah Besar","is_transit":false,"transit":false,"station_id":"SW","distance":1149,"time":2,"i_lat":-6.160725,"i_long":106.827103,"line":2},{"i_lat":-6.149769,"distance":906,"station_name":"Manggabesar","is_transit":false,"time":2,"line":2,"transit":false,"i_long":106.82482,"station_id":"MGB"},{"i_long":106.820901,"station_id":"JAY","i_lat":-6.141205,"distance":1080,"is_transit":false,"transit":false,"time":2,"line":2,"station_name":"Jayakarta"},{"i_long":106.812439,"distance":1264,"station_name":"Jakarta Kota","transit":true,"i_lat":-6.137569,"station_id":"JAKK","is_transit":true,"time":4,"line":2},{"distance":1364,"transit":true,"i_long":106.826365,"station_name":"Kampung Bandan","line":4,"time":3,"is_transit":true,"station_id":"KPB","i_lat":-6.132549},{"time":4,"is_transit":false,"i_long":106.84464,"line":4,"station_id":"AC","station_name":"Ancol","transit":false,"i_lat":-6.128023,"distance":2185}]]}