{"data":[[{"distance":0,"i_lat":-6.174784,"station_name":"Pasar Senen","station_id":"PSE","is_transit":false,"transit":false,"i_long":106.84368,"line":11,"time":0},{"time":4,"line":11,"station_name":"Kemayoran","is_transit":false,"distance":1436,"i_long":106.839204,"transit":false,"i_lat":-6.161728,"station_id":"KMO"},{"station_id":"RJW","i_long":106.836569,"transit":false,"time":5,"line":11,"distance":1901,"station_name":"Rajawali","i_lat":-6.14505,"is_transit":false},{"distance":1444,"transit":true,"station_id":"KPB","time":3,"i_long":106.826365,"is_transit":true,"line":4,"station_name":"Kampung Bandan","i_lat":-6.132549},{"i_lat":-6.144674,"i_long":106.79867,"station_id":"AK","transit":false,"station_name":"Angke","time":9,"line":1,"distance":4102,"is_transit":false},{"line":1,"station_id":"DU","transit":false,"is_transit":false,"time":4,"distance":1230,"i_lat":-6.155215,"station_name":"Duri","i_long":106.800832},{"is_transit":true,"i_long":106.811091,"transit":true,"station_name":"Tanah Abang","distance":3632,"time":8,"station_id":"THB","i_lat":-6.185545,"line":1},{"station_id":"PLM","transit":false,"time":6,"i_lat":-6.207404,"i_long":106.79689,"line":6,"station_name":"Palmerah","distance":3191,"is_transit":false}],[{"i_long":106.84368,"line":11,"transit":false,"is_transit":false,"distance":0,"time":0,"i_lat":-6.174784,"station_id":"PSE","station_name":"Pasar Senen"},{"transit":false,"station_id":"GST","is_transit":false,"i_lat":-6.185975,"station_name":"Gang Sentiong","i_long":106.850107,"time":8,"distance":1567,"line":11},{"distance":973,"station_name":"Kramat","i_lat":-6.193792,"is_transit":false,"time":1,"i_long":106.855437,"line":11,"transit":false,"station_id":"KMT"},{"station_id":"POK","i_lat":-6.209188,"i_long":106.861737,"line":11,"distance":1829,"is_transit":false,"station_name":"Pondok Jati","time":2,"transit":false},{"time":9,"i_long":106.86807400000001,"line":1,"transit":true,"station_name":"Jatinegara","station_id":"JNG","is_transit":true,"distance":1236,"i_lat":-6.215091},{"i_lat":-6.212485,"station_id":"MTR","is_transit":false,"distance":1377,"transit":false,"i_long":106.858896,"line":1,"station_name":"Matraman","time":2},{"is_transit":false,"i_long":106.84912,"transit":false,"line":2,"time":2,"i_lat":-6.209883,"distance":1275,"station_name":"Manggarai","station_id":"MRI"},{"is_transit":false,"time":4,"transit":false,"station_id":"SUD","station_name":"Sudirman","i_lat":-6.202263,"line":1,"i_long":106.822649,"distance":3186},{"is_transit":false,"i_long":106.819881,"station_id":"SUDB","station_name":"Sudirman Baru","transit":false,"i_lat":-6.201433,"time":1,"distance":280,"line":1},{"transit":false,"i_lat":-6.20132,"station_id":"KAT","i_long":106.816351,"line":1,"distance":471,"time":1,"station_name":"Karet","is_transit":false},{"i_lat":-6.185545,"i_long":106.811091,"line":1,"time":5,"distance":2029,"transit":true,"station_name":"Tanah Abang","is_transit":true,"station_id":"THB"},{"distance":3191,"transit":false,"station_id":"PLM","time":6,"i_long":106.79689,"station_name":"Palmerah","is_transit":false,"i_lat":-6.207404,"line":6}],[{"time":0,"i_lat":-6.174784,"i_long":106.84368,"distance":0,"transit":false,"line":11,"station_name":"Pasar Senen","station_id":"PSE","is_transit":false},{"time":4,"i_long":106.839204,"line":11,"i_lat":-6.161728,"station_id":"KMO","transit":false,"is_transit":false,"station_name":"Kemayoran","distance":1436},{"transit":false,"line":11,"station_name":"Rajawali","i_lat":-6.14505,"i_long":106.836569,"distance":1901,"is_transit":false,"station_id":"RJW","time":5},{"distance":1444,"is_transit":true,"i_long":106.826365,"line":4,"i_lat":-6.132549,"transit":true,"station_name":"Kampung Bandan","time":3,"station_id":"KPB"},{"station_id":"JAKK","i_long":106.812439,"time":3,"station_name":"Jakarta Kota","is_transit":true,"distance":1364,"line":2,"transit":true,"i_lat":-6.137569},{"line":2,"time":4,"distance":1264,"i_long":106.820901,"station_name":"Jayakarta","is_transit":false,"station_id":"JAY","i_lat":-6.141205,"transit":false},{"line":2,"station_name":"Manggabesar","station_id":"MGB","time":2,"transit":false,"i_long":106.82482,"distance":1080,"i_lat":-6.149769,"is_transit":false},{"distance":906,"i_lat":-6.160725,"transit":false,"line":2,"i_long":106.827103,"station_id":"SW","station_name":"Sawah Besar","is_transit":false,"time":2},{"is_transit":false,"line":2,"station_id":"JUA","time":2,"i_long":106.828284,"transit":false,"station_name":"Juanda","i_lat":-6.166716,"distance":1149},{"line":2,"i_lat":-6.186295,"station_name":"Gondangdia","station_id":"GDD","i_long":106.832183,"time":4,"transit":false,"is_transit":false,"distance":2015},{"transit":false,"station_name":"Cikini","is_transit":false,"distance":1750,"station_id":"CKI","line":2,"i_lat":-6.198556,"i_long":106.840169,"time":3},{"time":4,"i_long":106.84912,"station_id":"MRI","i_lat":-6.209883,"transit":true,"distance":1590,"is_transit":true,"line":2,"station_name":"Manggarai"},{"i_long":106.822649,"time":4,"distance":3186,"station_id":"SUD","is_transit":false,"i_lat":-6.202263,"transit":false,"station_name":"Sudirman","line":1},{"station_name":"Sudirman Baru","transit":false,"time":1,"i_long":106.819881,"line":1,"station_id":"SUDB","is_transit":false,"distance":280,"i_lat":-6.201433},{"transit":false,"line":1,"distance":471,"station_id":"KAT","is_transit":false,"station_name":"Karet","time":1,"i_long":106.816351,"i_lat":-6.20132},{"i_lat":-6.185545,"station_id":"THB","time":5,"i_long":106.811091,"distance":2029,"is_transit":true,"transit":true,"station_name":"Tanah Abang","line":1},{"station_name":"Palmerah","i_lat":-6.207404,"line":6,"transit":false,"is_transit":false,"distance":3191,"station_id":"PLM","i_long":106.79689,"time":6}],[{"transit":false,"distance":0,"i_long":106.84368,"station_id":"PSE","time":0,"is_transit":false,"i_lat":-6.174784,"line":11,"station_name":"Pasar Senen"},{"time":8,"line":11,"station_name":"Gang Sentiong","transit":false,"i_long":106.850107,"is_transit":false,"i_lat":-6.185975,"distance":1567,"station_id":"GST"},{"transit":false,"station_name":"Kramat","line":11,"is_transit":false,"station_id":"KMT","time":1,"distance":973,"i_lat":-6.193792,"i_long":106.855437},{"station_name":"Pondok Jati","is_transit":false,"i_long":106.861737,"time":2,"i_lat":-6.209188,"line":11,"station_id":"POK","transit":false,"distance":1829},{"station_id":"JNG","i_lat":-6.215091,"transit":true,"is_transit":true,"station_name":"Jatinegara","distance":1236,"i_long":106.86807400000001,"line":1,"time":9},{"is_transit":false,"i_lat":-6.212485,"distance":1377,"transit":false,"station_name":"Matraman","time":2,"i_long":106.858896,"station_id":"MTR","line":1},{"transit":true,"line":2,"station_id":"MRI","i_lat":-6.209883,"distance":1275,"station_name":"Manggarai","i_long":106.84912,"time":2,"is_transit":true},{"transit":false,"distance":1590,"i_lat":-6.198556,"is_transit":false,"station_id":"CKI","i_long":106.840169,"station_name":"Cikini","line":2,"time":4},{"line":2,"transit":false,"station_id":"GDD","time":3,"distance":1750,"i_lat":-6.186295,"station_name":"Gondangdia","i_long":106.832183,"is_transit":false},{"station_name":"Juanda","distance":2015,"i_long":106.828284,"station_id":"JUA","transit":false,"is_transit":false,"time":4,"i_lat":-6.166716,"line":2},{"transit":false,"station_name":"Sawah Besar","i_long":106.827103,"line":2,"time":2,"distance":1149,"i_lat":-6.160725,"station_id":"SW","is_transit":false},{"station_name":"Manggabesar","i_lat":-6.149769,"line":2,"i_long":106.82482,"transit":false,"station_id":"MGB","is_transit":false,"time":2,"distance":906},{"line":2,"is_transit":false,"distance":1080,"station_name":"Jayakarta","station_id":"JAY","i_lat":-6.141205,"i_long":106.820901,"transit":false,"time":2},{"time":4,"transit":true,"is_transit":true,"distance":1264,"i_long":106.812439,"line":2,"i_lat":-6.137569,"station_name":"Jakarta Kota","station_id":"JAKK"},{"distance":1364,"station_name":"Kampung Bandan","time":3,"station_id":"KPB","is_transit":true,"i_lat":-6.132549,"i_long":106.826365,"transit":true,"line":4},{"distance":4102,"line":1,"i_long":106.79867,"time":9,"station_id":"AK","transit":false,"station_name":"Angke","is_transit":false,"i_lat":-6.144674},{"station_name":"Duri","distance":1230,"line":1,"station_id":"DU","i_lat":-6.155215,"i_long":106.800832,"is_transit":false,"transit":false,"time":4},{"line":1,"transit":true,"distance":3632,"station_name":"Tanah Abang","station_id":"THB","time":8,"i_long":106.811091,"is_transit":true,"i_lat":-6.185545},{"station_name":"Palmerah","line":6,"i_long":106.79689,"is_transit":false,"transit":false,"time":6,"distance":3191,"i_lat":-6.207404,"station_id":"PLM"}]]}