{"data":[[{"is_transit":false,"distance":0,"i_long":106.84368,"i_lat":-6.174784,"line":11,"station_id":"PSE","time":0,"transit":false,"station_name":"Pasar Senen"},{"station_id":"GST","time":8,"line":11,"station_name":"Gang Sentiong","i_lat":-6.185975,"transit":false,"is_transit":false,"i_long":106.850107,"distance":1567},{"station_id":"KMT","station_name":"Kramat","transit":false,"is_transit":false,"time":1,"distance":973,"i_lat":-6.193792,"i_long":106.855437,"line":11},{"line":11,"station_id":"POK","is_transit":false,"time":2,"transit":false,"station_name":"Pondok Jati","i_lat":-6.209188,"i_long":106.861737,"distance":1829},{"transit":true,"is_transit":true,"time":9,"i_lat":-6.215091,"line":1,"i_long":106.86807400000001,"station_name":"Jatinegara","station_id":"JNG","distance":1236},{"station_name":"Matraman","time":2,"transit":false,"i_lat":-6.212485,"station_id":"MTR","line":1,"i_long":106.858896,"is_transit":false,"distance":1377},{"line":2,"station_id":"MRI","transit":true,"is_transit":true,"distance":1275,"i_lat":-6.209883,"i_long":106.84912,"station_name":"Manggarai","time":2},{"time":4,"station_name":"Tebet","line":2,"transit":false,"i_lat":-6.226659,"is_transit":false,"station_id":"TEB","distance":2610,"i_long":106.857948},{"transit":false,"i_lat":-6.242512,"distance":1230,"line":2,"time":2,"station_id":"CW","is_transit":false,"station_name":"Cawang","i_long":106.856607},{"transit":false,"time":3,"distance":1546,"is_transit":false,"station_id":"DRN","i_lat":-6.255332,"station_name":"Duren Kalibata","i_long":106.85449,"line":2},{"distance":824,"line":2,"is_transit":false,"station_name":"Pasar Minggu Baru","i_lat":-6.263214,"station_id":"PSMB","transit":false,"i_long":106.851577,"time":2},{"transit":false,"station_name":"Pasar Minggu","station_id":"PSM","distance":2380,"i_long":106.843999,"i_lat":-6.2842400000000005,"time":2,"line":2,"is_transit":false},{"distance":2820,"is_transit":false,"i_long":106.838896,"i_lat":-6.3080680000000005,"station_name":"Tanjung Barat","time":4,"transit":false,"line":2,"station_id":"TNT"},{"i_long":106.832616,"transit":false,"i_lat":-6.330363,"is_transit":false,"line":2,"station_name":"Lenteng Agung","station_id":"LNA","time":3,"distance":2671},{"station_id":"UP","transit":false,"time":2,"i_lat":-6.339291,"station_name":"Univ. Pancasila","is_transit":false,"line":2,"distance":1029,"i_long":106.834175}],[{"distance":0,"i_long":106.84368,"time":0,"i_lat":-6.174784,"station_name":"Pasar Senen","station_id":"PSE","is_transit":false,"line":11,"transit":false},{"transit":false,"distance":1436,"is_transit":false,"i_lat":-6.161728,"time":4,"i_long":106.839204,"station_name":"Kemayoran","station_id":"KMO","line":11},{"transit":false,"is_transit":false,"time":5,"distance":1901,"station_name":"Rajawali","station_id":"RJW","i_lat":-6.14505,"line":11,"i_long":106.836569},{"line":4,"transit":true,"distance":1444,"station_name":"Kampung Bandan","station_id":"KPB","time":3,"i_long":106.826365,"is_transit":true,"i_lat":-6.132549},{"station_name":"Angke","line":1,"i_long":106.79867,"is_transit":false,"transit":false,"time":9,"distance":4102,"i_lat":-6.144674,"station_id":"AK"},{"is_transit":false,"station_id":"DU","station_name":"Duri","transit":false,"time":4,"distance":1230,"i_lat":-6.155215,"line":1,"i_long":106.800832},{"i_lat":-6.185545,"is_transit":false,"transit":false,"station_name":"Tanah Abang","station_id":"THB","distance":3632,"i_long":106.811091,"line":1,"time":8},{"is_transit":false,"time":5,"i_long":106.816351,"transit":false,"station_id":"KAT","distance":2029,"line":1,"i_lat":-6.20132,"station_name":"Karet"},{"transit":false,"time":1,"i_long":106.819881,"is_transit":false,"station_id":"SUDB","line":1,"i_lat":-6.201433,"distance":471,"station_name":"Sudirman Baru"},{"i_lat":-6.202263,"transit":false,"i_long":106.822649,"station_id":"SUD","line":1,"station_name":"Sudirman","time":1,"distance":280,"is_transit":false},{"i_long":106.84912,"station_id":"MRI","is_transit":true,"transit":true,"i_lat":-6.209883,"distance":3186,"time":4,"line":2,"station_name":"Manggarai"},{"transit":false,"time":4,"i_long":106.857948,"station_name":"Tebet","is_transit":false,"station_id":"TEB","line":2,"distance":2610,"i_lat":-6.226659},{"i_lat":-6.242512,"line":2,"transit":false,"is_transit":false,"i_long":106.856607,"station_id":"CW","station_name":"Cawang","distance":1230,"time":2},{"i_long":106.85449,"line":2,"station_name":"Duren Kalibata","is_transit":false,"i_lat":-6.255332,"time":3,"transit":false,"station_id":"DRN","distance":1546},{"distance":824,"line":2,"time":2,"is_transit":false,"station_name":"Pasar Minggu Baru","i_lat":-6.263214,"transit":false,"station_id":"PSMB","i_long":106.851577},{"line":2,"is_transit":false,"station_id":"PSM","transit":false,"distance":2380,"i_lat":-6.2842400000000005,"time":2,"i_long":106.843999,"station_name":"Pasar Minggu"},{"i_long":106.838896,"station_name":"Tanjung Barat","station_id":"TNT","time":4,"distance":2820,"line":2,"is_transit":false,"transit":false,"i_lat":-6.3080680000000005},{"is_transit":false,"time":3,"station_name":"Lenteng Agung","line":2,"station_id":"LNA","distance":2671,"i_long":106.832616,"transit":false,"i_lat":-6.330363},{"is_transit":false,"i_long":106.834175,"station_name":"Univ. Pancasila","line":2,"time":2,"distance":1029,"i_lat":-6.339291,"station_id":"UP","transit":false}],[{"line":11,"i_lat":-6.174784,"i_long":106.84368,"station_name":"Pasar Senen","is_transit":false,"station_id":"PSE","time":0,"transit":false,"distance":0},{"station_id":"KMO","time":4,"is_transit":false,"i_lat":-6.161728,"transit":false,"station_name":"Kemayoran","i_long":106.839204,"line":11,"distance":1436},{"i_lat":-6.14505,"i_long":106.836569,"line":11,"station_id":"RJW","is_transit":false,"time":5,"transit":false,"station_name":"Rajawali","distance":1901},{"transit":true,"time":3,"i_lat":-6.132549,"is_transit":true,"line":4,"i_long":106.826365,"distance":1444,"station_name":"Kampung Bandan","station_id":"KPB"},{"transit":true,"line":2,"is_transit":true,"station_name":"Jakarta Kota","time":3,"distance":1364,"station_id":"JAKK","i_lat":-6.137569,"i_long":106.812439},{"transit":false,"is_transit":false,"line":2,"station_id":"JAY","distance":1264,"time":4,"station_name":"Jayakarta","i_lat":-6.141205,"i_long":106.820901},{"station_id":"MGB","distance":1080,"i_long":106.82482,"time":2,"transit":false,"is_transit":false,"i_lat":-6.149769,"station_name":"Manggabesar","line":2},{"station_id":"SW","station_name":"Sawah Besar","time":2,"distance":906,"transit":false,"is_transit":false,"i_lat":-6.160725,"i_long":106.827103,"line":2},{"distance":1149,"station_name":"Juanda","i_long":106.828284,"line":2,"transit":false,"time":2,"is_transit":false,"i_lat":-6.166716,"station_id":"JUA"},{"time":4,"i_long":106.832183,"line":2,"station_name":"Gondangdia","station_id":"GDD","distance":2015,"transit":false,"i_lat":-6.186295,"is_transit":false},{"station_name":"Cikini","station_id":"CKI","time":3,"transit":false,"i_lat":-6.198556,"i_long":106.840169,"is_transit":false,"line":2,"distance":1750},{"station_id":"MRI","time":4,"distance":1590,"i_long":106.84912,"line":2,"is_transit":false,"i_lat":-6.209883,"station_name":"Manggarai","transit":false},{"station_id":"TEB","i_long":106.857948,"transit":false,"line":2,"i_lat":-6.226659,"distance":2610,"is_transit":false,"station_name":"Tebet","time":4},{"i_lat":-6.242512,"station_name":"Cawang","transit":false,"station_id":"CW","distance":1230,"time":2,"is_transit":false,"line":2,"i_long":106.856607},{"station_id":"DRN","is_transit":false,"line":2,"i_long":106.85449,"distance":1546,"transit":false,"time":3,"i_lat":-6.255332,"station_name":"Duren Kalibata"},{"time":2,"i_lat":-6.263214,"transit":false,"station_name":"Pasar Minggu Baru","is_transit":false,"i_long":106.851577,"station_id":"PSMB","line":2,"distance":824},{"time":2,"i_long":106.843999,"is_transit":false,"line":2,"station_id":"PSM","distance":2380,"transit":false,"station_name":"Pasar Minggu","i_lat":-6.2842400000000005},{"is_transit":false,"station_id":"TNT","line":2,"i_long":106.838896,"time":4,"distance":2820,"station_name":"Tanjung Barat","transit":false,"i_lat":-6.3080680000000005},{"station_name":"Lenteng Agung","i_long":106.832616,"transit":false,"station_id":"LNA","i_lat":-6.330363,"distance":2671,"time":3,"line":2,"is_transit":false},{"i_long":106.834175,"transit":false,"line":2,"distance":1029,"station_id":"UP","time":2,"i_lat":-6.339291,"is_transit":false,"station_name":"Univ. Pancasila"}]]}