{"data":[[{"station_name":"Pasar Senen","transit":false,"line":11,"i_lat":-6.174784,"time":0,"distance":0,"station_id":"PSE","i_long":106.84368,"is_transit":false},{"transit":false,"i_lat":-6.185975,"is_transit":false,"station_id":"GST","station_name":"Gang Sentiong","line":11,"time":8,"i_long":106.850107,"distance":1567},{"transit":false,"station_id":"KMT","time":1,"i_long":106.855437,"station_name":"Kramat","is_transit":false,"line":11,"distance":973,"i_lat":-6.193792},{"i_long":106.861737,"is_transit":false,"distance":1829,"station_name":"Pondok Jati","transit":false,"time":2,"i_lat":-6.209188,"line":11,"station_id":"POK"},{"station_id":"JNG","is_transit":true,"time":9,"distance":1236,"i_lat":-6.215091,"i_long":106.86807400000001,"station_name":"Jatinegara","transit":true,"line":1},{"station_name":"Matraman","i_lat":-6.212485,"line":1,"transit":false,"is_transit":false,"time":2,"station_id":"MTR","distance":1377,"i_long":106.858896},{"is_transit":true,"station_name":"Manggarai","station_id":"MRI","transit":true,"distance":1275,"i_lat":-6.209883,"line":2,"i_long":106.84912,"time":2},{"station_id":"TEB","station_name":"Tebet","transit":false,"time":4,"distance":2610,"i_long":106.857948,"i_lat":-6.226659,"is_transit":false,"line":2},{"distance":1230,"station_name":"Cawang","i_lat":-6.242512,"station_id":"CW","time":2,"is_transit":false,"transit":false,"line":2,"i_long":106.856607}],[{"i_long":106.84368,"time":0,"is_transit":false,"transit":false,"station_id":"PSE","line":11,"station_name":"Pasar Senen","distance":0,"i_lat":-6.174784},{"line":11,"time":4,"station_id":"KMO","transit":false,"i_lat":-6.161728,"distance":1436,"is_transit":false,"i_long":106.839204,"station_name":"Kemayoran"},{"time":5,"transit":false,"station_id":"RJW","distance":1901,"i_lat":-6.14505,"line":11,"is_transit":false,"station_name":"Rajawali","i_long":106.836569},{"station_name":"Kampung Bandan","station_id":"KPB","time":3,"is_transit":true,"distance":1444,"i_long":106.826365,"transit":true,"i_lat":-6.132549,"line":4},{"is_transit":false,"distance":4102,"transit":false,"time":9,"i_long":106.79867,"line":1,"station_name":"Angke","i_lat":-6.144674,"station_id":"AK"},{"station_name":"Duri","i_long":106.800832,"distance":1230,"is_transit":false,"station_id":"DU","time":4,"line":1,"transit":false,"i_lat":-6.155215},{"line":1,"station_id":"THB","is_transit":false,"transit":false,"distance":3632,"i_long":106.811091,"i_lat":-6.185545,"time":8,"station_name":"Tanah Abang"},{"station_name":"Karet","time":5,"is_transit":false,"i_long":106.816351,"distance":2029,"station_id":"KAT","transit":false,"i_lat":-6.20132,"line":1},{"i_long":106.819881,"distance":471,"i_lat":-6.201433,"is_transit":false,"time":1,"line":1,"transit":false,"station_id":"SUDB","station_name":"Sudirman Baru"},{"transit":false,"station_id":"SUD","i_lat":-6.202263,"station_name":"Sudirman","line":1,"time":1,"i_long":106.822649,"is_transit":false,"distance":280},{"distance":3186,"station_id":"MRI","station_name":"Manggarai","is_transit":true,"i_long":106.84912,"time":4,"i_lat":-6.209883,"line":2,"transit":true},{"distance":2610,"station_name":"Tebet","i_lat":-6.226659,"station_id":"TEB","is_transit":false,"i_long":106.857948,"line":2,"time":4,"transit":false},{"i_long":106.856607,"time":2,"station_name":"Cawang","is_transit":false,"line":2,"transit":false,"i_lat":-6.242512,"distance":1230,"station_id":"CW"}],[{"transit":false,"station_name":"Pasar Senen","i_long":106.84368,"station_id":"PSE","line":11,"time":0,"i_lat":-6.174784,"distance":0,"is_transit":false},{"distance":1436,"i_long":106.839204,"station_id":"KMO","time":4,"station_name":"Kemayoran","is_transit":false,"transit":false,"i_lat":-6.161728,"line":11},{"is_transit":false,"transit":false,"i_long":106.836569,"i_lat":-6.14505,"distance":1901,"station_id":"RJW","line":11,"time":5,"station_name":"Rajawali"},{"time":3,"i_long":106.826365,"transit":true,"i_lat":-6.132549,"station_id":"KPB","station_name":"Kampung Bandan","is_transit":true,"line":4,"distance":1444},{"distance":1364,"station_name":"Jakarta Kota","transit":true,"i_lat":-6.137569,"i_long":106.812439,"station_id":"JAKK","time":3,"line":2,"is_transit":true},{"is_transit":false,"i_lat":-6.141205,"time":4,"station_id":"JAY","distance":1264,"transit":false,"i_long":106.820901,"line":2,"station_name":"Jayakarta"},{"line":2,"i_long":106.82482,"station_id":"MGB","station_name":"Manggabesar","transit":false,"is_transit":false,"time":2,"i_lat":-6.149769,"distance":1080},{"time":2,"station_id":"SW","distance":906,"is_transit":false,"station_name":"Sawah Besar","i_lat":-6.160725,"i_long":106.827103,"line":2,"transit":false},{"i_long":106.828284,"line":2,"time":2,"transit":false,"is_transit":false,"station_id":"JUA","distance":1149,"station_name":"Juanda","i_lat":-6.166716},{"line":2,"station_id":"GDD","time":4,"i_lat":-6.186295,"station_name":"Gondangdia","i_long":106.832183,"transit":false,"distance":2015,"is_transit":false},{"line":2,"time":3,"transit":false,"distance":1750,"station_id":"CKI","station_name":"Cikini","is_transit":false,"i_long":106.840169,"i_lat":-6.198556},{"i_long":106.84912,"transit":false,"distance":1590,"station_id":"MRI","station_name":"Manggarai","i_lat":-6.209883,"time":4,"line":2,"is_transit":false},{"line":2,"i_long":106.857948,"distance":2610,"station_name":"Tebet","is_transit":false,"i_lat":-6.226659,"station_id":"TEB","transit":false,"time":4},{"i_long":106.856607,"distance":1230,"station_id":"CW","station_name":"Cawang","line":2,"time":2,"is_transit":false,"transit":false,"i_lat":-6.242512}]]}