{"data":[[{"time":0,"station_name":"Pasar Senen","transit":false,"is_transit":false,"station_id":"PSE","distance":0,"i_lat":-6.174784,"i_long":106.84368,"line":11},{"station_id":"KMO","station_name":"Kemayoran","line":11,"time":4,"transit":false,"i_lat":-6.161728,"i_long":106.839204,"distance":1436,"is_transit":false},{"is_transit":false,"line":11,"distance":1901,"transit":false,"station_id":"RJW","station_name":"Rajawali","time":5,"i_lat":-6.14505,"i_long":106.836569},{"distance":1444,"is_transit":true,"station_id":"KPB","station_name":"Kampung Bandan","transit":true,"time":3,"line":0,"i_long":106.826365,"i_lat":-6.132549},{"station_name":"Jakarta Kota","time":3,"distance":1364,"i_lat":-6.137569,"i_long":106.812439,"station_id":"JAKK","is_transit":true,"transit":true,"line":0},{"time":4,"i_long":106.820901,"is_transit":false,"transit":false,"i_lat":-6.141205,"distance":1264,"station_id":"JAY","line":7,"station_name":"Jayakarta"}],[{"is_transit":false,"time":0,"station_id":"PSE","station_name":"Pasar Senen","transit":false,"distance":0,"line":11,"i_lat":-6.174784,"i_long":106.84368},{"is_transit":false,"i_lat":-6.185975,"i_long":106.850107,"time":8,"transit":false,"station_name":"Gang Sentiong","line":11,"distance":1567,"station_id":"GST"},{"distance":973,"i_lat":-6.193792,"is_transit":false,"transit":false,"line":11,"time":1,"station_id":"KMT","station_name":"Kramat","i_long":106.855437},{"i_lat":-6.209188,"line":11,"distance":1829,"time":2,"station_name":"Pondok Jati","station_id":"POK","is_transit":false,"transit":false,"i_long":106.861737},{"station_name":"Jatinegara","i_long":106.86807400000001,"distance":1236,"line":0,"time":9,"station_id":"JNG","i_lat":-6.215091,"transit":true,"is_transit":true},{"station_name":"Matraman","distance":1377,"station_id":"MTR","line":1,"is_transit":false,"i_lat":-6.212485,"transit":false,"i_long":106.858896,"time":2},{"is_transit":true,"station_id":"MRI","transit":true,"i_long":106.84912,"distance":1275,"station_name":"Manggarai","i_lat":-6.209883,"line":0,"time":2},{"station_id":"CKI","station_name":"Cikini","is_transit":false,"i_lat":-6.198556,"line":0,"distance":1590,"time":4,"transit":false,"i_long":106.840169},{"time":3,"distance":1750,"is_transit":false,"station_name":"Gondangdia","i_long":106.832183,"station_id":"GDD","line":2,"i_lat":-6.186295,"transit":false},{"is_transit":false,"station_id":"JUA","transit":false,"time":4,"i_long":106.828284,"line":2,"i_lat":-6.166716,"distance":2015,"station_name":"Juanda"},{"transit":false,"time":2,"i_lat":-6.160725,"station_id":"SW","station_name":"Sawah Besar","is_transit":false,"distance":1149,"i_long":106.827103,"line":2},{"station_id":"MGB","line":2,"is_transit":false,"station_name":"Manggabesar","time":2,"i_lat":-6.149769,"distance":906,"transit":false,"i_long":106.82482},{"i_lat":-6.141205,"station_name":"Jayakarta","station_id":"JAY","is_transit":false,"distance":1080,"transit":false,"time":2,"i_long":106.820901,"line":7}],[{"station_name":"Pasar Senen","station_id":"PSE","i_lat":-6.174784,"distance":0,"time":0,"line":11,"i_long":106.84368,"is_transit":false,"transit":false},{"is_transit":false,"i_lat":-6.185975,"station_name":"Gang Sentiong","distance":1567,"station_id":"GST","transit":false,"i_long":106.850107,"line":11,"time":8},{"transit":false,"distance":973,"station_name":"Kramat","station_id":"KMT","i_lat":-6.193792,"i_long":106.855437,"is_transit":false,"line":11,"time":1},{"i_long":106.861737,"line":11,"i_lat":-6.209188,"transit":false,"station_name":"Pondok Jati","distance":1829,"is_transit":false,"station_id":"POK","time":2},{"station_name":"Jatinegara","station_id":"JNG","is_transit":true,"line":0,"transit":true,"distance":1236,"time":9,"i_lat":-6.215091,"i_long":106.86807400000001},{"i_lat":-6.212485,"transit":false,"time":2,"is_transit":false,"i_long":106.858896,"station_name":"Matraman","line":1,"station_id":"MTR","distance":1377},{"time":2,"station_id":"MRI","line":0,"distance":1275,"station_name":"Manggarai","transit":false,"i_long":106.84912,"i_lat":-6.209883,"is_transit":true},{"station_id":"SUD","i_lat":-6.202263,"station_name":"Sudirman","i_long":106.822649,"time":4,"distance":3186,"is_transit":false,"transit":false,"line":1},{"transit":false,"line":1,"station_id":"SUDB","i_lat":-6.201433,"is_transit":false,"i_long":106.819881,"time":1,"station_name":"Sudirman Baru","distance":280},{"i_long":106.816351,"transit":false,"station_id":"KAT","is_transit":false,"line":1,"distance":471,"station_name":"Karet","time":1,"i_lat":-6.20132},{"time":5,"i_long":106.811091,"station_name":"Tanah Abang","i_lat":-6.185545,"is_transit":true,"station_id":"THB","distance":2029,"transit":false,"line":1},{"station_name":"Duri","distance":3632,"transit":true,"time":8,"line":1,"i_lat":-6.155215,"is_transit":true,"station_id":"DU","i_long":106.800832},{"transit":false,"station_name":"Angke","is_transit":false,"i_long":106.79867,"i_lat":-6.144674,"station_id":"AK","time":4,"distance":1230,"line":0},{"time":9,"i_lat":-6.132549,"station_name":"Kampung Bandan","i_long":106.826365,"station_id":"KPB","distance":4102,"line":0,"transit":false,"is_transit":true},{"time":3,"line":0,"i_lat":-6.137569,"distance":1364,"station_id":"JAKK","station_name":"Jakarta Kota","transit":true,"i_long":106.812439,"is_transit":true},{"station_id":"JAY","station_name":"Jayakarta","time":4,"i_lat":-6.141205,"transit":false,"i_long":106.820901,"distance":1264,"is_transit":false,"line":7}],[{"i_long":106.84368,"is_transit":false,"i_lat":-6.174784,"transit":false,"line":11,"station_id":"PSE","station_name":"Pasar Senen","distance":0,"time":0},{"i_lat":-6.161728,"line":11,"i_long":106.839204,"transit":false,"is_transit":false,"time":4,"distance":1436,"station_name":"Kemayoran","station_id":"KMO"},{"transit":false,"i_lat":-6.14505,"is_transit":false,"i_long":106.836569,"time":5,"line":11,"station_id":"RJW","station_name":"Rajawali","distance":1901},{"station_name":"Kampung Bandan","i_lat":-6.132549,"distance":1444,"transit":true,"is_transit":true,"station_id":"KPB","i_long":106.826365,"time":3,"line":0},{"transit":false,"time":9,"is_transit":false,"i_long":106.79867,"i_lat":-6.144674,"line":0,"station_id":"AK","distance":4102,"station_name":"Angke"},{"is_transit":true,"station_name":"Duri","line":1,"time":4,"distance":1230,"station_id":"DU","i_lat":-6.155215,"i_long":106.800832,"transit":true},{"i_long":106.811091,"station_id":"THB","is_transit":true,"i_lat":-6.185545,"transit":false,"time":8,"station_name":"Tanah Abang","line":1,"distance":3632},{"time":5,"line":1,"i_long":106.816351,"transit":false,"i_lat":-6.20132,"is_transit":false,"station_id":"KAT","distance":2029,"station_name":"Karet"},{"i_long":106.819881,"transit":false,"distance":471,"station_name":"Sudirman Baru","i_lat":-6.201433,"is_transit":false,"line":1,"station_id":"SUDB","time":1},{"line":1,"is_transit":false,"i_long":106.822649,"station_name":"Sudirman","time":1,"i_lat":-6.202263,"transit":false,"distance":280,"station_id":"SUD"},{"station_name":"Manggarai","i_long":106.84912,"line":0,"is_transit":true,"station_id":"MRI","time":4,"distance":3186,"transit":true,"i_lat":-6.209883},{"time":4,"is_transit":false,"station_id":"CKI","i_lat":-6.198556,"i_long":106.840169,"transit":false,"line":0,"distance":1590,"station_name":"Cikini"},{"distance":1750,"station_name":"Gondangdia","station_id":"GDD","transit":false,"is_transit":false,"time":3,"i_lat":-6.186295,"i_long":106.832183,"line":2},{"line":2,"transit":false,"i_lat":-6.166716,"is_transit":false,"station_name":"Juanda","i_long":106.828284,"time":4,"station_id":"JUA","distance":2015},{"time":2,"distance":1149,"is_transit":false,"station_id":"SW","line":2,"station_name":"Sawah Besar","transit":false,"i_long":106.827103,"i_lat":-6.160725},{"distance":906,"station_id":"MGB","i_long":106.82482,"line":2,"station_name":"Manggabesar","transit":false,"time":2,"i_lat":-6.149769,"is_transit":false},{"distance":1080,"is_transit":false,"line":7,"transit":false,"station_id":"JAY","station_name":"Jayakarta","i_lat":-6.141205,"i_long":106.820901,"time":2}]]}