{"data":[[{"time":0,"transit":false,"line":11,"station_id":"PSE","i_long":106.84368,"distance":0,"i_lat":-6.174784,"is_transit":false,"station_name":"Pasar Senen"},{"transit":false,"station_name":"Gang Sentiong","line":11,"station_id":"GST","i_lat":-6.185975,"i_long":106.850107,"distance":1567,"is_transit":false,"time":8},{"station_id":"KMT","i_lat":-6.193792,"i_long":106.855437,"is_transit":false,"station_name":"Kramat","time":1,"line":11,"transit":false,"distance":973},{"line":11,"transit":false,"i_lat":-6.209188,"distance":1829,"station_id":"POK","station_name":"Pondok Jati","i_long":106.861737,"is_transit":false,"time":2},{"time":9,"station_name":"Jatinegara","i_lat":-6.215091,"station_id":"JNG","distance":1236,"transit":true,"line":1,"i_long":106.86807400000001,"is_transit":true},{"time":3,"station_name":"Klender","i_lat":-6.2135,"i_long":106.899548,"distance":3395,"station_id":"KLD","transit":false,"is_transit":false,"line":1},{"line":1,"time":2,"i_long":106.922662,"is_transit":false,"i_lat":-6.215568,"station_id":"BUA","transit":false,"station_name":"Buaran","distance":3100},{"i_lat":-6.217455,"time":1,"i_long":106.939679,"transit":false,"station_name":"Klenderbaru","distance":1305,"is_transit":false,"line":1,"station_id":"KLDB"},{"i_lat":-6.219053,"i_long":106.951283,"line":1,"time":8,"station_id":"CUK","is_transit":false,"station_name":"Cakung","transit":false,"distance":1385},{"i_lat":-6.224515,"i_long":106.977657,"is_transit":false,"distance":3097,"transit":false,"line":1,"station_id":"KRI","station_name":"Kranji","time":3},{"station_id":"BKS","distance":2520,"is_transit":false,"station_name":"Bekasi","time":4,"transit":false,"i_lat":-6.236616,"i_long":106.997013,"line":1},{"i_lat":-6.248029,"station_name":"Bekasi Timur","distance":2368,"line":1,"is_transit":false,"transit":false,"time":2,"i_long":107.016735,"station_id":"BKST"},{"station_id":"TB","line":1,"i_lat":-6.258864,"is_transit":false,"station_name":"Tambun","time":7,"distance":4460,"transit":false,"i_long":107.055722},{"time":3,"station_id":"CIT","is_transit":false,"i_lat":-6.261877,"station_name":"Cibitung","distance":3420,"transit":false,"i_long":107.083084,"line":1},{"is_transit":false,"i_lat":-6.262938,"time":2,"station_name":"Metland Telaga Murni","i_long":107.093313,"transit":false,"distance":2800,"station_id":"TLM","line":1},{"time":4,"i_long":107.144613,"station_name":"Cikarang","transit":false,"i_lat":-6.2553149999999995,"line":1,"is_transit":false,"distance":3689,"station_id":"CKR"}],[{"station_id":"PSE","station_name":"Pasar Senen","is_transit":false,"transit":false,"i_lat":-6.174784,"time":0,"distance":0,"i_long":106.84368,"line":11},{"is_transit":false,"station_name":"Kemayoran","transit":false,"time":4,"station_id":"KMO","i_lat":-6.161728,"i_long":106.839204,"distance":1436,"line":11},{"is_transit":false,"station_name":"Rajawali","line":11,"time":5,"i_lat":-6.14505,"station_id":"RJW","transit":false,"i_long":106.836569,"distance":1901},{"station_id":"KPB","is_transit":true,"distance":1444,"i_long":106.826365,"i_lat":-6.132549,"station_name":"Kampung Bandan","line":4,"time":3,"transit":true},{"distance":4102,"i_long":106.79867,"line":1,"station_id":"AK","is_transit":false,"time":9,"station_name":"Angke","transit":false,"i_lat":-6.144674},{"i_lat":-6.155215,"station_id":"DU","station_name":"Duri","transit":false,"i_long":106.800832,"line":1,"distance":1230,"time":4,"is_transit":false},{"station_id":"THB","is_transit":false,"time":8,"i_lat":-6.185545,"line":1,"transit":false,"i_long":106.811091,"distance":3632,"station_name":"Tanah Abang"},{"station_name":"Karet","is_transit":false,"distance":2029,"i_lat":-6.20132,"transit":false,"i_long":106.816351,"line":1,"time":5,"station_id":"KAT"},{"line":1,"is_transit":false,"time":1,"distance":471,"i_lat":-6.201433,"station_name":"Sudirman Baru","i_long":106.819881,"transit":false,"station_id":"SUDB"},{"distance":280,"time":1,"station_name":"Sudirman","is_transit":false,"transit":false,"i_lat":-6.202263,"station_id":"SUD","i_long":106.822649,"line":1},{"station_id":"MRI","transit":false,"distance":3186,"time":4,"i_long":106.84912,"line":2,"is_transit":false,"i_lat":-6.209883,"station_name":"Manggarai"},{"transit":false,"i_long":106.858896,"time":2,"i_lat":-6.212485,"line":1,"station_id":"MTR","distance":1275,"station_name":"Matraman","is_transit":false},{"line":1,"station_name":"Jatinegara","time":8,"is_transit":false,"transit":false,"distance":1377,"i_long":106.86807400000001,"station_id":"JNG","i_lat":-6.215091},{"distance":3395,"station_id":"KLD","is_transit":false,"station_name":"Klender","transit":false,"i_lat":-6.2135,"i_long":106.899548,"time":3,"line":1},{"is_transit":false,"transit":false,"station_name":"Buaran","i_long":106.922662,"line":1,"i_lat":-6.215568,"station_id":"BUA","time":2,"distance":3100},{"transit":false,"i_long":106.939679,"line":1,"distance":1305,"i_lat":-6.217455,"is_transit":false,"time":1,"station_name":"Klenderbaru","station_id":"KLDB"},{"line":1,"is_transit":false,"transit":false,"station_name":"Cakung","i_lat":-6.219053,"station_id":"CUK","i_long":106.951283,"time":8,"distance":1385},{"station_name":"Kranji","transit":false,"station_id":"KRI","i_lat":-6.224515,"i_long":106.977657,"line":1,"is_transit":false,"time":3,"distance":3097},{"station_name":"Bekasi","time":4,"distance":2520,"is_transit":false,"transit":false,"line":1,"station_id":"BKS","i_long":106.997013,"i_lat":-6.236616},{"i_long":107.016735,"station_name":"Bekasi Timur","line":1,"station_id":"BKST","time":2,"transit":false,"i_lat":-6.248029,"distance":2368,"is_transit":false},{"is_transit":false,"time":7,"distance":4460,"i_lat":-6.258864,"line":1,"i_long":107.055722,"station_id":"TB","station_name":"Tambun","transit":false},{"distance":3420,"time":3,"i_long":107.083084,"i_lat":-6.261877,"station_name":"Cibitung","line":1,"is_transit":false,"transit":false,"station_id":"CIT"},{"i_long":107.093313,"line":1,"time":2,"is_transit":false,"i_lat":-6.262938,"station_id":"TLM","station_name":"Metland Telaga Murni","distance":2800,"transit":false},{"i_long":107.144613,"is_transit":false,"distance":3689,"station_id":"CKR","transit":false,"line":1,"time":4,"i_lat":-6.2553149999999995,"station_name":"Cikarang"}],[{"line":11,"station_id":"PSE","time":0,"is_transit":false,"i_long":106.84368,"transit":false,"i_lat":-6.174784,"station_name":"Pasar Senen","distance":0},{"station_name":"Kemayoran","time":4,"line":11,"is_transit":false,"i_long":106.839204,"transit":false,"i_lat":-6.161728,"distance":1436,"station_id":"KMO"},{"station_id":"RJW","i_long":106.836569,"distance":1901,"transit":false,"time":5,"is_transit":false,"line":11,"i_lat":-6.14505,"station_name":"Rajawali"},{"line":4,"is_transit":true,"distance":1444,"transit":true,"i_long":106.826365,"i_lat":-6.132549,"station_name":"Kampung Bandan","time":3,"station_id":"KPB"},{"distance":1364,"line":2,"time":3,"transit":true,"is_transit":true,"i_long":106.812439,"station_name":"Jakarta Kota","i_lat":-6.137569,"station_id":"JAKK"},{"time":4,"station_name":"Jayakarta","i_lat":-6.141205,"distance":1264,"transit":false,"line":2,"is_transit":false,"station_id":"JAY","i_long":106.820901},{"time":2,"transit":false,"is_transit":false,"i_lat":-6.149769,"station_name":"Manggabesar","distance":1080,"i_long":106.82482,"line":2,"station_id":"MGB"},{"is_transit":false,"time":2,"i_long":106.827103,"distance":906,"line":2,"i_lat":-6.160725,"station_name":"Sawah Besar","transit":false,"station_id":"SW"},{"is_transit":false,"line":2,"distance":1149,"i_lat":-6.166716,"time":2,"station_name":"Juanda","i_long":106.828284,"station_id":"JUA","transit":false},{"transit":false,"station_name":"Gondangdia","time":4,"is_transit":false,"i_lat":-6.186295,"i_long":106.832183,"line":2,"station_id":"GDD","distance":2015},{"i_lat":-6.198556,"station_id":"CKI","i_long":106.840169,"transit":false,"is_transit":false,"station_name":"Cikini","distance":1750,"line":2,"time":3},{"time":4,"i_lat":-6.209883,"is_transit":true,"line":2,"transit":true,"station_id":"MRI","i_long":106.84912,"station_name":"Manggarai","distance":1590},{"station_name":"Matraman","time":2,"i_lat":-6.212485,"line":1,"transit":false,"is_transit":false,"distance":1275,"station_id":"MTR","i_long":106.858896},{"station_name":"Jatinegara","line":1,"time":8,"station_id":"JNG","transit":false,"i_long":106.86807400000001,"is_transit":false,"i_lat":-6.215091,"distance":1377},{"i_long":106.899548,"line":1,"station_id":"KLD","distance":3395,"i_lat":-6.2135,"station_name":"Klender","is_transit":false,"transit":false,"time":3},{"station_id":"BUA","i_lat":-6.215568,"distance":3100,"transit":false,"is_transit":false,"i_long":106.922662,"station_name":"Buaran","time":2,"line":1},{"station_id":"KLDB","is_transit":false,"station_name":"Klenderbaru","transit":false,"distance":1305,"time":1,"i_lat":-6.217455,"line":1,"i_long":106.939679},{"i_lat":-6.219053,"line":1,"station_name":"Cakung","station_id":"CUK","is_transit":false,"time":8,"distance":1385,"transit":false,"i_long":106.951283},{"transit":false,"i_long":106.977657,"is_transit":false,"station_name":"Kranji","distance":3097,"station_id":"KRI","i_lat":-6.224515,"line":1,"time":3},{"i_long":106.997013,"distance":2520,"time":4,"transit":false,"i_lat":-6.236616,"is_transit":false,"station_name":"Bekasi","station_id":"BKS","line":1},{"time":2,"i_long":107.016735,"station_id":"BKST","is_transit":false,"line":1,"station_name":"Bekasi Timur","i_lat":-6.248029,"distance":2368,"transit":false},{"transit":false,"i_long":107.055722,"i_lat":-6.258864,"station_id":"TB","is_transit":false,"time":7,"distance":4460,"station_name":"Tambun","line":1},{"i_lat":-6.261877,"distance":3420,"transit":false,"i_long":107.083084,"line":1,"station_name":"Cibitung","station_id":"CIT","is_transit":false,"time":3},{"station_name":"Metland Telaga Murni","time":2,"is_transit":false,"transit":false,"line":1,"station_id":"TLM","i_lat":-6.262938,"i_long":107.093313,"distance":2800},{"line":1,"distance":3689,"i_long":107.144613,"i_lat":-6.2553149999999995,"station_id":"CKR","is_transit":false,"station_name":"Cikarang","time":4,"transit":false}]]}