{"data":[[{"is_transit":false,"distance":0,"station_id":"PSE","station_name":"Pasar Senen","time":0,"i_lat":-6.174784,"line":11,"i_long":106.84368,"transit":false},{"time":8,"i_long":106.850107,"line":11,"station_id":"GST","distance":1567,"i_lat":-6.185975,"station_name":"Gang Sentiong","is_transit":false,"transit":false},{"distance":973,"is_transit":false,"i_lat":-6.193792,"i_long":106.855437,"station_id":"KMT","station_name":"Kramat","time":1,"line":11,"transit":false}],[{"station_id":"PSE","transit":false,"is_transit":false,"time":0,"station_name":"Pasar Senen","i_lat":-6.174784,"i_long":106.84368,"line":11,"distance":0},{"transit":false,"station_id":"KMO","is_transit":false,"distance":1436,"station_name":"Kemayoran","time":4,"i_lat":-6.161728,"i_long":106.839204,"line":11},{"time":5,"station_id":"RJW","i_lat":-6.14505,"distance":1901,"is_transit":false,"station_name":"Rajawali","line":11,"i_long":106.836569,"transit":false},{"transit":true,"time":3,"i_lat":-6.132549,"station_name":"Kampung Bandan","distance":1444,"station_id":"KPB","i_long":106.826365,"is_transit":true,"line":4},{"is_transit":false,"i_lat":-6.144674,"station_id":"AK","distance":4102,"line":1,"transit":false,"station_name":"Angke","time":9,"i_long":106.79867},{"station_id":"DU","distance":1230,"line":1,"i_lat":-6.155215,"is_transit":false,"station_name":"Duri","time":4,"i_long":106.800832,"transit":false},{"distance":3632,"i_long":106.811091,"time":8,"station_name":"Tanah Abang","transit":false,"line":1,"station_id":"THB","i_lat":-6.185545,"is_transit":false},{"i_long":106.816351,"is_transit":false,"line":1,"station_id":"KAT","transit":false,"distance":2029,"station_name":"Karet","i_lat":-6.20132,"time":5},{"time":1,"line":1,"i_lat":-6.201433,"i_long":106.819881,"transit":false,"station_name":"Sudirman Baru","station_id":"SUDB","is_transit":false,"distance":471},{"distance":280,"station_id":"SUD","is_transit":false,"transit":false,"station_name":"Sudirman","i_long":106.822649,"i_lat":-6.202263,"time":1,"line":1},{"is_transit":false,"distance":3186,"transit":false,"station_name":"Manggarai","i_long":106.84912,"i_lat":-6.209883,"time":4,"station_id":"MRI","line":2},{"station_name":"Matraman","distance":1275,"i_lat":-6.212485,"line":1,"station_id":"MTR","time":2,"is_transit":false,"transit":false,"i_long":106.858896},{"time":8,"is_transit":true,"transit":true,"distance":1377,"line":1,"i_lat":-6.215091,"station_name":"Jatinegara","i_long":106.86807400000001,"station_id":"JNG"},{"i_lat":-6.209188,"i_long":106.861737,"is_transit":false,"line":11,"station_id":"POK","distance":1236,"transit":false,"time":2,"station_name":"Pondok Jati"},{"station_id":"KMT","transit":false,"i_long":106.855437,"time":2,"i_lat":-6.193792,"line":11,"is_transit":false,"station_name":"Kramat","distance":1829}],[{"transit":false,"distance":0,"station_name":"Pasar Senen","i_long":106.84368,"is_transit":false,"line":11,"time":0,"station_id":"PSE","i_lat":-6.174784},{"distance":1436,"station_name":"Kemayoran","line":11,"station_id":"KMO","i_lat":-6.161728,"time":4,"transit":false,"is_transit":false,"i_long":106.839204},{"line":11,"station_id":"RJW","transit":false,"i_long":106.836569,"i_lat":-6.14505,"is_transit":false,"time":5,"distance":1901,"station_name":"Rajawali"},{"transit":true,"is_transit":true,"station_name":"Kampung Bandan","line":4,"time":3,"i_lat":-6.132549,"station_id":"KPB","distance":1444,"i_long":106.826365},{"station_name":"Jakarta Kota","i_long":106.812439,"line":2,"transit":true,"time":3,"is_transit":true,"distance":1364,"i_lat":-6.137569,"station_id":"JAKK"},{"i_long":106.820901,"i_lat":-6.141205,"station_name":"Jayakarta","station_id":"JAY","transit":false,"distance":1264,"is_transit":false,"time":4,"line":2},{"station_name":"Manggabesar","transit":false,"is_transit":false,"i_long":106.82482,"i_lat":-6.149769,"line":2,"distance":1080,"station_id":"MGB","time":2},{"i_lat":-6.160725,"transit":false,"line":2,"distance":906,"station_id":"SW","is_transit":false,"i_long":106.827103,"time":2,"station_name":"Sawah Besar"},{"station_id":"JUA","i_lat":-6.166716,"station_name":"Juanda","is_transit":false,"time":2,"distance":1149,"transit":false,"i_long":106.828284,"line":2},{"line":2,"i_long":106.832183,"i_lat":-6.186295,"time":4,"transit":false,"station_id":"GDD","station_name":"Gondangdia","is_transit":false,"distance":2015},{"distance":1750,"station_id":"CKI","is_transit":false,"line":2,"station_name":"Cikini","i_long":106.840169,"transit":false,"time":3,"i_lat":-6.198556},{"i_lat":-6.209883,"i_long":106.84912,"line":2,"distance":1590,"time":4,"station_id":"MRI","station_name":"Manggarai","transit":true,"is_transit":true},{"i_long":106.858896,"transit":false,"line":1,"station_id":"MTR","station_name":"Matraman","is_transit":false,"i_lat":-6.212485,"time":2,"distance":1275},{"distance":1377,"i_lat":-6.215091,"i_long":106.86807400000001,"transit":true,"station_name":"Jatinegara","line":1,"time":8,"station_id":"JNG","is_transit":true},{"is_transit":false,"station_name":"Pondok Jati","station_id":"POK","i_long":106.861737,"distance":1236,"time":2,"i_lat":-6.209188,"transit":false,"line":11},{"time":2,"is_transit":false,"line":11,"i_lat":-6.193792,"distance":1829,"transit":false,"station_id":"KMT","station_name":"Kramat","i_long":106.855437}]]}