{"data":[[{"time":0,"line":11,"distance":0,"is_transit":false,"transit":false,"i_long":106.84368,"station_name":"Pasar Senen","i_lat":-6.174784,"station_id":"PSE"},{"station_id":"KMO","line":11,"is_transit":false,"i_lat":-6.161728,"time":4,"i_long":106.839204,"distance":1436,"station_name":"Kemayoran","transit":false},{"station_name":"Rajawali","line":11,"is_transit":false,"time":5,"i_long":106.836569,"transit":false,"i_lat":-6.14505,"distance":1901,"station_id":"RJW"},{"i_long":106.826365,"distance":1444,"is_transit":true,"transit":true,"line":0,"time":3,"station_id":"KPB","station_name":"Kampung Bandan","i_lat":-6.132549},{"i_lat":-6.144674,"line":0,"station_id":"AK","station_name":"Angke","time":9,"distance":4102,"transit":false,"i_long":106.79867,"is_transit":false},{"distance":1230,"i_long":106.800832,"station_name":"Duri","time":4,"i_lat":-6.155215,"is_transit":true,"line":1,"transit":true,"station_id":"DU"},{"station_name":"Tanah Abang","distance":3632,"time":8,"i_lat":-6.185545,"transit":true,"station_id":"THB","i_long":106.811091,"is_transit":true,"line":1},{"distance":3191,"is_transit":false,"time":6,"line":6,"i_lat":-6.207404,"i_long":106.79689,"station_name":"Palmerah","station_id":"PLM","transit":false},{"i_long":106.780334,"time":7,"is_transit":false,"line":6,"station_name":"Kebayoran","i_lat":-6.237242,"distance":3737,"station_id":"KBY","transit":false},{"i_lat":-6.276362,"transit":false,"i_long":106.74273,"line":6,"is_transit":false,"distance":6218,"station_name":"Pondokranji","station_id":"PDJ","time":8},{"station_id":"JMU","time":3,"i_lat":-6.288927,"distance":2179,"station_name":"Jurangmangu","transit":false,"i_long":106.728916,"is_transit":false,"line":6},{"is_transit":false,"time":4,"i_lat":-6.296963,"i_long":106.712277,"station_name":"Sudimara","transit":false,"line":6,"distance":1994,"station_id":"SDM"}],[{"station_id":"PSE","distance":0,"i_long":106.84368,"station_name":"Pasar Senen","is_transit":false,"line":11,"i_lat":-6.174784,"transit":false,"time":0},{"i_lat":-6.185975,"is_transit":false,"i_long":106.850107,"station_id":"GST","distance":1567,"time":8,"line":11,"station_name":"Gang Sentiong","transit":false},{"time":1,"station_id":"KMT","line":11,"i_long":106.855437,"station_name":"Kramat","i_lat":-6.193792,"is_transit":false,"distance":973,"transit":false},{"is_transit":false,"i_lat":-6.209188,"i_long":106.861737,"station_name":"Pondok Jati","station_id":"POK","transit":false,"time":2,"line":11,"distance":1829},{"i_lat":-6.215091,"station_id":"JNG","line":0,"is_transit":true,"time":9,"transit":true,"i_long":106.86807400000001,"distance":1236,"station_name":"Jatinegara"},{"station_name":"Matraman","is_transit":false,"i_lat":-6.212485,"transit":false,"distance":1377,"time":2,"station_id":"MTR","i_long":106.858896,"line":1},{"station_id":"MRI","i_lat":-6.209883,"time":2,"distance":1275,"is_transit":true,"transit":false,"station_name":"Manggarai","i_long":106.84912,"line":0},{"i_lat":-6.202263,"line":1,"i_long":106.822649,"is_transit":false,"distance":3186,"station_id":"SUD","station_name":"Sudirman","transit":false,"time":4},{"transit":false,"i_long":106.819881,"line":1,"is_transit":false,"station_name":"Sudirman Baru","i_lat":-6.201433,"distance":280,"station_id":"SUDB","time":1},{"station_name":"Karet","is_transit":false,"station_id":"KAT","line":1,"time":1,"distance":471,"i_lat":-6.20132,"transit":false,"i_long":106.816351},{"is_transit":true,"i_long":106.811091,"line":1,"distance":2029,"transit":true,"station_name":"Tanah Abang","station_id":"THB","i_lat":-6.185545,"time":5},{"station_name":"Palmerah","line":6,"station_id":"PLM","distance":3191,"is_transit":false,"i_long":106.79689,"transit":false,"i_lat":-6.207404,"time":6},{"station_id":"KBY","time":7,"line":6,"distance":3737,"is_transit":false,"i_long":106.780334,"transit":false,"i_lat":-6.237242,"station_name":"Kebayoran"},{"i_lat":-6.276362,"station_id":"PDJ","station_name":"Pondokranji","transit":false,"line":6,"distance":6218,"is_transit":false,"time":8,"i_long":106.74273},{"i_long":106.728916,"distance":2179,"is_transit":false,"station_id":"JMU","station_name":"Jurangmangu","time":3,"i_lat":-6.288927,"line":6,"transit":false},{"station_id":"SDM","distance":1994,"line":6,"i_long":106.712277,"time":4,"i_lat":-6.296963,"is_transit":false,"transit":false,"station_name":"Sudimara"}],[{"station_name":"Pasar Senen","is_transit":false,"i_lat":-6.174784,"line":11,"distance":0,"time":0,"station_id":"PSE","transit":false,"i_long":106.84368},{"i_lat":-6.161728,"time":4,"i_long":106.839204,"station_id":"KMO","distance":1436,"is_transit":false,"transit":false,"station_name":"Kemayoran","line":11},{"transit":false,"distance":1901,"time":5,"station_id":"RJW","line":11,"is_transit":false,"i_long":106.836569,"station_name":"Rajawali","i_lat":-6.14505},{"i_lat":-6.132549,"line":0,"is_transit":true,"station_name":"Kampung Bandan","station_id":"KPB","distance":1444,"transit":true,"i_long":106.826365,"time":3},{"distance":1364,"time":3,"station_id":"JAKK","station_name":"Jakarta Kota","i_long":106.812439,"is_transit":true,"transit":true,"i_lat":-6.137569,"line":0},{"station_id":"JAY","station_name":"Jayakarta","i_lat":-6.141205,"i_long":106.820901,"is_transit":false,"transit":false,"line":7,"distance":1264,"time":4},{"is_transit":false,"time":2,"i_long":106.82482,"line":2,"station_id":"MGB","distance":1080,"i_lat":-6.149769,"transit":false,"station_name":"Manggabesar"},{"station_id":"SW","i_lat":-6.160725,"transit":false,"station_name":"Sawah Besar","distance":906,"is_transit":false,"time":2,"i_long":106.827103,"line":2},{"is_transit":false,"transit":false,"time":2,"i_long":106.828284,"distance":1149,"station_id":"JUA","i_lat":-6.166716,"line":2,"station_name":"Juanda"},{"station_id":"GDD","time":4,"station_name":"Gondangdia","distance":2015,"i_lat":-6.186295,"line":2,"i_long":106.832183,"transit":false,"is_transit":false},{"is_transit":false,"transit":false,"station_id":"CKI","time":3,"distance":1750,"station_name":"Cikini","i_lat":-6.198556,"i_long":106.840169,"line":0},{"is_transit":true,"time":4,"i_lat":-6.209883,"i_long":106.84912,"station_id":"MRI","distance":1590,"station_name":"Manggarai","transit":true,"line":0},{"i_long":106.822649,"line":1,"distance":3186,"transit":false,"i_lat":-6.202263,"station_id":"SUD","is_transit":false,"station_name":"Sudirman","time":4},{"time":1,"i_lat":-6.201433,"station_name":"Sudirman Baru","i_long":106.819881,"line":1,"distance":280,"station_id":"SUDB","is_transit":false,"transit":false},{"station_id":"KAT","i_lat":-6.20132,"is_transit":false,"line":1,"station_name":"Karet","transit":false,"time":1,"distance":471,"i_long":106.816351},{"i_lat":-6.185545,"distance":2029,"i_long":106.811091,"station_name":"Tanah Abang","is_transit":true,"time":5,"station_id":"THB","transit":true,"line":1},{"is_transit":false,"distance":3191,"station_id":"PLM","transit":false,"i_long":106.79689,"i_lat":-6.207404,"station_name":"Palmerah","line":6,"time":6},{"station_name":"Kebayoran","transit":false,"line":6,"is_transit":false,"distance":3737,"time":7,"i_lat":-6.237242,"station_id":"KBY","i_long":106.780334},{"station_name":"Pondokranji","is_transit":false,"transit":false,"distance":6218,"i_lat":-6.276362,"station_id":"PDJ","time":8,"i_long":106.74273,"line":6},{"distance":2179,"i_long":106.728916,"time":3,"is_transit":false,"i_lat":-6.288927,"station_id":"JMU","line":6,"transit":false,"station_name":"Jurangmangu"},{"i_lat":-6.296963,"i_long":106.712277,"distance":1994,"line":6,"station_name":"Sudimara","is_transit":false,"time":4,"station_id":"SDM","transit":false}],[{"transit":false,"i_long":106.84368,"time":0,"is_transit":false,"line":11,"station_id":"PSE","i_lat":-6.174784,"distance":0,"station_name":"Pasar Senen"},{"is_transit":false,"distance":1567,"station_name":"Gang Sentiong","station_id":"GST","time":8,"transit":false,"i_lat":-6.185975,"i_long":106.850107,"line":11},{"i_long":106.855437,"transit":false,"is_transit":false,"distance":973,"station_id":"KMT","time":1,"station_name":"Kramat","i_lat":-6.193792,"line":11},{"time":2,"transit":false,"is_transit":false,"station_name":"Pondok Jati","line":11,"i_lat":-6.209188,"station_id":"POK","i_long":106.861737,"distance":1829},{"distance":1236,"time":9,"line":0,"station_id":"JNG","station_name":"Jatinegara","transit":true,"is_transit":true,"i_lat":-6.215091,"i_long":106.86807400000001},{"station_id":"MTR","time":2,"distance":1377,"is_transit":false,"line":1,"transit":false,"i_lat":-6.212485,"i_long":106.858896,"station_name":"Matraman"},{"transit":true,"i_long":106.84912,"station_name":"Manggarai","line":0,"station_id":"MRI","distance":1275,"is_transit":true,"time":2,"i_lat":-6.209883},{"station_name":"Cikini","i_long":106.840169,"time":4,"line":0,"is_transit":false,"station_id":"CKI","distance":1590,"transit":false,"i_lat":-6.198556},{"distance":1750,"line":2,"i_long":106.832183,"station_name":"Gondangdia","i_lat":-6.186295,"is_transit":false,"transit":false,"time":3,"station_id":"GDD"},{"time":4,"station_name":"Juanda","transit":false,"i_lat":-6.166716,"i_long":106.828284,"is_transit":false,"line":2,"distance":2015,"station_id":"JUA"},{"distance":1149,"i_lat":-6.160725,"transit":false,"station_id":"SW","i_long":106.827103,"time":2,"line":2,"is_transit":false,"station_name":"Sawah Besar"},{"station_id":"MGB","i_lat":-6.149769,"transit":false,"distance":906,"is_transit":false,"time":2,"station_name":"Manggabesar","line":2,"i_long":106.82482},{"line":7,"i_long":106.820901,"is_transit":false,"transit":false,"station_id":"JAY","station_name":"Jayakarta","time":2,"distance":1080,"i_lat":-6.141205},{"station_name":"Jakarta Kota","i_lat":-6.137569,"i_long":106.812439,"time":4,"station_id":"JAKK","is_transit":true,"distance":1264,"line":0,"transit":true},{"distance":1364,"station_name":"Kampung Bandan","time":3,"is_transit":true,"transit":false,"i_long":106.826365,"line":0,"station_id":"KPB","i_lat":-6.132549},{"line":0,"i_long":106.79867,"station_name":"Angke","time":9,"distance":4102,"station_id":"AK","is_transit":false,"transit":false,"i_lat":-6.144674},{"is_transit":true,"station_name":"Duri","i_lat":-6.155215,"time":4,"line":1,"transit":true,"i_long":106.800832,"station_id":"DU","distance":1230},{"i_lat":-6.185545,"transit":true,"is_transit":true,"station_id":"THB","time":8,"i_long":106.811091,"station_name":"Tanah Abang","line":1,"distance":3632},{"is_transit":false,"transit":false,"station_id":"PLM","distance":3191,"time":6,"station_name":"Palmerah","i_lat":-6.207404,"i_long":106.79689,"line":6},{"transit":false,"distance":3737,"is_transit":false,"station_name":"Kebayoran","i_lat":-6.237242,"station_id":"KBY","line":6,"time":7,"i_long":106.780334},{"i_lat":-6.276362,"line":6,"transit":false,"station_id":"PDJ","station_name":"Pondokranji","i_long":106.74273,"distance":6218,"time":8,"is_transit":false},{"station_name":"Jurangmangu","transit":false,"station_id":"JMU","distance":2179,"i_long":106.728916,"time":3,"line":6,"is_transit":false,"i_lat":-6.288927},{"distance":1994,"time":4,"is_transit":false,"station_name":"Sudimara","i_lat":-6.296963,"transit":false,"line":6,"station_id":"SDM","i_long":106.712277}]]}