{"data":[[{"i_lat":-6.174784,"time":0,"i_long":106.84368,"station_id":"PSE","station_name":"Pasar Senen","transit":false,"distance":0,"is_transit":false,"line":11},{"station_id":"GST","i_long":106.850107,"time":8,"i_lat":-6.185975,"station_name":"Gang Sentiong","distance":1567,"is_transit":false,"transit":false,"line":11},{"time":1,"i_lat":-6.193792,"station_name":"Kramat","station_id":"KMT","distance":973,"transit":false,"i_long":106.855437,"line":11,"is_transit":false},{"line":11,"time":2,"transit":false,"is_transit":false,"station_name":"Pondok Jati","distance":1829,"i_lat":-6.209188,"station_id":"POK","i_long":106.861737},{"time":9,"transit":true,"i_long":106.86807400000001,"distance":1236,"station_name":"Jatinegara","station_id":"JNG","is_transit":true,"i_lat":-6.215091,"line":1},{"station_id":"MTR","is_transit":false,"i_lat":-6.212485,"line":1,"transit":false,"i_long":106.858896,"distance":1377,"time":2,"station_name":"Matraman"},{"time":2,"transit":true,"i_long":106.84912,"station_name":"Manggarai","line":2,"is_transit":true,"distance":1275,"i_lat":-6.209883,"station_id":"MRI"},{"i_long":106.840169,"time":4,"i_lat":-6.198556,"line":2,"transit":false,"station_id":"CKI","is_transit":false,"distance":1590,"station_name":"Cikini"}],[{"line":11,"station_id":"PSE","time":0,"station_name":"Pasar Senen","is_transit":false,"transit":false,"i_long":106.84368,"distance":0,"i_lat":-6.174784},{"is_transit":false,"line":11,"time":4,"transit":false,"i_lat":-6.161728,"station_id":"KMO","distance":1436,"i_long":106.839204,"station_name":"Kemayoran"},{"transit":false,"i_lat":-6.14505,"station_id":"RJW","station_name":"Rajawali","i_long":106.836569,"line":11,"is_transit":false,"time":5,"distance":1901},{"station_id":"KPB","station_name":"Kampung Bandan","distance":1444,"i_long":106.826365,"is_transit":true,"time":3,"transit":true,"line":4,"i_lat":-6.132549},{"line":2,"station_name":"Jakarta Kota","station_id":"JAKK","transit":true,"i_long":106.812439,"i_lat":-6.137569,"is_transit":true,"time":3,"distance":1364},{"transit":false,"station_id":"JAY","is_transit":false,"time":4,"distance":1264,"i_lat":-6.141205,"station_name":"Jayakarta","line":2,"i_long":106.820901},{"is_transit":false,"i_long":106.82482,"distance":1080,"i_lat":-6.149769,"time":2,"transit":false,"station_name":"Manggabesar","line":2,"station_id":"MGB"},{"distance":906,"is_transit":false,"time":2,"station_id":"SW","station_name":"Sawah Besar","transit":false,"line":2,"i_long":106.827103,"i_lat":-6.160725},{"i_long":106.828284,"distance":1149,"time":2,"i_lat":-6.166716,"station_name":"Juanda","station_id":"JUA","is_transit":false,"line":2,"transit":false},{"transit":false,"station_name":"Gondangdia","station_id":"GDD","is_transit":false,"line":2,"distance":2015,"i_lat":-6.186295,"time":4,"i_long":106.832183},{"is_transit":false,"distance":1750,"line":2,"station_name":"Cikini","i_lat":-6.198556,"transit":false,"time":3,"station_id":"CKI","i_long":106.840169}],[{"distance":0,"station_name":"Pasar Senen","station_id":"PSE","line":11,"i_long":106.84368,"transit":false,"time":0,"i_lat":-6.174784,"is_transit":false},{"station_name":"Kemayoran","is_transit":false,"line":11,"station_id":"KMO","time":4,"i_long":106.839204,"i_lat":-6.161728,"transit":false,"distance":1436},{"is_transit":false,"distance":1901,"i_long":106.836569,"line":11,"time":5,"i_lat":-6.14505,"station_name":"Rajawali","transit":false,"station_id":"RJW"},{"station_id":"KPB","line":4,"station_name":"Kampung Bandan","is_transit":true,"transit":true,"i_long":106.826365,"i_lat":-6.132549,"distance":1444,"time":3},{"station_name":"Angke","station_id":"AK","is_transit":false,"distance":4102,"i_long":106.79867,"i_lat":-6.144674,"time":9,"line":1,"transit":false},{"is_transit":false,"transit":false,"i_long":106.800832,"station_id":"DU","i_lat":-6.155215,"time":4,"station_name":"Duri","distance":1230,"line":1},{"transit":false,"line":1,"distance":3632,"station_name":"Tanah Abang","i_lat":-6.185545,"time":8,"station_id":"THB","i_long":106.811091,"is_transit":false},{"is_transit":false,"i_lat":-6.20132,"station_name":"Karet","i_long":106.816351,"line":1,"time":5,"transit":false,"station_id":"KAT","distance":2029},{"distance":471,"transit":false,"i_long":106.819881,"station_name":"Sudirman Baru","time":1,"is_transit":false,"station_id":"SUDB","i_lat":-6.201433,"line":1},{"distance":280,"line":1,"transit":false,"station_name":"Sudirman","i_lat":-6.202263,"is_transit":false,"station_id":"SUD","i_long":106.822649,"time":1},{"line":2,"time":4,"i_long":106.84912,"station_id":"MRI","i_lat":-6.209883,"distance":3186,"is_transit":true,"transit":true,"station_name":"Manggarai"},{"time":4,"station_name":"Cikini","transit":false,"station_id":"CKI","is_transit":false,"i_lat":-6.198556,"distance":1590,"line":2,"i_long":106.840169}],[{"i_lat":-6.174784,"time":0,"station_id":"PSE","line":11,"station_name":"Pasar Senen","i_long":106.84368,"distance":0,"is_transit":false,"transit":false},{"station_id":"GST","transit":false,"line":11,"i_long":106.850107,"distance":1567,"i_lat":-6.185975,"time":8,"station_name":"Gang Sentiong","is_transit":false},{"distance":973,"i_lat":-6.193792,"is_transit":false,"transit":false,"time":1,"i_long":106.855437,"line":11,"station_name":"Kramat","station_id":"KMT"},{"i_lat":-6.209188,"i_long":106.861737,"is_transit":false,"station_id":"POK","line":11,"station_name":"Pondok Jati","time":2,"distance":1829,"transit":false},{"time":9,"station_name":"Jatinegara","transit":true,"station_id":"JNG","line":1,"i_long":106.86807400000001,"i_lat":-6.215091,"distance":1236,"is_transit":true},{"time":2,"transit":false,"line":1,"station_id":"MTR","station_name":"Matraman","is_transit":false,"i_lat":-6.212485,"distance":1377,"i_long":106.858896},{"i_long":106.84912,"distance":1275,"i_lat":-6.209883,"line":2,"station_name":"Manggarai","station_id":"MRI","is_transit":false,"time":2,"transit":false},{"i_long":106.822649,"time":4,"line":1,"is_transit":false,"station_name":"Sudirman","distance":3186,"transit":false,"station_id":"SUD","i_lat":-6.202263},{"station_id":"SUDB","is_transit":false,"distance":280,"i_lat":-6.201433,"time":1,"i_long":106.819881,"line":1,"transit":false,"station_name":"Sudirman Baru"},{"line":1,"i_lat":-6.20132,"time":1,"is_transit":false,"station_id":"KAT","distance":471,"station_name":"Karet","transit":false,"i_long":106.816351},{"i_long":106.811091,"is_transit":false,"distance":2029,"transit":false,"station_id":"THB","line":1,"time":5,"i_lat":-6.185545,"station_name":"Tanah Abang"},{"line":1,"time":8,"station_id":"DU","is_transit":false,"i_long":106.800832,"transit":false,"i_lat":-6.155215,"station_name":"Duri","distance":3632},{"station_id":"AK","time":4,"line":1,"is_transit":false,"i_long":106.79867,"transit":false,"i_lat":-6.144674,"distance":1230,"station_name":"Angke"},{"station_id":"KPB","i_long":106.826365,"distance":4102,"transit":true,"time":9,"is_transit":true,"line":4,"i_lat":-6.132549,"station_name":"Kampung Bandan"},{"line":2,"is_transit":true,"distance":1364,"transit":true,"i_long":106.812439,"i_lat":-6.137569,"station_name":"Jakarta Kota","time":3,"station_id":"JAKK"},{"distance":1264,"line":2,"time":4,"transit":false,"is_transit":false,"i_long":106.820901,"station_name":"Jayakarta","i_lat":-6.141205,"station_id":"JAY"},{"time":2,"station_name":"Manggabesar","i_lat":-6.149769,"distance":1080,"transit":false,"line":2,"is_transit":false,"station_id":"MGB","i_long":106.82482},{"time":2,"transit":false,"is_transit":false,"i_lat":-6.160725,"station_name":"Sawah Besar","distance":906,"i_long":106.827103,"line":2,"station_id":"SW"},{"is_transit":false,"station_id":"JUA","i_long":106.828284,"distance":1149,"line":2,"i_lat":-6.166716,"station_name":"Juanda","transit":false,"time":2},{"is_transit":false,"line":2,"distance":2015,"i_lat":-6.186295,"time":4,"station_name":"Gondangdia","i_long":106.832183,"station_id":"GDD","transit":false},{"transit":false,"station_name":"Cikini","time":3,"is_transit":false,"i_lat":-6.198556,"i_long":106.840169,"line":2,"distance":1750,"station_id":"CKI"}]]}