{"data":[[{"station_name":"Pasar Senen","distance":0,"station_id":"PSE","line":11,"i_long":106.84368,"time":0,"is_transit":false,"transit":false,"i_lat":-6.174784},{"station_name":"Gang Sentiong","is_transit":false,"transit":false,"i_long":106.850107,"time":8,"station_id":"GST","i_lat":-6.185975,"line":11,"distance":1567},{"station_id":"KMT","transit":false,"is_transit":false,"i_long":106.855437,"i_lat":-6.193792,"time":1,"distance":973,"station_name":"Kramat","line":11},{"distance":1829,"time":2,"is_transit":false,"transit":false,"station_name":"Pondok Jati","line":11,"i_lat":-6.209188,"station_id":"POK","i_long":106.861737},{"line":1,"time":9,"i_long":106.86807400000001,"i_lat":-6.215091,"station_name":"Jatinegara","distance":1236,"station_id":"JNG","transit":true,"is_transit":true},{"line":1,"station_id":"MTR","i_lat":-6.212485,"station_name":"Matraman","is_transit":false,"i_long":106.858896,"time":2,"distance":1377,"transit":false}],[{"station_id":"PSE","station_name":"Pasar Senen","line":11,"i_long":106.84368,"i_lat":-6.174784,"distance":0,"transit":false,"time":0,"is_transit":false},{"station_id":"KMO","i_lat":-6.161728,"station_name":"Kemayoran","i_long":106.839204,"line":11,"transit":false,"is_transit":false,"time":4,"distance":1436},{"i_lat":-6.14505,"time":5,"is_transit":false,"distance":1901,"i_long":106.836569,"line":11,"station_name":"Rajawali","station_id":"RJW","transit":false},{"station_name":"Kampung Bandan","distance":1444,"time":3,"is_transit":true,"transit":true,"i_long":106.826365,"i_lat":-6.132549,"station_id":"KPB","line":4},{"station_id":"AK","is_transit":false,"i_long":106.79867,"distance":4102,"line":1,"station_name":"Angke","time":9,"transit":false,"i_lat":-6.144674},{"station_name":"Duri","i_long":106.800832,"distance":1230,"line":1,"is_transit":false,"transit":false,"station_id":"DU","i_lat":-6.155215,"time":4},{"i_lat":-6.185545,"station_name":"Tanah Abang","is_transit":false,"i_long":106.811091,"time":8,"transit":false,"line":1,"station_id":"THB","distance":3632},{"is_transit":false,"transit":false,"i_lat":-6.20132,"time":5,"distance":2029,"station_id":"KAT","line":1,"station_name":"Karet","i_long":106.816351},{"time":1,"station_name":"Sudirman Baru","station_id":"SUDB","is_transit":false,"transit":false,"i_long":106.819881,"line":1,"distance":471,"i_lat":-6.201433},{"line":1,"is_transit":false,"time":1,"transit":false,"distance":280,"i_lat":-6.202263,"station_id":"SUD","station_name":"Sudirman","i_long":106.822649},{"is_transit":false,"line":2,"station_id":"MRI","i_lat":-6.209883,"distance":3186,"transit":false,"station_name":"Manggarai","i_long":106.84912,"time":4},{"i_long":106.858896,"i_lat":-6.212485,"station_id":"MTR","transit":false,"is_transit":false,"line":1,"distance":1275,"station_name":"Matraman","time":2}],[{"i_long":106.84368,"station_id":"PSE","is_transit":false,"line":11,"distance":0,"transit":false,"time":0,"station_name":"Pasar Senen","i_lat":-6.174784},{"distance":1436,"transit":false,"i_lat":-6.161728,"time":4,"station_id":"KMO","line":11,"station_name":"Kemayoran","i_long":106.839204,"is_transit":false},{"distance":1901,"station_name":"Rajawali","is_transit":false,"i_long":106.836569,"i_lat":-6.14505,"line":11,"time":5,"transit":false,"station_id":"RJW"},{"distance":1444,"i_long":106.826365,"station_id":"KPB","line":4,"time":3,"station_name":"Kampung Bandan","transit":true,"i_lat":-6.132549,"is_transit":true},{"is_transit":true,"station_name":"Jakarta Kota","transit":true,"time":3,"i_lat":-6.137569,"line":2,"station_id":"JAKK","distance":1364,"i_long":106.812439},{"transit":false,"line":2,"distance":1264,"station_id":"JAY","station_name":"Jayakarta","i_lat":-6.141205,"is_transit":false,"time":4,"i_long":106.820901},{"time":2,"is_transit":false,"transit":false,"distance":1080,"station_id":"MGB","i_lat":-6.149769,"station_name":"Manggabesar","i_long":106.82482,"line":2},{"station_id":"SW","station_name":"Sawah Besar","i_lat":-6.160725,"transit":false,"distance":906,"is_transit":false,"i_long":106.827103,"time":2,"line":2},{"i_long":106.828284,"i_lat":-6.166716,"is_transit":false,"time":2,"station_name":"Juanda","station_id":"JUA","line":2,"distance":1149,"transit":false},{"i_long":106.832183,"station_id":"GDD","line":2,"is_transit":false,"transit":false,"i_lat":-6.186295,"time":4,"distance":2015,"station_name":"Gondangdia"},{"i_lat":-6.198556,"station_id":"CKI","i_long":106.840169,"distance":1750,"is_transit":false,"line":2,"station_name":"Cikini","time":3,"transit":false},{"station_name":"Manggarai","station_id":"MRI","transit":true,"i_lat":-6.209883,"distance":1590,"is_transit":true,"line":2,"time":4,"i_long":106.84912},{"transit":false,"i_lat":-6.212485,"station_name":"Matraman","distance":1275,"station_id":"MTR","is_transit":false,"line":1,"time":2,"i_long":106.858896}]]}