{"data":[[{"time":0,"station_id":"PSE","i_long":106.84368,"transit":false,"i_lat":-6.174784,"station_name":"Pasar Senen","line":11,"distance":0,"is_transit":false},{"station_id":"KMO","is_transit":false,"distance":1436,"station_name":"Kemayoran","i_lat":-6.161728,"i_long":106.839204,"line":11,"transit":false,"time":4},{"i_lat":-6.14505,"line":11,"distance":1901,"i_long":106.836569,"is_transit":false,"station_id":"RJW","station_name":"Rajawali","transit":false,"time":5},{"distance":1444,"station_id":"KPB","transit":true,"time":3,"is_transit":true,"i_lat":-6.132549,"station_name":"Kampung Bandan","i_long":106.826365,"line":0},{"is_transit":false,"distance":4102,"station_id":"AK","time":9,"station_name":"Angke","transit":false,"i_long":106.79867,"line":0,"i_lat":-6.144674},{"distance":1230,"station_id":"DU","transit":true,"i_long":106.800832,"line":1,"station_name":"Duri","i_lat":-6.155215,"time":4,"is_transit":true},{"time":8,"station_id":"THB","i_long":106.811091,"i_lat":-6.185545,"station_name":"Tanah Abang","transit":true,"line":1,"distance":3632,"is_transit":true},{"is_transit":false,"station_name":"Palmerah","i_lat":-6.207404,"time":6,"transit":false,"distance":3191,"i_long":106.79689,"station_id":"PLM","line":6},{"transit":false,"i_lat":-6.237242,"i_long":106.780334,"line":6,"station_id":"KBY","distance":3737,"time":7,"station_name":"Kebayoran","is_transit":false},{"time":8,"line":6,"transit":false,"i_lat":-6.276362,"is_transit":false,"distance":6218,"i_long":106.74273,"station_id":"PDJ","station_name":"Pondokranji"},{"i_long":106.728916,"time":3,"transit":false,"line":6,"station_id":"JMU","is_transit":false,"i_lat":-6.288927,"station_name":"Jurangmangu","distance":2179},{"i_lat":-6.296963,"is_transit":false,"i_long":106.712277,"distance":1994,"line":6,"station_id":"SDM","time":4,"station_name":"Sudimara","transit":false},{"time":6,"distance":4566,"is_transit":false,"i_lat":-6.314823,"transit":false,"i_long":106.675475,"line":6,"station_name":"Rawa Buntu","station_id":"RU"},{"is_transit":false,"i_lat":-6.319871,"line":6,"transit":false,"time":4,"i_long":106.66566,"station_name":"Serpong","station_id":"SRP","distance":2413},{"transit":false,"station_name":"Cisauk","time":4,"distance":1784,"i_lat":-6.32484,"i_long":106.640411,"is_transit":false,"line":0,"station_id":"CSK"},{"line":0,"time":4,"transit":false,"i_lat":-6.329547,"distance":2519,"i_long":106.617853,"is_transit":false,"station_name":"Cicayur","station_id":"CC"},{"distance":5968,"transit":false,"time":8,"station_name":"Parung Panjang","station_id":"PRP","line":6,"is_transit":false,"i_long":106.568863,"i_lat":-6.3441410000000005},{"is_transit":false,"station_id":"CJT","station_name":"Cilejit","distance":7025,"i_lat":-6.354349,"i_long":106.508482,"line":0,"time":9,"transit":false},{"i_long":106.491338,"distance":2675,"i_lat":-6.338021,"line":0,"station_id":"DAR","station_name":"Daru","time":6,"transit":false,"is_transit":false},{"i_long":106.460812,"transit":false,"distance":3902,"line":6,"station_id":"TEJ","time":5,"is_transit":false,"station_name":"Tenjo","i_lat":-6.327251},{"station_id":"TGS","i_lat":-6.328533,"station_name":"Tigaraksa","transit":false,"distance":2974,"time":5,"line":6,"is_transit":false,"i_long":106.425991},{"station_name":"Cikoya","station_id":"CKY","i_long":106.411216,"transit":false,"i_lat":-6.33561,"distance":2651,"is_transit":false,"time":3,"line":0}],[{"i_long":106.84368,"station_name":"Pasar Senen","time":0,"transit":false,"i_lat":-6.174784,"is_transit":false,"station_id":"PSE","distance":0,"line":11},{"is_transit":false,"station_id":"GST","distance":1567,"transit":false,"line":11,"i_lat":-6.185975,"time":8,"station_name":"Gang Sentiong","i_long":106.850107},{"i_lat":-6.193792,"transit":false,"station_id":"KMT","time":1,"line":11,"station_name":"Kramat","i_long":106.855437,"distance":973,"is_transit":false},{"transit":false,"distance":1829,"line":11,"i_lat":-6.209188,"i_long":106.861737,"time":2,"is_transit":false,"station_id":"POK","station_name":"Pondok Jati"},{"distance":1236,"transit":true,"time":9,"station_id":"JNG","i_lat":-6.215091,"line":0,"station_name":"Jatinegara","i_long":106.86807400000001,"is_transit":true},{"transit":false,"distance":1377,"line":1,"i_lat":-6.212485,"is_transit":false,"station_id":"MTR","station_name":"Matraman","time":2,"i_long":106.858896},{"station_id":"MRI","distance":1275,"i_lat":-6.209883,"transit":false,"station_name":"Manggarai","is_transit":true,"i_long":106.84912,"time":2,"line":0},{"time":4,"station_id":"SUD","is_transit":false,"i_long":106.822649,"distance":3186,"i_lat":-6.202263,"station_name":"Sudirman","line":1,"transit":false},{"distance":280,"station_name":"Sudirman Baru","transit":false,"time":1,"line":1,"i_long":106.819881,"station_id":"SUDB","i_lat":-6.201433,"is_transit":false},{"station_name":"Karet","distance":471,"is_transit":false,"transit":false,"time":1,"i_long":106.816351,"line":1,"i_lat":-6.20132,"station_id":"KAT"},{"station_id":"THB","station_name":"Tanah Abang","i_lat":-6.185545,"distance":2029,"line":1,"i_long":106.811091,"time":5,"transit":true,"is_transit":true},{"time":6,"line":6,"i_long":106.79689,"distance":3191,"station_id":"PLM","station_name":"Palmerah","i_lat":-6.207404,"is_transit":false,"transit":false},{"station_id":"KBY","is_transit":false,"distance":3737,"transit":false,"time":7,"station_name":"Kebayoran","i_lat":-6.237242,"i_long":106.780334,"line":6},{"station_id":"PDJ","i_long":106.74273,"station_name":"Pondokranji","line":6,"transit":false,"is_transit":false,"distance":6218,"time":8,"i_lat":-6.276362},{"station_name":"Jurangmangu","is_transit":false,"distance":2179,"line":6,"transit":false,"time":3,"i_lat":-6.288927,"station_id":"JMU","i_long":106.728916},{"i_long":106.712277,"is_transit":false,"transit":false,"station_name":"Sudimara","distance":1994,"station_id":"SDM","line":6,"time":4,"i_lat":-6.296963},{"transit":false,"is_transit":false,"time":6,"station_id":"RU","i_long":106.675475,"line":6,"distance":4566,"station_name":"Rawa Buntu","i_lat":-6.314823},{"is_transit":false,"line":6,"i_lat":-6.319871,"i_long":106.66566,"transit":false,"station_name":"Serpong","distance":2413,"time":4,"station_id":"SRP"},{"station_id":"CSK","station_name":"Cisauk","transit":false,"time":4,"line":0,"distance":1784,"is_transit":false,"i_long":106.640411,"i_lat":-6.32484},{"line":0,"i_lat":-6.329547,"distance":2519,"is_transit":false,"station_id":"CC","time":4,"i_long":106.617853,"station_name":"Cicayur","transit":false},{"is_transit":false,"distance":5968,"i_lat":-6.3441410000000005,"time":8,"i_long":106.568863,"station_name":"Parung Panjang","line":6,"transit":false,"station_id":"PRP"},{"station_id":"CJT","time":9,"is_transit":false,"line":0,"i_lat":-6.354349,"distance":7025,"station_name":"Cilejit","transit":false,"i_long":106.508482},{"station_name":"Daru","time":6,"transit":false,"line":0,"i_lat":-6.338021,"i_long":106.491338,"is_transit":false,"station_id":"DAR","distance":2675},{"line":6,"distance":3902,"station_name":"Tenjo","time":5,"i_lat":-6.327251,"is_transit":false,"i_long":106.460812,"station_id":"TEJ","transit":false},{"time":5,"i_lat":-6.328533,"line":6,"transit":false,"is_transit":false,"station_name":"Tigaraksa","i_long":106.425991,"station_id":"TGS","distance":2974},{"is_transit":false,"line":0,"distance":2651,"station_id":"CKY","station_name":"Cikoya","transit":false,"time":3,"i_lat":-6.33561,"i_long":106.411216}],[{"transit":false,"time":0,"station_name":"Pasar Senen","line":11,"is_transit":false,"i_long":106.84368,"station_id":"PSE","i_lat":-6.174784,"distance":0},{"station_id":"KMO","line":11,"time":4,"i_long":106.839204,"distance":1436,"station_name":"Kemayoran","transit":false,"i_lat":-6.161728,"is_transit":false},{"time":5,"transit":false,"is_transit":false,"distance":1901,"station_id":"RJW","i_long":106.836569,"line":11,"station_name":"Rajawali","i_lat":-6.14505},{"is_transit":true,"i_long":106.826365,"time":3,"i_lat":-6.132549,"distance":1444,"station_name":"Kampung Bandan","transit":true,"station_id":"KPB","line":0},{"time":3,"station_id":"JAKK","station_name":"Jakarta Kota","distance":1364,"transit":true,"i_lat":-6.137569,"i_long":106.812439,"line":0,"is_transit":true},{"line":7,"station_id":"JAY","i_long":106.820901,"station_name":"Jayakarta","transit":false,"time":4,"i_lat":-6.141205,"distance":1264,"is_transit":false},{"station_id":"MGB","i_lat":-6.149769,"transit":false,"i_long":106.82482,"line":2,"time":2,"is_transit":false,"distance":1080,"station_name":"Manggabesar"},{"is_transit":false,"station_name":"Sawah Besar","distance":906,"time":2,"transit":false,"i_lat":-6.160725,"i_long":106.827103,"line":2,"station_id":"SW"},{"station_id":"JUA","is_transit":false,"i_lat":-6.166716,"distance":1149,"transit":false,"time":2,"i_long":106.828284,"station_name":"Juanda","line":2},{"transit":false,"is_transit":false,"i_long":106.832183,"time":4,"distance":2015,"i_lat":-6.186295,"station_id":"GDD","line":2,"station_name":"Gondangdia"},{"distance":1750,"station_id":"CKI","is_transit":false,"i_lat":-6.198556,"station_name":"Cikini","time":3,"i_long":106.840169,"transit":false,"line":0},{"transit":true,"i_lat":-6.209883,"i_long":106.84912,"distance":1590,"time":4,"station_id":"MRI","station_name":"Manggarai","line":0,"is_transit":true},{"station_id":"SUD","transit":false,"is_transit":false,"distance":3186,"time":4,"station_name":"Sudirman","i_long":106.822649,"i_lat":-6.202263,"line":1},{"i_lat":-6.201433,"i_long":106.819881,"distance":280,"station_name":"Sudirman Baru","transit":false,"station_id":"SUDB","time":1,"line":1,"is_transit":false},{"station_id":"KAT","transit":false,"time":1,"i_long":106.816351,"station_name":"Karet","is_transit":false,"line":1,"i_lat":-6.20132,"distance":471},{"line":1,"i_lat":-6.185545,"distance":2029,"time":5,"transit":true,"is_transit":true,"station_id":"THB","i_long":106.811091,"station_name":"Tanah Abang"},{"time":6,"i_lat":-6.207404,"is_transit":false,"distance":3191,"station_name":"Palmerah","transit":false,"station_id":"PLM","i_long":106.79689,"line":6},{"distance":3737,"is_transit":false,"transit":false,"i_long":106.780334,"station_id":"KBY","line":6,"station_name":"Kebayoran","time":7,"i_lat":-6.237242},{"i_lat":-6.276362,"distance":6218,"line":6,"station_name":"Pondokranji","is_transit":false,"time":8,"station_id":"PDJ","transit":false,"i_long":106.74273},{"i_lat":-6.288927,"distance":2179,"station_name":"Jurangmangu","line":6,"i_long":106.728916,"station_id":"JMU","transit":false,"is_transit":false,"time":3},{"station_id":"SDM","i_long":106.712277,"distance":1994,"i_lat":-6.296963,"line":6,"station_name":"Sudimara","transit":false,"is_transit":false,"time":4},{"station_name":"Rawa Buntu","distance":4566,"transit":false,"time":6,"is_transit":false,"station_id":"RU","i_lat":-6.314823,"i_long":106.675475,"line":6},{"distance":2413,"is_transit":false,"station_id":"SRP","station_name":"Serpong","line":6,"transit":false,"i_long":106.66566,"time":4,"i_lat":-6.319871},{"time":4,"line":0,"i_long":106.640411,"distance":1784,"is_transit":false,"station_id":"CSK","station_name":"Cisauk","i_lat":-6.32484,"transit":false},{"station_id":"CC","station_name":"Cicayur","transit":false,"i_lat":-6.329547,"time":4,"i_long":106.617853,"distance":2519,"line":0,"is_transit":false},{"is_transit":false,"time":8,"i_lat":-6.3441410000000005,"line":6,"distance":5968,"i_long":106.568863,"station_id":"PRP","transit":false,"station_name":"Parung Panjang"},{"transit":false,"distance":7025,"is_transit":false,"i_long":106.508482,"station_name":"Cilejit","i_lat":-6.354349,"line":0,"time":9,"station_id":"CJT"},{"line":0,"station_id":"DAR","is_transit":false,"station_name":"Daru","distance":2675,"transit":false,"time":6,"i_lat":-6.338021,"i_long":106.491338},{"i_lat":-6.327251,"line":6,"distance":3902,"i_long":106.460812,"is_transit":false,"station_id":"TEJ","transit":false,"time":5,"station_name":"Tenjo"},{"distance":2974,"is_transit":false,"line":6,"i_long":106.425991,"station_name":"Tigaraksa","i_lat":-6.328533,"transit":false,"time":5,"station_id":"TGS"},{"i_lat":-6.33561,"is_transit":false,"time":3,"station_name":"Cikoya","i_long":106.411216,"transit":false,"line":0,"distance":2651,"station_id":"CKY"}],[{"station_name":"Pasar Senen","transit":false,"time":0,"station_id":"PSE","i_lat":-6.174784,"i_long":106.84368,"distance":0,"is_transit":false,"line":11},{"distance":1567,"is_transit":false,"transit":false,"station_id":"GST","time":8,"line":11,"i_lat":-6.185975,"i_long":106.850107,"station_name":"Gang Sentiong"},{"time":1,"is_transit":false,"station_id":"KMT","i_long":106.855437,"distance":973,"station_name":"Kramat","i_lat":-6.193792,"line":11,"transit":false},{"line":11,"i_lat":-6.209188,"transit":false,"distance":1829,"station_id":"POK","time":2,"i_long":106.861737,"station_name":"Pondok Jati","is_transit":false},{"i_lat":-6.215091,"time":9,"transit":true,"is_transit":true,"station_name":"Jatinegara","i_long":106.86807400000001,"line":0,"distance":1236,"station_id":"JNG"},{"station_name":"Matraman","transit":false,"time":2,"station_id":"MTR","is_transit":false,"line":1,"distance":1377,"i_lat":-6.212485,"i_long":106.858896},{"distance":1275,"time":2,"line":0,"is_transit":true,"station_name":"Manggarai","station_id":"MRI","i_long":106.84912,"i_lat":-6.209883,"transit":true},{"i_long":106.840169,"transit":false,"is_transit":false,"station_id":"CKI","station_name":"Cikini","i_lat":-6.198556,"distance":1590,"time":4,"line":0},{"distance":1750,"station_id":"GDD","i_lat":-6.186295,"transit":false,"station_name":"Gondangdia","i_long":106.832183,"time":3,"line":2,"is_transit":false},{"station_id":"JUA","station_name":"Juanda","is_transit":false,"transit":false,"time":4,"distance":2015,"i_lat":-6.166716,"i_long":106.828284,"line":2},{"time":2,"line":2,"i_long":106.827103,"is_transit":false,"distance":1149,"transit":false,"station_name":"Sawah Besar","station_id":"SW","i_lat":-6.160725},{"line":2,"i_lat":-6.149769,"i_long":106.82482,"distance":906,"transit":false,"time":2,"station_id":"MGB","is_transit":false,"station_name":"Manggabesar"},{"i_lat":-6.141205,"line":7,"station_name":"Jayakarta","transit":false,"station_id":"JAY","time":2,"distance":1080,"i_long":106.820901,"is_transit":false},{"distance":1264,"line":0,"transit":true,"is_transit":true,"i_long":106.812439,"station_name":"Jakarta Kota","i_lat":-6.137569,"time":4,"station_id":"JAKK"},{"is_transit":true,"station_name":"Kampung Bandan","transit":false,"time":3,"i_lat":-6.132549,"distance":1364,"line":0,"i_long":106.826365,"station_id":"KPB"},{"station_id":"AK","i_lat":-6.144674,"station_name":"Angke","transit":false,"time":9,"line":0,"distance":4102,"i_long":106.79867,"is_transit":false},{"i_lat":-6.155215,"time":4,"i_long":106.800832,"transit":true,"station_id":"DU","line":1,"station_name":"Duri","is_transit":true,"distance":1230},{"transit":true,"line":1,"i_long":106.811091,"station_id":"THB","station_name":"Tanah Abang","time":8,"distance":3632,"is_transit":true,"i_lat":-6.185545},{"distance":3191,"is_transit":false,"line":6,"time":6,"station_name":"Palmerah","i_lat":-6.207404,"i_long":106.79689,"transit":false,"station_id":"PLM"},{"i_long":106.780334,"is_transit":false,"transit":false,"time":7,"station_id":"KBY","i_lat":-6.237242,"station_name":"Kebayoran","line":6,"distance":3737},{"station_id":"PDJ","distance":6218,"station_name":"Pondokranji","transit":false,"is_transit":false,"time":8,"i_long":106.74273,"line":6,"i_lat":-6.276362},{"transit":false,"time":3,"is_transit":false,"station_id":"JMU","station_name":"Jurangmangu","line":6,"i_long":106.728916,"i_lat":-6.288927,"distance":2179},{"distance":1994,"station_name":"Sudimara","station_id":"SDM","transit":false,"time":4,"i_long":106.712277,"line":6,"is_transit":false,"i_lat":-6.296963},{"time":6,"station_name":"Rawa Buntu","distance":4566,"transit":false,"is_transit":false,"i_long":106.675475,"station_id":"RU","i_lat":-6.314823,"line":6},{"transit":false,"station_name":"Serpong","line":6,"is_transit":false,"distance":2413,"time":4,"i_long":106.66566,"i_lat":-6.319871,"station_id":"SRP"},{"line":0,"station_id":"CSK","station_name":"Cisauk","i_long":106.640411,"distance":1784,"transit":false,"time":4,"is_transit":false,"i_lat":-6.32484},{"time":4,"is_transit":false,"station_id":"CC","line":0,"transit":false,"i_long":106.617853,"station_name":"Cicayur","i_lat":-6.329547,"distance":2519},{"i_lat":-6.3441410000000005,"station_name":"Parung Panjang","line":6,"distance":5968,"station_id":"PRP","is_transit":false,"i_long":106.568863,"transit":false,"time":8},{"line":0,"distance":7025,"i_long":106.508482,"i_lat":-6.354349,"is_transit":false,"station_id":"CJT","time":9,"station_name":"Cilejit","transit":false},{"time":6,"i_long":106.491338,"transit":false,"distance":2675,"is_transit":false,"station_name":"Daru","i_lat":-6.338021,"station_id":"DAR","line":0},{"i_lat":-6.327251,"distance":3902,"time":5,"station_name":"Tenjo","is_transit":false,"transit":false,"line":6,"station_id":"TEJ","i_long":106.460812},{"time":5,"distance":2974,"station_name":"Tigaraksa","i_long":106.425991,"line":6,"transit":false,"station_id":"TGS","i_lat":-6.328533,"is_transit":false},{"station_id":"CKY","i_lat":-6.33561,"i_long":106.411216,"is_transit":false,"transit":false,"time":3,"distance":2651,"station_name":"Cikoya","line":0}]]}