{"data":[[{"station_id":"PSE","is_transit":false,"station_name":"Pasar Senen","i_lat":-6.174784,"distance":0,"time":0,"transit":false,"i_long":106.84368,"line":11},{"is_transit":false,"i_long":106.839204,"station_id":"KMO","line":11,"station_name":"Kemayoran","distance":1436,"i_lat":-6.161728,"transit":false,"time":4},{"i_long":106.836569,"is_transit":false,"line":11,"time":5,"distance":1901,"transit":false,"station_id":"RJW","station_name":"Rajawali","i_lat":-6.14505},{"i_long":106.826365,"transit":true,"is_transit":true,"time":3,"station_name":"Kampung Bandan","line":4,"distance":1444,"station_id":"KPB","i_lat":-6.132549},{"is_transit":false,"time":9,"line":1,"distance":4102,"transit":false,"i_lat":-6.144674,"i_long":106.79867,"station_id":"AK","station_name":"Angke"},{"is_transit":true,"transit":true,"line":1,"station_name":"Duri","station_id":"DU","time":4,"i_lat":-6.155215,"distance":1230,"i_long":106.800832},{"distance":1700,"i_long":106.788277,"line":5,"time":3,"station_name":"Grogol","i_lat":-6.162021,"transit":false,"station_id":"GGL","is_transit":false},{"distance":2036,"transit":false,"station_name":"Pesing","time":2,"i_lat":-6.161433,"i_long":106.771379,"is_transit":false,"line":5,"station_id":"PSG"},{"station_name":"Taman Kota","station_id":"TKO","i_long":106.756522,"transit":false,"is_transit":false,"distance":1614,"time":2,"line":5,"i_lat":-6.1587309999999995},{"distance":2334,"station_name":"Bojongindah","is_transit":false,"line":5,"transit":false,"i_lat":-6.159876,"i_long":106.737035,"time":2,"station_id":"BOI"},{"line":5,"station_name":"Rawa Buaya","is_transit":false,"i_lat":-6.162758,"station_id":"RW","time":4,"i_long":106.723064,"transit":false,"distance":1152},{"i_lat":-6.166068,"transit":false,"is_transit":false,"time":3,"station_id":"KDS","i_long":106.701612,"line":5,"station_name":"Kalideres","distance":2504}],[{"transit":false,"station_id":"PSE","is_transit":false,"time":0,"i_long":106.84368,"distance":0,"i_lat":-6.174784,"station_name":"Pasar Senen","line":11},{"time":8,"transit":false,"station_name":"Gang Sentiong","i_lat":-6.185975,"distance":1567,"i_long":106.850107,"station_id":"GST","is_transit":false,"line":11},{"station_id":"KMT","transit":false,"is_transit":false,"i_lat":-6.193792,"station_name":"Kramat","time":1,"i_long":106.855437,"distance":973,"line":11},{"station_id":"POK","is_transit":false,"station_name":"Pondok Jati","time":2,"distance":1829,"i_lat":-6.209188,"i_long":106.861737,"line":11,"transit":false},{"i_lat":-6.215091,"i_long":106.86807400000001,"line":1,"station_id":"JNG","is_transit":true,"station_name":"Jatinegara","distance":1236,"time":9,"transit":true},{"is_transit":false,"transit":false,"i_lat":-6.212485,"line":1,"station_name":"Matraman","distance":1377,"time":2,"i_long":106.858896,"station_id":"MTR"},{"distance":1275,"i_lat":-6.209883,"line":2,"station_name":"Manggarai","i_long":106.84912,"transit":false,"station_id":"MRI","time":2,"is_transit":false},{"is_transit":false,"distance":3186,"transit":false,"station_name":"Sudirman","i_lat":-6.202263,"i_long":106.822649,"time":4,"line":1,"station_id":"SUD"},{"station_id":"SUDB","i_long":106.819881,"distance":280,"time":1,"transit":false,"line":1,"i_lat":-6.201433,"is_transit":false,"station_name":"Sudirman Baru"},{"i_long":106.816351,"station_name":"Karet","station_id":"KAT","distance":471,"i_lat":-6.20132,"line":1,"transit":false,"is_transit":false,"time":1},{"station_id":"THB","i_lat":-6.185545,"line":1,"is_transit":false,"i_long":106.811091,"distance":2029,"station_name":"Tanah Abang","time":5,"transit":false},{"i_long":106.800832,"line":1,"i_lat":-6.155215,"station_id":"DU","distance":3632,"station_name":"Duri","transit":true,"is_transit":true,"time":8},{"station_id":"GGL","transit":false,"time":3,"is_transit":false,"distance":1700,"line":5,"i_lat":-6.162021,"station_name":"Grogol","i_long":106.788277},{"transit":false,"time":2,"distance":2036,"station_name":"Pesing","i_long":106.771379,"i_lat":-6.161433,"line":5,"station_id":"PSG","is_transit":false},{"line":5,"station_id":"TKO","station_name":"Taman Kota","transit":false,"distance":1614,"is_transit":false,"i_long":106.756522,"i_lat":-6.1587309999999995,"time":2},{"is_transit":false,"station_name":"Bojongindah","transit":false,"i_long":106.737035,"i_lat":-6.159876,"time":2,"line":5,"distance":2334,"station_id":"BOI"},{"is_transit":false,"i_long":106.723064,"transit":false,"station_id":"RW","line":5,"distance":1152,"station_name":"Rawa Buaya","time":4,"i_lat":-6.162758},{"i_lat":-6.166068,"station_id":"KDS","time":3,"transit":false,"line":5,"is_transit":false,"station_name":"Kalideres","distance":2504,"i_long":106.701612}],[{"time":0,"station_id":"PSE","transit":false,"is_transit":false,"station_name":"Pasar Senen","distance":0,"i_lat":-6.174784,"i_long":106.84368,"line":11},{"line":11,"distance":1567,"transit":false,"station_id":"GST","station_name":"Gang Sentiong","i_lat":-6.185975,"time":8,"is_transit":false,"i_long":106.850107},{"time":1,"distance":973,"station_name":"Kramat","i_lat":-6.193792,"transit":false,"is_transit":false,"i_long":106.855437,"station_id":"KMT","line":11},{"distance":1829,"i_lat":-6.209188,"station_name":"Pondok Jati","station_id":"POK","line":11,"transit":false,"is_transit":false,"time":2,"i_long":106.861737},{"time":9,"i_long":106.86807400000001,"i_lat":-6.215091,"line":1,"distance":1236,"is_transit":true,"transit":true,"station_name":"Jatinegara","station_id":"JNG"},{"i_lat":-6.212485,"i_long":106.858896,"line":1,"station_name":"Matraman","is_transit":false,"station_id":"MTR","time":2,"distance":1377,"transit":false},{"is_transit":true,"distance":1275,"time":2,"transit":true,"i_long":106.84912,"line":2,"station_id":"MRI","station_name":"Manggarai","i_lat":-6.209883},{"i_lat":-6.198556,"station_name":"Cikini","is_transit":false,"line":2,"transit":false,"time":4,"distance":1590,"i_long":106.840169,"station_id":"CKI"},{"i_long":106.832183,"is_transit":false,"transit":false,"line":2,"distance":1750,"i_lat":-6.186295,"station_name":"Gondangdia","time":3,"station_id":"GDD"},{"is_transit":false,"i_lat":-6.166716,"time":4,"station_id":"JUA","station_name":"Juanda","i_long":106.828284,"line":2,"transit":false,"distance":2015},{"time":2,"transit":false,"i_long":106.827103,"is_transit":false,"i_lat":-6.160725,"line":2,"station_name":"Sawah Besar","station_id":"SW","distance":1149},{"distance":906,"transit":false,"time":2,"line":2,"station_name":"Manggabesar","station_id":"MGB","i_long":106.82482,"is_transit":false,"i_lat":-6.149769},{"i_long":106.820901,"transit":false,"station_name":"Jayakarta","i_lat":-6.141205,"station_id":"JAY","time":2,"is_transit":false,"distance":1080,"line":2},{"station_id":"JAKK","time":4,"i_long":106.812439,"distance":1264,"transit":true,"station_name":"Jakarta Kota","is_transit":true,"i_lat":-6.137569,"line":2},{"is_transit":true,"transit":true,"i_lat":-6.132549,"station_name":"Kampung Bandan","distance":1364,"time":3,"line":4,"i_long":106.826365,"station_id":"KPB"},{"distance":4102,"line":1,"station_name":"Angke","station_id":"AK","i_lat":-6.144674,"transit":false,"time":9,"i_long":106.79867,"is_transit":false},{"i_long":106.800832,"transit":true,"i_lat":-6.155215,"station_name":"Duri","line":1,"station_id":"DU","time":4,"is_transit":true,"distance":1230},{"station_id":"GGL","is_transit":false,"time":3,"i_long":106.788277,"distance":1700,"station_name":"Grogol","line":5,"i_lat":-6.162021,"transit":false},{"transit":false,"station_id":"PSG","is_transit":false,"time":2,"i_lat":-6.161433,"i_long":106.771379,"station_name":"Pesing","distance":2036,"line":5},{"distance":1614,"station_id":"TKO","i_lat":-6.1587309999999995,"line":5,"i_long":106.756522,"station_name":"Taman Kota","transit":false,"is_transit":false,"time":2},{"i_long":106.737035,"transit":false,"line":5,"is_transit":false,"time":2,"distance":2334,"i_lat":-6.159876,"station_name":"Bojongindah","station_id":"BOI"},{"station_name":"Rawa Buaya","time":4,"transit":false,"distance":1152,"is_transit":false,"i_lat":-6.162758,"i_long":106.723064,"station_id":"RW","line":5},{"station_id":"KDS","is_transit":false,"time":3,"i_long":106.701612,"transit":false,"distance":2504,"line":5,"station_name":"Kalideres","i_lat":-6.166068}],[{"i_lat":-6.174784,"time":0,"is_transit":false,"station_name":"Pasar Senen","i_long":106.84368,"transit":false,"distance":0,"line":11,"station_id":"PSE"},{"station_name":"Kemayoran","transit":false,"i_lat":-6.161728,"distance":1436,"i_long":106.839204,"is_transit":false,"line":11,"station_id":"KMO","time":4},{"station_id":"RJW","distance":1901,"i_lat":-6.14505,"i_long":106.836569,"line":11,"transit":false,"is_transit":false,"time":5,"station_name":"Rajawali"},{"station_name":"Kampung Bandan","station_id":"KPB","time":3,"distance":1444,"i_lat":-6.132549,"i_long":106.826365,"transit":true,"is_transit":true,"line":4},{"i_lat":-6.137569,"station_name":"Jakarta Kota","is_transit":true,"time":3,"station_id":"JAKK","distance":1364,"i_long":106.812439,"transit":true,"line":2},{"station_name":"Jayakarta","i_lat":-6.141205,"is_transit":false,"transit":false,"time":4,"i_long":106.820901,"station_id":"JAY","distance":1264,"line":2},{"i_lat":-6.149769,"station_name":"Manggabesar","station_id":"MGB","transit":false,"i_long":106.82482,"line":2,"is_transit":false,"time":2,"distance":1080},{"is_transit":false,"time":2,"station_name":"Sawah Besar","station_id":"SW","distance":906,"transit":false,"i_lat":-6.160725,"i_long":106.827103,"line":2},{"station_id":"JUA","i_long":106.828284,"is_transit":false,"line":2,"station_name":"Juanda","i_lat":-6.166716,"time":2,"distance":1149,"transit":false},{"is_transit":false,"i_lat":-6.186295,"station_name":"Gondangdia","distance":2015,"transit":false,"i_long":106.832183,"line":2,"time":4,"station_id":"GDD"},{"distance":1750,"time":3,"i_lat":-6.198556,"station_name":"Cikini","transit":false,"is_transit":false,"i_long":106.840169,"line":2,"station_id":"CKI"},{"i_lat":-6.209883,"transit":true,"station_name":"Manggarai","is_transit":true,"station_id":"MRI","distance":1590,"line":2,"time":4,"i_long":106.84912},{"line":1,"distance":3186,"station_id":"SUD","station_name":"Sudirman","time":4,"i_lat":-6.202263,"i_long":106.822649,"is_transit":false,"transit":false},{"is_transit":false,"station_name":"Sudirman Baru","distance":280,"i_lat":-6.201433,"station_id":"SUDB","i_long":106.819881,"line":1,"time":1,"transit":false},{"line":1,"distance":471,"is_transit":false,"time":1,"station_name":"Karet","station_id":"KAT","i_lat":-6.20132,"transit":false,"i_long":106.816351},{"distance":2029,"transit":false,"i_long":106.811091,"station_name":"Tanah Abang","station_id":"THB","i_lat":-6.185545,"line":1,"is_transit":false,"time":5},{"time":8,"station_name":"Duri","i_long":106.800832,"distance":3632,"i_lat":-6.155215,"station_id":"DU","line":1,"transit":true,"is_transit":true},{"line":5,"i_long":106.788277,"station_id":"GGL","is_transit":false,"time":3,"transit":false,"distance":1700,"i_lat":-6.162021,"station_name":"Grogol"},{"transit":false,"station_name":"Pesing","is_transit":false,"distance":2036,"station_id":"PSG","time":2,"line":5,"i_long":106.771379,"i_lat":-6.161433},{"transit":false,"station_name":"Taman Kota","i_long":106.756522,"line":5,"i_lat":-6.1587309999999995,"is_transit":false,"time":2,"station_id":"TKO","distance":1614},{"distance":2334,"i_lat":-6.159876,"station_name":"Bojongindah","time":2,"station_id":"BOI","is_transit":false,"transit":false,"i_long":106.737035,"line":5},{"station_name":"Rawa Buaya","distance":1152,"line":5,"station_id":"RW","is_transit":false,"transit":false,"i_lat":-6.162758,"time":4,"i_long":106.723064},{"transit":false,"station_name":"Kalideres","i_long":106.701612,"is_transit":false,"station_id":"KDS","time":3,"line":5,"distance":2504,"i_lat":-6.166068}]]}