{"data":[[{"time":0,"is_transit":false,"i_long":106.84368,"distance":0,"line":11,"station_id":"PSE","i_lat":-6.174784,"transit":false,"station_name":"Pasar Senen"},{"is_transit":false,"line":11,"i_lat":-6.161728,"transit":false,"station_id":"KMO","time":4,"distance":1436,"i_long":106.839204,"station_name":"Kemayoran"},{"station_name":"Rajawali","distance":1901,"i_long":106.836569,"station_id":"RJW","line":11,"is_transit":false,"transit":false,"time":5,"i_lat":-6.14505},{"distance":1444,"i_lat":-6.132549,"time":3,"transit":true,"is_transit":true,"station_name":"Kampung Bandan","line":4,"i_long":106.826365,"station_id":"KPB"},{"i_long":106.79867,"is_transit":false,"i_lat":-6.144674,"line":1,"station_id":"AK","transit":false,"time":9,"distance":4102,"station_name":"Angke"},{"station_id":"DU","i_long":106.800832,"transit":false,"is_transit":false,"line":1,"station_name":"Duri","i_lat":-6.155215,"time":4,"distance":1230},{"distance":3632,"i_lat":-6.185545,"station_id":"THB","transit":true,"i_long":106.811091,"line":1,"station_name":"Tanah Abang","is_transit":true,"time":8},{"transit":false,"i_long":106.79689,"distance":3191,"line":6,"i_lat":-6.207404,"station_id":"PLM","is_transit":false,"time":6,"station_name":"Palmerah"},{"is_transit":false,"i_lat":-6.237242,"i_long":106.780334,"station_id":"KBY","distance":3737,"line":6,"station_name":"Kebayoran","transit":false,"time":7},{"distance":6218,"station_name":"Pondokranji","is_transit":false,"time":8,"line":6,"i_long":106.74273,"station_id":"PDJ","transit":false,"i_lat":-6.276362},{"i_lat":-6.288927,"transit":false,"i_long":106.728916,"is_transit":false,"time":3,"station_name":"Jurangmangu","line":6,"station_id":"JMU","distance":2179},{"i_long":106.712277,"transit":false,"station_name":"Sudimara","station_id":"SDM","is_transit":false,"i_lat":-6.296963,"distance":1994,"time":4,"line":6},{"time":6,"transit":false,"i_lat":-6.314823,"station_name":"Rawa Buntu","is_transit":false,"i_long":106.675475,"station_id":"RU","line":6,"distance":4566},{"transit":false,"i_long":106.66566,"station_name":"Serpong","is_transit":false,"time":4,"station_id":"SRP","distance":2413,"i_lat":-6.319871,"line":6},{"is_transit":false,"line":3,"station_name":"Cisauk","i_lat":-6.32484,"i_long":106.640411,"transit":false,"distance":1784,"station_id":"CSK","time":4}],[{"transit":false,"time":0,"is_transit":false,"station_id":"PSE","i_lat":-6.174784,"line":11,"distance":0,"station_name":"Pasar Senen","i_long":106.84368},{"distance":1567,"i_long":106.850107,"time":8,"station_name":"Gang Sentiong","i_lat":-6.185975,"station_id":"GST","transit":false,"is_transit":false,"line":11},{"station_id":"KMT","transit":false,"i_lat":-6.193792,"line":11,"is_transit":false,"distance":973,"i_long":106.855437,"station_name":"Kramat","time":1},{"time":2,"distance":1829,"line":11,"station_name":"Pondok Jati","i_long":106.861737,"station_id":"POK","transit":false,"is_transit":false,"i_lat":-6.209188},{"transit":true,"i_lat":-6.215091,"station_id":"JNG","distance":1236,"is_transit":true,"station_name":"Jatinegara","time":9,"i_long":106.86807400000001,"line":1},{"i_lat":-6.212485,"line":1,"i_long":106.858896,"distance":1377,"station_name":"Matraman","station_id":"MTR","transit":false,"time":2,"is_transit":false},{"station_id":"MRI","station_name":"Manggarai","time":2,"line":2,"transit":false,"is_transit":false,"i_long":106.84912,"i_lat":-6.209883,"distance":1275},{"line":1,"station_name":"Sudirman","station_id":"SUD","transit":false,"is_transit":false,"i_long":106.822649,"distance":3186,"i_lat":-6.202263,"time":4},{"station_id":"SUDB","line":1,"i_lat":-6.201433,"time":1,"distance":280,"station_name":"Sudirman Baru","transit":false,"is_transit":false,"i_long":106.819881},{"i_lat":-6.20132,"transit":false,"station_id":"KAT","i_long":106.816351,"line":1,"station_name":"Karet","distance":471,"is_transit":false,"time":1},{"transit":true,"station_name":"Tanah Abang","i_long":106.811091,"station_id":"THB","time":5,"distance":2029,"is_transit":true,"line":1,"i_lat":-6.185545},{"line":6,"station_id":"PLM","station_name":"Palmerah","is_transit":false,"time":6,"i_lat":-6.207404,"i_long":106.79689,"distance":3191,"transit":false},{"distance":3737,"is_transit":false,"line":6,"time":7,"station_id":"KBY","i_long":106.780334,"station_name":"Kebayoran","i_lat":-6.237242,"transit":false},{"is_transit":false,"time":8,"i_lat":-6.276362,"station_id":"PDJ","station_name":"Pondokranji","line":6,"i_long":106.74273,"transit":false,"distance":6218},{"station_name":"Jurangmangu","i_lat":-6.288927,"is_transit":false,"time":3,"distance":2179,"transit":false,"i_long":106.728916,"station_id":"JMU","line":6},{"station_id":"SDM","transit":false,"distance":1994,"is_transit":false,"line":6,"time":4,"i_long":106.712277,"i_lat":-6.296963,"station_name":"Sudimara"},{"station_name":"Rawa Buntu","distance":4566,"i_lat":-6.314823,"i_long":106.675475,"station_id":"RU","transit":false,"is_transit":false,"time":6,"line":6},{"i_long":106.66566,"time":4,"line":6,"station_id":"SRP","station_name":"Serpong","is_transit":false,"transit":false,"distance":2413,"i_lat":-6.319871},{"station_id":"CSK","is_transit":false,"distance":1784,"i_lat":-6.32484,"time":4,"i_long":106.640411,"line":3,"transit":false,"station_name":"Cisauk"}],[{"line":11,"i_lat":-6.174784,"time":0,"is_transit":false,"station_id":"PSE","station_name":"Pasar Senen","transit":false,"distance":0,"i_long":106.84368},{"i_long":106.839204,"transit":false,"is_transit":false,"station_id":"KMO","distance":1436,"line":11,"time":4,"i_lat":-6.161728,"station_name":"Kemayoran"},{"line":11,"station_id":"RJW","time":5,"is_transit":false,"i_long":106.836569,"transit":false,"i_lat":-6.14505,"station_name":"Rajawali","distance":1901},{"station_id":"KPB","time":3,"line":4,"is_transit":true,"i_long":106.826365,"transit":true,"i_lat":-6.132549,"distance":1444,"station_name":"Kampung Bandan"},{"station_id":"JAKK","i_long":106.812439,"distance":1364,"transit":true,"time":3,"is_transit":true,"line":2,"i_lat":-6.137569,"station_name":"Jakarta Kota"},{"line":2,"is_transit":false,"distance":1264,"transit":false,"i_long":106.820901,"i_lat":-6.141205,"station_name":"Jayakarta","time":4,"station_id":"JAY"},{"distance":1080,"line":2,"transit":false,"time":2,"is_transit":false,"i_long":106.82482,"station_name":"Manggabesar","i_lat":-6.149769,"station_id":"MGB"},{"time":2,"station_name":"Sawah Besar","i_lat":-6.160725,"distance":906,"transit":false,"line":2,"is_transit":false,"station_id":"SW","i_long":106.827103},{"time":2,"transit":false,"is_transit":false,"i_lat":-6.166716,"station_name":"Juanda","distance":1149,"i_long":106.828284,"line":2,"station_id":"JUA"},{"is_transit":false,"time":4,"i_long":106.832183,"distance":2015,"line":2,"i_lat":-6.186295,"station_name":"Gondangdia","transit":false,"station_id":"GDD"},{"is_transit":false,"line":2,"distance":1750,"i_lat":-6.198556,"time":3,"station_name":"Cikini","i_long":106.840169,"station_id":"CKI","transit":false},{"transit":true,"station_name":"Manggarai","time":4,"is_transit":true,"i_lat":-6.209883,"i_long":106.84912,"line":2,"station_id":"MRI","distance":1590},{"i_lat":-6.202263,"station_id":"SUD","i_long":106.822649,"transit":false,"station_name":"Sudirman","is_transit":false,"distance":3186,"line":1,"time":4},{"time":1,"i_lat":-6.201433,"is_transit":false,"line":1,"transit":false,"station_id":"SUDB","i_long":106.819881,"station_name":"Sudirman Baru","distance":280},{"station_name":"Karet","time":1,"i_lat":-6.20132,"line":1,"transit":false,"is_transit":false,"distance":471,"station_id":"KAT","i_long":106.816351},{"station_name":"Tanah Abang","line":1,"time":5,"station_id":"THB","transit":true,"i_long":106.811091,"is_transit":true,"i_lat":-6.185545,"distance":2029},{"i_long":106.79689,"line":6,"station_id":"PLM","distance":3191,"i_lat":-6.207404,"station_name":"Palmerah","is_transit":false,"transit":false,"time":6},{"station_id":"KBY","i_lat":-6.237242,"distance":3737,"transit":false,"is_transit":false,"i_long":106.780334,"station_name":"Kebayoran","time":7,"line":6},{"station_id":"PDJ","station_name":"Pondokranji","transit":false,"is_transit":false,"distance":6218,"time":8,"i_lat":-6.276362,"line":6,"i_long":106.74273},{"i_lat":-6.288927,"line":6,"station_name":"Jurangmangu","station_id":"JMU","is_transit":false,"time":3,"distance":2179,"transit":false,"i_long":106.728916},{"transit":false,"i_long":106.712277,"is_transit":false,"station_name":"Sudimara","distance":1994,"station_id":"SDM","i_lat":-6.296963,"line":6,"time":4},{"i_long":106.675475,"distance":4566,"transit":false,"time":6,"i_lat":-6.314823,"is_transit":false,"station_name":"Rawa Buntu","station_id":"RU","line":6},{"time":4,"i_long":106.66566,"station_id":"SRP","is_transit":false,"line":6,"station_name":"Serpong","i_lat":-6.319871,"transit":false,"distance":2413},{"transit":false,"i_long":106.640411,"i_lat":-6.32484,"station_id":"CSK","is_transit":false,"time":4,"distance":1784,"station_name":"Cisauk","line":3}],[{"i_lat":-6.174784,"distance":0,"transit":false,"i_long":106.84368,"line":11,"station_name":"Pasar Senen","station_id":"PSE","is_transit":false,"time":0},{"station_name":"Gang Sentiong","transit":false,"is_transit":false,"time":8,"line":11,"station_id":"GST","i_lat":-6.185975,"i_long":106.850107,"distance":1567},{"line":11,"distance":973,"i_long":106.855437,"i_lat":-6.193792,"station_id":"KMT","is_transit":false,"station_name":"Kramat","time":1,"transit":false},{"is_transit":false,"distance":1829,"transit":false,"i_lat":-6.209188,"line":11,"i_long":106.861737,"station_id":"POK","time":2,"station_name":"Pondok Jati"},{"line":1,"station_id":"JNG","station_name":"Jatinegara","distance":1236,"i_lat":-6.215091,"is_transit":true,"time":9,"i_long":106.86807400000001,"transit":true},{"is_transit":false,"distance":1377,"i_long":106.858896,"time":2,"transit":false,"i_lat":-6.212485,"station_name":"Matraman","line":1,"station_id":"MTR"},{"i_long":106.84912,"line":2,"distance":1275,"transit":true,"is_transit":true,"time":2,"station_id":"MRI","i_lat":-6.209883,"station_name":"Manggarai"},{"is_transit":false,"time":4,"distance":1590,"i_lat":-6.198556,"i_long":106.840169,"line":2,"transit":false,"station_name":"Cikini","station_id":"CKI"},{"station_id":"GDD","distance":1750,"line":2,"time":3,"transit":false,"station_name":"Gondangdia","is_transit":false,"i_lat":-6.186295,"i_long":106.832183},{"transit":false,"i_lat":-6.166716,"i_long":106.828284,"line":2,"time":4,"is_transit":false,"distance":2015,"station_id":"JUA","station_name":"Juanda"},{"station_name":"Sawah Besar","transit":false,"distance":1149,"i_lat":-6.160725,"time":2,"station_id":"SW","is_transit":false,"i_long":106.827103,"line":2},{"is_transit":false,"transit":false,"station_name":"Manggabesar","i_long":106.82482,"time":2,"distance":906,"station_id":"MGB","i_lat":-6.149769,"line":2},{"i_lat":-6.141205,"station_name":"Jayakarta","transit":false,"distance":1080,"i_long":106.820901,"is_transit":false,"line":2,"station_id":"JAY","time":2},{"i_long":106.812439,"distance":1264,"station_id":"JAKK","is_transit":true,"i_lat":-6.137569,"transit":true,"line":2,"station_name":"Jakarta Kota","time":4},{"line":4,"station_name":"Kampung Bandan","station_id":"KPB","i_long":106.826365,"distance":1364,"i_lat":-6.132549,"transit":true,"time":3,"is_transit":true},{"transit":false,"is_transit":false,"i_long":106.79867,"station_id":"AK","distance":4102,"time":9,"i_lat":-6.144674,"line":1,"station_name":"Angke"},{"is_transit":false,"time":4,"i_lat":-6.155215,"distance":1230,"line":1,"transit":false,"station_name":"Duri","station_id":"DU","i_long":106.800832},{"station_id":"THB","is_transit":true,"transit":true,"distance":3632,"i_lat":-6.185545,"i_long":106.811091,"station_name":"Tanah Abang","line":1,"time":8},{"transit":false,"is_transit":false,"distance":3191,"i_lat":-6.207404,"time":6,"station_id":"PLM","i_long":106.79689,"station_name":"Palmerah","line":6},{"transit":false,"distance":3737,"i_long":106.780334,"is_transit":false,"i_lat":-6.237242,"station_name":"Kebayoran","time":7,"station_id":"KBY","line":6},{"transit":false,"is_transit":false,"distance":6218,"i_lat":-6.276362,"station_name":"Pondokranji","station_id":"PDJ","i_long":106.74273,"time":8,"line":6},{"station_name":"Jurangmangu","transit":false,"is_transit":false,"time":3,"distance":2179,"i_long":106.728916,"line":6,"i_lat":-6.288927,"station_id":"JMU"},{"transit":false,"is_transit":false,"distance":1994,"i_lat":-6.296963,"line":6,"station_name":"Sudimara","i_long":106.712277,"time":4,"station_id":"SDM"},{"station_id":"RU","transit":false,"line":6,"is_transit":false,"station_name":"Rawa Buntu","distance":4566,"i_lat":-6.314823,"time":6,"i_long":106.675475},{"station_id":"SRP","station_name":"Serpong","time":4,"transit":false,"is_transit":false,"i_long":106.66566,"i_lat":-6.319871,"line":6,"distance":2413},{"time":4,"station_id":"CSK","line":3,"i_lat":-6.32484,"station_name":"Cisauk","transit":false,"is_transit":false,"distance":1784,"i_long":106.640411}]]}