{"data":[[{"transit":false,"is_transit":false,"line":11,"time":0,"i_long":106.84368,"station_name":"Pasar Senen","station_id":"PSE","i_lat":-6.174784,"distance":0},{"station_name":"Gang Sentiong","i_long":106.850107,"distance":1567,"line":11,"i_lat":-6.185975,"transit":false,"station_id":"GST","time":8,"is_transit":false},{"is_transit":false,"station_id":"KMT","station_name":"Kramat","time":1,"i_lat":-6.193792,"i_long":106.855437,"line":11,"transit":false,"distance":973},{"station_id":"POK","line":11,"i_lat":-6.209188,"is_transit":false,"time":2,"station_name":"Pondok Jati","i_long":106.861737,"distance":1829,"transit":false},{"distance":1236,"transit":true,"time":9,"station_id":"JNG","line":0,"station_name":"Jatinegara","i_lat":-6.215091,"i_long":106.86807400000001,"is_transit":true},{"station_name":"Matraman","distance":1377,"is_transit":false,"time":2,"i_lat":-6.212485,"line":1,"i_long":106.858896,"station_id":"MTR","transit":false}],[{"is_transit":false,"i_lat":-6.174784,"i_long":106.84368,"station_name":"Pasar Senen","distance":0,"station_id":"PSE","transit":false,"line":11,"time":0},{"station_id":"KMO","transit":false,"distance":1436,"i_long":106.839204,"is_transit":false,"line":11,"station_name":"Kemayoran","time":4,"i_lat":-6.161728},{"distance":1901,"station_name":"Rajawali","is_transit":false,"line":11,"i_long":106.836569,"transit":false,"station_id":"RJW","time":5,"i_lat":-6.14505},{"station_id":"KPB","distance":1444,"is_transit":true,"i_long":106.826365,"i_lat":-6.132549,"line":0,"station_name":"Kampung Bandan","time":3,"transit":true},{"station_id":"AK","transit":false,"station_name":"Angke","line":0,"distance":4102,"is_transit":false,"time":9,"i_lat":-6.144674,"i_long":106.79867},{"transit":true,"station_id":"DU","station_name":"Duri","time":4,"i_lat":-6.155215,"distance":1230,"is_transit":true,"line":1,"i_long":106.800832},{"time":8,"is_transit":true,"distance":3632,"i_lat":-6.185545,"station_id":"THB","transit":false,"i_long":106.811091,"line":1,"station_name":"Tanah Abang"},{"station_name":"Karet","distance":2029,"i_lat":-6.20132,"is_transit":false,"station_id":"KAT","time":5,"i_long":106.816351,"transit":false,"line":1},{"transit":false,"station_id":"SUDB","is_transit":false,"i_lat":-6.201433,"station_name":"Sudirman Baru","distance":471,"time":1,"i_long":106.819881,"line":1},{"distance":280,"transit":false,"is_transit":false,"station_id":"SUD","i_long":106.822649,"time":1,"station_name":"Sudirman","i_lat":-6.202263,"line":1},{"i_long":106.84912,"time":4,"is_transit":true,"i_lat":-6.209883,"station_id":"MRI","transit":false,"line":0,"station_name":"Manggarai","distance":3186},{"is_transit":false,"station_name":"Matraman","i_lat":-6.212485,"transit":false,"i_long":106.858896,"station_id":"MTR","distance":1275,"time":2,"line":1}],[{"i_long":106.84368,"is_transit":false,"time":0,"line":11,"station_id":"PSE","distance":0,"station_name":"Pasar Senen","transit":false,"i_lat":-6.174784},{"distance":1436,"is_transit":false,"transit":false,"i_lat":-6.161728,"station_id":"KMO","station_name":"Kemayoran","time":4,"i_long":106.839204,"line":11},{"station_id":"RJW","is_transit":false,"station_name":"Rajawali","i_long":106.836569,"line":11,"distance":1901,"transit":false,"time":5,"i_lat":-6.14505},{"is_transit":true,"i_lat":-6.132549,"transit":true,"line":0,"distance":1444,"i_long":106.826365,"station_name":"Kampung Bandan","time":3,"station_id":"KPB"},{"i_lat":-6.137569,"time":3,"is_transit":true,"line":0,"distance":1364,"station_name":"Jakarta Kota","transit":true,"station_id":"JAKK","i_long":106.812439},{"is_transit":false,"i_lat":-6.141205,"line":7,"distance":1264,"station_name":"Jayakarta","station_id":"JAY","transit":false,"time":4,"i_long":106.820901},{"station_id":"MGB","time":2,"station_name":"Manggabesar","is_transit":false,"transit":false,"line":2,"i_lat":-6.149769,"distance":1080,"i_long":106.82482},{"station_name":"Sawah Besar","distance":906,"time":2,"i_lat":-6.160725,"i_long":106.827103,"is_transit":false,"transit":false,"line":2,"station_id":"SW"},{"station_id":"JUA","distance":1149,"line":2,"station_name":"Juanda","transit":false,"time":2,"i_lat":-6.166716,"is_transit":false,"i_long":106.828284},{"station_name":"Gondangdia","station_id":"GDD","transit":false,"i_lat":-6.186295,"is_transit":false,"line":2,"distance":2015,"i_long":106.832183,"time":4},{"time":3,"i_long":106.840169,"station_id":"CKI","transit":false,"distance":1750,"is_transit":false,"line":0,"station_name":"Cikini","i_lat":-6.198556},{"time":4,"distance":1590,"i_lat":-6.209883,"station_id":"MRI","transit":true,"line":0,"is_transit":true,"i_long":106.84912,"station_name":"Manggarai"},{"distance":1275,"station_id":"MTR","line":1,"is_transit":false,"i_lat":-6.212485,"station_name":"Matraman","i_long":106.858896,"time":2,"transit":false}]]}