{"data":[[{"line":11,"station_id":"PSE","i_lat":-6.174784,"station_name":"Pasar Senen","time":0,"i_long":106.84368,"distance":0,"is_transit":false,"transit":false},{"line":11,"time":8,"is_transit":false,"distance":1567,"transit":false,"station_name":"Gang Sentiong","station_id":"GST","i_lat":-6.185975,"i_long":106.850107},{"line":11,"is_transit":false,"i_lat":-6.193792,"distance":973,"transit":false,"i_long":106.855437,"station_id":"KMT","station_name":"Kramat","time":1},{"distance":1829,"i_long":106.861737,"i_lat":-6.209188,"transit":false,"line":11,"time":2,"station_id":"POK","station_name":"Pondok Jati","is_transit":false},{"i_long":106.86807400000001,"station_name":"Jatinegara","i_lat":-6.215091,"distance":1236,"station_id":"JNG","transit":true,"line":0,"is_transit":true,"time":9},{"transit":false,"distance":1377,"line":1,"i_long":106.858896,"time":2,"is_transit":false,"station_id":"MTR","i_lat":-6.212485,"station_name":"Matraman"},{"transit":true,"i_long":106.84912,"station_name":"Manggarai","distance":1275,"station_id":"MRI","i_lat":-6.209883,"is_transit":true,"line":0,"time":2},{"time":4,"line":2,"is_transit":false,"i_lat":-6.226659,"station_id":"TEB","transit":false,"i_long":106.857948,"station_name":"Tebet","distance":2610},{"station_id":"CW","transit":false,"i_lat":-6.242512,"time":2,"i_long":106.856607,"distance":1230,"is_transit":false,"line":0,"station_name":"Cawang"},{"i_lat":-6.255332,"station_id":"DRN","station_name":"Duren Kalibata","transit":false,"time":3,"distance":1546,"i_long":106.85449,"line":0,"is_transit":false},{"distance":824,"line":2,"transit":false,"i_lat":-6.263214,"time":2,"station_name":"Pasar Minggu Baru","is_transit":false,"i_long":106.851577,"station_id":"PSMB"},{"distance":2380,"transit":false,"line":2,"time":2,"station_name":"Pasar Minggu","station_id":"PSM","i_lat":-6.2842400000000005,"is_transit":false,"i_long":106.843999},{"station_name":"Tanjung Barat","is_transit":false,"time":4,"transit":false,"i_lat":-6.3080680000000005,"station_id":"TNT","line":2,"i_long":106.838896,"distance":2820}],[{"time":0,"i_long":106.84368,"distance":0,"is_transit":false,"station_id":"PSE","station_name":"Pasar Senen","line":11,"transit":false,"i_lat":-6.174784},{"transit":false,"i_lat":-6.161728,"line":11,"time":4,"station_id":"KMO","distance":1436,"i_long":106.839204,"is_transit":false,"station_name":"Kemayoran"},{"distance":1901,"time":5,"i_long":106.836569,"line":11,"station_id":"RJW","transit":false,"i_lat":-6.14505,"is_transit":false,"station_name":"Rajawali"},{"is_transit":true,"distance":1444,"station_name":"Kampung Bandan","time":3,"i_long":106.826365,"line":0,"i_lat":-6.132549,"station_id":"KPB","transit":true},{"station_id":"AK","transit":false,"i_lat":-6.144674,"i_long":106.79867,"line":0,"station_name":"Angke","distance":4102,"time":9,"is_transit":false},{"station_id":"DU","station_name":"Duri","i_lat":-6.155215,"distance":1230,"is_transit":true,"i_long":106.800832,"line":1,"transit":true,"time":4},{"line":1,"transit":false,"i_long":106.811091,"station_name":"Tanah Abang","station_id":"THB","is_transit":true,"time":8,"i_lat":-6.185545,"distance":3632},{"time":5,"i_long":106.816351,"line":1,"distance":2029,"is_transit":false,"transit":false,"station_name":"Karet","i_lat":-6.20132,"station_id":"KAT"},{"station_id":"SUDB","is_transit":false,"time":1,"i_lat":-6.201433,"station_name":"Sudirman Baru","i_long":106.819881,"transit":false,"line":1,"distance":471},{"time":1,"i_lat":-6.202263,"i_long":106.822649,"is_transit":false,"line":1,"distance":280,"station_id":"SUD","station_name":"Sudirman","transit":false},{"is_transit":true,"station_id":"MRI","distance":3186,"transit":true,"station_name":"Manggarai","time":4,"i_lat":-6.209883,"i_long":106.84912,"line":0},{"station_id":"TEB","line":2,"transit":false,"i_long":106.857948,"time":4,"i_lat":-6.226659,"station_name":"Tebet","distance":2610,"is_transit":false},{"time":2,"is_transit":false,"transit":false,"station_id":"CW","station_name":"Cawang","distance":1230,"i_lat":-6.242512,"i_long":106.856607,"line":0},{"time":3,"distance":1546,"i_long":106.85449,"line":0,"station_name":"Duren Kalibata","transit":false,"is_transit":false,"i_lat":-6.255332,"station_id":"DRN"},{"is_transit":false,"station_id":"PSMB","distance":824,"i_lat":-6.263214,"time":2,"i_long":106.851577,"line":2,"station_name":"Pasar Minggu Baru","transit":false},{"line":2,"is_transit":false,"station_id":"PSM","distance":2380,"i_long":106.843999,"transit":false,"time":2,"i_lat":-6.2842400000000005,"station_name":"Pasar Minggu"},{"transit":false,"time":4,"line":2,"i_long":106.838896,"station_id":"TNT","distance":2820,"i_lat":-6.3080680000000005,"is_transit":false,"station_name":"Tanjung Barat"}],[{"line":11,"time":0,"i_long":106.84368,"distance":0,"is_transit":false,"station_id":"PSE","i_lat":-6.174784,"station_name":"Pasar Senen","transit":false},{"line":11,"time":4,"station_id":"KMO","distance":1436,"station_name":"Kemayoran","is_transit":false,"transit":false,"i_lat":-6.161728,"i_long":106.839204},{"i_long":106.836569,"is_transit":false,"distance":1901,"i_lat":-6.14505,"transit":false,"line":11,"station_name":"Rajawali","time":5,"station_id":"RJW"},{"station_id":"KPB","line":0,"i_lat":-6.132549,"distance":1444,"time":3,"station_name":"Kampung Bandan","transit":true,"is_transit":true,"i_long":106.826365},{"i_lat":-6.137569,"line":0,"i_long":106.812439,"station_id":"JAKK","is_transit":true,"distance":1364,"time":3,"station_name":"Jakarta Kota","transit":true},{"time":4,"station_name":"Jayakarta","station_id":"JAY","i_lat":-6.141205,"i_long":106.820901,"is_transit":false,"transit":false,"line":7,"distance":1264},{"distance":1080,"is_transit":false,"time":2,"transit":false,"station_id":"MGB","i_lat":-6.149769,"i_long":106.82482,"station_name":"Manggabesar","line":2},{"is_transit":false,"transit":false,"station_id":"SW","i_lat":-6.160725,"line":2,"distance":906,"i_long":106.827103,"station_name":"Sawah Besar","time":2},{"transit":false,"i_long":106.828284,"time":2,"station_id":"JUA","distance":1149,"station_name":"Juanda","line":2,"i_lat":-6.166716,"is_transit":false},{"i_lat":-6.186295,"transit":false,"station_id":"GDD","i_long":106.832183,"station_name":"Gondangdia","distance":2015,"is_transit":false,"time":4,"line":2},{"i_lat":-6.198556,"line":0,"i_long":106.840169,"transit":false,"station_id":"CKI","station_name":"Cikini","distance":1750,"is_transit":false,"time":3},{"station_id":"MRI","transit":true,"time":4,"is_transit":true,"i_lat":-6.209883,"i_long":106.84912,"line":0,"distance":1590,"station_name":"Manggarai"},{"line":2,"time":4,"i_long":106.857948,"distance":2610,"transit":false,"is_transit":false,"station_name":"Tebet","station_id":"TEB","i_lat":-6.226659},{"line":0,"is_transit":false,"distance":1230,"station_id":"CW","i_long":106.856607,"transit":false,"i_lat":-6.242512,"station_name":"Cawang","time":2},{"station_id":"DRN","i_lat":-6.255332,"transit":false,"time":3,"i_long":106.85449,"line":0,"station_name":"Duren Kalibata","distance":1546,"is_transit":false},{"distance":824,"transit":false,"time":2,"line":2,"i_long":106.851577,"station_id":"PSMB","is_transit":false,"station_name":"Pasar Minggu Baru","i_lat":-6.263214},{"transit":false,"time":2,"line":2,"distance":2380,"is_transit":false,"station_name":"Pasar Minggu","station_id":"PSM","i_lat":-6.2842400000000005,"i_long":106.843999},{"is_transit":false,"station_name":"Tanjung Barat","time":4,"transit":false,"distance":2820,"i_lat":-6.3080680000000005,"i_long":106.838896,"line":2,"station_id":"TNT"}]]}