{"data":[[{"is_transit":false,"distance":0,"transit":false,"station_name":"Pasar Senen","time":0,"station_id":"PSE","i_lat":-6.174784,"i_long":106.84368,"line":11},{"station_id":"GST","station_name":"Gang Sentiong","time":8,"is_transit":false,"i_lat":-6.185975,"transit":false,"distance":1567,"i_long":106.850107,"line":11},{"i_lat":-6.193792,"transit":false,"i_long":106.855437,"station_name":"Kramat","time":1,"is_transit":false,"station_id":"KMT","line":11,"distance":973},{"transit":false,"line":11,"time":2,"station_name":"Pondok Jati","i_lat":-6.209188,"i_long":106.861737,"station_id":"POK","is_transit":false,"distance":1829},{"transit":true,"station_name":"Jatinegara","distance":1236,"station_id":"JNG","i_lat":-6.215091,"is_transit":true,"i_long":106.86807400000001,"line":1,"time":9},{"i_long":106.858896,"distance":1377,"time":2,"i_lat":-6.212485,"line":1,"transit":false,"station_id":"MTR","is_transit":false,"station_name":"Matraman"},{"i_long":106.84912,"distance":1275,"i_lat":-6.209883,"time":2,"is_transit":true,"station_id":"MRI","transit":true,"station_name":"Manggarai","line":2},{"station_name":"Tebet","station_id":"TEB","i_long":106.857948,"transit":false,"i_lat":-6.226659,"time":4,"distance":2610,"line":2,"is_transit":false},{"i_long":106.856607,"distance":1230,"line":2,"i_lat":-6.242512,"station_id":"CW","time":2,"is_transit":false,"transit":false,"station_name":"Cawang"},{"station_name":"Duren Kalibata","i_long":106.85449,"line":2,"is_transit":false,"time":3,"i_lat":-6.255332,"distance":1546,"transit":false,"station_id":"DRN"},{"station_name":"Pasar Minggu Baru","station_id":"PSMB","transit":false,"i_lat":-6.263214,"i_long":106.851577,"line":2,"distance":824,"is_transit":false,"time":2},{"is_transit":false,"distance":2380,"i_long":106.843999,"transit":false,"i_lat":-6.2842400000000005,"time":2,"station_name":"Pasar Minggu","station_id":"PSM","line":2},{"distance":2820,"station_name":"Tanjung Barat","time":4,"i_long":106.838896,"line":2,"is_transit":false,"i_lat":-6.3080680000000005,"station_id":"TNT","transit":false},{"line":2,"distance":2671,"station_name":"Lenteng Agung","time":3,"station_id":"LNA","is_transit":false,"i_lat":-6.330363,"transit":false,"i_long":106.832616},{"i_long":106.834175,"station_name":"Univ. Pancasila","is_transit":false,"time":2,"station_id":"UP","line":2,"distance":1029,"i_lat":-6.339291,"transit":false},{"is_transit":false,"station_name":"Univ. Indonesia","i_lat":-6.360749,"time":3,"station_id":"UI","i_long":106.831474,"transit":false,"distance":2264,"line":2},{"station_name":"Pondok Cina","i_lat":-6.369073,"station_id":"POC","transit":false,"is_transit":false,"i_long":106.831114,"line":2,"distance":1109,"time":2},{"i_long":106.819451,"is_transit":false,"i_lat":-6.391065,"line":2,"distance":2727,"transit":false,"station_id":"DPB","station_name":"Depokbaru","time":4},{"transit":false,"time":3,"station_name":"Depok","line":2,"i_long":106.816926,"i_lat":-6.405256,"station_id":"DP","distance":1584,"is_transit":false},{"line":2,"i_long":106.800298,"time":6,"station_name":"Citayam","distance":5084,"is_transit":false,"transit":false,"i_lat":-6.448811,"station_id":"CTA"},{"is_transit":false,"station_id":"BJD","i_long":106.792719,"transit":false,"i_lat":-6.493243,"station_name":"Bojonggede","time":5,"line":2,"distance":5197}],[{"station_name":"Pasar Senen","station_id":"PSE","is_transit":false,"transit":false,"line":11,"distance":0,"i_lat":-6.174784,"i_long":106.84368,"time":0},{"line":11,"i_lat":-6.161728,"is_transit":false,"station_id":"KMO","distance":1436,"transit":false,"station_name":"Kemayoran","i_long":106.839204,"time":4},{"time":5,"line":11,"is_transit":false,"i_long":106.836569,"station_name":"Rajawali","station_id":"RJW","i_lat":-6.14505,"transit":false,"distance":1901},{"distance":1444,"time":3,"transit":true,"station_id":"KPB","line":4,"is_transit":true,"i_long":106.826365,"i_lat":-6.132549,"station_name":"Kampung Bandan"},{"i_long":106.79867,"time":9,"line":1,"station_name":"Angke","i_lat":-6.144674,"transit":false,"is_transit":false,"distance":4102,"station_id":"AK"},{"transit":false,"is_transit":false,"station_name":"Duri","station_id":"DU","i_lat":-6.155215,"i_long":106.800832,"time":4,"line":1,"distance":1230},{"station_name":"Tanah Abang","i_lat":-6.185545,"distance":3632,"line":1,"is_transit":false,"transit":false,"station_id":"THB","i_long":106.811091,"time":8},{"transit":false,"i_long":106.816351,"is_transit":false,"distance":2029,"station_name":"Karet","i_lat":-6.20132,"line":1,"station_id":"KAT","time":5},{"time":1,"transit":false,"station_name":"Sudirman Baru","station_id":"SUDB","i_long":106.819881,"distance":471,"i_lat":-6.201433,"line":1,"is_transit":false},{"distance":280,"i_lat":-6.202263,"i_long":106.822649,"station_id":"SUD","station_name":"Sudirman","line":1,"transit":false,"is_transit":false,"time":1},{"time":4,"is_transit":true,"station_id":"MRI","i_lat":-6.209883,"transit":true,"distance":3186,"station_name":"Manggarai","i_long":106.84912,"line":2},{"transit":false,"station_name":"Tebet","station_id":"TEB","is_transit":false,"i_lat":-6.226659,"distance":2610,"i_long":106.857948,"time":4,"line":2},{"i_lat":-6.242512,"transit":false,"i_long":106.856607,"line":2,"distance":1230,"station_id":"CW","is_transit":false,"time":2,"station_name":"Cawang"},{"time":3,"station_name":"Duren Kalibata","is_transit":false,"distance":1546,"line":2,"station_id":"DRN","i_lat":-6.255332,"i_long":106.85449,"transit":false},{"station_id":"PSMB","distance":824,"is_transit":false,"i_lat":-6.263214,"transit":false,"line":2,"station_name":"Pasar Minggu Baru","time":2,"i_long":106.851577},{"line":2,"i_lat":-6.2842400000000005,"is_transit":false,"time":2,"station_name":"Pasar Minggu","i_long":106.843999,"distance":2380,"transit":false,"station_id":"PSM"},{"distance":2820,"station_name":"Tanjung Barat","transit":false,"is_transit":false,"station_id":"TNT","i_lat":-6.3080680000000005,"line":2,"time":4,"i_long":106.838896},{"station_id":"LNA","station_name":"Lenteng Agung","i_lat":-6.330363,"is_transit":false,"time":3,"transit":false,"line":2,"distance":2671,"i_long":106.832616},{"station_id":"UP","is_transit":false,"i_lat":-6.339291,"transit":false,"i_long":106.834175,"line":2,"distance":1029,"time":2,"station_name":"Univ. Pancasila"},{"distance":2264,"is_transit":false,"line":2,"transit":false,"station_id":"UI","i_lat":-6.360749,"i_long":106.831474,"time":3,"station_name":"Univ. Indonesia"},{"station_name":"Pondok Cina","is_transit":false,"station_id":"POC","i_lat":-6.369073,"distance":1109,"time":2,"i_long":106.831114,"transit":false,"line":2},{"station_id":"DPB","transit":false,"i_long":106.819451,"station_name":"Depokbaru","is_transit":false,"time":4,"i_lat":-6.391065,"line":2,"distance":2727},{"i_lat":-6.405256,"station_id":"DP","transit":false,"distance":1584,"time":3,"is_transit":false,"station_name":"Depok","i_long":106.816926,"line":2},{"line":2,"distance":5084,"time":6,"station_id":"CTA","station_name":"Citayam","i_lat":-6.448811,"i_long":106.800298,"is_transit":false,"transit":false},{"line":2,"i_long":106.792719,"station_id":"BJD","time":5,"station_name":"Bojonggede","distance":5197,"transit":false,"is_transit":false,"i_lat":-6.493243}],[{"i_long":106.84368,"line":11,"time":0,"station_id":"PSE","station_name":"Pasar Senen","distance":0,"transit":false,"is_transit":false,"i_lat":-6.174784},{"distance":1436,"is_transit":false,"station_id":"KMO","time":4,"i_long":106.839204,"line":11,"i_lat":-6.161728,"station_name":"Kemayoran","transit":false},{"transit":false,"distance":1901,"i_long":106.836569,"station_id":"RJW","station_name":"Rajawali","time":5,"i_lat":-6.14505,"is_transit":false,"line":11},{"distance":1444,"line":4,"station_id":"KPB","time":3,"station_name":"Kampung Bandan","i_lat":-6.132549,"transit":true,"is_transit":true,"i_long":106.826365},{"distance":1364,"transit":true,"station_id":"JAKK","i_long":106.812439,"line":2,"i_lat":-6.137569,"station_name":"Jakarta Kota","time":3,"is_transit":true},{"transit":false,"distance":1264,"i_long":106.820901,"time":4,"line":2,"station_name":"Jayakarta","is_transit":false,"station_id":"JAY","i_lat":-6.141205},{"time":2,"is_transit":false,"line":2,"distance":1080,"transit":false,"station_name":"Manggabesar","i_long":106.82482,"station_id":"MGB","i_lat":-6.149769},{"is_transit":false,"time":2,"station_id":"SW","station_name":"Sawah Besar","i_long":106.827103,"line":2,"distance":906,"transit":false,"i_lat":-6.160725},{"line":2,"time":2,"transit":false,"station_name":"Juanda","station_id":"JUA","i_lat":-6.166716,"is_transit":false,"distance":1149,"i_long":106.828284},{"time":4,"station_id":"GDD","line":2,"distance":2015,"i_long":106.832183,"is_transit":false,"station_name":"Gondangdia","i_lat":-6.186295,"transit":false},{"station_name":"Cikini","i_long":106.840169,"time":3,"distance":1750,"is_transit":false,"transit":false,"i_lat":-6.198556,"line":2,"station_id":"CKI"},{"line":2,"distance":1590,"transit":false,"station_id":"MRI","time":4,"is_transit":false,"i_lat":-6.209883,"station_name":"Manggarai","i_long":106.84912},{"station_name":"Tebet","distance":2610,"line":2,"i_long":106.857948,"is_transit":false,"transit":false,"time":4,"i_lat":-6.226659,"station_id":"TEB"},{"distance":1230,"station_id":"CW","line":2,"station_name":"Cawang","i_lat":-6.242512,"i_long":106.856607,"time":2,"is_transit":false,"transit":false},{"distance":1546,"transit":false,"i_lat":-6.255332,"i_long":106.85449,"station_id":"DRN","time":3,"station_name":"Duren Kalibata","line":2,"is_transit":false},{"transit":false,"time":2,"distance":824,"is_transit":false,"station_name":"Pasar Minggu Baru","station_id":"PSMB","line":2,"i_lat":-6.263214,"i_long":106.851577},{"line":2,"i_long":106.843999,"transit":false,"station_name":"Pasar Minggu","station_id":"PSM","i_lat":-6.2842400000000005,"distance":2380,"time":2,"is_transit":false},{"i_lat":-6.3080680000000005,"station_id":"TNT","i_long":106.838896,"transit":false,"time":4,"is_transit":false,"line":2,"distance":2820,"station_name":"Tanjung Barat"},{"is_transit":false,"station_name":"Lenteng Agung","station_id":"LNA","line":2,"i_long":106.832616,"time":3,"transit":false,"distance":2671,"i_lat":-6.330363},{"line":2,"distance":1029,"i_long":106.834175,"transit":false,"station_id":"UP","is_transit":false,"i_lat":-6.339291,"station_name":"Univ. Pancasila","time":2},{"i_lat":-6.360749,"transit":false,"distance":2264,"is_transit":false,"station_name":"Univ. Indonesia","i_long":106.831474,"time":3,"station_id":"UI","line":2},{"station_name":"Pondok Cina","i_long":106.831114,"is_transit":false,"i_lat":-6.369073,"station_id":"POC","distance":1109,"transit":false,"line":2,"time":2},{"is_transit":false,"distance":2727,"transit":false,"station_id":"DPB","i_long":106.819451,"station_name":"Depokbaru","i_lat":-6.391065,"line":2,"time":4},{"i_lat":-6.405256,"transit":false,"station_id":"DP","time":3,"is_transit":false,"i_long":106.816926,"line":2,"distance":1584,"station_name":"Depok"},{"is_transit":false,"time":6,"transit":false,"i_long":106.800298,"i_lat":-6.448811,"station_name":"Citayam","distance":5084,"station_id":"CTA","line":2},{"station_id":"BJD","i_long":106.792719,"distance":5197,"line":2,"time":5,"station_name":"Bojonggede","transit":false,"i_lat":-6.493243,"is_transit":false}]]}