{"data":[[{"is_transit":false,"station_name":"Pasar Senen","i_lat":-6.174784,"line":11,"station_id":"PSE","transit":false,"i_long":106.84368,"distance":0,"time":0},{"line":11,"time":8,"transit":false,"is_transit":false,"station_name":"Gang Sentiong","distance":1567,"i_lat":-6.185975,"i_long":106.850107,"station_id":"GST"},{"i_lat":-6.193792,"transit":false,"station_name":"Kramat","distance":973,"line":11,"time":1,"i_long":106.855437,"is_transit":false,"station_id":"KMT"},{"i_long":106.861737,"distance":1829,"station_id":"POK","station_name":"Pondok Jati","time":2,"line":11,"is_transit":false,"transit":false,"i_lat":-6.209188},{"time":9,"i_long":106.86807400000001,"is_transit":true,"distance":1236,"transit":true,"station_name":"Jatinegara","line":1,"i_lat":-6.215091,"station_id":"JNG"},{"i_long":106.858896,"is_transit":false,"station_id":"MTR","distance":1377,"line":1,"station_name":"Matraman","time":2,"i_lat":-6.212485,"transit":false},{"i_long":106.84912,"distance":1275,"station_name":"Manggarai","station_id":"MRI","is_transit":true,"transit":true,"line":2,"i_lat":-6.209883,"time":2},{"time":4,"i_long":106.857948,"station_id":"TEB","i_lat":-6.226659,"line":2,"station_name":"Tebet","transit":false,"distance":2610,"is_transit":false},{"line":2,"i_long":106.856607,"transit":false,"i_lat":-6.242512,"station_name":"Cawang","time":2,"station_id":"CW","is_transit":false,"distance":1230},{"line":2,"time":3,"transit":false,"station_name":"Duren Kalibata","i_lat":-6.255332,"is_transit":false,"station_id":"DRN","distance":1546,"i_long":106.85449},{"station_name":"Pasar Minggu Baru","time":2,"transit":false,"i_lat":-6.263214,"line":2,"i_long":106.851577,"is_transit":false,"station_id":"PSMB","distance":824},{"station_id":"PSM","distance":2380,"line":2,"time":2,"i_lat":-6.2842400000000005,"i_long":106.843999,"is_transit":false,"transit":false,"station_name":"Pasar Minggu"},{"station_name":"Tanjung Barat","station_id":"TNT","transit":false,"line":2,"i_lat":-6.3080680000000005,"distance":2820,"i_long":106.838896,"is_transit":false,"time":4}],[{"time":0,"distance":0,"station_id":"PSE","line":11,"transit":false,"i_lat":-6.174784,"station_name":"Pasar Senen","i_long":106.84368,"is_transit":false},{"i_long":106.839204,"i_lat":-6.161728,"time":4,"station_name":"Kemayoran","transit":false,"is_transit":false,"station_id":"KMO","distance":1436,"line":11},{"time":5,"station_id":"RJW","transit":false,"i_long":106.836569,"station_name":"Rajawali","is_transit":false,"i_lat":-6.14505,"line":11,"distance":1901},{"time":3,"transit":true,"i_long":106.826365,"i_lat":-6.132549,"station_name":"Kampung Bandan","is_transit":true,"distance":1444,"line":4,"station_id":"KPB"},{"i_lat":-6.144674,"station_name":"Angke","line":1,"i_long":106.79867,"is_transit":false,"station_id":"AK","distance":4102,"transit":false,"time":9},{"is_transit":false,"i_lat":-6.155215,"line":1,"station_id":"DU","time":4,"transit":false,"station_name":"Duri","distance":1230,"i_long":106.800832},{"station_id":"THB","transit":false,"station_name":"Tanah Abang","time":8,"i_lat":-6.185545,"line":1,"is_transit":false,"distance":3632,"i_long":106.811091},{"station_id":"KAT","distance":2029,"is_transit":false,"i_long":106.816351,"i_lat":-6.20132,"line":1,"time":5,"station_name":"Karet","transit":false},{"is_transit":false,"distance":471,"line":1,"station_name":"Sudirman Baru","i_lat":-6.201433,"station_id":"SUDB","time":1,"i_long":106.819881,"transit":false},{"transit":false,"station_name":"Sudirman","is_transit":false,"time":1,"line":1,"i_lat":-6.202263,"station_id":"SUD","distance":280,"i_long":106.822649},{"distance":3186,"is_transit":true,"i_long":106.84912,"station_id":"MRI","i_lat":-6.209883,"line":2,"time":4,"station_name":"Manggarai","transit":true},{"station_name":"Tebet","is_transit":false,"i_lat":-6.226659,"i_long":106.857948,"line":2,"time":4,"station_id":"TEB","distance":2610,"transit":false},{"time":2,"station_name":"Cawang","transit":false,"station_id":"CW","distance":1230,"is_transit":false,"i_long":106.856607,"i_lat":-6.242512,"line":2},{"station_id":"DRN","transit":false,"i_long":106.85449,"line":2,"is_transit":false,"distance":1546,"i_lat":-6.255332,"time":3,"station_name":"Duren Kalibata"},{"is_transit":false,"i_long":106.851577,"time":2,"transit":false,"station_name":"Pasar Minggu Baru","station_id":"PSMB","distance":824,"i_lat":-6.263214,"line":2},{"transit":false,"i_lat":-6.2842400000000005,"station_name":"Pasar Minggu","i_long":106.843999,"is_transit":false,"time":2,"line":2,"distance":2380,"station_id":"PSM"},{"time":4,"i_long":106.838896,"transit":false,"station_id":"TNT","is_transit":false,"line":2,"distance":2820,"station_name":"Tanjung Barat","i_lat":-6.3080680000000005}],[{"station_id":"PSE","time":0,"station_name":"Pasar Senen","distance":0,"i_long":106.84368,"line":11,"i_lat":-6.174784,"transit":false,"is_transit":false},{"time":4,"station_name":"Kemayoran","i_lat":-6.161728,"line":11,"i_long":106.839204,"transit":false,"station_id":"KMO","is_transit":false,"distance":1436},{"line":11,"distance":1901,"is_transit":false,"i_long":106.836569,"transit":false,"station_name":"Rajawali","station_id":"RJW","i_lat":-6.14505,"time":5},{"station_id":"KPB","line":4,"time":3,"transit":true,"i_long":106.826365,"station_name":"Kampung Bandan","is_transit":true,"distance":1444,"i_lat":-6.132549},{"is_transit":true,"time":3,"station_id":"JAKK","distance":1364,"transit":true,"line":2,"station_name":"Jakarta Kota","i_long":106.812439,"i_lat":-6.137569},{"i_lat":-6.141205,"is_transit":false,"i_long":106.820901,"station_id":"JAY","line":2,"station_name":"Jayakarta","distance":1264,"transit":false,"time":4},{"is_transit":false,"i_long":106.82482,"distance":1080,"station_id":"MGB","station_name":"Manggabesar","transit":false,"time":2,"i_lat":-6.149769,"line":2},{"i_long":106.827103,"transit":false,"distance":906,"is_transit":false,"station_name":"Sawah Besar","time":2,"line":2,"station_id":"SW","i_lat":-6.160725},{"transit":false,"station_name":"Juanda","is_transit":false,"time":2,"station_id":"JUA","distance":1149,"line":2,"i_lat":-6.166716,"i_long":106.828284},{"station_name":"Gondangdia","i_long":106.832183,"station_id":"GDD","is_transit":false,"time":4,"distance":2015,"transit":false,"line":2,"i_lat":-6.186295},{"is_transit":false,"distance":1750,"station_id":"CKI","time":3,"i_long":106.840169,"transit":false,"line":2,"station_name":"Cikini","i_lat":-6.198556},{"i_lat":-6.209883,"time":4,"station_name":"Manggarai","distance":1590,"i_long":106.84912,"line":2,"is_transit":false,"transit":false,"station_id":"MRI"},{"i_long":106.857948,"station_name":"Tebet","time":4,"is_transit":false,"line":2,"transit":false,"i_lat":-6.226659,"distance":2610,"station_id":"TEB"},{"transit":false,"station_id":"CW","distance":1230,"line":2,"time":2,"i_long":106.856607,"is_transit":false,"i_lat":-6.242512,"station_name":"Cawang"},{"station_id":"DRN","time":3,"i_lat":-6.255332,"distance":1546,"transit":false,"line":2,"i_long":106.85449,"is_transit":false,"station_name":"Duren Kalibata"},{"time":2,"is_transit":false,"i_long":106.851577,"station_name":"Pasar Minggu Baru","station_id":"PSMB","transit":false,"i_lat":-6.263214,"distance":824,"line":2},{"is_transit":false,"i_lat":-6.2842400000000005,"line":2,"station_name":"Pasar Minggu","transit":false,"time":2,"station_id":"PSM","distance":2380,"i_long":106.843999},{"i_long":106.838896,"is_transit":false,"station_name":"Tanjung Barat","station_id":"TNT","time":4,"distance":2820,"i_lat":-6.3080680000000005,"line":2,"transit":false}]]}