{"data":[[{"transit":false,"station_id":"PSE","i_lat":-6.174784,"i_long":106.84368,"distance":0,"time":0,"line":11,"is_transit":false,"station_name":"Pasar Senen"},{"i_long":106.839204,"time":4,"i_lat":-6.161728,"is_transit":false,"transit":false,"station_name":"Kemayoran","distance":1436,"station_id":"KMO","line":11},{"station_id":"RJW","transit":false,"time":5,"i_lat":-6.14505,"line":11,"is_transit":false,"distance":1901,"station_name":"Rajawali","i_long":106.836569},{"i_lat":-6.132549,"i_long":106.826365,"line":4,"station_id":"KPB","distance":1444,"station_name":"Kampung Bandan","time":3,"transit":true,"is_transit":true},{"transit":false,"station_name":"Angke","distance":4102,"i_lat":-6.144674,"is_transit":false,"i_long":106.79867,"line":1,"time":9,"station_id":"AK"},{"station_name":"Duri","transit":false,"time":4,"line":1,"distance":1230,"station_id":"DU","is_transit":false,"i_long":106.800832,"i_lat":-6.155215},{"distance":3632,"line":1,"i_long":106.811091,"station_name":"Tanah Abang","time":8,"transit":true,"i_lat":-6.185545,"is_transit":true,"station_id":"THB"},{"station_name":"Palmerah","distance":3191,"i_lat":-6.207404,"station_id":"PLM","i_long":106.79689,"transit":false,"time":6,"is_transit":false,"line":6},{"station_name":"Kebayoran","distance":3737,"time":7,"station_id":"KBY","i_long":106.780334,"line":6,"i_lat":-6.237242,"transit":false,"is_transit":false},{"line":6,"i_long":106.74273,"transit":false,"i_lat":-6.276362,"distance":6218,"time":8,"is_transit":false,"station_id":"PDJ","station_name":"Pondokranji"},{"line":6,"station_name":"Jurangmangu","is_transit":false,"transit":false,"i_lat":-6.288927,"i_long":106.728916,"station_id":"JMU","distance":2179,"time":3},{"transit":false,"i_long":106.712277,"station_id":"SDM","line":6,"station_name":"Sudimara","i_lat":-6.296963,"is_transit":false,"distance":1994,"time":4},{"station_name":"Rawa Buntu","station_id":"RU","distance":4566,"i_lat":-6.314823,"transit":false,"time":6,"i_long":106.675475,"is_transit":false,"line":6},{"i_long":106.66566,"line":6,"time":4,"station_id":"SRP","is_transit":false,"transit":false,"station_name":"Serpong","i_lat":-6.319871,"distance":2413},{"distance":1784,"station_id":"CSK","is_transit":false,"i_long":106.640411,"station_name":"Cisauk","i_lat":-6.32484,"line":3,"time":4,"transit":false},{"is_transit":false,"transit":false,"i_long":106.617853,"line":3,"i_lat":-6.329547,"station_name":"Cicayur","distance":2519,"time":4,"station_id":"CC"},{"time":8,"i_lat":-6.3441410000000005,"distance":5968,"i_long":106.568863,"is_transit":false,"station_name":"Parung Panjang","transit":false,"station_id":"PRP","line":6},{"is_transit":false,"line":3,"station_name":"Cilejit","station_id":"CJT","transit":false,"i_long":106.508482,"distance":7025,"i_lat":-6.354349,"time":9},{"distance":2675,"i_long":106.491338,"transit":false,"i_lat":-6.338021,"is_transit":false,"line":0,"station_name":"Daru","station_id":"DAR","time":6},{"is_transit":false,"i_long":106.460812,"time":5,"distance":3902,"station_id":"TEJ","station_name":"Tenjo","transit":false,"line":6,"i_lat":-6.327251},{"is_transit":false,"time":5,"station_name":"Tigaraksa","station_id":"TGS","transit":false,"i_lat":-6.328533,"i_long":106.425991,"line":6,"distance":2974}],[{"station_id":"PSE","transit":false,"station_name":"Pasar Senen","distance":0,"is_transit":false,"i_long":106.84368,"time":0,"i_lat":-6.174784,"line":11},{"i_lat":-6.185975,"line":11,"station_name":"Gang Sentiong","transit":false,"time":8,"station_id":"GST","distance":1567,"i_long":106.850107,"is_transit":false},{"is_transit":false,"i_long":106.855437,"distance":973,"time":1,"station_id":"KMT","transit":false,"i_lat":-6.193792,"line":11,"station_name":"Kramat"},{"time":2,"line":11,"transit":false,"station_name":"Pondok Jati","i_lat":-6.209188,"distance":1829,"i_long":106.861737,"is_transit":false,"station_id":"POK"},{"line":1,"station_name":"Jatinegara","is_transit":true,"station_id":"JNG","time":9,"distance":1236,"transit":true,"i_lat":-6.215091,"i_long":106.86807400000001},{"transit":false,"is_transit":false,"station_id":"MTR","time":2,"distance":1377,"station_name":"Matraman","i_lat":-6.212485,"i_long":106.858896,"line":1},{"i_long":106.84912,"line":2,"distance":1275,"station_id":"MRI","station_name":"Manggarai","time":2,"transit":false,"i_lat":-6.209883,"is_transit":false},{"i_lat":-6.202263,"station_name":"Sudirman","time":4,"distance":3186,"transit":false,"i_long":106.822649,"line":1,"station_id":"SUD","is_transit":false},{"station_id":"SUDB","line":1,"distance":280,"transit":false,"is_transit":false,"i_lat":-6.201433,"i_long":106.819881,"time":1,"station_name":"Sudirman Baru"},{"i_long":106.816351,"transit":false,"station_id":"KAT","line":1,"distance":471,"i_lat":-6.20132,"is_transit":false,"time":1,"station_name":"Karet"},{"i_long":106.811091,"time":5,"is_transit":true,"station_id":"THB","station_name":"Tanah Abang","distance":2029,"transit":true,"i_lat":-6.185545,"line":1},{"station_id":"PLM","i_long":106.79689,"time":6,"i_lat":-6.207404,"distance":3191,"transit":false,"station_name":"Palmerah","is_transit":false,"line":6},{"station_id":"KBY","i_long":106.780334,"i_lat":-6.237242,"transit":false,"line":6,"distance":3737,"time":7,"station_name":"Kebayoran","is_transit":false},{"i_long":106.74273,"time":8,"is_transit":false,"transit":false,"distance":6218,"station_id":"PDJ","line":6,"station_name":"Pondokranji","i_lat":-6.276362},{"transit":false,"station_id":"JMU","is_transit":false,"distance":2179,"time":3,"i_lat":-6.288927,"station_name":"Jurangmangu","i_long":106.728916,"line":6},{"i_long":106.712277,"i_lat":-6.296963,"transit":false,"is_transit":false,"line":6,"time":4,"station_id":"SDM","distance":1994,"station_name":"Sudimara"},{"distance":4566,"time":6,"i_lat":-6.314823,"line":6,"i_long":106.675475,"station_name":"Rawa Buntu","station_id":"RU","transit":false,"is_transit":false},{"line":6,"i_long":106.66566,"is_transit":false,"station_id":"SRP","distance":2413,"time":4,"station_name":"Serpong","transit":false,"i_lat":-6.319871},{"line":3,"time":4,"station_name":"Cisauk","station_id":"CSK","distance":1784,"i_lat":-6.32484,"i_long":106.640411,"transit":false,"is_transit":false},{"transit":false,"i_lat":-6.329547,"line":3,"i_long":106.617853,"station_id":"CC","station_name":"Cicayur","time":4,"distance":2519,"is_transit":false},{"time":8,"distance":5968,"station_name":"Parung Panjang","station_id":"PRP","i_lat":-6.3441410000000005,"line":6,"is_transit":false,"transit":false,"i_long":106.568863},{"distance":7025,"station_name":"Cilejit","time":9,"i_lat":-6.354349,"is_transit":false,"i_long":106.508482,"line":3,"station_id":"CJT","transit":false},{"station_id":"DAR","i_lat":-6.338021,"is_transit":false,"transit":false,"line":0,"time":6,"i_long":106.491338,"distance":2675,"station_name":"Daru"},{"transit":false,"i_lat":-6.327251,"i_long":106.460812,"time":5,"distance":3902,"station_id":"TEJ","station_name":"Tenjo","line":6,"is_transit":false},{"station_id":"TGS","distance":2974,"is_transit":false,"transit":false,"i_lat":-6.328533,"line":6,"time":5,"station_name":"Tigaraksa","i_long":106.425991}],[{"distance":0,"station_id":"PSE","i_long":106.84368,"is_transit":false,"time":0,"i_lat":-6.174784,"transit":false,"line":11,"station_name":"Pasar Senen"},{"i_lat":-6.161728,"time":4,"distance":1436,"station_id":"KMO","station_name":"Kemayoran","i_long":106.839204,"line":11,"is_transit":false,"transit":false},{"distance":1901,"station_name":"Rajawali","station_id":"RJW","transit":false,"i_long":106.836569,"is_transit":false,"line":11,"i_lat":-6.14505,"time":5},{"i_long":106.826365,"line":4,"transit":true,"station_name":"Kampung Bandan","station_id":"KPB","is_transit":true,"distance":1444,"time":3,"i_lat":-6.132549},{"station_name":"Jakarta Kota","line":2,"time":3,"is_transit":true,"transit":true,"i_lat":-6.137569,"station_id":"JAKK","i_long":106.812439,"distance":1364},{"distance":1264,"station_name":"Jayakarta","line":2,"is_transit":false,"station_id":"JAY","i_long":106.820901,"transit":false,"i_lat":-6.141205,"time":4},{"i_lat":-6.149769,"transit":false,"line":2,"time":2,"is_transit":false,"i_long":106.82482,"station_id":"MGB","station_name":"Manggabesar","distance":1080},{"station_id":"SW","is_transit":false,"line":2,"transit":false,"i_lat":-6.160725,"distance":906,"station_name":"Sawah Besar","i_long":106.827103,"time":2},{"time":2,"i_long":106.828284,"line":2,"station_name":"Juanda","distance":1149,"is_transit":false,"i_lat":-6.166716,"transit":false,"station_id":"JUA"},{"station_name":"Gondangdia","is_transit":false,"station_id":"GDD","distance":2015,"transit":false,"i_lat":-6.186295,"line":2,"i_long":106.832183,"time":4},{"is_transit":false,"transit":false,"time":3,"distance":1750,"line":2,"i_long":106.840169,"station_name":"Cikini","station_id":"CKI","i_lat":-6.198556},{"is_transit":true,"station_name":"Manggarai","time":4,"distance":1590,"station_id":"MRI","transit":true,"i_lat":-6.209883,"i_long":106.84912,"line":2},{"time":4,"i_lat":-6.202263,"transit":false,"line":1,"station_name":"Sudirman","station_id":"SUD","is_transit":false,"distance":3186,"i_long":106.822649},{"distance":280,"is_transit":false,"transit":false,"line":1,"i_lat":-6.201433,"station_id":"SUDB","i_long":106.819881,"station_name":"Sudirman Baru","time":1},{"i_lat":-6.20132,"i_long":106.816351,"time":1,"is_transit":false,"station_name":"Karet","transit":false,"station_id":"KAT","line":1,"distance":471},{"is_transit":true,"station_name":"Tanah Abang","distance":2029,"time":5,"i_lat":-6.185545,"station_id":"THB","transit":true,"line":1,"i_long":106.811091},{"station_name":"Palmerah","is_transit":false,"line":6,"distance":3191,"i_long":106.79689,"station_id":"PLM","transit":false,"time":6,"i_lat":-6.207404},{"i_lat":-6.237242,"distance":3737,"transit":false,"time":7,"station_id":"KBY","i_long":106.780334,"line":6,"is_transit":false,"station_name":"Kebayoran"},{"station_id":"PDJ","distance":6218,"time":8,"i_long":106.74273,"is_transit":false,"line":6,"station_name":"Pondokranji","i_lat":-6.276362,"transit":false},{"station_id":"JMU","distance":2179,"i_lat":-6.288927,"i_long":106.728916,"is_transit":false,"station_name":"Jurangmangu","line":6,"transit":false,"time":3},{"i_long":106.712277,"station_name":"Sudimara","is_transit":false,"time":4,"station_id":"SDM","transit":false,"i_lat":-6.296963,"distance":1994,"line":6},{"is_transit":false,"transit":false,"station_name":"Rawa Buntu","time":6,"i_lat":-6.314823,"i_long":106.675475,"line":6,"distance":4566,"station_id":"RU"},{"i_long":106.66566,"station_name":"Serpong","time":4,"i_lat":-6.319871,"distance":2413,"is_transit":false,"station_id":"SRP","transit":false,"line":6},{"line":3,"i_lat":-6.32484,"station_id":"CSK","distance":1784,"i_long":106.640411,"is_transit":false,"station_name":"Cisauk","time":4,"transit":false},{"station_name":"Cicayur","line":3,"i_long":106.617853,"transit":false,"distance":2519,"is_transit":false,"time":4,"i_lat":-6.329547,"station_id":"CC"},{"station_name":"Parung Panjang","line":6,"transit":false,"i_lat":-6.3441410000000005,"time":8,"i_long":106.568863,"is_transit":false,"station_id":"PRP","distance":5968},{"station_id":"CJT","i_lat":-6.354349,"i_long":106.508482,"distance":7025,"station_name":"Cilejit","is_transit":false,"line":3,"time":9,"transit":false},{"is_transit":false,"line":0,"time":6,"i_long":106.491338,"station_name":"Daru","i_lat":-6.338021,"distance":2675,"station_id":"DAR","transit":false},{"station_id":"TEJ","time":5,"is_transit":false,"line":6,"i_long":106.460812,"distance":3902,"transit":false,"station_name":"Tenjo","i_lat":-6.327251},{"transit":false,"line":6,"station_id":"TGS","station_name":"Tigaraksa","distance":2974,"i_lat":-6.328533,"i_long":106.425991,"is_transit":false,"time":5}],[{"distance":0,"station_id":"PSE","i_lat":-6.174784,"time":0,"i_long":106.84368,"station_name":"Pasar Senen","line":11,"transit":false,"is_transit":false},{"station_id":"GST","distance":1567,"station_name":"Gang Sentiong","is_transit":false,"i_lat":-6.185975,"line":11,"i_long":106.850107,"transit":false,"time":8},{"transit":false,"line":11,"is_transit":false,"station_id":"KMT","time":1,"distance":973,"i_lat":-6.193792,"station_name":"Kramat","i_long":106.855437},{"i_long":106.861737,"line":11,"station_name":"Pondok Jati","station_id":"POK","transit":false,"time":2,"i_lat":-6.209188,"is_transit":false,"distance":1829},{"line":1,"station_id":"JNG","distance":1236,"time":9,"is_transit":true,"transit":true,"station_name":"Jatinegara","i_long":106.86807400000001,"i_lat":-6.215091},{"distance":1377,"i_long":106.858896,"is_transit":false,"station_id":"MTR","line":1,"time":2,"station_name":"Matraman","i_lat":-6.212485,"transit":false},{"i_long":106.84912,"station_name":"Manggarai","distance":1275,"is_transit":true,"line":2,"i_lat":-6.209883,"time":2,"station_id":"MRI","transit":true},{"i_long":106.840169,"distance":1590,"is_transit":false,"line":2,"time":4,"station_id":"CKI","transit":false,"station_name":"Cikini","i_lat":-6.198556},{"time":3,"distance":1750,"is_transit":false,"transit":false,"line":2,"station_id":"GDD","station_name":"Gondangdia","i_long":106.832183,"i_lat":-6.186295},{"distance":2015,"i_long":106.828284,"is_transit":false,"line":2,"time":4,"station_name":"Juanda","station_id":"JUA","i_lat":-6.166716,"transit":false},{"transit":false,"station_name":"Sawah Besar","i_lat":-6.160725,"i_long":106.827103,"station_id":"SW","time":2,"distance":1149,"line":2,"is_transit":false},{"transit":false,"line":2,"station_name":"Manggabesar","time":2,"station_id":"MGB","distance":906,"i_lat":-6.149769,"is_transit":false,"i_long":106.82482},{"distance":1080,"is_transit":false,"station_name":"Jayakarta","transit":false,"time":2,"i_long":106.820901,"line":2,"i_lat":-6.141205,"station_id":"JAY"},{"transit":true,"i_long":106.812439,"time":4,"is_transit":true,"i_lat":-6.137569,"station_name":"Jakarta Kota","station_id":"JAKK","line":2,"distance":1264},{"distance":1364,"transit":true,"i_lat":-6.132549,"station_name":"Kampung Bandan","i_long":106.826365,"time":3,"is_transit":true,"station_id":"KPB","line":4},{"transit":false,"distance":4102,"station_name":"Angke","station_id":"AK","i_lat":-6.144674,"is_transit":false,"i_long":106.79867,"time":9,"line":1},{"time":4,"i_lat":-6.155215,"transit":false,"line":1,"i_long":106.800832,"distance":1230,"is_transit":false,"station_name":"Duri","station_id":"DU"},{"i_long":106.811091,"station_id":"THB","is_transit":true,"i_lat":-6.185545,"line":1,"transit":true,"time":8,"distance":3632,"station_name":"Tanah Abang"},{"distance":3191,"i_lat":-6.207404,"line":6,"time":6,"transit":false,"is_transit":false,"i_long":106.79689,"station_name":"Palmerah","station_id":"PLM"},{"i_lat":-6.237242,"line":6,"station_name":"Kebayoran","distance":3737,"transit":false,"is_transit":false,"time":7,"i_long":106.780334,"station_id":"KBY"},{"is_transit":false,"station_id":"PDJ","i_lat":-6.276362,"i_long":106.74273,"time":8,"station_name":"Pondokranji","transit":false,"line":6,"distance":6218},{"line":6,"distance":2179,"i_long":106.728916,"is_transit":false,"transit":false,"time":3,"station_id":"JMU","station_name":"Jurangmangu","i_lat":-6.288927},{"station_name":"Sudimara","time":4,"is_transit":false,"transit":false,"i_lat":-6.296963,"station_id":"SDM","line":6,"distance":1994,"i_long":106.712277},{"station_name":"Rawa Buntu","i_lat":-6.314823,"station_id":"RU","is_transit":false,"distance":4566,"line":6,"transit":false,"i_long":106.675475,"time":6},{"station_name":"Serpong","transit":false,"distance":2413,"is_transit":false,"station_id":"SRP","i_lat":-6.319871,"i_long":106.66566,"line":6,"time":4},{"station_name":"Cisauk","transit":false,"line":3,"station_id":"CSK","i_lat":-6.32484,"i_long":106.640411,"is_transit":false,"distance":1784,"time":4},{"time":4,"station_name":"Cicayur","transit":false,"i_long":106.617853,"distance":2519,"i_lat":-6.329547,"station_id":"CC","line":3,"is_transit":false},{"i_long":106.568863,"time":8,"distance":5968,"station_name":"Parung Panjang","line":6,"is_transit":false,"station_id":"PRP","i_lat":-6.3441410000000005,"transit":false},{"line":3,"transit":false,"i_lat":-6.354349,"i_long":106.508482,"distance":7025,"is_transit":false,"station_id":"CJT","time":9,"station_name":"Cilejit"},{"time":6,"station_name":"Daru","station_id":"DAR","line":0,"transit":false,"i_lat":-6.338021,"distance":2675,"is_transit":false,"i_long":106.491338},{"station_id":"TEJ","transit":false,"i_lat":-6.327251,"i_long":106.460812,"time":5,"station_name":"Tenjo","is_transit":false,"distance":3902,"line":6},{"line":6,"i_lat":-6.328533,"distance":2974,"i_long":106.425991,"is_transit":false,"transit":false,"time":5,"station_name":"Tigaraksa","station_id":"TGS"}]]}