{"data":[[{"is_transit":false,"time":0,"i_lat":-6.174784,"station_name":"Pasar Senen","station_id":"PSE","i_long":106.84368,"transit":false,"distance":0,"line":11},{"is_transit":false,"station_name":"Kemayoran","station_id":"KMO","i_long":106.839204,"line":11,"i_lat":-6.161728,"time":4,"transit":false,"distance":1436},{"distance":1901,"station_id":"RJW","i_long":106.836569,"station_name":"Rajawali","line":11,"is_transit":false,"i_lat":-6.14505,"transit":false,"time":5},{"i_lat":-6.132549,"i_long":106.826365,"line":4,"is_transit":true,"time":3,"distance":1444,"station_id":"KPB","station_name":"Kampung Bandan","transit":true},{"line":1,"is_transit":false,"distance":4102,"i_long":106.79867,"station_name":"Angke","time":9,"station_id":"AK","transit":false,"i_lat":-6.144674},{"transit":false,"time":4,"distance":1230,"station_id":"DU","i_lat":-6.155215,"i_long":106.800832,"station_name":"Duri","is_transit":false,"line":1},{"station_name":"Tanah Abang","line":1,"i_long":106.811091,"transit":false,"station_id":"THB","i_lat":-6.185545,"time":8,"distance":3632,"is_transit":false},{"station_id":"KAT","distance":2029,"i_long":106.816351,"station_name":"Karet","is_transit":false,"i_lat":-6.20132,"time":5,"line":1,"transit":false}],[{"i_lat":-6.174784,"i_long":106.84368,"station_id":"PSE","is_transit":false,"line":11,"distance":0,"time":0,"transit":false,"station_name":"Pasar Senen"},{"station_id":"GST","i_lat":-6.185975,"is_transit":false,"line":11,"distance":1567,"transit":false,"time":8,"station_name":"Gang Sentiong","i_long":106.850107},{"i_lat":-6.193792,"line":11,"time":1,"distance":973,"station_name":"Kramat","station_id":"KMT","transit":false,"is_transit":false,"i_long":106.855437},{"is_transit":false,"distance":1829,"i_long":106.861737,"transit":false,"station_name":"Pondok Jati","line":11,"i_lat":-6.209188,"station_id":"POK","time":2},{"line":1,"station_name":"Jatinegara","station_id":"JNG","i_lat":-6.215091,"time":9,"transit":true,"distance":1236,"is_transit":true,"i_long":106.86807400000001},{"station_id":"MTR","station_name":"Matraman","line":1,"distance":1377,"is_transit":false,"i_lat":-6.212485,"transit":false,"time":2,"i_long":106.858896},{"line":2,"station_name":"Manggarai","transit":false,"station_id":"MRI","distance":1275,"i_long":106.84912,"i_lat":-6.209883,"time":2,"is_transit":false},{"distance":3186,"is_transit":false,"time":4,"line":1,"i_lat":-6.202263,"transit":false,"station_id":"SUD","i_long":106.822649,"station_name":"Sudirman"},{"is_transit":false,"time":1,"line":1,"i_lat":-6.201433,"station_name":"Sudirman Baru","transit":false,"i_long":106.819881,"station_id":"SUDB","distance":280},{"distance":471,"station_name":"Karet","i_lat":-6.20132,"time":1,"station_id":"KAT","is_transit":false,"i_long":106.816351,"transit":false,"line":1}],[{"distance":0,"line":11,"i_lat":-6.174784,"station_id":"PSE","is_transit":false,"i_long":106.84368,"transit":false,"time":0,"station_name":"Pasar Senen"},{"distance":1436,"station_name":"Kemayoran","i_lat":-6.161728,"transit":false,"station_id":"KMO","is_transit":false,"i_long":106.839204,"line":11,"time":4},{"station_name":"Rajawali","is_transit":false,"line":11,"i_long":106.836569,"distance":1901,"transit":false,"station_id":"RJW","i_lat":-6.14505,"time":5},{"distance":1444,"line":4,"i_lat":-6.132549,"station_name":"Kampung Bandan","station_id":"KPB","i_long":106.826365,"is_transit":true,"time":3,"transit":true},{"line":2,"i_lat":-6.137569,"time":3,"i_long":106.812439,"station_id":"JAKK","transit":true,"station_name":"Jakarta Kota","is_transit":true,"distance":1364},{"time":4,"distance":1264,"station_id":"JAY","line":2,"transit":false,"is_transit":false,"i_lat":-6.141205,"i_long":106.820901,"station_name":"Jayakarta"},{"transit":false,"station_id":"MGB","station_name":"Manggabesar","i_lat":-6.149769,"line":2,"is_transit":false,"time":2,"distance":1080,"i_long":106.82482},{"transit":false,"line":2,"i_lat":-6.160725,"is_transit":false,"station_name":"Sawah Besar","station_id":"SW","distance":906,"i_long":106.827103,"time":2},{"i_lat":-6.166716,"line":2,"station_id":"JUA","is_transit":false,"time":2,"transit":false,"station_name":"Juanda","distance":1149,"i_long":106.828284},{"i_lat":-6.186295,"i_long":106.832183,"transit":false,"line":2,"time":4,"station_id":"GDD","is_transit":false,"distance":2015,"station_name":"Gondangdia"},{"i_lat":-6.198556,"station_id":"CKI","transit":false,"time":3,"station_name":"Cikini","distance":1750,"line":2,"i_long":106.840169,"is_transit":false},{"is_transit":true,"distance":1590,"transit":true,"line":2,"station_id":"MRI","i_lat":-6.209883,"time":4,"i_long":106.84912,"station_name":"Manggarai"},{"i_lat":-6.202263,"line":1,"station_id":"SUD","i_long":106.822649,"time":4,"transit":false,"station_name":"Sudirman","is_transit":false,"distance":3186},{"transit":false,"distance":280,"i_long":106.819881,"line":1,"time":1,"station_name":"Sudirman Baru","is_transit":false,"i_lat":-6.201433,"station_id":"SUDB"},{"distance":471,"is_transit":false,"station_id":"KAT","i_lat":-6.20132,"line":1,"station_name":"Karet","i_long":106.816351,"transit":false,"time":1}],[{"transit":false,"i_long":106.84368,"is_transit":false,"distance":0,"station_name":"Pasar Senen","line":11,"i_lat":-6.174784,"time":0,"station_id":"PSE"},{"distance":1567,"line":11,"time":8,"i_lat":-6.185975,"i_long":106.850107,"station_name":"Gang Sentiong","transit":false,"is_transit":false,"station_id":"GST"},{"line":11,"is_transit":false,"station_name":"Kramat","i_lat":-6.193792,"time":1,"distance":973,"station_id":"KMT","transit":false,"i_long":106.855437},{"i_long":106.861737,"station_id":"POK","i_lat":-6.209188,"is_transit":false,"line":11,"station_name":"Pondok Jati","time":2,"distance":1829,"transit":false},{"station_name":"Jatinegara","i_lat":-6.215091,"station_id":"JNG","i_long":106.86807400000001,"transit":true,"line":1,"is_transit":true,"distance":1236,"time":9},{"station_name":"Matraman","i_lat":-6.212485,"i_long":106.858896,"is_transit":false,"transit":false,"line":1,"station_id":"MTR","time":2,"distance":1377},{"station_name":"Manggarai","station_id":"MRI","is_transit":true,"i_long":106.84912,"i_lat":-6.209883,"time":2,"transit":true,"distance":1275,"line":2},{"time":4,"i_long":106.840169,"is_transit":false,"line":2,"distance":1590,"i_lat":-6.198556,"transit":false,"station_name":"Cikini","station_id":"CKI"},{"station_name":"Gondangdia","is_transit":false,"line":2,"station_id":"GDD","time":3,"distance":1750,"transit":false,"i_lat":-6.186295,"i_long":106.832183},{"time":4,"line":2,"is_transit":false,"transit":false,"station_name":"Juanda","i_long":106.828284,"distance":2015,"i_lat":-6.166716,"station_id":"JUA"},{"i_lat":-6.160725,"station_name":"Sawah Besar","transit":false,"is_transit":false,"time":2,"line":2,"station_id":"SW","distance":1149,"i_long":106.827103},{"station_name":"Manggabesar","i_long":106.82482,"time":2,"station_id":"MGB","line":2,"transit":false,"distance":906,"i_lat":-6.149769,"is_transit":false},{"station_name":"Jayakarta","transit":false,"time":2,"is_transit":false,"i_long":106.820901,"distance":1080,"line":2,"station_id":"JAY","i_lat":-6.141205},{"i_lat":-6.137569,"station_id":"JAKK","i_long":106.812439,"is_transit":true,"line":2,"station_name":"Jakarta Kota","time":4,"distance":1264,"transit":true},{"time":3,"i_lat":-6.132549,"distance":1364,"i_long":106.826365,"line":4,"station_name":"Kampung Bandan","station_id":"KPB","is_transit":true,"transit":true},{"station_id":"AK","line":1,"distance":4102,"transit":false,"is_transit":false,"i_lat":-6.144674,"time":9,"i_long":106.79867,"station_name":"Angke"},{"distance":1230,"time":4,"is_transit":false,"i_lat":-6.155215,"line":1,"i_long":106.800832,"transit":false,"station_id":"DU","station_name":"Duri"},{"i_lat":-6.185545,"station_name":"Tanah Abang","transit":false,"is_transit":false,"time":8,"station_id":"THB","distance":3632,"line":1,"i_long":106.811091},{"i_lat":-6.20132,"distance":2029,"is_transit":false,"station_id":"KAT","time":5,"station_name":"Karet","line":1,"transit":false,"i_long":106.816351}]]}