{"data":[[{"transit":false,"station_id":"PSE","i_long":106.84368,"line":11,"distance":0,"time":0,"is_transit":false,"i_lat":-6.174784,"station_name":"Pasar Senen"},{"is_transit":false,"i_lat":-6.161728,"i_long":106.839204,"distance":1436,"station_id":"KMO","line":11,"time":4,"transit":false,"station_name":"Kemayoran"},{"i_lat":-6.14505,"transit":false,"line":11,"time":5,"station_name":"Rajawali","is_transit":false,"i_long":106.836569,"distance":1901,"station_id":"RJW"},{"time":3,"station_id":"KPB","distance":1444,"station_name":"Kampung Bandan","i_lat":-6.132549,"i_long":106.826365,"transit":true,"line":4,"is_transit":true},{"line":1,"station_name":"Angke","i_long":106.79867,"distance":4102,"station_id":"AK","i_lat":-6.144674,"transit":false,"time":9,"is_transit":false},{"station_name":"Duri","transit":false,"i_lat":-6.155215,"i_long":106.800832,"line":1,"distance":1230,"station_id":"DU","time":4,"is_transit":false},{"station_name":"Tanah Abang","i_long":106.811091,"transit":false,"time":8,"distance":3632,"line":1,"station_id":"THB","i_lat":-6.185545,"is_transit":false},{"i_long":106.816351,"distance":2029,"transit":false,"time":5,"station_id":"KAT","is_transit":false,"i_lat":-6.20132,"line":1,"station_name":"Karet"}],[{"distance":0,"station_name":"Pasar Senen","transit":false,"station_id":"PSE","is_transit":false,"line":11,"i_lat":-6.174784,"i_long":106.84368,"time":0},{"i_long":106.850107,"time":8,"station_id":"GST","transit":false,"distance":1567,"is_transit":false,"station_name":"Gang Sentiong","line":11,"i_lat":-6.185975},{"i_lat":-6.193792,"transit":false,"line":11,"time":1,"distance":973,"station_id":"KMT","station_name":"Kramat","is_transit":false,"i_long":106.855437},{"is_transit":false,"transit":false,"station_name":"Pondok Jati","distance":1829,"time":2,"station_id":"POK","i_long":106.861737,"line":11,"i_lat":-6.209188},{"i_long":106.86807400000001,"time":9,"distance":1236,"station_id":"JNG","i_lat":-6.215091,"line":1,"transit":true,"is_transit":true,"station_name":"Jatinegara"},{"line":1,"time":2,"transit":false,"station_id":"MTR","is_transit":false,"station_name":"Matraman","distance":1377,"i_lat":-6.212485,"i_long":106.858896},{"distance":1275,"station_name":"Manggarai","is_transit":false,"time":2,"station_id":"MRI","transit":false,"i_lat":-6.209883,"i_long":106.84912,"line":2},{"is_transit":false,"line":1,"time":4,"station_id":"SUD","i_lat":-6.202263,"station_name":"Sudirman","distance":3186,"i_long":106.822649,"transit":false},{"i_long":106.819881,"line":1,"is_transit":false,"time":1,"station_id":"SUDB","station_name":"Sudirman Baru","transit":false,"distance":280,"i_lat":-6.201433},{"i_long":106.816351,"station_name":"Karet","i_lat":-6.20132,"distance":471,"transit":false,"line":1,"time":1,"station_id":"KAT","is_transit":false}],[{"i_long":106.84368,"transit":false,"time":0,"distance":0,"station_id":"PSE","station_name":"Pasar Senen","is_transit":false,"line":11,"i_lat":-6.174784},{"distance":1436,"is_transit":false,"time":4,"station_name":"Kemayoran","i_lat":-6.161728,"line":11,"i_long":106.839204,"transit":false,"station_id":"KMO"},{"i_long":106.836569,"station_id":"RJW","time":5,"distance":1901,"station_name":"Rajawali","is_transit":false,"line":11,"i_lat":-6.14505,"transit":false},{"distance":1444,"transit":true,"is_transit":true,"time":3,"i_long":106.826365,"station_id":"KPB","station_name":"Kampung Bandan","i_lat":-6.132549,"line":4},{"is_transit":true,"station_id":"JAKK","distance":1364,"i_lat":-6.137569,"time":3,"station_name":"Jakarta Kota","i_long":106.812439,"line":2,"transit":true},{"line":2,"distance":1264,"i_lat":-6.141205,"time":4,"is_transit":false,"station_name":"Jayakarta","station_id":"JAY","i_long":106.820901,"transit":false},{"i_long":106.82482,"distance":1080,"station_id":"MGB","i_lat":-6.149769,"is_transit":false,"transit":false,"station_name":"Manggabesar","line":2,"time":2},{"line":2,"distance":906,"station_name":"Sawah Besar","is_transit":false,"time":2,"transit":false,"station_id":"SW","i_lat":-6.160725,"i_long":106.827103},{"i_long":106.828284,"is_transit":false,"line":2,"time":2,"transit":false,"i_lat":-6.166716,"distance":1149,"station_id":"JUA","station_name":"Juanda"},{"distance":2015,"station_name":"Gondangdia","station_id":"GDD","i_long":106.832183,"is_transit":false,"line":2,"transit":false,"time":4,"i_lat":-6.186295},{"time":3,"station_id":"CKI","i_long":106.840169,"is_transit":false,"i_lat":-6.198556,"station_name":"Cikini","transit":false,"line":2,"distance":1750},{"time":4,"transit":true,"station_name":"Manggarai","i_lat":-6.209883,"station_id":"MRI","i_long":106.84912,"distance":1590,"is_transit":true,"line":2},{"station_name":"Sudirman","station_id":"SUD","line":1,"is_transit":false,"i_lat":-6.202263,"distance":3186,"time":4,"transit":false,"i_long":106.822649},{"line":1,"station_id":"SUDB","time":1,"distance":280,"station_name":"Sudirman Baru","is_transit":false,"transit":false,"i_long":106.819881,"i_lat":-6.201433},{"i_lat":-6.20132,"line":1,"distance":471,"transit":false,"station_name":"Karet","time":1,"is_transit":false,"i_long":106.816351,"station_id":"KAT"}],[{"distance":0,"station_name":"Pasar Senen","station_id":"PSE","time":0,"is_transit":false,"transit":false,"i_lat":-6.174784,"line":11,"i_long":106.84368},{"i_long":106.850107,"time":8,"distance":1567,"station_name":"Gang Sentiong","is_transit":false,"transit":false,"line":11,"i_lat":-6.185975,"station_id":"GST"},{"station_id":"KMT","transit":false,"line":11,"station_name":"Kramat","i_lat":-6.193792,"time":1,"distance":973,"i_long":106.855437,"is_transit":false},{"i_lat":-6.209188,"time":2,"is_transit":false,"transit":false,"station_name":"Pondok Jati","line":11,"distance":1829,"i_long":106.861737,"station_id":"POK"},{"time":9,"i_long":106.86807400000001,"line":1,"transit":true,"station_id":"JNG","distance":1236,"is_transit":true,"i_lat":-6.215091,"station_name":"Jatinegara"},{"station_name":"Matraman","station_id":"MTR","i_long":106.858896,"transit":false,"i_lat":-6.212485,"distance":1377,"time":2,"is_transit":false,"line":1},{"station_id":"MRI","is_transit":true,"station_name":"Manggarai","line":2,"transit":true,"i_long":106.84912,"distance":1275,"time":2,"i_lat":-6.209883},{"distance":1590,"i_long":106.840169,"is_transit":false,"station_name":"Cikini","station_id":"CKI","line":2,"time":4,"transit":false,"i_lat":-6.198556},{"time":3,"station_id":"GDD","i_long":106.832183,"distance":1750,"i_lat":-6.186295,"line":2,"is_transit":false,"transit":false,"station_name":"Gondangdia"},{"distance":2015,"station_id":"JUA","time":4,"is_transit":false,"i_lat":-6.166716,"i_long":106.828284,"transit":false,"line":2,"station_name":"Juanda"},{"transit":false,"is_transit":false,"i_lat":-6.160725,"station_name":"Sawah Besar","distance":1149,"line":2,"time":2,"i_long":106.827103,"station_id":"SW"},{"is_transit":false,"transit":false,"i_long":106.82482,"distance":906,"station_id":"MGB","line":2,"i_lat":-6.149769,"station_name":"Manggabesar","time":2},{"distance":1080,"time":2,"station_id":"JAY","station_name":"Jayakarta","is_transit":false,"transit":false,"i_lat":-6.141205,"i_long":106.820901,"line":2},{"distance":1264,"i_long":106.812439,"transit":true,"is_transit":true,"i_lat":-6.137569,"station_name":"Jakarta Kota","time":4,"line":2,"station_id":"JAKK"},{"station_id":"KPB","is_transit":true,"transit":true,"i_lat":-6.132549,"distance":1364,"i_long":106.826365,"line":4,"station_name":"Kampung Bandan","time":3},{"line":1,"is_transit":false,"time":9,"station_id":"AK","station_name":"Angke","i_long":106.79867,"transit":false,"distance":4102,"i_lat":-6.144674},{"station_name":"Duri","is_transit":false,"line":1,"station_id":"DU","i_lat":-6.155215,"time":4,"distance":1230,"transit":false,"i_long":106.800832},{"distance":3632,"station_name":"Tanah Abang","time":8,"i_lat":-6.185545,"i_long":106.811091,"transit":false,"is_transit":false,"station_id":"THB","line":1},{"station_id":"KAT","transit":false,"time":5,"i_long":106.816351,"line":1,"distance":2029,"station_name":"Karet","i_lat":-6.20132,"is_transit":false}]]}