{"data":[[{"i_lat":-6.174784,"i_long":106.84368,"station_id":"PSE","is_transit":false,"transit":false,"time":0,"line":11,"distance":0,"station_name":"Pasar Senen"},{"is_transit":false,"station_id":"GST","time":8,"distance":1567,"i_long":106.850107,"i_lat":-6.185975,"station_name":"Gang Sentiong","transit":false,"line":11}],[{"station_name":"Pasar Senen","i_lat":-6.174784,"i_long":106.84368,"is_transit":false,"time":0,"distance":0,"transit":false,"line":11,"station_id":"PSE"},{"distance":1436,"is_transit":false,"i_lat":-6.161728,"station_id":"KMO","time":4,"station_name":"Kemayoran","transit":false,"i_long":106.839204,"line":11},{"line":11,"time":5,"distance":1901,"i_lat":-6.14505,"transit":false,"i_long":106.836569,"is_transit":false,"station_id":"RJW","station_name":"Rajawali"},{"i_lat":-6.132549,"line":4,"station_name":"Kampung Bandan","time":3,"i_long":106.826365,"transit":true,"distance":1444,"station_id":"KPB","is_transit":true},{"distance":4102,"is_transit":false,"transit":false,"station_name":"Angke","time":9,"i_lat":-6.144674,"station_id":"AK","i_long":106.79867,"line":1},{"i_lat":-6.155215,"station_id":"DU","time":4,"transit":false,"line":1,"is_transit":false,"station_name":"Duri","i_long":106.800832,"distance":1230},{"distance":3632,"i_long":106.811091,"i_lat":-6.185545,"station_id":"THB","is_transit":false,"line":1,"time":8,"station_name":"Tanah Abang","transit":false},{"transit":false,"station_id":"KAT","is_transit":false,"station_name":"Karet","i_lat":-6.20132,"line":1,"i_long":106.816351,"time":5,"distance":2029},{"station_id":"SUDB","transit":false,"time":1,"i_lat":-6.201433,"line":1,"is_transit":false,"i_long":106.819881,"distance":471,"station_name":"Sudirman Baru"},{"transit":false,"i_long":106.822649,"distance":280,"station_name":"Sudirman","is_transit":false,"i_lat":-6.202263,"time":1,"line":1,"station_id":"SUD"},{"is_transit":false,"i_long":106.84912,"i_lat":-6.209883,"station_id":"MRI","station_name":"Manggarai","distance":3186,"transit":false,"line":2,"time":4},{"distance":1275,"is_transit":false,"i_lat":-6.212485,"transit":false,"i_long":106.858896,"station_id":"MTR","station_name":"Matraman","line":1,"time":2},{"station_name":"Jatinegara","distance":1377,"is_transit":true,"i_long":106.86807400000001,"line":1,"transit":true,"i_lat":-6.215091,"time":8,"station_id":"JNG"},{"line":11,"station_id":"POK","transit":false,"i_lat":-6.209188,"i_long":106.861737,"distance":1236,"station_name":"Pondok Jati","is_transit":false,"time":2},{"distance":1829,"is_transit":false,"i_lat":-6.193792,"line":11,"station_id":"KMT","transit":false,"station_name":"Kramat","i_long":106.855437,"time":2},{"time":1,"is_transit":false,"transit":false,"station_name":"Gang Sentiong","i_long":106.850107,"line":11,"station_id":"GST","distance":973,"i_lat":-6.185975}],[{"time":0,"station_name":"Pasar Senen","i_lat":-6.174784,"station_id":"PSE","transit":false,"i_long":106.84368,"line":11,"is_transit":false,"distance":0},{"time":4,"transit":false,"i_long":106.839204,"is_transit":false,"station_id":"KMO","distance":1436,"i_lat":-6.161728,"station_name":"Kemayoran","line":11},{"i_long":106.836569,"transit":false,"line":11,"distance":1901,"station_id":"RJW","time":5,"is_transit":false,"station_name":"Rajawali","i_lat":-6.14505},{"station_name":"Kampung Bandan","i_long":106.826365,"line":4,"distance":1444,"is_transit":true,"transit":true,"i_lat":-6.132549,"time":3,"station_id":"KPB"},{"line":2,"i_long":106.812439,"distance":1364,"station_name":"Jakarta Kota","time":3,"transit":true,"is_transit":true,"station_id":"JAKK","i_lat":-6.137569},{"is_transit":false,"line":2,"distance":1264,"i_long":106.820901,"time":4,"transit":false,"station_id":"JAY","station_name":"Jayakarta","i_lat":-6.141205},{"station_id":"MGB","station_name":"Manggabesar","i_lat":-6.149769,"line":2,"i_long":106.82482,"time":2,"is_transit":false,"transit":false,"distance":1080},{"station_name":"Sawah Besar","is_transit":false,"i_lat":-6.160725,"station_id":"SW","i_long":106.827103,"distance":906,"transit":false,"line":2,"time":2},{"is_transit":false,"distance":1149,"i_lat":-6.166716,"line":2,"time":2,"station_name":"Juanda","station_id":"JUA","transit":false,"i_long":106.828284},{"distance":2015,"transit":false,"is_transit":false,"station_id":"GDD","i_lat":-6.186295,"station_name":"Gondangdia","time":4,"i_long":106.832183,"line":2},{"i_lat":-6.198556,"transit":false,"station_id":"CKI","station_name":"Cikini","time":3,"is_transit":false,"i_long":106.840169,"line":2,"distance":1750},{"i_lat":-6.209883,"i_long":106.84912,"distance":1590,"is_transit":true,"line":2,"transit":true,"station_id":"MRI","time":4,"station_name":"Manggarai"},{"i_long":106.858896,"is_transit":false,"distance":1275,"station_id":"MTR","i_lat":-6.212485,"line":1,"transit":false,"time":2,"station_name":"Matraman"},{"time":8,"station_name":"Jatinegara","is_transit":true,"i_lat":-6.215091,"line":1,"transit":true,"i_long":106.86807400000001,"distance":1377,"station_id":"JNG"},{"i_long":106.861737,"station_id":"POK","line":11,"time":2,"distance":1236,"station_name":"Pondok Jati","is_transit":false,"transit":false,"i_lat":-6.209188},{"time":2,"station_name":"Kramat","station_id":"KMT","distance":1829,"line":11,"is_transit":false,"transit":false,"i_lat":-6.193792,"i_long":106.855437},{"time":1,"is_transit":false,"i_long":106.850107,"distance":973,"transit":false,"line":11,"station_id":"GST","i_lat":-6.185975,"station_name":"Gang Sentiong"}]]}