{"data":[[{"is_transit":false,"i_lat":-6.174784,"station_name":"Pasar Senen","station_id":"PSE","transit":false,"i_long":106.84368,"distance":0,"line":11,"time":0},{"i_long":106.850107,"station_name":"Gang Sentiong","distance":1567,"is_transit":false,"i_lat":-6.185975,"line":11,"time":8,"station_id":"GST","transit":false},{"line":11,"time":1,"station_id":"KMT","transit":false,"i_long":106.855437,"distance":973,"is_transit":false,"i_lat":-6.193792,"station_name":"Kramat"},{"is_transit":false,"i_long":106.861737,"transit":false,"distance":1829,"line":11,"time":2,"station_id":"POK","i_lat":-6.209188,"station_name":"Pondok Jati"},{"station_name":"Jatinegara","is_transit":true,"line":1,"station_id":"JNG","distance":1236,"i_lat":-6.215091,"time":9,"transit":true,"i_long":106.86807400000001},{"i_long":106.858896,"transit":false,"line":1,"time":2,"station_name":"Matraman","is_transit":false,"distance":1377,"i_lat":-6.212485,"station_id":"MTR"},{"station_id":"MRI","i_long":106.84912,"time":2,"i_lat":-6.209883,"station_name":"Manggarai","is_transit":true,"line":2,"transit":true,"distance":1275},{"station_id":"CKI","is_transit":false,"i_long":106.840169,"transit":false,"distance":1590,"i_lat":-6.198556,"station_name":"Cikini","line":2,"time":4},{"is_transit":false,"i_long":106.832183,"time":3,"line":2,"station_id":"GDD","station_name":"Gondangdia","transit":false,"distance":1750,"i_lat":-6.186295}],[{"station_id":"PSE","i_lat":-6.174784,"distance":0,"time":0,"transit":false,"is_transit":false,"station_name":"Pasar Senen","line":11,"i_long":106.84368},{"i_long":106.839204,"i_lat":-6.161728,"station_name":"Kemayoran","station_id":"KMO","distance":1436,"is_transit":false,"line":11,"transit":false,"time":4},{"line":11,"is_transit":false,"station_name":"Rajawali","station_id":"RJW","transit":false,"i_lat":-6.14505,"i_long":106.836569,"time":5,"distance":1901},{"time":3,"station_name":"Kampung Bandan","is_transit":true,"transit":true,"i_lat":-6.132549,"line":4,"i_long":106.826365,"station_id":"KPB","distance":1444},{"i_lat":-6.137569,"i_long":106.812439,"line":2,"station_name":"Jakarta Kota","is_transit":true,"transit":true,"time":3,"distance":1364,"station_id":"JAKK"},{"transit":false,"i_lat":-6.141205,"i_long":106.820901,"line":2,"is_transit":false,"station_id":"JAY","time":4,"station_name":"Jayakarta","distance":1264},{"i_lat":-6.149769,"is_transit":false,"transit":false,"i_long":106.82482,"station_name":"Manggabesar","distance":1080,"station_id":"MGB","time":2,"line":2},{"is_transit":false,"time":2,"transit":false,"distance":906,"station_id":"SW","station_name":"Sawah Besar","i_lat":-6.160725,"i_long":106.827103,"line":2},{"time":2,"line":2,"station_id":"JUA","transit":false,"station_name":"Juanda","is_transit":false,"i_long":106.828284,"i_lat":-6.166716,"distance":1149},{"transit":false,"i_lat":-6.186295,"time":4,"i_long":106.832183,"station_id":"GDD","station_name":"Gondangdia","is_transit":false,"distance":2015,"line":2}],[{"line":11,"i_long":106.84368,"is_transit":false,"transit":false,"station_name":"Pasar Senen","distance":0,"time":0,"i_lat":-6.174784,"station_id":"PSE"},{"distance":1436,"transit":false,"i_lat":-6.161728,"station_name":"Kemayoran","is_transit":false,"i_long":106.839204,"line":11,"station_id":"KMO","time":4},{"station_name":"Rajawali","i_long":106.836569,"line":11,"time":5,"is_transit":false,"transit":false,"station_id":"RJW","i_lat":-6.14505,"distance":1901},{"station_id":"KPB","time":3,"is_transit":true,"i_long":106.826365,"distance":1444,"line":4,"i_lat":-6.132549,"station_name":"Kampung Bandan","transit":true},{"line":1,"station_id":"AK","distance":4102,"i_lat":-6.144674,"i_long":106.79867,"time":9,"station_name":"Angke","is_transit":false,"transit":false},{"station_id":"DU","i_long":106.800832,"line":1,"time":4,"is_transit":false,"transit":false,"i_lat":-6.155215,"station_name":"Duri","distance":1230},{"i_long":106.811091,"station_name":"Tanah Abang","time":8,"distance":3632,"station_id":"THB","is_transit":false,"transit":false,"line":1,"i_lat":-6.185545},{"distance":2029,"time":5,"station_name":"Karet","is_transit":false,"i_long":106.816351,"line":1,"i_lat":-6.20132,"station_id":"KAT","transit":false},{"i_lat":-6.201433,"i_long":106.819881,"distance":471,"is_transit":false,"transit":false,"time":1,"station_id":"SUDB","line":1,"station_name":"Sudirman Baru"},{"time":1,"is_transit":false,"i_lat":-6.202263,"station_id":"SUD","transit":false,"i_long":106.822649,"distance":280,"line":1,"station_name":"Sudirman"},{"time":4,"transit":true,"station_name":"Manggarai","distance":3186,"station_id":"MRI","line":2,"is_transit":true,"i_lat":-6.209883,"i_long":106.84912},{"is_transit":false,"i_long":106.840169,"i_lat":-6.198556,"station_name":"Cikini","line":2,"distance":1590,"transit":false,"station_id":"CKI","time":4},{"transit":false,"i_lat":-6.186295,"time":3,"is_transit":false,"distance":1750,"line":2,"station_name":"Gondangdia","i_long":106.832183,"station_id":"GDD"}],[{"transit":false,"is_transit":false,"i_lat":-6.174784,"station_name":"Pasar Senen","time":0,"distance":0,"i_long":106.84368,"line":11,"station_id":"PSE"},{"i_long":106.850107,"distance":1567,"is_transit":false,"station_name":"Gang Sentiong","time":8,"station_id":"GST","transit":false,"line":11,"i_lat":-6.185975},{"station_id":"KMT","i_long":106.855437,"is_transit":false,"line":11,"transit":false,"time":1,"i_lat":-6.193792,"distance":973,"station_name":"Kramat"},{"time":2,"station_name":"Pondok Jati","is_transit":false,"i_lat":-6.209188,"station_id":"POK","distance":1829,"transit":false,"i_long":106.861737,"line":11},{"transit":true,"station_name":"Jatinegara","i_long":106.86807400000001,"time":9,"is_transit":true,"line":1,"distance":1236,"i_lat":-6.215091,"station_id":"JNG"},{"i_long":106.858896,"line":1,"distance":1377,"transit":false,"i_lat":-6.212485,"station_name":"Matraman","station_id":"MTR","is_transit":false,"time":2},{"time":2,"line":2,"station_name":"Manggarai","distance":1275,"is_transit":false,"i_lat":-6.209883,"station_id":"MRI","transit":false,"i_long":106.84912},{"line":1,"time":4,"is_transit":false,"station_id":"SUD","i_long":106.822649,"transit":false,"distance":3186,"station_name":"Sudirman","i_lat":-6.202263},{"i_long":106.819881,"time":1,"transit":false,"station_name":"Sudirman Baru","is_transit":false,"distance":280,"line":1,"station_id":"SUDB","i_lat":-6.201433},{"time":1,"distance":471,"station_id":"KAT","is_transit":false,"transit":false,"line":1,"i_long":106.816351,"station_name":"Karet","i_lat":-6.20132},{"i_lat":-6.185545,"is_transit":false,"station_id":"THB","time":5,"station_name":"Tanah Abang","transit":false,"distance":2029,"i_long":106.811091,"line":1},{"time":8,"station_id":"DU","transit":false,"is_transit":false,"station_name":"Duri","i_lat":-6.155215,"i_long":106.800832,"distance":3632,"line":1},{"is_transit":false,"line":1,"station_name":"Angke","station_id":"AK","distance":1230,"i_lat":-6.144674,"transit":false,"i_long":106.79867,"time":4},{"station_id":"KPB","i_long":106.826365,"time":9,"is_transit":true,"line":4,"transit":true,"i_lat":-6.132549,"station_name":"Kampung Bandan","distance":4102},{"line":2,"transit":true,"station_id":"JAKK","i_lat":-6.137569,"is_transit":true,"time":3,"distance":1364,"station_name":"Jakarta Kota","i_long":106.812439},{"i_long":106.820901,"distance":1264,"is_transit":false,"transit":false,"line":2,"station_name":"Jayakarta","station_id":"JAY","time":4,"i_lat":-6.141205},{"i_lat":-6.149769,"station_id":"MGB","is_transit":false,"line":2,"distance":1080,"station_name":"Manggabesar","transit":false,"i_long":106.82482,"time":2},{"station_id":"SW","transit":false,"time":2,"i_lat":-6.160725,"is_transit":false,"line":2,"i_long":106.827103,"station_name":"Sawah Besar","distance":906},{"station_id":"JUA","time":2,"transit":false,"i_lat":-6.166716,"line":2,"is_transit":false,"distance":1149,"station_name":"Juanda","i_long":106.828284},{"time":4,"i_lat":-6.186295,"line":2,"is_transit":false,"transit":false,"station_name":"Gondangdia","distance":2015,"station_id":"GDD","i_long":106.832183}]]}