{"data":[[{"station_name":"Pasar Senen","time":0,"transit":false,"i_lat":-6.174784,"i_long":106.84368,"line":11,"station_id":"PSE","distance":0,"is_transit":false},{"distance":1436,"line":11,"transit":false,"is_transit":false,"i_long":106.839204,"time":4,"station_id":"KMO","i_lat":-6.161728,"station_name":"Kemayoran"},{"i_long":106.836569,"line":11,"station_id":"RJW","time":5,"station_name":"Rajawali","transit":false,"is_transit":false,"distance":1901,"i_lat":-6.14505},{"distance":1444,"i_long":106.826365,"transit":true,"i_lat":-6.132549,"line":4,"time":3,"station_id":"KPB","station_name":"Kampung Bandan","is_transit":true},{"is_transit":false,"station_id":"AK","station_name":"Angke","i_lat":-6.144674,"time":9,"distance":4102,"line":1,"transit":false,"i_long":106.79867},{"time":4,"i_long":106.800832,"distance":1230,"i_lat":-6.155215,"station_id":"DU","line":1,"station_name":"Duri","transit":true,"is_transit":true},{"distance":1700,"station_name":"Grogol","is_transit":false,"station_id":"GGL","i_long":106.788277,"transit":false,"i_lat":-6.162021,"time":3,"line":5},{"distance":2036,"i_lat":-6.161433,"i_long":106.771379,"station_name":"Pesing","time":2,"line":5,"transit":false,"is_transit":false,"station_id":"PSG"},{"line":5,"station_id":"TKO","is_transit":false,"i_lat":-6.1587309999999995,"station_name":"Taman Kota","i_long":106.756522,"transit":false,"distance":1614,"time":2},{"station_id":"BOI","line":5,"transit":false,"distance":2334,"i_long":106.737035,"i_lat":-6.159876,"station_name":"Bojongindah","time":2,"is_transit":false},{"is_transit":false,"distance":1152,"line":5,"station_name":"Rawa Buaya","time":4,"station_id":"RW","i_lat":-6.162758,"transit":false,"i_long":106.723064},{"time":3,"station_id":"KDS","line":5,"i_lat":-6.166068,"station_name":"Kalideres","transit":false,"distance":2504,"i_long":106.701612,"is_transit":false}],[{"distance":0,"transit":false,"station_id":"PSE","i_lat":-6.174784,"i_long":106.84368,"is_transit":false,"line":11,"station_name":"Pasar Senen","time":0},{"distance":1567,"station_name":"Gang Sentiong","transit":false,"time":8,"line":11,"i_lat":-6.185975,"i_long":106.850107,"is_transit":false,"station_id":"GST"},{"i_lat":-6.193792,"transit":false,"is_transit":false,"time":1,"station_id":"KMT","line":11,"distance":973,"i_long":106.855437,"station_name":"Kramat"},{"i_lat":-6.209188,"transit":false,"time":2,"distance":1829,"line":11,"station_name":"Pondok Jati","station_id":"POK","i_long":106.861737,"is_transit":false},{"i_long":106.86807400000001,"line":1,"is_transit":true,"transit":true,"time":9,"station_id":"JNG","distance":1236,"station_name":"Jatinegara","i_lat":-6.215091},{"i_long":106.858896,"is_transit":false,"i_lat":-6.212485,"transit":false,"distance":1377,"time":2,"station_name":"Matraman","station_id":"MTR","line":1},{"time":2,"distance":1275,"is_transit":false,"station_id":"MRI","i_lat":-6.209883,"line":2,"transit":false,"station_name":"Manggarai","i_long":106.84912},{"station_name":"Sudirman","line":1,"time":4,"station_id":"SUD","i_lat":-6.202263,"is_transit":false,"transit":false,"distance":3186,"i_long":106.822649},{"is_transit":false,"i_lat":-6.201433,"line":1,"station_id":"SUDB","distance":280,"i_long":106.819881,"time":1,"station_name":"Sudirman Baru","transit":false},{"station_name":"Karet","transit":false,"is_transit":false,"distance":471,"i_lat":-6.20132,"i_long":106.816351,"line":1,"station_id":"KAT","time":1},{"is_transit":false,"i_lat":-6.185545,"time":5,"distance":2029,"i_long":106.811091,"line":1,"station_id":"THB","station_name":"Tanah Abang","transit":false},{"transit":true,"i_lat":-6.155215,"distance":3632,"station_id":"DU","i_long":106.800832,"is_transit":true,"station_name":"Duri","line":1,"time":8},{"line":5,"station_name":"Grogol","i_long":106.788277,"time":3,"station_id":"GGL","transit":false,"is_transit":false,"distance":1700,"i_lat":-6.162021},{"is_transit":false,"line":5,"station_name":"Pesing","i_lat":-6.161433,"station_id":"PSG","distance":2036,"transit":false,"i_long":106.771379,"time":2},{"line":5,"distance":1614,"station_name":"Taman Kota","time":2,"is_transit":false,"i_long":106.756522,"station_id":"TKO","i_lat":-6.1587309999999995,"transit":false},{"time":2,"is_transit":false,"transit":false,"distance":2334,"i_lat":-6.159876,"i_long":106.737035,"line":5,"station_id":"BOI","station_name":"Bojongindah"},{"distance":1152,"line":5,"transit":false,"i_lat":-6.162758,"station_id":"RW","time":4,"is_transit":false,"station_name":"Rawa Buaya","i_long":106.723064},{"distance":2504,"station_name":"Kalideres","i_lat":-6.166068,"is_transit":false,"line":5,"station_id":"KDS","time":3,"i_long":106.701612,"transit":false}],[{"transit":false,"station_name":"Pasar Senen","i_long":106.84368,"is_transit":false,"distance":0,"time":0,"station_id":"PSE","i_lat":-6.174784,"line":11},{"i_lat":-6.185975,"station_name":"Gang Sentiong","time":8,"is_transit":false,"transit":false,"distance":1567,"station_id":"GST","i_long":106.850107,"line":11},{"line":11,"transit":false,"station_name":"Kramat","i_long":106.855437,"distance":973,"is_transit":false,"i_lat":-6.193792,"time":1,"station_id":"KMT"},{"distance":1829,"time":2,"station_name":"Pondok Jati","i_lat":-6.209188,"station_id":"POK","is_transit":false,"transit":false,"i_long":106.861737,"line":11},{"i_lat":-6.215091,"time":9,"station_id":"JNG","i_long":106.86807400000001,"transit":true,"distance":1236,"line":1,"is_transit":true,"station_name":"Jatinegara"},{"station_id":"MTR","distance":1377,"i_long":106.858896,"time":2,"is_transit":false,"i_lat":-6.212485,"station_name":"Matraman","line":1,"transit":false},{"time":2,"station_id":"MRI","line":2,"is_transit":true,"transit":true,"i_lat":-6.209883,"station_name":"Manggarai","distance":1275,"i_long":106.84912},{"transit":false,"is_transit":false,"station_id":"CKI","station_name":"Cikini","distance":1590,"time":4,"i_lat":-6.198556,"i_long":106.840169,"line":2},{"is_transit":false,"station_id":"GDD","distance":1750,"i_long":106.832183,"station_name":"Gondangdia","line":2,"i_lat":-6.186295,"time":3,"transit":false},{"distance":2015,"i_lat":-6.166716,"line":2,"transit":false,"is_transit":false,"time":4,"station_id":"JUA","station_name":"Juanda","i_long":106.828284},{"station_id":"SW","line":2,"time":2,"transit":false,"is_transit":false,"distance":1149,"station_name":"Sawah Besar","i_long":106.827103,"i_lat":-6.160725},{"line":2,"station_id":"MGB","time":2,"is_transit":false,"i_long":106.82482,"i_lat":-6.149769,"transit":false,"station_name":"Manggabesar","distance":906},{"station_id":"JAY","station_name":"Jayakarta","transit":false,"is_transit":false,"line":2,"i_long":106.820901,"i_lat":-6.141205,"time":2,"distance":1080},{"station_name":"Jakarta Kota","is_transit":true,"distance":1264,"transit":true,"time":4,"i_long":106.812439,"line":2,"station_id":"JAKK","i_lat":-6.137569},{"i_lat":-6.132549,"station_id":"KPB","i_long":106.826365,"line":4,"distance":1364,"time":3,"transit":true,"is_transit":true,"station_name":"Kampung Bandan"},{"line":1,"distance":4102,"station_name":"Angke","i_long":106.79867,"is_transit":false,"i_lat":-6.144674,"time":9,"transit":false,"station_id":"AK"},{"is_transit":true,"distance":1230,"station_name":"Duri","time":4,"station_id":"DU","transit":true,"line":1,"i_long":106.800832,"i_lat":-6.155215},{"is_transit":false,"station_name":"Grogol","station_id":"GGL","time":3,"distance":1700,"transit":false,"i_long":106.788277,"i_lat":-6.162021,"line":5},{"line":5,"station_name":"Pesing","i_long":106.771379,"transit":false,"is_transit":false,"station_id":"PSG","distance":2036,"time":2,"i_lat":-6.161433},{"i_lat":-6.1587309999999995,"i_long":106.756522,"transit":false,"line":5,"time":2,"station_id":"TKO","distance":1614,"station_name":"Taman Kota","is_transit":false},{"i_long":106.737035,"line":5,"time":2,"i_lat":-6.159876,"distance":2334,"station_name":"Bojongindah","is_transit":false,"transit":false,"station_id":"BOI"},{"i_long":106.723064,"line":5,"transit":false,"station_id":"RW","station_name":"Rawa Buaya","is_transit":false,"distance":1152,"i_lat":-6.162758,"time":4},{"time":3,"transit":false,"station_name":"Kalideres","i_long":106.701612,"is_transit":false,"distance":2504,"station_id":"KDS","i_lat":-6.166068,"line":5}],[{"time":0,"station_name":"Pasar Senen","station_id":"PSE","transit":false,"distance":0,"line":11,"is_transit":false,"i_long":106.84368,"i_lat":-6.174784},{"transit":false,"time":4,"distance":1436,"line":11,"station_name":"Kemayoran","is_transit":false,"i_lat":-6.161728,"station_id":"KMO","i_long":106.839204},{"station_id":"RJW","i_lat":-6.14505,"station_name":"Rajawali","distance":1901,"time":5,"is_transit":false,"i_long":106.836569,"line":11,"transit":false},{"station_id":"KPB","i_lat":-6.132549,"time":3,"is_transit":true,"i_long":106.826365,"station_name":"Kampung Bandan","distance":1444,"line":4,"transit":true},{"is_transit":true,"station_name":"Jakarta Kota","transit":true,"i_lat":-6.137569,"i_long":106.812439,"line":2,"distance":1364,"station_id":"JAKK","time":3},{"station_name":"Jayakarta","is_transit":false,"i_long":106.820901,"line":2,"distance":1264,"station_id":"JAY","transit":false,"i_lat":-6.141205,"time":4},{"time":2,"i_lat":-6.149769,"is_transit":false,"i_long":106.82482,"line":2,"station_id":"MGB","station_name":"Manggabesar","distance":1080,"transit":false},{"time":2,"i_long":106.827103,"line":2,"station_name":"Sawah Besar","is_transit":false,"station_id":"SW","i_lat":-6.160725,"distance":906,"transit":false},{"line":2,"is_transit":false,"transit":false,"time":2,"i_long":106.828284,"station_id":"JUA","distance":1149,"i_lat":-6.166716,"station_name":"Juanda"},{"station_name":"Gondangdia","i_lat":-6.186295,"i_long":106.832183,"is_transit":false,"time":4,"transit":false,"line":2,"station_id":"GDD","distance":2015},{"station_id":"CKI","time":3,"i_lat":-6.198556,"line":2,"distance":1750,"i_long":106.840169,"station_name":"Cikini","transit":false,"is_transit":false},{"is_transit":true,"transit":true,"station_name":"Manggarai","distance":1590,"line":2,"i_lat":-6.209883,"time":4,"i_long":106.84912,"station_id":"MRI"},{"transit":false,"is_transit":false,"distance":3186,"station_name":"Sudirman","i_lat":-6.202263,"station_id":"SUD","i_long":106.822649,"time":4,"line":1},{"station_name":"Sudirman Baru","line":1,"transit":false,"station_id":"SUDB","time":1,"is_transit":false,"distance":280,"i_lat":-6.201433,"i_long":106.819881},{"is_transit":false,"distance":471,"line":1,"i_lat":-6.20132,"i_long":106.816351,"time":1,"station_id":"KAT","station_name":"Karet","transit":false},{"time":5,"transit":false,"distance":2029,"i_lat":-6.185545,"station_name":"Tanah Abang","line":1,"i_long":106.811091,"is_transit":false,"station_id":"THB"},{"line":1,"transit":true,"is_transit":true,"distance":3632,"time":8,"station_id":"DU","i_long":106.800832,"i_lat":-6.155215,"station_name":"Duri"},{"station_id":"GGL","is_transit":false,"transit":false,"station_name":"Grogol","i_lat":-6.162021,"line":5,"time":3,"distance":1700,"i_long":106.788277},{"line":5,"is_transit":false,"station_id":"PSG","station_name":"Pesing","time":2,"distance":2036,"transit":false,"i_lat":-6.161433,"i_long":106.771379},{"station_name":"Taman Kota","time":2,"distance":1614,"line":5,"station_id":"TKO","i_long":106.756522,"is_transit":false,"transit":false,"i_lat":-6.1587309999999995},{"i_long":106.737035,"i_lat":-6.159876,"station_id":"BOI","line":5,"time":2,"distance":2334,"station_name":"Bojongindah","is_transit":false,"transit":false},{"is_transit":false,"station_name":"Rawa Buaya","i_long":106.723064,"station_id":"RW","transit":false,"distance":1152,"line":5,"i_lat":-6.162758,"time":4},{"distance":2504,"time":3,"line":5,"station_name":"Kalideres","transit":false,"station_id":"KDS","i_lat":-6.166068,"i_long":106.701612,"is_transit":false}]]}