{"data":[[{"i_long":106.84368,"line":11,"station_name":"Pasar Senen","is_transit":false,"distance":0,"station_id":"PSE","time":0,"transit":false,"i_lat":-6.174784},{"time":4,"distance":1436,"transit":false,"i_lat":-6.161728,"station_name":"Kemayoran","is_transit":false,"i_long":106.839204,"line":11,"station_id":"KMO"},{"distance":1901,"i_lat":-6.14505,"station_id":"RJW","station_name":"Rajawali","transit":false,"is_transit":false,"time":5,"i_long":106.836569,"line":11},{"time":3,"line":4,"station_id":"KPB","i_long":106.826365,"is_transit":true,"distance":1444,"station_name":"Kampung Bandan","transit":true,"i_lat":-6.132549},{"time":9,"is_transit":false,"station_id":"AK","station_name":"Angke","i_long":106.79867,"i_lat":-6.144674,"line":1,"transit":false,"distance":4102},{"transit":false,"i_long":106.800832,"i_lat":-6.155215,"is_transit":false,"time":4,"line":1,"station_id":"DU","station_name":"Duri","distance":1230},{"i_lat":-6.185545,"time":8,"distance":3632,"transit":true,"i_long":106.811091,"station_id":"THB","line":1,"station_name":"Tanah Abang","is_transit":true},{"time":6,"distance":3191,"is_transit":false,"line":6,"station_name":"Palmerah","i_lat":-6.207404,"station_id":"PLM","transit":false,"i_long":106.79689},{"distance":3737,"line":6,"i_long":106.780334,"is_transit":false,"station_name":"Kebayoran","station_id":"KBY","transit":false,"i_lat":-6.237242,"time":7},{"i_lat":-6.276362,"transit":false,"time":8,"i_long":106.74273,"station_id":"PDJ","distance":6218,"station_name":"Pondokranji","line":6,"is_transit":false},{"line":6,"transit":false,"station_id":"JMU","station_name":"Jurangmangu","i_lat":-6.288927,"distance":2179,"is_transit":false,"i_long":106.728916,"time":3},{"line":6,"transit":false,"i_lat":-6.296963,"is_transit":false,"i_long":106.712277,"station_name":"Sudimara","time":4,"distance":1994,"station_id":"SDM"}],[{"line":11,"i_long":106.84368,"time":0,"station_name":"Pasar Senen","distance":0,"transit":false,"i_lat":-6.174784,"station_id":"PSE","is_transit":false},{"time":8,"i_lat":-6.185975,"i_long":106.850107,"station_id":"GST","is_transit":false,"station_name":"Gang Sentiong","transit":false,"line":11,"distance":1567},{"station_name":"Kramat","station_id":"KMT","i_lat":-6.193792,"i_long":106.855437,"line":11,"time":1,"distance":973,"is_transit":false,"transit":false},{"distance":1829,"station_id":"POK","time":2,"is_transit":false,"i_lat":-6.209188,"transit":false,"station_name":"Pondok Jati","i_long":106.861737,"line":11},{"i_long":106.86807400000001,"transit":true,"i_lat":-6.215091,"station_id":"JNG","distance":1236,"station_name":"Jatinegara","line":1,"is_transit":true,"time":9},{"station_id":"MTR","i_lat":-6.212485,"time":2,"distance":1377,"station_name":"Matraman","line":1,"is_transit":false,"transit":false,"i_long":106.858896},{"distance":1275,"time":2,"i_lat":-6.209883,"line":2,"i_long":106.84912,"station_name":"Manggarai","transit":false,"station_id":"MRI","is_transit":false},{"station_id":"SUD","is_transit":false,"transit":false,"station_name":"Sudirman","i_long":106.822649,"i_lat":-6.202263,"distance":3186,"time":4,"line":1},{"is_transit":false,"transit":false,"station_id":"SUDB","i_long":106.819881,"time":1,"station_name":"Sudirman Baru","line":1,"distance":280,"i_lat":-6.201433},{"distance":471,"is_transit":false,"station_id":"KAT","i_lat":-6.20132,"line":1,"transit":false,"station_name":"Karet","i_long":106.816351,"time":1},{"time":5,"is_transit":true,"i_lat":-6.185545,"i_long":106.811091,"station_id":"THB","station_name":"Tanah Abang","distance":2029,"line":1,"transit":true},{"transit":false,"is_transit":false,"i_lat":-6.207404,"time":6,"station_name":"Palmerah","i_long":106.79689,"station_id":"PLM","distance":3191,"line":6},{"i_long":106.780334,"line":6,"station_id":"KBY","time":7,"distance":3737,"is_transit":false,"station_name":"Kebayoran","transit":false,"i_lat":-6.237242},{"i_lat":-6.276362,"station_id":"PDJ","distance":6218,"line":6,"station_name":"Pondokranji","time":8,"i_long":106.74273,"is_transit":false,"transit":false},{"i_long":106.728916,"line":6,"station_name":"Jurangmangu","distance":2179,"is_transit":false,"transit":false,"time":3,"station_id":"JMU","i_lat":-6.288927},{"is_transit":false,"station_name":"Sudimara","i_long":106.712277,"time":4,"distance":1994,"line":6,"station_id":"SDM","i_lat":-6.296963,"transit":false}],[{"is_transit":false,"transit":false,"i_lat":-6.174784,"station_id":"PSE","time":0,"i_long":106.84368,"distance":0,"line":11,"station_name":"Pasar Senen"},{"distance":1436,"station_name":"Kemayoran","station_id":"KMO","transit":false,"time":4,"is_transit":false,"i_lat":-6.161728,"i_long":106.839204,"line":11},{"station_name":"Rajawali","i_lat":-6.14505,"i_long":106.836569,"distance":1901,"transit":false,"line":11,"time":5,"station_id":"RJW","is_transit":false},{"i_lat":-6.132549,"i_long":106.826365,"time":3,"transit":true,"station_name":"Kampung Bandan","station_id":"KPB","is_transit":true,"line":4,"distance":1444},{"distance":1364,"station_name":"Jakarta Kota","i_long":106.812439,"is_transit":true,"time":3,"line":2,"transit":true,"station_id":"JAKK","i_lat":-6.137569},{"transit":false,"distance":1264,"is_transit":false,"station_id":"JAY","line":2,"time":4,"station_name":"Jayakarta","i_lat":-6.141205,"i_long":106.820901},{"i_long":106.82482,"transit":false,"is_transit":false,"i_lat":-6.149769,"line":2,"station_id":"MGB","time":2,"station_name":"Manggabesar","distance":1080},{"is_transit":false,"time":2,"i_lat":-6.160725,"station_id":"SW","line":2,"distance":906,"transit":false,"station_name":"Sawah Besar","i_long":106.827103},{"is_transit":false,"station_id":"JUA","transit":false,"time":2,"station_name":"Juanda","distance":1149,"line":2,"i_lat":-6.166716,"i_long":106.828284},{"line":2,"station_id":"GDD","time":4,"i_long":106.832183,"i_lat":-6.186295,"station_name":"Gondangdia","is_transit":false,"distance":2015,"transit":false},{"line":2,"is_transit":false,"transit":false,"time":3,"station_id":"CKI","station_name":"Cikini","i_lat":-6.198556,"i_long":106.840169,"distance":1750},{"time":4,"line":2,"station_id":"MRI","station_name":"Manggarai","i_long":106.84912,"transit":true,"distance":1590,"is_transit":true,"i_lat":-6.209883},{"line":1,"station_id":"SUD","station_name":"Sudirman","transit":false,"is_transit":false,"i_lat":-6.202263,"i_long":106.822649,"distance":3186,"time":4},{"time":1,"is_transit":false,"transit":false,"i_long":106.819881,"station_name":"Sudirman Baru","station_id":"SUDB","i_lat":-6.201433,"line":1,"distance":280},{"i_long":106.816351,"distance":471,"is_transit":false,"line":1,"i_lat":-6.20132,"time":1,"station_id":"KAT","transit":false,"station_name":"Karet"},{"i_long":106.811091,"station_id":"THB","is_transit":true,"transit":true,"station_name":"Tanah Abang","time":5,"i_lat":-6.185545,"distance":2029,"line":1},{"station_name":"Palmerah","is_transit":false,"station_id":"PLM","i_lat":-6.207404,"distance":3191,"transit":false,"i_long":106.79689,"line":6,"time":6},{"station_name":"Kebayoran","station_id":"KBY","line":6,"i_long":106.780334,"distance":3737,"transit":false,"i_lat":-6.237242,"time":7,"is_transit":false},{"station_name":"Pondokranji","is_transit":false,"i_lat":-6.276362,"transit":false,"i_long":106.74273,"time":8,"distance":6218,"station_id":"PDJ","line":6},{"time":3,"station_id":"JMU","line":6,"station_name":"Jurangmangu","distance":2179,"i_lat":-6.288927,"is_transit":false,"transit":false,"i_long":106.728916},{"is_transit":false,"line":6,"i_long":106.712277,"transit":false,"time":4,"distance":1994,"station_name":"Sudimara","i_lat":-6.296963,"station_id":"SDM"}],[{"distance":0,"i_long":106.84368,"line":11,"is_transit":false,"transit":false,"station_name":"Pasar Senen","i_lat":-6.174784,"time":0,"station_id":"PSE"},{"time":8,"i_lat":-6.185975,"i_long":106.850107,"distance":1567,"is_transit":false,"line":11,"station_id":"GST","station_name":"Gang Sentiong","transit":false},{"time":1,"station_id":"KMT","distance":973,"line":11,"transit":false,"is_transit":false,"i_long":106.855437,"i_lat":-6.193792,"station_name":"Kramat"},{"is_transit":false,"station_name":"Pondok Jati","time":2,"distance":1829,"i_long":106.861737,"station_id":"POK","line":11,"transit":false,"i_lat":-6.209188},{"transit":true,"line":1,"i_long":106.86807400000001,"station_name":"Jatinegara","is_transit":true,"station_id":"JNG","i_lat":-6.215091,"time":9,"distance":1236},{"time":2,"station_id":"MTR","station_name":"Matraman","distance":1377,"is_transit":false,"i_lat":-6.212485,"i_long":106.858896,"line":1,"transit":false},{"time":2,"station_id":"MRI","distance":1275,"transit":true,"i_long":106.84912,"station_name":"Manggarai","line":2,"i_lat":-6.209883,"is_transit":true},{"is_transit":false,"station_name":"Cikini","transit":false,"i_lat":-6.198556,"time":4,"station_id":"CKI","distance":1590,"i_long":106.840169,"line":2},{"i_lat":-6.186295,"i_long":106.832183,"is_transit":false,"station_name":"Gondangdia","station_id":"GDD","distance":1750,"transit":false,"time":3,"line":2},{"time":4,"station_name":"Juanda","distance":2015,"transit":false,"line":2,"is_transit":false,"i_lat":-6.166716,"i_long":106.828284,"station_id":"JUA"},{"time":2,"transit":false,"station_name":"Sawah Besar","line":2,"distance":1149,"i_lat":-6.160725,"station_id":"SW","i_long":106.827103,"is_transit":false},{"station_id":"MGB","station_name":"Manggabesar","line":2,"distance":906,"transit":false,"time":2,"is_transit":false,"i_lat":-6.149769,"i_long":106.82482},{"i_long":106.820901,"time":2,"station_name":"Jayakarta","i_lat":-6.141205,"distance":1080,"transit":false,"line":2,"is_transit":false,"station_id":"JAY"},{"time":4,"distance":1264,"i_lat":-6.137569,"line":2,"transit":true,"station_id":"JAKK","station_name":"Jakarta Kota","is_transit":true,"i_long":106.812439},{"i_lat":-6.132549,"station_name":"Kampung Bandan","i_long":106.826365,"transit":true,"line":4,"distance":1364,"is_transit":true,"time":3,"station_id":"KPB"},{"time":9,"is_transit":false,"transit":false,"station_name":"Angke","line":1,"distance":4102,"i_lat":-6.144674,"i_long":106.79867,"station_id":"AK"},{"is_transit":false,"i_lat":-6.155215,"time":4,"station_name":"Duri","station_id":"DU","transit":false,"i_long":106.800832,"distance":1230,"line":1},{"is_transit":true,"station_id":"THB","transit":true,"i_lat":-6.185545,"i_long":106.811091,"distance":3632,"line":1,"time":8,"station_name":"Tanah Abang"},{"i_lat":-6.207404,"distance":3191,"line":6,"i_long":106.79689,"time":6,"transit":false,"station_id":"PLM","is_transit":false,"station_name":"Palmerah"},{"time":7,"transit":false,"distance":3737,"station_id":"KBY","i_lat":-6.237242,"is_transit":false,"i_long":106.780334,"line":6,"station_name":"Kebayoran"},{"time":8,"i_long":106.74273,"station_id":"PDJ","i_lat":-6.276362,"transit":false,"distance":6218,"is_transit":false,"line":6,"station_name":"Pondokranji"},{"i_lat":-6.288927,"distance":2179,"station_name":"Jurangmangu","is_transit":false,"station_id":"JMU","time":3,"i_long":106.728916,"line":6,"transit":false},{"distance":1994,"i_lat":-6.296963,"time":4,"station_name":"Sudimara","is_transit":false,"line":6,"i_long":106.712277,"transit":false,"station_id":"SDM"}]]}