{"data":[[{"station_name":"Pasar Senen","transit":false,"is_transit":false,"distance":0,"i_lat":-6.174784,"i_long":106.84368,"station_id":"PSE","time":0,"line":11},{"transit":false,"station_name":"Kemayoran","time":4,"station_id":"KMO","distance":1436,"is_transit":false,"i_lat":-6.161728,"line":11,"i_long":106.839204},{"time":5,"is_transit":false,"i_long":106.836569,"station_id":"RJW","distance":1901,"station_name":"Rajawali","line":11,"transit":false,"i_lat":-6.14505},{"line":4,"station_name":"Kampung Bandan","i_long":106.826365,"time":3,"station_id":"KPB","is_transit":false,"i_lat":-6.132549,"transit":false,"distance":1444}],[{"line":11,"transit":false,"station_id":"PSE","is_transit":false,"time":0,"station_name":"Pasar Senen","i_lat":-6.174784,"distance":0,"i_long":106.84368},{"station_name":"Gang Sentiong","i_long":106.850107,"is_transit":false,"distance":1567,"transit":false,"station_id":"GST","line":11,"i_lat":-6.185975,"time":8},{"station_id":"KMT","transit":false,"i_lat":-6.193792,"line":11,"is_transit":false,"time":1,"distance":973,"i_long":106.855437,"station_name":"Kramat"},{"transit":false,"time":2,"station_id":"POK","station_name":"Pondok Jati","i_lat":-6.209188,"line":11,"distance":1829,"is_transit":false,"i_long":106.861737},{"transit":true,"distance":1236,"i_lat":-6.215091,"station_id":"JNG","i_long":106.86807400000001,"line":1,"time":9,"station_name":"Jatinegara","is_transit":true},{"time":2,"distance":1377,"station_id":"MTR","transit":false,"i_lat":-6.212485,"line":1,"station_name":"Matraman","i_long":106.858896,"is_transit":false},{"station_name":"Manggarai","station_id":"MRI","line":2,"transit":false,"is_transit":false,"distance":1275,"i_long":106.84912,"i_lat":-6.209883,"time":2},{"station_id":"SUD","station_name":"Sudirman","time":4,"line":1,"distance":3186,"i_lat":-6.202263,"transit":false,"i_long":106.822649,"is_transit":false},{"transit":false,"line":1,"time":1,"distance":280,"i_lat":-6.201433,"station_name":"Sudirman Baru","is_transit":false,"i_long":106.819881,"station_id":"SUDB"},{"line":1,"distance":471,"time":1,"is_transit":false,"i_lat":-6.20132,"i_long":106.816351,"transit":false,"station_name":"Karet","station_id":"KAT"},{"distance":2029,"station_name":"Tanah Abang","is_transit":false,"station_id":"THB","line":1,"time":5,"i_long":106.811091,"transit":false,"i_lat":-6.185545},{"i_long":106.800832,"time":8,"is_transit":false,"distance":3632,"station_name":"Duri","transit":false,"station_id":"DU","i_lat":-6.155215,"line":1},{"line":1,"transit":false,"is_transit":false,"station_name":"Angke","i_long":106.79867,"distance":1230,"i_lat":-6.144674,"station_id":"AK","time":4},{"i_long":106.826365,"time":9,"station_name":"Kampung Bandan","line":4,"i_lat":-6.132549,"distance":4102,"is_transit":false,"transit":false,"station_id":"KPB"}],[{"i_long":106.84368,"distance":0,"station_name":"Pasar Senen","time":0,"line":11,"transit":false,"is_transit":false,"i_lat":-6.174784,"station_id":"PSE"},{"i_lat":-6.185975,"time":8,"line":11,"transit":false,"station_id":"GST","station_name":"Gang Sentiong","is_transit":false,"distance":1567,"i_long":106.850107},{"station_name":"Kramat","time":1,"i_long":106.855437,"transit":false,"is_transit":false,"distance":973,"station_id":"KMT","line":11,"i_lat":-6.193792},{"station_name":"Pondok Jati","distance":1829,"station_id":"POK","transit":false,"time":2,"i_lat":-6.209188,"line":11,"is_transit":false,"i_long":106.861737},{"line":1,"transit":true,"time":9,"is_transit":true,"i_lat":-6.215091,"distance":1236,"i_long":106.86807400000001,"station_name":"Jatinegara","station_id":"JNG"},{"time":2,"transit":false,"station_id":"MTR","i_long":106.858896,"distance":1377,"i_lat":-6.212485,"line":1,"station_name":"Matraman","is_transit":false},{"distance":1275,"line":2,"i_long":106.84912,"is_transit":true,"time":2,"transit":true,"station_name":"Manggarai","station_id":"MRI","i_lat":-6.209883},{"i_lat":-6.198556,"i_long":106.840169,"station_name":"Cikini","station_id":"CKI","is_transit":false,"time":4,"line":2,"distance":1590,"transit":false},{"i_lat":-6.186295,"is_transit":false,"time":3,"station_id":"GDD","i_long":106.832183,"station_name":"Gondangdia","line":2,"transit":false,"distance":1750},{"transit":false,"is_transit":false,"time":4,"i_lat":-6.166716,"station_name":"Juanda","distance":2015,"i_long":106.828284,"station_id":"JUA","line":2},{"i_long":106.827103,"station_id":"SW","i_lat":-6.160725,"is_transit":false,"transit":false,"time":2,"station_name":"Sawah Besar","distance":1149,"line":2},{"distance":906,"i_long":106.82482,"station_name":"Manggabesar","is_transit":false,"transit":false,"time":2,"i_lat":-6.149769,"station_id":"MGB","line":2},{"transit":false,"i_long":106.820901,"distance":1080,"time":2,"is_transit":false,"line":2,"station_name":"Jayakarta","station_id":"JAY","i_lat":-6.141205},{"transit":true,"i_long":106.812439,"is_transit":true,"station_name":"Jakarta Kota","time":4,"distance":1264,"line":2,"i_lat":-6.137569,"station_id":"JAKK"},{"distance":1364,"station_id":"KPB","station_name":"Kampung Bandan","i_long":106.826365,"transit":false,"line":4,"is_transit":false,"i_lat":-6.132549,"time":3}]]}