{"data":[[{"distance":0,"transit":false,"station_name":"Pasar Senen","time":0,"i_lat":-6.174784,"i_long":106.84368,"is_transit":false,"station_id":"PSE","line":11},{"station_id":"KMO","i_lat":-6.161728,"time":4,"line":11,"is_transit":false,"distance":1436,"i_long":106.839204,"transit":false,"station_name":"Kemayoran"},{"distance":1901,"is_transit":false,"transit":false,"i_lat":-6.14505,"time":5,"i_long":106.836569,"line":11,"station_id":"RJW","station_name":"Rajawali"},{"station_id":"KPB","is_transit":true,"i_long":106.826365,"distance":1444,"line":4,"transit":true,"time":3,"i_lat":-6.132549,"station_name":"Kampung Bandan"},{"i_lat":-6.144674,"i_long":106.79867,"line":1,"is_transit":false,"station_id":"AK","station_name":"Angke","distance":4102,"transit":false,"time":9},{"time":4,"i_lat":-6.155215,"line":1,"distance":1230,"i_long":106.800832,"station_name":"Duri","is_transit":false,"transit":false,"station_id":"DU"},{"distance":3632,"i_long":106.811091,"is_transit":true,"station_id":"THB","transit":true,"line":1,"station_name":"Tanah Abang","i_lat":-6.185545,"time":8},{"distance":3191,"station_name":"Palmerah","line":6,"station_id":"PLM","transit":false,"i_lat":-6.207404,"time":6,"is_transit":false,"i_long":106.79689},{"is_transit":false,"time":7,"line":6,"transit":false,"i_long":106.780334,"distance":3737,"station_id":"KBY","i_lat":-6.237242,"station_name":"Kebayoran"}],[{"transit":false,"station_name":"Pasar Senen","time":0,"is_transit":false,"station_id":"PSE","i_long":106.84368,"line":11,"i_lat":-6.174784,"distance":0},{"is_transit":false,"station_id":"GST","distance":1567,"time":8,"i_long":106.850107,"line":11,"transit":false,"i_lat":-6.185975,"station_name":"Gang Sentiong"},{"time":1,"distance":973,"is_transit":false,"transit":false,"station_id":"KMT","i_lat":-6.193792,"line":11,"i_long":106.855437,"station_name":"Kramat"},{"station_name":"Pondok Jati","is_transit":false,"time":2,"distance":1829,"line":11,"station_id":"POK","i_long":106.861737,"i_lat":-6.209188,"transit":false},{"i_long":106.86807400000001,"station_name":"Jatinegara","i_lat":-6.215091,"line":1,"transit":true,"station_id":"JNG","is_transit":true,"time":9,"distance":1236},{"transit":false,"station_name":"Matraman","time":2,"distance":1377,"i_lat":-6.212485,"station_id":"MTR","i_long":106.858896,"line":1,"is_transit":false},{"time":2,"is_transit":false,"station_name":"Manggarai","station_id":"MRI","transit":false,"distance":1275,"i_long":106.84912,"line":2,"i_lat":-6.209883},{"station_name":"Sudirman","is_transit":false,"i_lat":-6.202263,"station_id":"SUD","i_long":106.822649,"time":4,"transit":false,"line":1,"distance":3186},{"i_lat":-6.201433,"time":1,"station_name":"Sudirman Baru","i_long":106.819881,"station_id":"SUDB","is_transit":false,"transit":false,"distance":280,"line":1},{"station_id":"KAT","i_lat":-6.20132,"i_long":106.816351,"line":1,"transit":false,"station_name":"Karet","time":1,"distance":471,"is_transit":false},{"line":1,"station_name":"Tanah Abang","transit":true,"time":5,"distance":2029,"is_transit":true,"station_id":"THB","i_lat":-6.185545,"i_long":106.811091},{"line":6,"i_long":106.79689,"i_lat":-6.207404,"distance":3191,"station_id":"PLM","transit":false,"station_name":"Palmerah","is_transit":false,"time":6},{"i_long":106.780334,"distance":3737,"station_id":"KBY","transit":false,"is_transit":false,"time":7,"line":6,"i_lat":-6.237242,"station_name":"Kebayoran"}],[{"i_long":106.84368,"line":11,"is_transit":false,"i_lat":-6.174784,"station_id":"PSE","time":0,"distance":0,"transit":false,"station_name":"Pasar Senen"},{"station_name":"Kemayoran","transit":false,"line":11,"is_transit":false,"time":4,"i_lat":-6.161728,"i_long":106.839204,"distance":1436,"station_id":"KMO"},{"i_long":106.836569,"time":5,"is_transit":false,"i_lat":-6.14505,"station_id":"RJW","distance":1901,"line":11,"station_name":"Rajawali","transit":false},{"line":4,"transit":true,"station_id":"KPB","i_long":106.826365,"station_name":"Kampung Bandan","time":3,"distance":1444,"i_lat":-6.132549,"is_transit":true},{"is_transit":true,"station_name":"Jakarta Kota","time":3,"i_long":106.812439,"line":2,"station_id":"JAKK","distance":1364,"i_lat":-6.137569,"transit":true},{"line":2,"station_id":"JAY","i_lat":-6.141205,"time":4,"transit":false,"distance":1264,"i_long":106.820901,"station_name":"Jayakarta","is_transit":false},{"i_long":106.82482,"is_transit":false,"station_name":"Manggabesar","i_lat":-6.149769,"time":2,"line":2,"transit":false,"distance":1080,"station_id":"MGB"},{"is_transit":false,"i_long":106.827103,"distance":906,"station_name":"Sawah Besar","time":2,"transit":false,"station_id":"SW","i_lat":-6.160725,"line":2},{"station_id":"JUA","is_transit":false,"transit":false,"time":2,"distance":1149,"line":2,"i_long":106.828284,"station_name":"Juanda","i_lat":-6.166716},{"transit":false,"distance":2015,"i_long":106.832183,"line":2,"station_id":"GDD","time":4,"station_name":"Gondangdia","is_transit":false,"i_lat":-6.186295},{"i_lat":-6.198556,"i_long":106.840169,"station_id":"CKI","line":2,"time":3,"transit":false,"distance":1750,"is_transit":false,"station_name":"Cikini"},{"station_id":"MRI","is_transit":true,"i_lat":-6.209883,"line":2,"transit":true,"station_name":"Manggarai","time":4,"distance":1590,"i_long":106.84912},{"transit":false,"is_transit":false,"i_lat":-6.202263,"line":1,"station_name":"Sudirman","i_long":106.822649,"distance":3186,"time":4,"station_id":"SUD"},{"station_name":"Sudirman Baru","time":1,"distance":280,"line":1,"i_lat":-6.201433,"transit":false,"station_id":"SUDB","is_transit":false,"i_long":106.819881},{"station_name":"Karet","station_id":"KAT","is_transit":false,"time":1,"i_lat":-6.20132,"distance":471,"transit":false,"i_long":106.816351,"line":1},{"transit":true,"i_lat":-6.185545,"i_long":106.811091,"distance":2029,"line":1,"is_transit":true,"station_name":"Tanah Abang","station_id":"THB","time":5},{"time":6,"i_lat":-6.207404,"line":6,"i_long":106.79689,"is_transit":false,"station_id":"PLM","station_name":"Palmerah","transit":false,"distance":3191},{"is_transit":false,"station_name":"Kebayoran","time":7,"line":6,"i_lat":-6.237242,"distance":3737,"station_id":"KBY","i_long":106.780334,"transit":false}],[{"i_lat":-6.174784,"i_long":106.84368,"line":11,"distance":0,"transit":false,"station_name":"Pasar Senen","station_id":"PSE","time":0,"is_transit":false},{"transit":false,"i_long":106.850107,"distance":1567,"line":11,"station_name":"Gang Sentiong","i_lat":-6.185975,"station_id":"GST","time":8,"is_transit":false},{"time":1,"distance":973,"i_long":106.855437,"station_name":"Kramat","transit":false,"station_id":"KMT","is_transit":false,"i_lat":-6.193792,"line":11},{"distance":1829,"station_name":"Pondok Jati","transit":false,"line":11,"is_transit":false,"time":2,"station_id":"POK","i_lat":-6.209188,"i_long":106.861737},{"distance":1236,"station_name":"Jatinegara","station_id":"JNG","time":9,"transit":true,"is_transit":true,"i_long":106.86807400000001,"line":1,"i_lat":-6.215091},{"i_lat":-6.212485,"time":2,"distance":1377,"transit":false,"is_transit":false,"station_name":"Matraman","i_long":106.858896,"line":1,"station_id":"MTR"},{"transit":true,"time":2,"i_lat":-6.209883,"line":2,"is_transit":true,"i_long":106.84912,"distance":1275,"station_id":"MRI","station_name":"Manggarai"},{"is_transit":false,"line":2,"transit":false,"i_lat":-6.198556,"distance":1590,"station_name":"Cikini","station_id":"CKI","time":4,"i_long":106.840169},{"is_transit":false,"distance":1750,"line":2,"i_long":106.832183,"i_lat":-6.186295,"time":3,"transit":false,"station_id":"GDD","station_name":"Gondangdia"},{"transit":false,"distance":2015,"i_long":106.828284,"is_transit":false,"time":4,"station_name":"Juanda","station_id":"JUA","i_lat":-6.166716,"line":2},{"i_lat":-6.160725,"is_transit":false,"line":2,"station_id":"SW","transit":false,"time":2,"distance":1149,"station_name":"Sawah Besar","i_long":106.827103},{"distance":906,"i_long":106.82482,"station_name":"Manggabesar","is_transit":false,"i_lat":-6.149769,"station_id":"MGB","transit":false,"line":2,"time":2},{"station_name":"Jayakarta","i_long":106.820901,"is_transit":false,"time":2,"distance":1080,"transit":false,"i_lat":-6.141205,"line":2,"station_id":"JAY"},{"i_lat":-6.137569,"station_name":"Jakarta Kota","is_transit":true,"station_id":"JAKK","time":4,"line":2,"i_long":106.812439,"transit":true,"distance":1264},{"station_id":"KPB","line":4,"distance":1364,"is_transit":true,"time":3,"i_long":106.826365,"station_name":"Kampung Bandan","transit":true,"i_lat":-6.132549},{"transit":false,"distance":4102,"i_long":106.79867,"i_lat":-6.144674,"line":1,"is_transit":false,"station_name":"Angke","station_id":"AK","time":9},{"i_long":106.800832,"line":1,"station_id":"DU","i_lat":-6.155215,"is_transit":false,"transit":false,"time":4,"distance":1230,"station_name":"Duri"},{"line":1,"transit":true,"station_id":"THB","time":8,"distance":3632,"i_long":106.811091,"i_lat":-6.185545,"is_transit":true,"station_name":"Tanah Abang"},{"line":6,"station_name":"Palmerah","i_long":106.79689,"distance":3191,"is_transit":false,"transit":false,"i_lat":-6.207404,"station_id":"PLM","time":6},{"time":7,"is_transit":false,"line":6,"transit":false,"station_name":"Kebayoran","i_lat":-6.237242,"distance":3737,"station_id":"KBY","i_long":106.780334}]]}