{"data":[[{"distance":0,"i_long":106.771379,"line":5,"time":0,"is_transit":false,"transit":false,"station_id":"PSG","station_name":"Pesing","i_lat":-6.161433},{"distance":2036,"i_long":106.788277,"is_transit":false,"transit":false,"station_id":"GGL","station_name":"Grogol","i_lat":-6.162021,"line":5,"time":2},{"i_lat":-6.155215,"transit":true,"station_id":"DU","is_transit":true,"i_long":106.800832,"line":1,"time":3,"distance":1700,"station_name":"Duri"},{"station_name":"Tanah Abang","time":8,"is_transit":false,"i_lat":-6.185545,"distance":3632,"station_id":"THB","transit":false,"line":1,"i_long":106.811091},{"is_transit":false,"station_name":"Karet","line":1,"distance":2029,"time":5,"station_id":"KAT","i_long":106.816351,"transit":false,"i_lat":-6.20132},{"is_transit":false,"station_name":"Sudirman Baru","time":1,"transit":false,"station_id":"SUDB","distance":471,"i_lat":-6.201433,"i_long":106.819881,"line":1},{"distance":280,"is_transit":false,"station_id":"SUD","line":1,"transit":false,"station_name":"Sudirman","time":1,"i_long":106.822649,"i_lat":-6.202263},{"station_name":"Manggarai","i_lat":-6.209883,"i_long":106.84912,"time":4,"station_id":"MRI","distance":3186,"line":2,"is_transit":true,"transit":true},{"station_name":"Tebet","distance":2610,"is_transit":false,"i_long":106.857948,"time":4,"i_lat":-6.226659,"station_id":"TEB","line":2,"transit":false},{"is_transit":false,"i_long":106.856607,"i_lat":-6.242512,"line":2,"time":2,"transit":false,"station_id":"CW","station_name":"Cawang","distance":1230},{"i_lat":-6.255332,"station_id":"DRN","transit":false,"station_name":"Duren Kalibata","line":2,"is_transit":false,"time":3,"distance":1546,"i_long":106.85449},{"line":2,"time":2,"is_transit":false,"station_name":"Pasar Minggu Baru","i_lat":-6.263214,"i_long":106.851577,"station_id":"PSMB","distance":824,"transit":false},{"distance":2380,"i_long":106.843999,"line":2,"time":2,"station_id":"PSM","is_transit":false,"transit":false,"station_name":"Pasar Minggu","i_lat":-6.2842400000000005},{"transit":false,"station_name":"Tanjung Barat","i_lat":-6.3080680000000005,"line":2,"is_transit":false,"time":4,"distance":2820,"station_id":"TNT","i_long":106.838896},{"is_transit":false,"station_name":"Lenteng Agung","i_long":106.832616,"line":2,"station_id":"LNA","time":3,"transit":false,"i_lat":-6.330363,"distance":2671}],[{"line":5,"distance":0,"time":0,"transit":false,"i_long":106.771379,"station_name":"Pesing","is_transit":false,"station_id":"PSG","i_lat":-6.161433},{"i_lat":-6.162021,"i_long":106.788277,"line":5,"is_transit":false,"distance":2036,"station_id":"GGL","time":2,"transit":false,"station_name":"Grogol"},{"is_transit":true,"transit":true,"distance":1700,"time":3,"station_id":"DU","station_name":"Duri","i_lat":-6.155215,"i_long":106.800832,"line":1},{"time":4,"station_id":"AK","station_name":"Angke","transit":false,"i_long":106.79867,"line":1,"distance":1230,"is_transit":false,"i_lat":-6.144674},{"station_name":"Kampung Bandan","line":4,"i_long":106.826365,"i_lat":-6.132549,"distance":4102,"is_transit":true,"time":9,"transit":true,"station_id":"KPB"},{"station_name":"Jakarta Kota","distance":1364,"station_id":"JAKK","i_lat":-6.137569,"line":2,"transit":true,"i_long":106.812439,"time":3,"is_transit":true},{"line":2,"i_long":106.820901,"distance":1264,"i_lat":-6.141205,"time":4,"station_id":"JAY","transit":false,"is_transit":false,"station_name":"Jayakarta"},{"distance":1080,"i_lat":-6.149769,"time":2,"i_long":106.82482,"is_transit":false,"station_id":"MGB","transit":false,"station_name":"Manggabesar","line":2},{"transit":false,"station_name":"Sawah Besar","i_lat":-6.160725,"i_long":106.827103,"line":2,"time":2,"is_transit":false,"station_id":"SW","distance":906},{"distance":1149,"time":2,"station_id":"JUA","transit":false,"is_transit":false,"line":2,"station_name":"Juanda","i_long":106.828284,"i_lat":-6.166716},{"transit":false,"time":4,"i_long":106.832183,"line":2,"i_lat":-6.186295,"distance":2015,"is_transit":false,"station_id":"GDD","station_name":"Gondangdia"},{"line":2,"station_id":"CKI","time":3,"is_transit":false,"transit":false,"i_long":106.840169,"distance":1750,"i_lat":-6.198556,"station_name":"Cikini"},{"i_long":106.84912,"i_lat":-6.209883,"station_name":"Manggarai","line":2,"transit":false,"distance":1590,"time":4,"station_id":"MRI","is_transit":false},{"station_name":"Tebet","is_transit":false,"i_long":106.857948,"i_lat":-6.226659,"distance":2610,"station_id":"TEB","transit":false,"time":4,"line":2},{"transit":false,"line":2,"station_name":"Cawang","time":2,"distance":1230,"is_transit":false,"i_lat":-6.242512,"station_id":"CW","i_long":106.856607},{"transit":false,"station_name":"Duren Kalibata","i_lat":-6.255332,"line":2,"time":3,"station_id":"DRN","distance":1546,"is_transit":false,"i_long":106.85449},{"station_id":"PSMB","time":2,"is_transit":false,"distance":824,"station_name":"Pasar Minggu Baru","i_long":106.851577,"transit":false,"i_lat":-6.263214,"line":2},{"is_transit":false,"i_long":106.843999,"transit":false,"station_name":"Pasar Minggu","i_lat":-6.2842400000000005,"station_id":"PSM","line":2,"distance":2380,"time":2},{"transit":false,"is_transit":false,"station_name":"Tanjung Barat","station_id":"TNT","time":4,"distance":2820,"i_long":106.838896,"i_lat":-6.3080680000000005,"line":2},{"i_lat":-6.330363,"line":2,"i_long":106.832616,"time":3,"station_id":"LNA","transit":false,"is_transit":false,"station_name":"Lenteng Agung","distance":2671}],[{"station_name":"Pesing","distance":0,"line":5,"time":0,"station_id":"PSG","i_long":106.771379,"transit":false,"i_lat":-6.161433,"is_transit":false},{"is_transit":false,"station_name":"Grogol","distance":2036,"time":2,"transit":false,"station_id":"GGL","line":5,"i_lat":-6.162021,"i_long":106.788277},{"time":3,"station_id":"DU","transit":true,"distance":1700,"i_lat":-6.155215,"i_long":106.800832,"line":1,"station_name":"Duri","is_transit":true},{"i_long":106.79867,"station_id":"AK","time":4,"i_lat":-6.144674,"station_name":"Angke","line":1,"distance":1230,"is_transit":false,"transit":false},{"station_id":"KPB","is_transit":true,"distance":4102,"station_name":"Kampung Bandan","transit":true,"time":9,"i_lat":-6.132549,"line":4,"i_long":106.826365},{"is_transit":false,"i_lat":-6.14505,"line":11,"distance":1444,"time":3,"i_long":106.836569,"station_id":"RJW","transit":false,"station_name":"Rajawali"},{"station_name":"Kemayoran","transit":false,"i_lat":-6.161728,"is_transit":false,"station_id":"KMO","distance":1901,"i_long":106.839204,"line":11,"time":5},{"transit":false,"station_id":"PSE","line":11,"is_transit":false,"i_long":106.84368,"time":4,"i_lat":-6.174784,"station_name":"Pasar Senen","distance":1436},{"is_transit":false,"line":11,"time":8,"transit":false,"station_id":"GST","distance":1567,"station_name":"Gang Sentiong","i_lat":-6.185975,"i_long":106.850107},{"i_long":106.855437,"time":1,"distance":973,"line":11,"is_transit":false,"station_id":"KMT","i_lat":-6.193792,"station_name":"Kramat","transit":false},{"distance":1829,"i_long":106.861737,"line":11,"is_transit":false,"station_name":"Pondok Jati","transit":false,"station_id":"POK","i_lat":-6.209188,"time":2},{"distance":1236,"station_id":"JNG","is_transit":true,"line":1,"transit":true,"i_long":106.86807400000001,"station_name":"Jatinegara","time":9,"i_lat":-6.215091},{"station_name":"Matraman","i_lat":-6.212485,"i_long":106.858896,"line":1,"distance":1377,"transit":false,"is_transit":false,"station_id":"MTR","time":2},{"station_name":"Manggarai","is_transit":true,"time":2,"distance":1275,"i_lat":-6.209883,"station_id":"MRI","transit":true,"line":2,"i_long":106.84912},{"i_long":106.857948,"transit":false,"i_lat":-6.226659,"is_transit":false,"line":2,"time":4,"station_name":"Tebet","station_id":"TEB","distance":2610},{"i_lat":-6.242512,"i_long":106.856607,"station_id":"CW","transit":false,"is_transit":false,"line":2,"station_name":"Cawang","distance":1230,"time":2},{"station_id":"DRN","time":3,"i_lat":-6.255332,"i_long":106.85449,"is_transit":false,"transit":false,"distance":1546,"line":2,"station_name":"Duren Kalibata"},{"station_name":"Pasar Minggu Baru","distance":824,"i_long":106.851577,"station_id":"PSMB","transit":false,"time":2,"line":2,"is_transit":false,"i_lat":-6.263214},{"distance":2380,"is_transit":false,"station_name":"Pasar Minggu","line":2,"i_lat":-6.2842400000000005,"station_id":"PSM","transit":false,"time":2,"i_long":106.843999},{"transit":false,"station_name":"Tanjung Barat","is_transit":false,"line":2,"distance":2820,"time":4,"i_lat":-6.3080680000000005,"station_id":"TNT","i_long":106.838896},{"is_transit":false,"station_name":"Lenteng Agung","i_lat":-6.330363,"line":2,"transit":false,"i_long":106.832616,"station_id":"LNA","time":3,"distance":2671}]]}