{"data":[[{"station_name":"Pesing","i_long":106.771379,"station_id":"PSG","transit":false,"is_transit":false,"distance":0,"time":0,"line":5,"i_lat":-6.161433},{"station_id":"GGL","is_transit":false,"transit":false,"time":2,"i_long":106.788277,"line":5,"distance":2036,"i_lat":-6.162021,"station_name":"Grogol"},{"i_long":106.800832,"transit":true,"distance":1700,"station_id":"DU","time":3,"station_name":"Duri","i_lat":-6.155215,"line":1,"is_transit":true},{"time":4,"station_name":"Angke","is_transit":false,"transit":false,"i_lat":-6.144674,"line":1,"i_long":106.79867,"distance":1230,"station_id":"AK"},{"i_long":106.826365,"station_name":"Kampung Bandan","time":9,"station_id":"KPB","distance":4102,"is_transit":true,"i_lat":-6.132549,"line":4,"transit":true},{"time":3,"distance":1444,"i_lat":-6.14505,"is_transit":false,"transit":false,"i_long":106.836569,"station_id":"RJW","line":11,"station_name":"Rajawali"},{"is_transit":false,"i_long":106.839204,"time":5,"station_name":"Kemayoran","transit":false,"i_lat":-6.161728,"distance":1901,"line":11,"station_id":"KMO"},{"is_transit":false,"station_id":"PSE","distance":1436,"transit":false,"line":11,"time":4,"station_name":"Pasar Senen","i_lat":-6.174784,"i_long":106.84368},{"transit":false,"distance":1567,"station_id":"GST","is_transit":false,"station_name":"Gang Sentiong","time":8,"i_lat":-6.185975,"i_long":106.850107,"line":11},{"i_long":106.855437,"line":11,"time":1,"station_name":"Kramat","station_id":"KMT","distance":973,"transit":false,"i_lat":-6.193792,"is_transit":false},{"i_lat":-6.209188,"transit":false,"line":11,"station_id":"POK","station_name":"Pondok Jati","is_transit":false,"distance":1829,"i_long":106.861737,"time":2}],[{"station_id":"PSG","is_transit":false,"i_long":106.771379,"time":0,"distance":0,"transit":false,"line":5,"station_name":"Pesing","i_lat":-6.161433},{"line":5,"distance":2036,"transit":false,"station_name":"Grogol","time":2,"i_lat":-6.162021,"station_id":"GGL","is_transit":false,"i_long":106.788277},{"i_lat":-6.155215,"station_id":"DU","i_long":106.800832,"station_name":"Duri","transit":true,"distance":1700,"is_transit":true,"time":3,"line":1},{"distance":3632,"station_name":"Tanah Abang","i_long":106.811091,"is_transit":false,"i_lat":-6.185545,"time":8,"transit":false,"line":1,"station_id":"THB"},{"distance":2029,"is_transit":false,"i_long":106.816351,"line":1,"station_id":"KAT","time":5,"station_name":"Karet","transit":false,"i_lat":-6.20132},{"i_lat":-6.201433,"line":1,"station_name":"Sudirman Baru","is_transit":false,"i_long":106.819881,"station_id":"SUDB","transit":false,"time":1,"distance":471},{"distance":280,"transit":false,"time":1,"i_lat":-6.202263,"i_long":106.822649,"line":1,"is_transit":false,"station_id":"SUD","station_name":"Sudirman"},{"station_id":"MRI","is_transit":false,"i_long":106.84912,"time":4,"distance":3186,"transit":false,"station_name":"Manggarai","i_lat":-6.209883,"line":2},{"line":1,"i_lat":-6.212485,"transit":false,"distance":1275,"station_id":"MTR","time":2,"is_transit":false,"i_long":106.858896,"station_name":"Matraman"},{"is_transit":true,"i_lat":-6.215091,"time":8,"station_id":"JNG","i_long":106.86807400000001,"transit":true,"line":1,"distance":1377,"station_name":"Jatinegara"},{"i_lat":-6.209188,"i_long":106.861737,"station_name":"Pondok Jati","transit":false,"distance":1236,"line":11,"station_id":"POK","time":2,"is_transit":false}],[{"station_id":"PSG","station_name":"Pesing","line":5,"is_transit":false,"i_long":106.771379,"time":0,"transit":false,"i_lat":-6.161433,"distance":0},{"i_long":106.788277,"i_lat":-6.162021,"line":5,"time":2,"transit":false,"station_id":"GGL","distance":2036,"is_transit":false,"station_name":"Grogol"},{"transit":true,"distance":1700,"station_id":"DU","station_name":"Duri","i_lat":-6.155215,"i_long":106.800832,"time":3,"is_transit":true,"line":1},{"distance":1230,"time":4,"i_lat":-6.144674,"station_id":"AK","is_transit":false,"i_long":106.79867,"transit":false,"line":1,"station_name":"Angke"},{"distance":4102,"line":4,"is_transit":true,"i_long":106.826365,"station_id":"KPB","station_name":"Kampung Bandan","time":9,"i_lat":-6.132549,"transit":true},{"is_transit":true,"i_lat":-6.137569,"distance":1364,"time":3,"station_id":"JAKK","transit":true,"i_long":106.812439,"line":2,"station_name":"Jakarta Kota"},{"transit":false,"i_long":106.820901,"line":2,"time":4,"i_lat":-6.141205,"is_transit":false,"distance":1264,"station_name":"Jayakarta","station_id":"JAY"},{"station_name":"Manggabesar","i_long":106.82482,"distance":1080,"transit":false,"station_id":"MGB","is_transit":false,"i_lat":-6.149769,"time":2,"line":2},{"i_lat":-6.160725,"time":2,"is_transit":false,"station_id":"SW","distance":906,"station_name":"Sawah Besar","transit":false,"line":2,"i_long":106.827103},{"line":2,"time":2,"i_long":106.828284,"i_lat":-6.166716,"is_transit":false,"distance":1149,"station_name":"Juanda","transit":false,"station_id":"JUA"},{"time":4,"station_name":"Gondangdia","transit":false,"distance":2015,"station_id":"GDD","is_transit":false,"line":2,"i_lat":-6.186295,"i_long":106.832183},{"time":3,"line":2,"is_transit":false,"transit":false,"i_lat":-6.198556,"i_long":106.840169,"station_name":"Cikini","station_id":"CKI","distance":1750},{"i_long":106.84912,"line":2,"is_transit":true,"time":4,"i_lat":-6.209883,"station_name":"Manggarai","station_id":"MRI","distance":1590,"transit":true},{"station_name":"Matraman","is_transit":false,"time":2,"transit":false,"line":1,"distance":1275,"i_long":106.858896,"station_id":"MTR","i_lat":-6.212485},{"i_long":106.86807400000001,"line":1,"is_transit":true,"i_lat":-6.215091,"time":8,"transit":true,"distance":1377,"station_id":"JNG","station_name":"Jatinegara"},{"i_long":106.861737,"distance":1236,"is_transit":false,"station_name":"Pondok Jati","station_id":"POK","line":11,"i_lat":-6.209188,"time":2,"transit":false}],[{"station_id":"PSG","transit":false,"i_long":106.771379,"line":5,"time":0,"distance":0,"station_name":"Pesing","i_lat":-6.161433,"is_transit":false},{"transit":false,"line":5,"station_name":"Grogol","distance":2036,"station_id":"GGL","i_lat":-6.162021,"is_transit":false,"i_long":106.788277,"time":2},{"line":1,"transit":true,"station_id":"DU","time":3,"station_name":"Duri","distance":1700,"is_transit":true,"i_long":106.800832,"i_lat":-6.155215},{"transit":false,"i_lat":-6.185545,"line":1,"station_name":"Tanah Abang","i_long":106.811091,"distance":3632,"is_transit":false,"station_id":"THB","time":8},{"station_id":"KAT","time":5,"i_lat":-6.20132,"distance":2029,"is_transit":false,"i_long":106.816351,"line":1,"transit":false,"station_name":"Karet"},{"i_lat":-6.201433,"line":1,"distance":471,"station_name":"Sudirman Baru","time":1,"i_long":106.819881,"transit":false,"is_transit":false,"station_id":"SUDB"},{"station_id":"SUD","time":1,"distance":280,"i_long":106.822649,"transit":false,"is_transit":false,"i_lat":-6.202263,"line":1,"station_name":"Sudirman"},{"i_long":106.84912,"line":2,"station_id":"MRI","is_transit":true,"distance":3186,"station_name":"Manggarai","time":4,"transit":true,"i_lat":-6.209883},{"station_name":"Cikini","time":4,"station_id":"CKI","i_lat":-6.198556,"i_long":106.840169,"transit":false,"distance":1590,"line":2,"is_transit":false},{"station_id":"GDD","distance":1750,"transit":false,"time":3,"i_lat":-6.186295,"i_long":106.832183,"station_name":"Gondangdia","is_transit":false,"line":2},{"line":2,"distance":2015,"station_id":"JUA","station_name":"Juanda","time":4,"i_lat":-6.166716,"i_long":106.828284,"transit":false,"is_transit":false},{"transit":false,"station_id":"SW","i_long":106.827103,"time":2,"distance":1149,"station_name":"Sawah Besar","is_transit":false,"i_lat":-6.160725,"line":2},{"distance":906,"station_name":"Manggabesar","is_transit":false,"time":2,"i_lat":-6.149769,"line":2,"station_id":"MGB","transit":false,"i_long":106.82482},{"i_lat":-6.141205,"time":2,"line":2,"distance":1080,"transit":false,"station_id":"JAY","is_transit":false,"i_long":106.820901,"station_name":"Jayakarta"},{"station_id":"JAKK","distance":1264,"i_long":106.812439,"station_name":"Jakarta Kota","time":4,"is_transit":true,"transit":true,"line":2,"i_lat":-6.137569},{"station_name":"Kampung Bandan","transit":true,"i_lat":-6.132549,"is_transit":true,"time":3,"distance":1364,"line":4,"station_id":"KPB","i_long":106.826365},{"i_long":106.836569,"line":11,"is_transit":false,"transit":false,"time":3,"station_id":"RJW","station_name":"Rajawali","distance":1444,"i_lat":-6.14505},{"i_long":106.839204,"is_transit":false,"i_lat":-6.161728,"distance":1901,"station_name":"Kemayoran","station_id":"KMO","line":11,"time":5,"transit":false},{"station_name":"Pasar Senen","time":4,"line":11,"transit":false,"i_lat":-6.174784,"i_long":106.84368,"distance":1436,"is_transit":false,"station_id":"PSE"},{"i_long":106.850107,"transit":false,"is_transit":false,"line":11,"station_name":"Gang Sentiong","station_id":"GST","i_lat":-6.185975,"time":8,"distance":1567},{"distance":973,"i_long":106.855437,"i_lat":-6.193792,"station_id":"KMT","time":1,"is_transit":false,"transit":false,"station_name":"Kramat","line":11},{"distance":1829,"time":2,"station_name":"Pondok Jati","transit":false,"i_lat":-6.209188,"i_long":106.861737,"line":11,"is_transit":false,"station_id":"POK"}]]}