{"data":[[{"time":0,"line":5,"i_long":106.771379,"station_id":"PSG","station_name":"Pesing","is_transit":false,"transit":false,"distance":0,"i_lat":-6.161433},{"station_name":"Taman Kota","line":5,"time":2,"is_transit":false,"transit":false,"station_id":"TKO","i_long":106.756522,"distance":1614,"i_lat":-6.1587309999999995},{"i_lat":-6.159876,"station_name":"Bojongindah","distance":2334,"station_id":"BOI","i_long":106.737035,"line":5,"is_transit":false,"transit":false,"time":2},{"station_id":"RW","line":5,"distance":1152,"i_long":106.723064,"time":4,"station_name":"Rawa Buaya","transit":false,"is_transit":false,"i_lat":-6.162758},{"distance":2504,"i_long":106.701612,"station_id":"KDS","line":5,"time":3,"i_lat":-6.166068,"transit":false,"is_transit":false,"station_name":"Kalideres"},{"station_id":"PI","time":3,"is_transit":false,"distance":2548,"i_long":106.679458,"transit":false,"i_lat":-6.169933,"station_name":"Poris","line":5},{"station_id":"BPR","i_lat":-6.171811,"line":5,"is_transit":false,"time":3,"i_long":106.665036,"transit":false,"station_name":"Batuceper","distance":1834},{"i_lat":-6.17331,"line":5,"station_id":"TTI","i_long":106.64657,"distance":2028,"transit":false,"is_transit":false,"time":3,"station_name":"Tanah Tinggi"},{"line":5,"distance":1547,"transit":false,"i_long":106.632761,"i_lat":-6.176583,"station_id":"TNG","is_transit":false,"station_name":"Tangerang","time":3}]]}