{"data":[[{"transit":false,"station_name":"Pesing","station_id":"PSG","distance":0,"i_lat":-6.161433,"is_transit":false,"line":5,"i_long":106.771379,"time":0},{"distance":2036,"i_lat":-6.162021,"line":5,"station_id":"GRG","station_name":"Grogol","time":2,"is_transit":false,"transit":false,"i_long":106.788277},{"time":3,"station_id":"DU","i_lat":-6.155215,"distance":1700,"station_name":"Duri","is_transit":true,"transit":true,"i_long":106.800832,"line":1},{"i_long":106.811091,"station_id":"THB","station_name":"Tanah Abang","transit":false,"i_lat":-6.185545,"time":8,"distance":3632,"is_transit":false,"line":1},{"distance":2029,"station_name":"Karet","i_lat":-6.20132,"i_long":106.816351,"line":1,"is_transit":false,"station_id":"KAT","time":5,"transit":false},{"transit":false,"is_transit":false,"i_long":106.819881,"station_name":"Sudirman Baru","station_id":"SUDB","i_lat":-6.201433,"distance":471,"line":1,"time":1},{"station_name":"Sudirman","is_transit":false,"transit":false,"i_long":106.822649,"i_lat":-6.202263,"distance":280,"line":1,"station_id":"SUD","time":1},{"distance":3186,"i_lat":-6.209883,"is_transit":true,"line":2,"station_name":"Manggarai","station_id":"MRI","time":4,"transit":true,"i_long":106.84912},{"station_id":"TEB","i_lat":-6.226659,"line":2,"time":4,"i_long":106.857948,"is_transit":false,"station_name":"Tebet","transit":false,"distance":2610},{"transit":false,"i_lat":-6.242512,"i_long":106.856607,"is_transit":false,"time":2,"station_name":"Cawang","line":2,"distance":1230,"station_id":"CW"},{"distance":1546,"is_transit":false,"i_long":106.85449,"station_id":"DRN","time":3,"i_lat":-6.255332,"line":2,"station_name":"Duren Kalibata","transit":false},{"is_transit":false,"time":2,"distance":824,"i_lat":-6.263214,"station_name":"Pasar Minggu Baru","line":2,"transit":false,"i_long":106.851577,"station_id":"PSMB"},{"i_long":106.843999,"station_name":"Pasar Minggu","transit":false,"time":2,"distance":2380,"is_transit":false,"i_lat":-6.2842400000000005,"line":2,"station_id":"PSM"},{"station_name":"Tanjung Barat","time":4,"station_id":"TNT","is_transit":false,"i_lat":-6.3080680000000005,"line":2,"transit":false,"i_long":106.838896,"distance":2820},{"i_lat":-6.330363,"time":3,"i_long":106.832616,"distance":2671,"is_transit":false,"station_name":"Lenteng Agung","line":2,"station_id":"LNA","transit":false}],[{"station_id":"PSG","line":5,"i_lat":-6.161433,"station_name":"Pesing","is_transit":false,"distance":0,"transit":false,"time":0,"i_long":106.771379},{"time":2,"transit":false,"line":5,"is_transit":false,"i_long":106.788277,"station_name":"Grogol","distance":2036,"station_id":"GRG","i_lat":-6.162021},{"station_name":"Duri","station_id":"DU","distance":1700,"i_long":106.800832,"time":3,"transit":true,"is_transit":true,"i_lat":-6.155215,"line":1},{"station_id":"AK","transit":false,"time":4,"distance":1230,"is_transit":false,"i_lat":-6.144674,"station_name":"Angke","i_long":106.79867,"line":1},{"i_long":106.826365,"transit":true,"station_name":"Kampung Bandan","is_transit":true,"time":9,"i_lat":-6.132549,"line":4,"distance":4102,"station_id":"KPB"},{"time":3,"distance":1364,"is_transit":true,"transit":true,"i_lat":-6.137569,"i_long":106.812439,"station_id":"JAKK","station_name":"Jakarta Kota","line":2},{"station_name":"Jayakarta","is_transit":false,"station_id":"JAY","distance":1264,"transit":false,"i_lat":-6.141205,"i_long":106.820901,"line":2,"time":4},{"station_id":"MGB","transit":false,"i_lat":-6.149769,"station_name":"Manggabesar","time":2,"distance":1080,"i_long":106.82482,"line":2,"is_transit":false},{"i_lat":-6.160725,"station_name":"Sawah Besar","line":2,"distance":906,"station_id":"SW","is_transit":false,"transit":false,"i_long":106.827103,"time":2},{"time":2,"i_lat":-6.166716,"station_id":"JUA","is_transit":false,"line":2,"station_name":"Juanda","i_long":106.828284,"transit":false,"distance":1149},{"transit":false,"line":2,"station_id":"GDD","is_transit":false,"station_name":"Gondangdia","i_long":106.832183,"i_lat":-6.186295,"time":4,"distance":2015},{"distance":1750,"time":3,"i_lat":-6.198556,"line":2,"i_long":106.840169,"station_name":"Cikini","transit":false,"is_transit":false,"station_id":"CKI"},{"is_transit":false,"line":2,"time":4,"distance":1590,"station_id":"MRI","i_lat":-6.209883,"transit":false,"station_name":"Manggarai","i_long":106.84912},{"i_lat":-6.226659,"transit":false,"distance":2610,"time":4,"station_id":"TEB","station_name":"Tebet","i_long":106.857948,"line":2,"is_transit":false},{"station_id":"CW","station_name":"Cawang","i_long":106.856607,"distance":1230,"line":2,"is_transit":false,"transit":false,"i_lat":-6.242512,"time":2},{"station_name":"Duren Kalibata","time":3,"station_id":"DRN","line":2,"i_long":106.85449,"i_lat":-6.255332,"is_transit":false,"distance":1546,"transit":false},{"station_id":"PSMB","is_transit":false,"i_lat":-6.263214,"transit":false,"i_long":106.851577,"time":2,"distance":824,"station_name":"Pasar Minggu Baru","line":2},{"line":2,"i_lat":-6.2842400000000005,"transit":false,"is_transit":false,"station_name":"Pasar Minggu","i_long":106.843999,"time":2,"station_id":"PSM","distance":2380},{"i_lat":-6.3080680000000005,"transit":false,"station_id":"TNT","line":2,"time":4,"distance":2820,"station_name":"Tanjung Barat","i_long":106.838896,"is_transit":false},{"time":3,"i_lat":-6.330363,"station_name":"Lenteng Agung","i_long":106.832616,"distance":2671,"line":2,"transit":false,"is_transit":false,"station_id":"LNA"}],[{"time":0,"line":5,"station_id":"PSG","distance":0,"i_lat":-6.161433,"transit":false,"is_transit":false,"station_name":"Pesing","i_long":106.771379},{"is_transit":false,"station_id":"GRG","transit":false,"i_lat":-6.162021,"line":5,"i_long":106.788277,"time":2,"distance":2036,"station_name":"Grogol"},{"station_id":"DU","i_lat":-6.155215,"transit":true,"distance":1700,"station_name":"Duri","i_long":106.800832,"time":3,"is_transit":true,"line":1},{"i_long":106.79867,"station_id":"AK","distance":1230,"i_lat":-6.144674,"is_transit":false,"station_name":"Angke","transit":false,"time":4,"line":1},{"transit":true,"time":9,"distance":4102,"i_lat":-6.132549,"station_id":"KPB","i_long":106.826365,"station_name":"Kampung Bandan","line":4,"is_transit":true},{"time":3,"transit":false,"is_transit":false,"station_id":"RJW","i_lat":-6.14505,"distance":1444,"station_name":"Rajawali","i_long":106.836569,"line":11},{"is_transit":false,"station_id":"KMO","i_lat":-6.161728,"time":5,"i_long":106.839204,"line":11,"transit":false,"distance":1901,"station_name":"Kemayoran"},{"line":11,"distance":1436,"time":4,"i_long":106.84368,"transit":false,"i_lat":-6.174784,"is_transit":false,"station_name":"Pasar Senen","station_id":"PSE"},{"line":11,"i_long":106.850107,"transit":false,"station_name":"Gang Sentiong","is_transit":false,"station_id":"GST","time":8,"distance":1567,"i_lat":-6.185975},{"time":1,"station_id":"KMT","i_long":106.855437,"station_name":"Kramat","line":11,"i_lat":-6.193792,"is_transit":false,"transit":false,"distance":973},{"time":2,"station_id":"POK","line":11,"transit":false,"distance":1829,"is_transit":false,"station_name":"Pondok Jati","i_lat":-6.209188,"i_long":106.861737},{"is_transit":true,"transit":true,"station_name":"Jatinegara","station_id":"JNG","line":1,"distance":1236,"i_lat":-6.215091,"i_long":106.86807400000001,"time":9},{"station_name":"Matraman","distance":1377,"is_transit":false,"station_id":"MTR","i_lat":-6.212485,"time":2,"transit":false,"i_long":106.858896,"line":1},{"line":2,"distance":1275,"station_name":"Manggarai","station_id":"MRI","transit":true,"i_lat":-6.209883,"time":2,"is_transit":true,"i_long":106.84912},{"station_name":"Tebet","line":2,"is_transit":false,"i_lat":-6.226659,"station_id":"TEB","transit":false,"time":4,"distance":2610,"i_long":106.857948},{"transit":false,"i_lat":-6.242512,"i_long":106.856607,"is_transit":false,"time":2,"distance":1230,"station_name":"Cawang","station_id":"CW","line":2},{"station_name":"Duren Kalibata","distance":1546,"is_transit":false,"station_id":"DRN","i_lat":-6.255332,"time":3,"transit":false,"i_long":106.85449,"line":2},{"station_id":"PSMB","time":2,"is_transit":false,"distance":824,"transit":false,"i_lat":-6.263214,"i_long":106.851577,"station_name":"Pasar Minggu Baru","line":2},{"distance":2380,"time":2,"station_id":"PSM","i_lat":-6.2842400000000005,"line":2,"i_long":106.843999,"transit":false,"is_transit":false,"station_name":"Pasar Minggu"},{"i_lat":-6.3080680000000005,"station_id":"TNT","distance":2820,"transit":false,"i_long":106.838896,"time":4,"is_transit":false,"line":2,"station_name":"Tanjung Barat"},{"is_transit":false,"station_id":"LNA","distance":2671,"i_long":106.832616,"station_name":"Lenteng Agung","i_lat":-6.330363,"time":3,"transit":false,"line":2}]]}