{"data":[[{"line":5,"transit":false,"distance":0,"is_transit":false,"time":0,"station_id":"PSG","i_long":106.771379,"station_name":"Pesing","i_lat":-6.161433},{"i_long":106.788277,"transit":false,"line":5,"station_name":"Grogol","i_lat":-6.162021,"is_transit":false,"distance":2036,"station_id":"GGL","time":2},{"distance":1700,"transit":true,"i_lat":-6.155215,"i_long":106.800832,"is_transit":true,"line":1,"station_id":"DU","station_name":"Duri","time":3},{"is_transit":false,"time":4,"i_lat":-6.144674,"transit":false,"i_long":106.79867,"line":0,"station_name":"Angke","distance":1230,"station_id":"AK"},{"station_name":"Kampung Bandan","distance":4102,"time":9,"line":0,"station_id":"KPB","transit":true,"is_transit":true,"i_long":106.826365,"i_lat":-6.132549},{"line":11,"station_id":"RJW","i_lat":-6.14505,"transit":false,"distance":1444,"station_name":"Rajawali","time":3,"is_transit":false,"i_long":106.836569},{"station_id":"KMO","transit":false,"i_long":106.839204,"i_lat":-6.161728,"line":11,"distance":1901,"station_name":"Kemayoran","time":5,"is_transit":false},{"distance":1436,"time":4,"i_long":106.84368,"line":11,"is_transit":false,"station_id":"PSE","station_name":"Pasar Senen","i_lat":-6.174784,"transit":false},{"i_lat":-6.185975,"i_long":106.850107,"station_id":"GST","line":11,"station_name":"Gang Sentiong","distance":1567,"is_transit":false,"transit":false,"time":8},{"station_id":"KMT","station_name":"Kramat","time":1,"i_lat":-6.193792,"is_transit":false,"i_long":106.855437,"line":11,"transit":false,"distance":973},{"is_transit":false,"i_lat":-6.209188,"station_id":"POK","station_name":"Pondok Jati","time":2,"transit":false,"line":11,"distance":1829,"i_long":106.861737}],[{"station_id":"PSG","time":0,"i_long":106.771379,"i_lat":-6.161433,"distance":0,"station_name":"Pesing","is_transit":false,"line":5,"transit":false},{"time":2,"station_name":"Grogol","transit":false,"i_long":106.788277,"line":5,"distance":2036,"i_lat":-6.162021,"is_transit":false,"station_id":"GGL"},{"transit":true,"i_lat":-6.155215,"distance":1700,"is_transit":true,"station_id":"DU","station_name":"Duri","time":3,"line":1,"i_long":106.800832},{"distance":3632,"station_id":"THB","transit":false,"station_name":"Tanah Abang","i_lat":-6.185545,"time":8,"i_long":106.811091,"is_transit":true,"line":1},{"i_long":106.816351,"time":5,"line":1,"transit":false,"is_transit":false,"i_lat":-6.20132,"distance":2029,"station_id":"KAT","station_name":"Karet"},{"station_name":"Sudirman Baru","transit":false,"is_transit":false,"i_lat":-6.201433,"line":1,"time":1,"distance":471,"i_long":106.819881,"station_id":"SUDB"},{"i_lat":-6.202263,"is_transit":false,"time":1,"station_id":"SUD","station_name":"Sudirman","i_long":106.822649,"distance":280,"transit":false,"line":1},{"i_long":106.84912,"is_transit":true,"distance":3186,"station_name":"Manggarai","station_id":"MRI","line":0,"time":4,"i_lat":-6.209883,"transit":false},{"station_id":"MTR","distance":1275,"time":2,"i_long":106.858896,"line":1,"station_name":"Matraman","is_transit":false,"transit":false,"i_lat":-6.212485},{"transit":true,"distance":1377,"time":8,"i_lat":-6.215091,"line":0,"i_long":106.86807400000001,"station_name":"Jatinegara","station_id":"JNG","is_transit":true},{"i_long":106.861737,"line":11,"transit":false,"i_lat":-6.209188,"distance":1236,"station_id":"POK","is_transit":false,"time":2,"station_name":"Pondok Jati"}],[{"distance":0,"transit":false,"station_name":"Pesing","i_long":106.771379,"line":5,"is_transit":false,"i_lat":-6.161433,"time":0,"station_id":"PSG"},{"distance":2036,"transit":false,"station_id":"GGL","time":2,"station_name":"Grogol","is_transit":false,"line":5,"i_long":106.788277,"i_lat":-6.162021},{"station_name":"Duri","transit":true,"is_transit":true,"time":3,"line":1,"i_lat":-6.155215,"distance":1700,"i_long":106.800832,"station_id":"DU"},{"station_name":"Angke","line":0,"i_lat":-6.144674,"time":4,"is_transit":false,"distance":1230,"i_long":106.79867,"transit":false,"station_id":"AK"},{"i_long":106.826365,"is_transit":true,"time":9,"i_lat":-6.132549,"station_id":"KPB","line":0,"station_name":"Kampung Bandan","distance":4102,"transit":false},{"i_lat":-6.137569,"station_name":"Jakarta Kota","time":3,"station_id":"JAKK","distance":1364,"is_transit":true,"i_long":106.812439,"line":0,"transit":true},{"station_id":"JAY","time":4,"station_name":"Jayakarta","i_long":106.820901,"line":7,"transit":false,"distance":1264,"i_lat":-6.141205,"is_transit":false},{"transit":false,"time":2,"station_id":"MGB","distance":1080,"line":2,"is_transit":false,"station_name":"Manggabesar","i_lat":-6.149769,"i_long":106.82482},{"line":2,"station_id":"SW","distance":906,"transit":false,"station_name":"Sawah Besar","i_long":106.827103,"is_transit":false,"time":2,"i_lat":-6.160725},{"time":2,"line":2,"station_name":"Juanda","distance":1149,"i_long":106.828284,"is_transit":false,"i_lat":-6.166716,"station_id":"JUA","transit":false},{"distance":2015,"station_name":"Gondangdia","line":2,"i_long":106.832183,"is_transit":false,"transit":false,"i_lat":-6.186295,"station_id":"GDD","time":4},{"station_id":"CKI","distance":1750,"station_name":"Cikini","is_transit":false,"i_lat":-6.198556,"i_long":106.840169,"time":3,"transit":false,"line":0},{"distance":1590,"station_name":"Manggarai","time":4,"i_long":106.84912,"transit":true,"i_lat":-6.209883,"is_transit":true,"station_id":"MRI","line":0},{"distance":1275,"i_lat":-6.212485,"i_long":106.858896,"station_id":"MTR","is_transit":false,"time":2,"line":1,"station_name":"Matraman","transit":false},{"i_long":106.86807400000001,"station_id":"JNG","is_transit":true,"station_name":"Jatinegara","time":8,"i_lat":-6.215091,"line":0,"distance":1377,"transit":true},{"station_name":"Pondok Jati","line":11,"distance":1236,"station_id":"POK","transit":false,"i_long":106.861737,"is_transit":false,"i_lat":-6.209188,"time":2}],[{"transit":false,"line":5,"station_id":"PSG","distance":0,"time":0,"is_transit":false,"i_lat":-6.161433,"station_name":"Pesing","i_long":106.771379},{"transit":false,"station_name":"Grogol","time":2,"line":5,"distance":2036,"station_id":"GGL","is_transit":false,"i_lat":-6.162021,"i_long":106.788277},{"i_lat":-6.155215,"transit":true,"i_long":106.800832,"time":3,"line":1,"distance":1700,"is_transit":true,"station_id":"DU","station_name":"Duri"},{"time":8,"i_lat":-6.185545,"line":1,"station_name":"Tanah Abang","distance":3632,"transit":false,"is_transit":true,"i_long":106.811091,"station_id":"THB"},{"is_transit":false,"station_name":"Karet","transit":false,"distance":2029,"i_long":106.816351,"time":5,"line":1,"station_id":"KAT","i_lat":-6.20132},{"is_transit":false,"time":1,"station_id":"SUDB","line":1,"station_name":"Sudirman Baru","i_long":106.819881,"distance":471,"transit":false,"i_lat":-6.201433},{"station_id":"SUD","station_name":"Sudirman","time":1,"transit":false,"distance":280,"is_transit":false,"i_lat":-6.202263,"i_long":106.822649,"line":1},{"is_transit":true,"station_id":"MRI","i_lat":-6.209883,"line":0,"transit":true,"station_name":"Manggarai","distance":3186,"i_long":106.84912,"time":4},{"transit":false,"distance":1590,"i_long":106.840169,"station_name":"Cikini","is_transit":false,"line":0,"time":4,"station_id":"CKI","i_lat":-6.198556},{"time":3,"line":2,"is_transit":false,"i_lat":-6.186295,"station_id":"GDD","station_name":"Gondangdia","transit":false,"i_long":106.832183,"distance":1750},{"distance":2015,"i_lat":-6.166716,"line":2,"is_transit":false,"station_id":"JUA","time":4,"i_long":106.828284,"station_name":"Juanda","transit":false},{"is_transit":false,"time":2,"distance":1149,"i_long":106.827103,"station_id":"SW","transit":false,"line":2,"i_lat":-6.160725,"station_name":"Sawah Besar"},{"line":2,"time":2,"is_transit":false,"i_long":106.82482,"station_name":"Manggabesar","i_lat":-6.149769,"station_id":"MGB","distance":906,"transit":false},{"line":7,"station_id":"JAY","i_long":106.820901,"station_name":"Jayakarta","i_lat":-6.141205,"distance":1080,"is_transit":false,"transit":false,"time":2},{"distance":1264,"i_lat":-6.137569,"is_transit":true,"time":4,"line":0,"station_id":"JAKK","transit":true,"station_name":"Jakarta Kota","i_long":106.812439},{"station_name":"Kampung Bandan","line":0,"is_transit":true,"distance":1364,"i_lat":-6.132549,"transit":true,"i_long":106.826365,"station_id":"KPB","time":3},{"station_name":"Rajawali","i_long":106.836569,"i_lat":-6.14505,"transit":false,"time":3,"distance":1444,"is_transit":false,"station_id":"RJW","line":11},{"is_transit":false,"station_id":"KMO","i_lat":-6.161728,"i_long":106.839204,"line":11,"time":5,"distance":1901,"station_name":"Kemayoran","transit":false},{"is_transit":false,"time":4,"i_lat":-6.174784,"line":11,"station_id":"PSE","transit":false,"station_name":"Pasar Senen","distance":1436,"i_long":106.84368},{"line":11,"station_name":"Gang Sentiong","time":8,"i_long":106.850107,"station_id":"GST","distance":1567,"i_lat":-6.185975,"is_transit":false,"transit":false},{"i_lat":-6.193792,"i_long":106.855437,"line":11,"transit":false,"is_transit":false,"station_id":"KMT","station_name":"Kramat","time":1,"distance":973},{"transit":false,"distance":1829,"i_lat":-6.209188,"is_transit":false,"station_id":"POK","i_long":106.861737,"time":2,"line":11,"station_name":"Pondok Jati"}]]}