{"data":[[{"distance":0,"station_id":"PSG","time":0,"transit":false,"line":5,"is_transit":false,"i_lat":-6.161433,"i_long":106.771379,"station_name":"Pesing"},{"time":2,"transit":false,"distance":1614,"station_id":"TKO","station_name":"Taman Kota","i_long":106.756522,"line":5,"is_transit":false,"i_lat":-6.1587309999999995},{"station_id":"BOI","line":5,"is_transit":false,"i_lat":-6.159876,"i_long":106.737035,"station_name":"Bojongindah","transit":false,"time":2,"distance":2334},{"transit":false,"station_name":"Rawa Buaya","time":4,"station_id":"RW","line":5,"distance":1152,"i_lat":-6.162758,"i_long":106.723064,"is_transit":false},{"i_long":106.701612,"station_name":"Kalideres","line":5,"is_transit":false,"distance":2504,"transit":false,"station_id":"KDS","i_lat":-6.166068,"time":3}]]}