{"data":[[{"station_name":"Pesing","time":0,"line":5,"is_transit":false,"station_id":"PSG","i_lat":-6.161433,"transit":false,"i_long":106.771379,"distance":0},{"line":5,"i_long":106.788277,"is_transit":false,"i_lat":-6.162021,"distance":2036,"time":2,"transit":false,"station_name":"Grogol","station_id":"GGL"},{"station_id":"DU","time":3,"i_long":106.800832,"station_name":"Duri","line":1,"i_lat":-6.155215,"is_transit":true,"distance":1700,"transit":true},{"line":1,"station_name":"Tanah Abang","distance":3632,"transit":false,"is_transit":true,"time":8,"i_lat":-6.185545,"i_long":106.811091,"station_id":"THB"},{"station_name":"Karet","line":1,"time":5,"station_id":"KAT","i_long":106.816351,"i_lat":-6.20132,"distance":2029,"is_transit":false,"transit":false},{"i_lat":-6.201433,"is_transit":false,"transit":false,"i_long":106.819881,"distance":471,"station_name":"Sudirman Baru","line":1,"station_id":"SUDB","time":1},{"distance":280,"transit":false,"time":1,"i_long":106.822649,"is_transit":false,"station_name":"Sudirman","i_lat":-6.202263,"line":1,"station_id":"SUD"},{"i_long":106.84912,"is_transit":true,"i_lat":-6.209883,"line":0,"time":4,"transit":true,"distance":3186,"station_id":"MRI","station_name":"Manggarai"},{"transit":false,"station_name":"Tebet","distance":2610,"station_id":"TEB","time":4,"i_long":106.857948,"is_transit":false,"i_lat":-6.226659,"line":2},{"line":0,"distance":1230,"station_id":"CW","time":2,"i_lat":-6.242512,"station_name":"Cawang","transit":false,"is_transit":false,"i_long":106.856607},{"distance":1546,"is_transit":false,"i_lat":-6.255332,"station_id":"DRN","transit":false,"time":3,"i_long":106.85449,"station_name":"Duren Kalibata","line":0},{"time":2,"distance":824,"i_long":106.851577,"station_id":"PSMB","station_name":"Pasar Minggu Baru","i_lat":-6.263214,"transit":false,"is_transit":false,"line":2},{"station_name":"Pasar Minggu","transit":false,"line":2,"is_transit":false,"distance":2380,"time":2,"i_lat":-6.2842400000000005,"station_id":"PSM","i_long":106.843999},{"station_name":"Tanjung Barat","is_transit":false,"transit":false,"distance":2820,"i_lat":-6.3080680000000005,"station_id":"TNT","time":4,"i_long":106.838896,"line":2},{"distance":2671,"i_long":106.832616,"time":3,"is_transit":false,"i_lat":-6.330363,"station_id":"LNA","line":2,"transit":false,"station_name":"Lenteng Agung"},{"i_lat":-6.339291,"i_long":106.834175,"distance":1029,"line":2,"station_name":"Univ. Pancasila","is_transit":false,"time":2,"station_id":"UP","transit":false},{"transit":false,"i_long":106.831474,"time":3,"is_transit":false,"line":2,"station_id":"UI","i_lat":-6.360749,"distance":2264,"station_name":"Univ. Indonesia"},{"time":2,"station_id":"POC","distance":1109,"i_lat":-6.369073,"line":2,"is_transit":false,"station_name":"Pondok Cina","transit":false,"i_long":106.831114},{"i_long":106.819451,"station_id":"DPB","distance":2727,"station_name":"Depokbaru","is_transit":false,"transit":false,"i_lat":-6.391065,"time":4,"line":0},{"time":3,"line":0,"is_transit":false,"transit":false,"i_lat":-6.405256,"station_id":"DP","distance":1584,"station_name":"Depok","i_long":106.816926},{"i_lat":-6.448811,"transit":false,"line":1,"time":6,"i_long":106.800298,"is_transit":true,"station_name":"Citayam","distance":5084,"station_id":"CTA"},{"line":0,"transit":false,"time":5,"i_long":106.792719,"distance":5197,"i_lat":-6.493243,"station_name":"Bojonggede","is_transit":false,"station_id":"BJD"},{"is_transit":false,"station_name":"Cilebut","i_long":106.800016,"line":0,"transit":false,"distance":4331,"time":5,"i_lat":-6.530544,"station_id":"CLT"},{"transit":false,"station_name":"Bogor","i_lat":-6.594596,"distance":7514,"station_id":"BOO","is_transit":true,"time":9,"line":1,"i_long":106.790574}],[{"station_name":"Pesing","transit":false,"i_long":106.771379,"station_id":"PSG","line":5,"time":0,"i_lat":-6.161433,"distance":0,"is_transit":false},{"distance":2036,"line":5,"i_lat":-6.162021,"station_id":"GGL","station_name":"Grogol","time":2,"i_long":106.788277,"transit":false,"is_transit":false},{"distance":1700,"station_id":"DU","transit":true,"line":1,"station_name":"Duri","is_transit":true,"i_long":106.800832,"time":3,"i_lat":-6.155215},{"station_id":"AK","distance":1230,"is_transit":false,"i_long":106.79867,"station_name":"Angke","line":0,"transit":false,"time":4,"i_lat":-6.144674},{"transit":false,"time":9,"station_id":"KPB","line":0,"i_long":106.826365,"i_lat":-6.132549,"station_name":"Kampung Bandan","distance":4102,"is_transit":true},{"distance":1364,"station_id":"JAKK","i_long":106.812439,"time":3,"station_name":"Jakarta Kota","i_lat":-6.137569,"transit":true,"line":0,"is_transit":true},{"station_id":"JAY","time":4,"i_long":106.820901,"station_name":"Jayakarta","transit":false,"line":7,"distance":1264,"i_lat":-6.141205,"is_transit":false},{"line":2,"is_transit":false,"i_lat":-6.149769,"time":2,"transit":false,"station_name":"Manggabesar","station_id":"MGB","distance":1080,"i_long":106.82482},{"i_lat":-6.160725,"transit":false,"i_long":106.827103,"line":2,"station_id":"SW","station_name":"Sawah Besar","is_transit":false,"distance":906,"time":2},{"i_lat":-6.166716,"transit":false,"is_transit":false,"station_id":"JUA","time":2,"i_long":106.828284,"station_name":"Juanda","line":2,"distance":1149},{"is_transit":false,"transit":false,"station_id":"GDD","distance":2015,"time":4,"station_name":"Gondangdia","i_lat":-6.186295,"i_long":106.832183,"line":2},{"transit":false,"distance":1750,"is_transit":false,"station_name":"Cikini","i_lat":-6.198556,"station_id":"CKI","line":0,"time":3,"i_long":106.840169},{"i_lat":-6.209883,"line":0,"transit":true,"station_id":"MRI","station_name":"Manggarai","i_long":106.84912,"distance":1590,"time":4,"is_transit":true},{"station_name":"Tebet","transit":false,"station_id":"TEB","distance":2610,"i_long":106.857948,"time":4,"line":2,"is_transit":false,"i_lat":-6.226659},{"distance":1230,"time":2,"is_transit":false,"station_name":"Cawang","i_lat":-6.242512,"transit":false,"line":0,"station_id":"CW","i_long":106.856607},{"i_lat":-6.255332,"station_name":"Duren Kalibata","i_long":106.85449,"time":3,"distance":1546,"station_id":"DRN","line":0,"transit":false,"is_transit":false},{"i_lat":-6.263214,"station_id":"PSMB","i_long":106.851577,"distance":824,"transit":false,"is_transit":false,"line":2,"station_name":"Pasar Minggu Baru","time":2},{"i_long":106.843999,"distance":2380,"transit":false,"i_lat":-6.2842400000000005,"station_id":"PSM","line":2,"is_transit":false,"station_name":"Pasar Minggu","time":2},{"distance":2820,"station_id":"TNT","i_lat":-6.3080680000000005,"time":4,"line":2,"is_transit":false,"transit":false,"i_long":106.838896,"station_name":"Tanjung Barat"},{"i_lat":-6.330363,"station_id":"LNA","distance":2671,"i_long":106.832616,"transit":false,"station_name":"Lenteng Agung","time":3,"line":2,"is_transit":false},{"is_transit":false,"station_name":"Univ. Pancasila","i_long":106.834175,"time":2,"distance":1029,"i_lat":-6.339291,"transit":false,"line":2,"station_id":"UP"},{"is_transit":false,"transit":false,"station_id":"UI","distance":2264,"station_name":"Univ. Indonesia","line":2,"i_long":106.831474,"time":3,"i_lat":-6.360749},{"line":2,"station_id":"POC","is_transit":false,"time":2,"i_lat":-6.369073,"distance":1109,"i_long":106.831114,"transit":false,"station_name":"Pondok Cina"},{"i_long":106.819451,"distance":2727,"i_lat":-6.391065,"line":0,"station_id":"DPB","time":4,"is_transit":false,"station_name":"Depokbaru","transit":false},{"is_transit":false,"i_long":106.816926,"time":3,"transit":false,"station_id":"DP","station_name":"Depok","i_lat":-6.405256,"distance":1584,"line":0},{"time":6,"i_long":106.800298,"i_lat":-6.448811,"station_id":"CTA","distance":5084,"is_transit":true,"line":1,"station_name":"Citayam","transit":false},{"is_transit":false,"station_name":"Bojonggede","i_lat":-6.493243,"i_long":106.792719,"line":0,"distance":5197,"transit":false,"station_id":"BJD","time":5},{"distance":4331,"is_transit":false,"time":5,"transit":false,"i_lat":-6.530544,"i_long":106.800016,"station_id":"CLT","line":0,"station_name":"Cilebut"},{"distance":7514,"time":9,"transit":false,"line":1,"station_name":"Bogor","i_lat":-6.594596,"i_long":106.790574,"station_id":"BOO","is_transit":true}],[{"station_id":"PSG","i_lat":-6.161433,"line":5,"time":0,"transit":false,"station_name":"Pesing","i_long":106.771379,"distance":0,"is_transit":false},{"line":5,"distance":2036,"station_id":"GGL","i_lat":-6.162021,"time":2,"station_name":"Grogol","transit":false,"is_transit":false,"i_long":106.788277},{"time":3,"station_id":"DU","distance":1700,"i_long":106.800832,"transit":true,"is_transit":true,"line":1,"i_lat":-6.155215,"station_name":"Duri"},{"i_lat":-6.144674,"distance":1230,"is_transit":false,"station_name":"Angke","line":0,"transit":false,"station_id":"AK","time":4,"i_long":106.79867},{"time":9,"distance":4102,"transit":true,"i_long":106.826365,"station_name":"Kampung Bandan","is_transit":true,"line":0,"station_id":"KPB","i_lat":-6.132549},{"is_transit":false,"transit":false,"line":11,"i_long":106.836569,"time":3,"station_id":"RJW","i_lat":-6.14505,"distance":1444,"station_name":"Rajawali"},{"i_long":106.839204,"is_transit":false,"station_name":"Kemayoran","transit":false,"distance":1901,"time":5,"i_lat":-6.161728,"station_id":"KMO","line":11},{"i_lat":-6.174784,"line":11,"time":4,"is_transit":false,"station_name":"Pasar Senen","i_long":106.84368,"distance":1436,"transit":false,"station_id":"PSE"},{"station_name":"Gang Sentiong","distance":1567,"is_transit":false,"line":11,"time":8,"i_lat":-6.185975,"station_id":"GST","transit":false,"i_long":106.850107},{"time":1,"line":11,"i_lat":-6.193792,"distance":973,"is_transit":false,"station_id":"KMT","station_name":"Kramat","transit":false,"i_long":106.855437},{"station_name":"Pondok Jati","transit":false,"station_id":"POK","i_lat":-6.209188,"time":2,"is_transit":false,"distance":1829,"i_long":106.861737,"line":11},{"station_name":"Jatinegara","i_lat":-6.215091,"line":0,"i_long":106.86807400000001,"time":9,"station_id":"JNG","is_transit":true,"transit":true,"distance":1236},{"time":2,"i_long":106.858896,"line":1,"i_lat":-6.212485,"distance":1377,"station_name":"Matraman","transit":false,"is_transit":false,"station_id":"MTR"},{"is_transit":true,"line":0,"station_name":"Manggarai","time":2,"i_long":106.84912,"distance":1275,"station_id":"MRI","transit":true,"i_lat":-6.209883},{"distance":2610,"station_name":"Tebet","station_id":"TEB","i_long":106.857948,"transit":false,"time":4,"i_lat":-6.226659,"line":2,"is_transit":false},{"i_lat":-6.242512,"i_long":106.856607,"line":0,"station_name":"Cawang","transit":false,"time":2,"is_transit":false,"station_id":"CW","distance":1230},{"distance":1546,"is_transit":false,"transit":false,"line":0,"station_name":"Duren Kalibata","i_lat":-6.255332,"i_long":106.85449,"time":3,"station_id":"DRN"},{"i_long":106.851577,"i_lat":-6.263214,"transit":false,"station_name":"Pasar Minggu Baru","distance":824,"station_id":"PSMB","is_transit":false,"time":2,"line":2},{"station_name":"Pasar Minggu","station_id":"PSM","i_lat":-6.2842400000000005,"line":2,"distance":2380,"is_transit":false,"time":2,"transit":false,"i_long":106.843999},{"station_name":"Tanjung Barat","transit":false,"i_lat":-6.3080680000000005,"line":2,"is_transit":false,"time":4,"distance":2820,"station_id":"TNT","i_long":106.838896},{"transit":false,"time":3,"station_id":"LNA","i_long":106.832616,"line":2,"distance":2671,"i_lat":-6.330363,"is_transit":false,"station_name":"Lenteng Agung"},{"line":2,"i_lat":-6.339291,"time":2,"station_name":"Univ. Pancasila","station_id":"UP","distance":1029,"i_long":106.834175,"transit":false,"is_transit":false},{"distance":2264,"is_transit":false,"i_lat":-6.360749,"station_id":"UI","i_long":106.831474,"station_name":"Univ. Indonesia","transit":false,"time":3,"line":2},{"time":2,"i_lat":-6.369073,"line":2,"station_id":"POC","i_long":106.831114,"station_name":"Pondok Cina","transit":false,"is_transit":false,"distance":1109},{"i_lat":-6.391065,"station_name":"Depokbaru","line":0,"distance":2727,"time":4,"station_id":"DPB","is_transit":false,"transit":false,"i_long":106.819451},{"is_transit":false,"line":0,"time":3,"station_name":"Depok","distance":1584,"station_id":"DP","transit":false,"i_lat":-6.405256,"i_long":106.816926},{"time":6,"station_id":"CTA","line":1,"i_long":106.800298,"is_transit":true,"i_lat":-6.448811,"distance":5084,"station_name":"Citayam","transit":false},{"station_id":"BJD","i_long":106.792719,"distance":5197,"line":0,"transit":false,"station_name":"Bojonggede","i_lat":-6.493243,"time":5,"is_transit":false},{"distance":4331,"time":5,"i_long":106.800016,"station_name":"Cilebut","transit":false,"i_lat":-6.530544,"line":0,"is_transit":false,"station_id":"CLT"},{"distance":7514,"time":9,"i_long":106.790574,"line":1,"is_transit":true,"i_lat":-6.594596,"transit":false,"station_id":"BOO","station_name":"Bogor"}]]}