{"data":[[{"line":5,"time":0,"i_lat":-6.161433,"station_name":"Pesing","i_long":106.771379,"transit":false,"distance":0,"is_transit":false,"station_id":"PSG"},{"is_transit":false,"station_id":"GGL","distance":2036,"i_long":106.788277,"i_lat":-6.162021,"transit":false,"station_name":"Grogol","time":2,"line":5},{"transit":true,"is_transit":true,"distance":1700,"i_lat":-6.155215,"line":1,"station_name":"Duri","station_id":"DU","time":3,"i_long":106.800832},{"distance":1230,"i_long":106.79867,"station_name":"Angke","transit":false,"is_transit":false,"i_lat":-6.144674,"station_id":"AK","line":1,"time":4},{"i_lat":-6.132549,"i_long":106.826365,"is_transit":false,"time":9,"station_id":"KPB","transit":false,"distance":4102,"line":4,"station_name":"Kampung Bandan"}],[{"i_long":106.771379,"distance":0,"transit":false,"station_id":"PSG","is_transit":false,"station_name":"Pesing","time":0,"i_lat":-6.161433,"line":5},{"distance":2036,"time":2,"transit":false,"station_name":"Grogol","is_transit":false,"station_id":"GGL","i_lat":-6.162021,"i_long":106.788277,"line":5},{"i_long":106.800832,"line":1,"transit":true,"station_id":"DU","time":3,"station_name":"Duri","is_transit":true,"distance":1700,"i_lat":-6.155215},{"station_name":"Tanah Abang","time":8,"station_id":"THB","distance":3632,"i_lat":-6.185545,"line":1,"i_long":106.811091,"is_transit":false,"transit":false},{"is_transit":false,"transit":false,"distance":2029,"i_long":106.816351,"line":1,"time":5,"station_name":"Karet","station_id":"KAT","i_lat":-6.20132},{"i_lat":-6.201433,"time":1,"i_long":106.819881,"is_transit":false,"line":1,"station_id":"SUDB","distance":471,"station_name":"Sudirman Baru","transit":false},{"i_lat":-6.202263,"station_name":"Sudirman","station_id":"SUD","is_transit":false,"distance":280,"i_long":106.822649,"time":1,"line":1,"transit":false},{"transit":true,"station_id":"MRI","time":4,"station_name":"Manggarai","i_lat":-6.209883,"i_long":106.84912,"is_transit":true,"line":2,"distance":3186},{"station_name":"Cikini","i_long":106.840169,"line":2,"station_id":"CKI","time":4,"distance":1590,"transit":false,"is_transit":false,"i_lat":-6.198556},{"i_long":106.832183,"is_transit":false,"time":3,"transit":false,"station_id":"GDD","i_lat":-6.186295,"line":2,"station_name":"Gondangdia","distance":1750},{"i_long":106.828284,"is_transit":false,"station_name":"Juanda","distance":2015,"transit":false,"time":4,"station_id":"JUA","i_lat":-6.166716,"line":2},{"time":2,"is_transit":false,"station_id":"SW","transit":false,"i_long":106.827103,"i_lat":-6.160725,"station_name":"Sawah Besar","line":2,"distance":1149},{"is_transit":false,"station_name":"Manggabesar","distance":906,"i_lat":-6.149769,"transit":false,"station_id":"MGB","line":2,"i_long":106.82482,"time":2},{"station_id":"JAY","is_transit":false,"line":2,"station_name":"Jayakarta","transit":false,"time":2,"distance":1080,"i_lat":-6.141205,"i_long":106.820901},{"line":2,"station_name":"Jakarta Kota","distance":1264,"time":4,"station_id":"JAKK","i_lat":-6.137569,"i_long":106.812439,"is_transit":true,"transit":true},{"station_name":"Kampung Bandan","station_id":"KPB","time":3,"transit":false,"is_transit":false,"distance":1364,"line":4,"i_lat":-6.132549,"i_long":106.826365}],[{"station_id":"PSG","distance":0,"is_transit":false,"time":0,"line":5,"i_lat":-6.161433,"i_long":106.771379,"transit":false,"station_name":"Pesing"},{"distance":2036,"i_long":106.788277,"is_transit":false,"line":5,"station_name":"Grogol","i_lat":-6.162021,"time":2,"station_id":"GGL","transit":false},{"i_lat":-6.155215,"time":3,"station_id":"DU","transit":true,"station_name":"Duri","is_transit":true,"distance":1700,"i_long":106.800832,"line":1},{"station_name":"Tanah Abang","i_lat":-6.185545,"station_id":"THB","time":8,"transit":false,"is_transit":false,"distance":3632,"i_long":106.811091,"line":1},{"transit":false,"station_name":"Karet","station_id":"KAT","distance":2029,"i_lat":-6.20132,"i_long":106.816351,"line":1,"is_transit":false,"time":5},{"distance":471,"station_name":"Sudirman Baru","station_id":"SUDB","is_transit":false,"i_long":106.819881,"line":1,"i_lat":-6.201433,"time":1,"transit":false},{"time":1,"distance":280,"station_id":"SUD","line":1,"i_lat":-6.202263,"transit":false,"station_name":"Sudirman","i_long":106.822649,"is_transit":false},{"station_name":"Manggarai","station_id":"MRI","is_transit":false,"distance":3186,"i_long":106.84912,"time":4,"line":2,"transit":false,"i_lat":-6.209883},{"station_name":"Matraman","station_id":"MTR","i_long":106.858896,"line":1,"is_transit":false,"time":2,"distance":1275,"i_lat":-6.212485,"transit":false},{"i_long":106.86807400000001,"is_transit":true,"line":1,"transit":true,"distance":1377,"station_id":"JNG","station_name":"Jatinegara","i_lat":-6.215091,"time":8},{"i_lat":-6.209188,"i_long":106.861737,"station_id":"POK","is_transit":false,"transit":false,"station_name":"Pondok Jati","time":2,"distance":1236,"line":11},{"station_name":"Kramat","time":2,"distance":1829,"i_lat":-6.193792,"station_id":"KMT","is_transit":false,"line":11,"i_long":106.855437,"transit":false},{"distance":973,"time":1,"i_lat":-6.185975,"i_long":106.850107,"station_id":"GST","transit":false,"station_name":"Gang Sentiong","line":11,"is_transit":false},{"i_lat":-6.174784,"transit":false,"station_name":"Pasar Senen","line":11,"time":8,"is_transit":false,"station_id":"PSE","i_long":106.84368,"distance":1567},{"station_name":"Kemayoran","station_id":"KMO","distance":1436,"is_transit":false,"line":11,"i_lat":-6.161728,"i_long":106.839204,"time":4,"transit":false},{"is_transit":false,"i_lat":-6.14505,"line":11,"time":5,"i_long":106.836569,"distance":1901,"transit":false,"station_name":"Rajawali","station_id":"RJW"},{"distance":1444,"station_id":"KPB","time":3,"i_lat":-6.132549,"transit":false,"is_transit":false,"station_name":"Kampung Bandan","i_long":106.826365,"line":4}]]}