{"data":[[{"station_id":"PSG","line":5,"transit":false,"station_name":"Pesing","time":0,"distance":0,"i_lat":-6.161433,"is_transit":false,"i_long":106.771379},{"station_id":"GGL","time":2,"is_transit":false,"line":5,"transit":false,"station_name":"Grogol","distance":2036,"i_lat":-6.162021,"i_long":106.788277},{"line":1,"time":3,"is_transit":true,"transit":true,"i_lat":-6.155215,"i_long":106.800832,"station_id":"DU","station_name":"Duri","distance":1700},{"station_id":"AK","time":4,"transit":false,"i_lat":-6.144674,"i_long":106.79867,"line":1,"is_transit":false,"distance":1230,"station_name":"Angke"},{"transit":true,"i_long":106.826365,"station_name":"Kampung Bandan","distance":4102,"time":9,"station_id":"KPB","is_transit":true,"line":4,"i_lat":-6.132549},{"i_lat":-6.128023,"station_name":"Ancol","is_transit":false,"distance":2185,"station_id":"AC","line":4,"transit":false,"time":4,"i_long":106.84464}],[{"transit":false,"distance":0,"is_transit":false,"station_id":"PSG","time":0,"i_lat":-6.161433,"i_long":106.771379,"station_name":"Pesing","line":5},{"is_transit":false,"distance":2036,"station_id":"GGL","station_name":"Grogol","i_lat":-6.162021,"time":2,"line":5,"i_long":106.788277,"transit":false},{"transit":true,"station_name":"Duri","distance":1700,"station_id":"DU","i_long":106.800832,"time":3,"line":1,"i_lat":-6.155215,"is_transit":true},{"distance":3632,"station_id":"THB","is_transit":false,"transit":false,"line":1,"i_long":106.811091,"station_name":"Tanah Abang","i_lat":-6.185545,"time":8},{"distance":2029,"line":1,"i_long":106.816351,"station_name":"Karet","transit":false,"i_lat":-6.20132,"station_id":"KAT","time":5,"is_transit":false},{"i_long":106.819881,"distance":471,"transit":false,"i_lat":-6.201433,"station_name":"Sudirman Baru","time":1,"station_id":"SUDB","is_transit":false,"line":1},{"i_lat":-6.202263,"transit":false,"is_transit":false,"distance":280,"time":1,"i_long":106.822649,"station_name":"Sudirman","station_id":"SUD","line":1},{"i_lat":-6.209883,"is_transit":true,"line":2,"i_long":106.84912,"station_name":"Manggarai","station_id":"MRI","time":4,"distance":3186,"transit":true},{"line":2,"transit":false,"station_name":"Cikini","i_lat":-6.198556,"i_long":106.840169,"distance":1590,"station_id":"CKI","is_transit":false,"time":4},{"i_lat":-6.186295,"i_long":106.832183,"transit":false,"distance":1750,"time":3,"line":2,"is_transit":false,"station_id":"GDD","station_name":"Gondangdia"},{"time":4,"transit":false,"station_name":"Juanda","station_id":"JUA","i_lat":-6.166716,"i_long":106.828284,"line":2,"distance":2015,"is_transit":false},{"line":2,"distance":1149,"is_transit":false,"transit":false,"station_id":"SW","station_name":"Sawah Besar","i_long":106.827103,"time":2,"i_lat":-6.160725},{"distance":906,"station_id":"MGB","i_lat":-6.149769,"time":2,"i_long":106.82482,"station_name":"Manggabesar","line":2,"is_transit":false,"transit":false},{"station_id":"JAY","i_long":106.820901,"time":2,"line":2,"distance":1080,"is_transit":false,"station_name":"Jayakarta","transit":false,"i_lat":-6.141205},{"is_transit":true,"transit":true,"station_name":"Jakarta Kota","station_id":"JAKK","distance":1264,"i_long":106.812439,"line":2,"i_lat":-6.137569,"time":4},{"station_id":"KPB","distance":1364,"transit":true,"is_transit":true,"i_long":106.826365,"line":4,"i_lat":-6.132549,"time":3,"station_name":"Kampung Bandan"},{"transit":false,"is_transit":false,"i_lat":-6.128023,"line":4,"station_id":"AC","time":4,"i_long":106.84464,"distance":2185,"station_name":"Ancol"}],[{"line":5,"transit":false,"station_name":"Pesing","i_lat":-6.161433,"time":0,"distance":0,"station_id":"PSG","i_long":106.771379,"is_transit":false},{"station_id":"GGL","station_name":"Grogol","is_transit":false,"i_lat":-6.162021,"i_long":106.788277,"line":5,"time":2,"distance":2036,"transit":false},{"station_id":"DU","transit":true,"is_transit":true,"time":3,"distance":1700,"i_lat":-6.155215,"i_long":106.800832,"station_name":"Duri","line":1},{"distance":3632,"transit":false,"station_id":"THB","i_lat":-6.185545,"i_long":106.811091,"is_transit":false,"station_name":"Tanah Abang","line":1,"time":8},{"distance":2029,"line":1,"time":5,"station_name":"Karet","transit":false,"station_id":"KAT","i_lat":-6.20132,"i_long":106.816351,"is_transit":false},{"station_name":"Sudirman Baru","station_id":"SUDB","i_lat":-6.201433,"i_long":106.819881,"line":1,"distance":471,"is_transit":false,"transit":false,"time":1},{"station_name":"Sudirman","transit":false,"distance":280,"station_id":"SUD","is_transit":false,"i_lat":-6.202263,"line":1,"i_long":106.822649,"time":1},{"distance":3186,"station_name":"Manggarai","i_lat":-6.209883,"station_id":"MRI","transit":false,"time":4,"i_long":106.84912,"line":2,"is_transit":false},{"is_transit":false,"time":2,"station_id":"MTR","i_lat":-6.212485,"distance":1275,"transit":false,"i_long":106.858896,"station_name":"Matraman","line":1},{"station_name":"Jatinegara","distance":1377,"is_transit":true,"station_id":"JNG","i_lat":-6.215091,"i_long":106.86807400000001,"time":8,"transit":true,"line":1},{"transit":false,"station_name":"Pondok Jati","station_id":"POK","i_long":106.861737,"time":2,"distance":1236,"is_transit":false,"i_lat":-6.209188,"line":11},{"station_name":"Kramat","i_lat":-6.193792,"station_id":"KMT","line":11,"transit":false,"is_transit":false,"time":2,"i_long":106.855437,"distance":1829},{"i_lat":-6.185975,"line":11,"i_long":106.850107,"station_id":"GST","station_name":"Gang Sentiong","distance":973,"time":1,"transit":false,"is_transit":false},{"is_transit":false,"station_name":"Pasar Senen","transit":false,"time":8,"distance":1567,"i_lat":-6.174784,"i_long":106.84368,"line":11,"station_id":"PSE"},{"line":11,"station_name":"Kemayoran","i_lat":-6.161728,"transit":false,"station_id":"KMO","time":4,"i_long":106.839204,"distance":1436,"is_transit":false},{"time":5,"station_id":"RJW","i_lat":-6.14505,"i_long":106.836569,"is_transit":false,"distance":1901,"line":11,"station_name":"Rajawali","transit":false},{"station_name":"Kampung Bandan","distance":1444,"is_transit":true,"i_lat":-6.132549,"i_long":106.826365,"line":4,"transit":true,"time":3,"station_id":"KPB"},{"station_name":"Ancol","station_id":"AC","time":4,"is_transit":false,"i_long":106.84464,"transit":false,"distance":2185,"line":4,"i_lat":-6.128023}]]}