{"data":[[{"i_long":106.771379,"station_id":"PSG","time":0,"is_transit":false,"station_name":"Pesing","distance":0,"transit":false,"i_lat":-6.161433,"line":5},{"is_transit":false,"station_name":"Grogol","station_id":"GGL","time":2,"transit":false,"i_lat":-6.162021,"line":5,"i_long":106.788277,"distance":2036},{"station_id":"DU","is_transit":true,"distance":1700,"station_name":"Duri","time":3,"transit":true,"i_lat":-6.155215,"i_long":106.800832,"line":1},{"time":8,"station_name":"Tanah Abang","i_long":106.811091,"i_lat":-6.185545,"line":1,"transit":false,"is_transit":false,"station_id":"THB","distance":3632},{"station_name":"Karet","distance":2029,"time":5,"is_transit":false,"transit":false,"line":1,"i_long":106.816351,"station_id":"KAT","i_lat":-6.20132},{"time":1,"distance":471,"transit":false,"station_name":"Sudirman Baru","i_lat":-6.201433,"is_transit":false,"station_id":"SUDB","i_long":106.819881,"line":1},{"distance":280,"time":1,"transit":false,"station_name":"Sudirman","i_long":106.822649,"line":1,"is_transit":false,"i_lat":-6.202263,"station_id":"SUD"},{"is_transit":false,"transit":false,"station_name":"Manggarai","i_long":106.84912,"station_id":"MRI","i_lat":-6.209883,"line":2,"distance":3186,"time":4},{"station_id":"MTR","is_transit":false,"distance":1275,"i_long":106.858896,"i_lat":-6.212485,"station_name":"Matraman","line":1,"time":2,"transit":false},{"station_name":"Jatinegara","is_transit":false,"transit":false,"time":8,"i_long":106.86807400000001,"distance":1377,"station_id":"JNG","i_lat":-6.215091,"line":1}],[{"transit":false,"i_long":106.771379,"i_lat":-6.161433,"distance":0,"is_transit":false,"station_name":"Pesing","time":0,"station_id":"PSG","line":5},{"station_id":"GGL","distance":2036,"i_long":106.788277,"line":5,"station_name":"Grogol","time":2,"i_lat":-6.162021,"is_transit":false,"transit":false},{"i_lat":-6.155215,"i_long":106.800832,"line":1,"time":3,"transit":true,"distance":1700,"station_id":"DU","station_name":"Duri","is_transit":true},{"distance":1230,"station_id":"AK","time":4,"i_lat":-6.144674,"transit":false,"i_long":106.79867,"is_transit":false,"station_name":"Angke","line":1},{"time":9,"i_lat":-6.132549,"station_id":"KPB","distance":4102,"station_name":"Kampung Bandan","transit":true,"i_long":106.826365,"is_transit":true,"line":4},{"transit":false,"station_name":"Rajawali","i_long":106.836569,"i_lat":-6.14505,"distance":1444,"time":3,"station_id":"RJW","is_transit":false,"line":11},{"time":5,"distance":1901,"station_id":"KMO","transit":false,"i_long":106.839204,"station_name":"Kemayoran","line":11,"i_lat":-6.161728,"is_transit":false},{"distance":1436,"i_lat":-6.174784,"station_id":"PSE","line":11,"transit":false,"i_long":106.84368,"time":4,"station_name":"Pasar Senen","is_transit":false},{"station_id":"GST","station_name":"Gang Sentiong","line":11,"transit":false,"i_long":106.850107,"distance":1567,"time":8,"is_transit":false,"i_lat":-6.185975},{"distance":973,"transit":false,"station_id":"KMT","time":1,"is_transit":false,"i_long":106.855437,"line":11,"i_lat":-6.193792,"station_name":"Kramat"},{"time":2,"is_transit":false,"line":11,"transit":false,"distance":1829,"station_name":"Pondok Jati","i_lat":-6.209188,"station_id":"POK","i_long":106.861737},{"distance":1236,"station_id":"JNG","station_name":"Jatinegara","line":1,"time":9,"transit":false,"i_lat":-6.215091,"i_long":106.86807400000001,"is_transit":false}],[{"line":5,"time":0,"is_transit":false,"station_name":"Pesing","distance":0,"i_lat":-6.161433,"station_id":"PSG","transit":false,"i_long":106.771379},{"line":5,"distance":2036,"time":2,"is_transit":false,"transit":false,"i_lat":-6.162021,"station_id":"GGL","station_name":"Grogol","i_long":106.788277},{"distance":1700,"time":3,"is_transit":true,"i_long":106.800832,"transit":true,"line":1,"i_lat":-6.155215,"station_id":"DU","station_name":"Duri"},{"transit":false,"distance":1230,"is_transit":false,"time":4,"i_long":106.79867,"station_name":"Angke","i_lat":-6.144674,"line":1,"station_id":"AK"},{"distance":4102,"i_lat":-6.132549,"transit":true,"station_name":"Kampung Bandan","i_long":106.826365,"is_transit":true,"time":9,"station_id":"KPB","line":4},{"time":3,"is_transit":true,"transit":true,"i_lat":-6.137569,"i_long":106.812439,"distance":1364,"station_id":"JAKK","station_name":"Jakarta Kota","line":2},{"i_lat":-6.141205,"time":4,"station_name":"Jayakarta","transit":false,"distance":1264,"i_long":106.820901,"is_transit":false,"line":2,"station_id":"JAY"},{"distance":1080,"time":2,"i_long":106.82482,"is_transit":false,"line":2,"transit":false,"station_id":"MGB","station_name":"Manggabesar","i_lat":-6.149769},{"station_id":"SW","time":2,"is_transit":false,"i_lat":-6.160725,"line":2,"distance":906,"transit":false,"station_name":"Sawah Besar","i_long":106.827103},{"station_name":"Juanda","distance":1149,"time":2,"i_long":106.828284,"line":2,"transit":false,"station_id":"JUA","is_transit":false,"i_lat":-6.166716},{"station_name":"Gondangdia","line":2,"i_lat":-6.186295,"i_long":106.832183,"time":4,"distance":2015,"station_id":"GDD","is_transit":false,"transit":false},{"i_long":106.840169,"distance":1750,"transit":false,"line":2,"time":3,"is_transit":false,"i_lat":-6.198556,"station_id":"CKI","station_name":"Cikini"},{"distance":1590,"time":4,"transit":true,"line":2,"station_name":"Manggarai","i_lat":-6.209883,"station_id":"MRI","i_long":106.84912,"is_transit":true},{"station_name":"Matraman","distance":1275,"line":1,"i_lat":-6.212485,"i_long":106.858896,"station_id":"MTR","time":2,"transit":false,"is_transit":false},{"is_transit":false,"station_id":"JNG","line":1,"station_name":"Jatinegara","distance":1377,"transit":false,"i_lat":-6.215091,"time":8,"i_long":106.86807400000001}],[{"station_name":"Pesing","i_lat":-6.161433,"station_id":"PSG","time":0,"distance":0,"transit":false,"i_long":106.771379,"line":5,"is_transit":false},{"i_long":106.788277,"time":2,"i_lat":-6.162021,"transit":false,"line":5,"station_id":"GGL","distance":2036,"is_transit":false,"station_name":"Grogol"},{"station_id":"DU","i_lat":-6.155215,"line":1,"station_name":"Duri","transit":true,"time":3,"distance":1700,"is_transit":true,"i_long":106.800832},{"time":8,"transit":false,"i_lat":-6.185545,"distance":3632,"i_long":106.811091,"line":1,"is_transit":false,"station_name":"Tanah Abang","station_id":"THB"},{"i_lat":-6.20132,"station_name":"Karet","i_long":106.816351,"distance":2029,"station_id":"KAT","line":1,"is_transit":false,"transit":false,"time":5},{"distance":471,"station_id":"SUDB","station_name":"Sudirman Baru","i_long":106.819881,"transit":false,"line":1,"is_transit":false,"time":1,"i_lat":-6.201433},{"distance":280,"is_transit":false,"i_long":106.822649,"i_lat":-6.202263,"transit":false,"time":1,"line":1,"station_name":"Sudirman","station_id":"SUD"},{"distance":3186,"station_id":"MRI","transit":true,"line":2,"i_lat":-6.209883,"i_long":106.84912,"is_transit":true,"station_name":"Manggarai","time":4},{"station_name":"Cikini","i_long":106.840169,"line":2,"time":4,"i_lat":-6.198556,"station_id":"CKI","is_transit":false,"distance":1590,"transit":false},{"station_id":"GDD","distance":1750,"transit":false,"time":3,"station_name":"Gondangdia","i_lat":-6.186295,"line":2,"is_transit":false,"i_long":106.832183},{"transit":false,"i_long":106.828284,"i_lat":-6.166716,"station_name":"Juanda","distance":2015,"time":4,"station_id":"JUA","line":2,"is_transit":false},{"distance":1149,"station_id":"SW","is_transit":false,"station_name":"Sawah Besar","i_lat":-6.160725,"i_long":106.827103,"transit":false,"line":2,"time":2},{"time":2,"is_transit":false,"station_name":"Manggabesar","transit":false,"i_lat":-6.149769,"distance":906,"station_id":"MGB","i_long":106.82482,"line":2},{"transit":false,"i_long":106.820901,"line":2,"station_name":"Jayakarta","time":2,"station_id":"JAY","is_transit":false,"distance":1080,"i_lat":-6.141205},{"i_long":106.812439,"time":4,"station_name":"Jakarta Kota","transit":true,"line":2,"station_id":"JAKK","i_lat":-6.137569,"distance":1264,"is_transit":true},{"distance":1364,"i_long":106.826365,"station_name":"Kampung Bandan","i_lat":-6.132549,"line":4,"transit":true,"time":3,"is_transit":true,"station_id":"KPB"},{"station_id":"RJW","station_name":"Rajawali","i_long":106.836569,"line":11,"distance":1444,"is_transit":false,"transit":false,"i_lat":-6.14505,"time":3},{"time":5,"i_long":106.839204,"i_lat":-6.161728,"line":11,"distance":1901,"station_id":"KMO","station_name":"Kemayoran","transit":false,"is_transit":false},{"station_name":"Pasar Senen","is_transit":false,"i_lat":-6.174784,"time":4,"station_id":"PSE","i_long":106.84368,"line":11,"distance":1436,"transit":false},{"line":11,"time":8,"station_id":"GST","station_name":"Gang Sentiong","i_lat":-6.185975,"is_transit":false,"i_long":106.850107,"distance":1567,"transit":false},{"distance":973,"station_id":"KMT","time":1,"transit":false,"line":11,"is_transit":false,"station_name":"Kramat","i_long":106.855437,"i_lat":-6.193792},{"station_name":"Pondok Jati","line":11,"station_id":"POK","i_lat":-6.209188,"i_long":106.861737,"distance":1829,"is_transit":false,"transit":false,"time":2},{"station_name":"Jatinegara","station_id":"JNG","time":9,"i_long":106.86807400000001,"transit":false,"distance":1236,"is_transit":false,"i_lat":-6.215091,"line":1}]]}