{"data":[[{"transit":false,"time":0,"i_long":106.771379,"station_name":"Pesing","is_transit":false,"distance":0,"station_id":"PSG","i_lat":-6.161433,"line":5},{"time":2,"station_name":"Taman Kota","station_id":"TKO","i_lat":-6.1587309999999995,"i_long":106.756522,"line":5,"distance":1614,"is_transit":false,"transit":false},{"line":5,"i_long":106.737035,"is_transit":false,"transit":false,"time":2,"i_lat":-6.159876,"distance":2334,"station_id":"BOI","station_name":"Bojongindah"},{"line":5,"station_name":"Rawa Buaya","distance":1152,"transit":false,"station_id":"RW","is_transit":false,"time":4,"i_lat":-6.162758,"i_long":106.723064},{"line":5,"transit":false,"time":3,"i_lat":-6.166068,"i_long":106.701612,"station_name":"Kalideres","station_id":"KDS","is_transit":false,"distance":2504},{"time":3,"transit":false,"distance":2548,"station_id":"PI","is_transit":false,"i_long":106.679458,"line":5,"station_name":"Poris","i_lat":-6.169933}]]}