{"data":[[{"station_id":"PSG","i_long":106.771379,"is_transit":false,"distance":0,"i_lat":-6.161433,"station_name":"Pesing","time":0,"line":5,"transit":false},{"station_id":"TKO","station_name":"Taman Kota","is_transit":false,"i_lat":-6.1587309999999995,"i_long":106.756522,"line":5,"time":2,"distance":1614,"transit":false},{"i_long":106.737035,"is_transit":false,"i_lat":-6.159876,"distance":2334,"station_id":"BOI","line":0,"transit":false,"time":2,"station_name":"Bojongindah"},{"line":5,"time":4,"is_transit":false,"station_id":"RW","i_lat":-6.162758,"transit":false,"station_name":"Rawa Buaya","distance":1152,"i_long":106.723064},{"station_name":"Kalideres","transit":false,"line":5,"station_id":"KDS","time":3,"i_lat":-6.166068,"distance":2504,"i_long":106.701612,"is_transit":false},{"station_name":"Poris","time":3,"i_long":106.679458,"transit":false,"station_id":"PI","i_lat":-6.169933,"distance":2548,"is_transit":false,"line":5},{"line":0,"i_long":106.665036,"station_name":"Batuceper","is_transit":false,"time":3,"distance":1834,"transit":false,"station_id":"BPR","i_lat":-6.171811},{"time":3,"station_name":"Tanah Tinggi","i_long":106.64657,"station_id":"TTI","transit":false,"is_transit":false,"i_lat":-6.17331,"line":5,"distance":2028},{"is_transit":false,"time":3,"i_lat":-6.176583,"station_id":"TNG","station_name":"Tangerang","i_long":106.632761,"line":5,"transit":false,"distance":1547}]]}