{"data":[[{"line":5,"station_id":"PSG","i_lat":-6.161433,"time":0,"transit":false,"is_transit":false,"station_name":"Pesing","i_long":106.771379,"distance":0},{"station_id":"GGL","time":2,"transit":false,"station_name":"Grogol","i_lat":-6.162021,"i_long":106.788277,"distance":2036,"is_transit":false,"line":5},{"line":1,"is_transit":true,"transit":true,"time":3,"station_id":"DU","i_lat":-6.155215,"station_name":"Duri","i_long":106.800832,"distance":1700},{"transit":true,"i_lat":-6.185545,"line":1,"distance":3632,"station_name":"Tanah Abang","i_long":106.811091,"station_id":"THB","is_transit":true,"time":8},{"distance":3191,"time":6,"station_id":"PLM","is_transit":false,"station_name":"Palmerah","transit":false,"i_lat":-6.207404,"i_long":106.79689,"line":6},{"station_name":"Kebayoran","station_id":"KBY","distance":3737,"time":7,"is_transit":false,"i_long":106.780334,"transit":false,"i_lat":-6.237242,"line":6},{"is_transit":false,"transit":false,"i_lat":-6.276362,"time":8,"station_id":"PDJ","line":6,"distance":6218,"station_name":"Pondokranji","i_long":106.74273},{"distance":2179,"is_transit":false,"i_lat":-6.288927,"line":6,"transit":false,"station_name":"Jurangmangu","station_id":"JMU","time":3,"i_long":106.728916},{"distance":1994,"transit":false,"station_name":"Sudimara","time":4,"is_transit":false,"station_id":"SDM","i_lat":-6.296963,"i_long":106.712277,"line":6},{"distance":4566,"station_id":"RU","is_transit":false,"line":6,"i_long":106.675475,"station_name":"Rawa Buntu","i_lat":-6.314823,"transit":false,"time":6},{"i_lat":-6.319871,"transit":false,"station_name":"Serpong","line":6,"i_long":106.66566,"station_id":"SRP","is_transit":false,"time":4,"distance":2413},{"i_long":106.640411,"time":4,"distance":1784,"is_transit":false,"line":3,"station_id":"CSK","i_lat":-6.32484,"transit":false,"station_name":"Cisauk"},{"i_lat":-6.329547,"station_id":"CC","distance":2519,"is_transit":false,"i_long":106.617853,"time":4,"station_name":"Cicayur","transit":false,"line":3},{"station_id":"PRP","transit":false,"is_transit":false,"time":8,"i_long":106.568863,"i_lat":-6.3441410000000005,"line":6,"station_name":"Parung Panjang","distance":5968},{"distance":7025,"i_long":106.508482,"station_id":"CJT","line":3,"station_name":"Cilejit","i_lat":-6.354349,"is_transit":false,"time":9,"transit":false},{"i_long":106.491338,"station_name":"Daru","time":6,"transit":false,"i_lat":-6.338021,"distance":2675,"station_id":"DAR","is_transit":false,"line":0},{"i_lat":-6.327251,"time":5,"station_name":"Tenjo","transit":false,"line":6,"i_long":106.460812,"distance":3902,"station_id":"TEJ","is_transit":false},{"i_long":106.425991,"time":5,"station_name":"Tigaraksa","is_transit":false,"i_lat":-6.328533,"station_id":"TGS","distance":2974,"line":6,"transit":false},{"distance":2651,"is_transit":false,"line":3,"time":3,"transit":false,"i_lat":-6.33561,"i_long":106.411216,"station_id":"CKY","station_name":"Cikoya"},{"distance":1853,"i_lat":-6.332307,"line":6,"station_name":"Maja","station_id":"MJ","time":4,"transit":false,"i_long":106.394373,"is_transit":false},{"line":3,"transit":false,"station_name":"Citeras","is_transit":false,"i_long":106.332092,"station_id":"CTR","time":10,"distance":7293,"i_lat":-6.334892}],[{"transit":false,"station_name":"Pesing","i_lat":-6.161433,"station_id":"PSG","i_long":106.771379,"line":5,"distance":0,"is_transit":false,"time":0},{"station_id":"GGL","i_long":106.788277,"is_transit":false,"time":2,"distance":2036,"transit":false,"line":5,"i_lat":-6.162021,"station_name":"Grogol"},{"is_transit":true,"transit":true,"station_name":"Duri","i_lat":-6.155215,"i_long":106.800832,"line":1,"station_id":"DU","time":3,"distance":1700},{"is_transit":false,"i_lat":-6.144674,"station_id":"AK","station_name":"Angke","i_long":106.79867,"line":1,"transit":false,"distance":1230,"time":4},{"line":4,"is_transit":true,"i_lat":-6.132549,"transit":true,"station_id":"KPB","station_name":"Kampung Bandan","time":9,"i_long":106.826365,"distance":4102},{"line":2,"station_name":"Jakarta Kota","transit":true,"distance":1364,"is_transit":true,"time":3,"i_long":106.812439,"station_id":"JAKK","i_lat":-6.137569},{"i_long":106.820901,"time":4,"station_id":"JAY","is_transit":false,"transit":false,"i_lat":-6.141205,"station_name":"Jayakarta","line":2,"distance":1264},{"station_id":"MGB","transit":false,"station_name":"Manggabesar","i_long":106.82482,"is_transit":false,"time":2,"line":2,"distance":1080,"i_lat":-6.149769},{"station_id":"SW","i_long":106.827103,"i_lat":-6.160725,"station_name":"Sawah Besar","distance":906,"is_transit":false,"time":2,"line":2,"transit":false},{"i_lat":-6.166716,"line":2,"is_transit":false,"transit":false,"station_name":"Juanda","time":2,"i_long":106.828284,"station_id":"JUA","distance":1149},{"station_name":"Gondangdia","station_id":"GDD","distance":2015,"i_long":106.832183,"line":2,"is_transit":false,"transit":false,"time":4,"i_lat":-6.186295},{"is_transit":false,"i_long":106.840169,"time":3,"distance":1750,"transit":false,"i_lat":-6.198556,"line":2,"station_name":"Cikini","station_id":"CKI"},{"i_lat":-6.209883,"i_long":106.84912,"transit":true,"station_id":"MRI","line":2,"station_name":"Manggarai","is_transit":true,"time":4,"distance":1590},{"station_name":"Sudirman","transit":false,"time":4,"i_lat":-6.202263,"station_id":"SUD","is_transit":false,"i_long":106.822649,"line":1,"distance":3186},{"time":1,"transit":false,"is_transit":false,"i_long":106.819881,"station_id":"SUDB","i_lat":-6.201433,"line":1,"distance":280,"station_name":"Sudirman Baru"},{"transit":false,"station_name":"Karet","i_lat":-6.20132,"line":1,"distance":471,"time":1,"i_long":106.816351,"station_id":"KAT","is_transit":false},{"station_name":"Tanah Abang","i_lat":-6.185545,"distance":2029,"station_id":"THB","time":5,"is_transit":true,"transit":true,"i_long":106.811091,"line":1},{"i_long":106.79689,"station_name":"Palmerah","transit":false,"line":6,"station_id":"PLM","i_lat":-6.207404,"distance":3191,"is_transit":false,"time":6},{"i_long":106.780334,"station_id":"KBY","line":6,"distance":3737,"station_name":"Kebayoran","i_lat":-6.237242,"is_transit":false,"transit":false,"time":7},{"transit":false,"is_transit":false,"distance":6218,"station_name":"Pondokranji","time":8,"i_long":106.74273,"i_lat":-6.276362,"line":6,"station_id":"PDJ"},{"station_name":"Jurangmangu","time":3,"i_long":106.728916,"is_transit":false,"distance":2179,"line":6,"transit":false,"i_lat":-6.288927,"station_id":"JMU"},{"station_id":"SDM","station_name":"Sudimara","line":6,"is_transit":false,"distance":1994,"i_long":106.712277,"i_lat":-6.296963,"transit":false,"time":4},{"is_transit":false,"station_name":"Rawa Buntu","distance":4566,"time":6,"transit":false,"i_lat":-6.314823,"line":6,"i_long":106.675475,"station_id":"RU"},{"is_transit":false,"time":4,"station_name":"Serpong","station_id":"SRP","i_lat":-6.319871,"transit":false,"line":6,"distance":2413,"i_long":106.66566},{"line":3,"station_id":"CSK","is_transit":false,"transit":false,"time":4,"distance":1784,"i_lat":-6.32484,"station_name":"Cisauk","i_long":106.640411},{"transit":false,"time":4,"is_transit":false,"distance":2519,"line":3,"station_name":"Cicayur","i_lat":-6.329547,"i_long":106.617853,"station_id":"CC"},{"i_lat":-6.3441410000000005,"station_id":"PRP","time":8,"i_long":106.568863,"transit":false,"is_transit":false,"line":6,"distance":5968,"station_name":"Parung Panjang"},{"transit":false,"station_name":"Cilejit","time":9,"station_id":"CJT","i_long":106.508482,"line":3,"is_transit":false,"distance":7025,"i_lat":-6.354349},{"station_name":"Daru","transit":false,"is_transit":false,"distance":2675,"i_long":106.491338,"line":0,"station_id":"DAR","i_lat":-6.338021,"time":6},{"station_id":"TEJ","time":5,"station_name":"Tenjo","i_long":106.460812,"i_lat":-6.327251,"line":6,"is_transit":false,"distance":3902,"transit":false},{"line":6,"time":5,"transit":false,"station_name":"Tigaraksa","station_id":"TGS","distance":2974,"is_transit":false,"i_long":106.425991,"i_lat":-6.328533},{"distance":2651,"transit":false,"is_transit":false,"time":3,"station_id":"CKY","station_name":"Cikoya","i_long":106.411216,"line":3,"i_lat":-6.33561},{"i_long":106.394373,"station_id":"MJ","distance":1853,"i_lat":-6.332307,"station_name":"Maja","is_transit":false,"time":4,"line":6,"transit":false},{"station_name":"Citeras","i_lat":-6.334892,"i_long":106.332092,"transit":false,"station_id":"CTR","distance":7293,"is_transit":false,"line":3,"time":10}],[{"is_transit":false,"station_name":"Pesing","transit":false,"distance":0,"line":5,"station_id":"PSG","i_long":106.771379,"i_lat":-6.161433,"time":0},{"transit":false,"is_transit":false,"station_name":"Grogol","i_lat":-6.162021,"station_id":"GGL","time":2,"i_long":106.788277,"line":5,"distance":2036},{"transit":true,"is_transit":true,"distance":1700,"i_lat":-6.155215,"line":1,"i_long":106.800832,"time":3,"station_name":"Duri","station_id":"DU"},{"line":1,"transit":false,"station_id":"AK","i_long":106.79867,"is_transit":false,"distance":1230,"station_name":"Angke","i_lat":-6.144674,"time":4},{"i_long":106.826365,"line":4,"i_lat":-6.132549,"time":9,"station_name":"Kampung Bandan","transit":true,"station_id":"KPB","distance":4102,"is_transit":true},{"station_name":"Rajawali","line":11,"i_long":106.836569,"i_lat":-6.14505,"is_transit":false,"distance":1444,"time":3,"station_id":"RJW","transit":false},{"distance":1901,"is_transit":false,"time":5,"transit":false,"i_lat":-6.161728,"station_name":"Kemayoran","i_long":106.839204,"line":11,"station_id":"KMO"},{"is_transit":false,"transit":false,"distance":1436,"station_id":"PSE","station_name":"Pasar Senen","time":4,"i_long":106.84368,"i_lat":-6.174784,"line":11},{"distance":1567,"time":8,"transit":false,"station_id":"GST","i_lat":-6.185975,"is_transit":false,"station_name":"Gang Sentiong","line":11,"i_long":106.850107},{"i_long":106.855437,"station_id":"KMT","time":1,"line":11,"station_name":"Kramat","i_lat":-6.193792,"transit":false,"distance":973,"is_transit":false},{"time":2,"i_lat":-6.209188,"i_long":106.861737,"line":11,"station_id":"POK","transit":false,"distance":1829,"station_name":"Pondok Jati","is_transit":false},{"time":9,"line":1,"distance":1236,"station_name":"Jatinegara","is_transit":true,"i_lat":-6.215091,"i_long":106.86807400000001,"transit":true,"station_id":"JNG"},{"i_lat":-6.212485,"i_long":106.858896,"line":1,"station_name":"Matraman","is_transit":false,"station_id":"MTR","transit":false,"time":2,"distance":1377},{"is_transit":false,"i_long":106.84912,"line":2,"station_id":"MRI","time":2,"transit":false,"station_name":"Manggarai","i_lat":-6.209883,"distance":1275},{"station_id":"SUD","distance":3186,"time":4,"is_transit":false,"i_lat":-6.202263,"line":1,"i_long":106.822649,"station_name":"Sudirman","transit":false},{"i_lat":-6.201433,"i_long":106.819881,"time":1,"is_transit":false,"transit":false,"line":1,"distance":280,"station_id":"SUDB","station_name":"Sudirman Baru"},{"time":1,"is_transit":false,"i_lat":-6.20132,"station_name":"Karet","station_id":"KAT","line":1,"transit":false,"distance":471,"i_long":106.816351},{"distance":2029,"is_transit":true,"time":5,"station_name":"Tanah Abang","line":1,"i_long":106.811091,"station_id":"THB","transit":true,"i_lat":-6.185545},{"line":6,"station_id":"PLM","distance":3191,"i_lat":-6.207404,"station_name":"Palmerah","time":6,"i_long":106.79689,"transit":false,"is_transit":false},{"is_transit":false,"i_lat":-6.237242,"transit":false,"distance":3737,"station_id":"KBY","i_long":106.780334,"time":7,"station_name":"Kebayoran","line":6},{"time":8,"i_long":106.74273,"station_id":"PDJ","line":6,"transit":false,"station_name":"Pondokranji","i_lat":-6.276362,"is_transit":false,"distance":6218},{"station_id":"JMU","is_transit":false,"station_name":"Jurangmangu","time":3,"distance":2179,"line":6,"transit":false,"i_lat":-6.288927,"i_long":106.728916},{"transit":false,"distance":1994,"i_long":106.712277,"station_id":"SDM","station_name":"Sudimara","line":6,"i_lat":-6.296963,"time":4,"is_transit":false},{"line":6,"is_transit":false,"i_long":106.675475,"station_name":"Rawa Buntu","station_id":"RU","transit":false,"time":6,"distance":4566,"i_lat":-6.314823},{"station_name":"Serpong","station_id":"SRP","transit":false,"is_transit":false,"i_lat":-6.319871,"line":6,"time":4,"i_long":106.66566,"distance":2413},{"is_transit":false,"time":4,"i_lat":-6.32484,"line":3,"station_name":"Cisauk","station_id":"CSK","i_long":106.640411,"transit":false,"distance":1784},{"i_lat":-6.329547,"station_name":"Cicayur","station_id":"CC","i_long":106.617853,"time":4,"distance":2519,"transit":false,"is_transit":false,"line":3},{"station_id":"PRP","distance":5968,"station_name":"Parung Panjang","transit":false,"is_transit":false,"time":8,"i_lat":-6.3441410000000005,"line":6,"i_long":106.568863},{"distance":7025,"i_long":106.508482,"is_transit":false,"transit":false,"time":9,"i_lat":-6.354349,"station_name":"Cilejit","station_id":"CJT","line":3},{"i_lat":-6.338021,"station_id":"DAR","is_transit":false,"transit":false,"distance":2675,"line":0,"station_name":"Daru","i_long":106.491338,"time":6},{"is_transit":false,"i_lat":-6.327251,"station_name":"Tenjo","time":5,"line":6,"transit":false,"station_id":"TEJ","distance":3902,"i_long":106.460812},{"time":5,"transit":false,"is_transit":false,"i_lat":-6.328533,"station_name":"Tigaraksa","distance":2974,"i_long":106.425991,"line":6,"station_id":"TGS"},{"distance":2651,"transit":false,"is_transit":false,"i_lat":-6.33561,"i_long":106.411216,"station_id":"CKY","line":3,"station_name":"Cikoya","time":3},{"transit":false,"is_transit":false,"station_name":"Maja","station_id":"MJ","i_long":106.394373,"time":4,"i_lat":-6.332307,"line":6,"distance":1853},{"i_long":106.332092,"distance":7293,"station_id":"CTR","line":3,"time":10,"transit":false,"station_name":"Citeras","i_lat":-6.334892,"is_transit":false}]]}