{"data":[[{"time":0,"line":5,"station_id":"PSG","distance":0,"i_lat":-6.161433,"transit":false,"is_transit":false,"station_name":"Pesing","i_long":106.771379},{"station_name":"Grogol","is_transit":false,"transit":false,"i_lat":-6.162021,"line":5,"i_long":106.788277,"time":2,"distance":2036,"station_id":"GRG"},{"station_id":"DU","i_lat":-6.155215,"transit":true,"distance":1700,"station_name":"Duri","i_long":106.800832,"time":3,"is_transit":true,"line":1},{"i_long":106.811091,"station_id":"THB","distance":3632,"i_lat":-6.185545,"station_name":"Tanah Abang","is_transit":true,"transit":true,"time":8,"line":1},{"transit":false,"time":6,"distance":3191,"i_lat":-6.207404,"station_id":"PLM","i_long":106.79689,"station_name":"Palmerah","line":6,"is_transit":false},{"time":7,"transit":false,"station_id":"KBY","is_transit":false,"i_lat":-6.237242,"distance":3737,"station_name":"Kebayoran","i_long":106.780334,"line":6},{"station_name":"Pondokranji","is_transit":false,"i_lat":-6.276362,"time":8,"i_long":106.74273,"line":6,"transit":false,"distance":6218,"station_id":"PDJ"},{"line":6,"distance":2179,"time":3,"i_long":106.728916,"transit":false,"i_lat":-6.288927,"is_transit":false,"station_name":"Jurangmangu","station_id":"JMU"},{"line":6,"i_long":106.712277,"transit":false,"station_id":"SDM","station_name":"Sudimara","is_transit":false,"time":4,"distance":1994,"i_lat":-6.296963},{"time":6,"station_id":"RU","i_long":106.675475,"station_name":"Rawa Buntu","line":6,"i_lat":-6.314823,"is_transit":false,"transit":false,"distance":4566},{"time":4,"station_id":"SRP","line":6,"transit":false,"distance":2413,"is_transit":false,"station_name":"Serpong","i_lat":-6.319871,"i_long":106.66566},{"is_transit":false,"transit":false,"station_name":"Cisauk","station_id":"CSK","line":3,"distance":1784,"i_lat":-6.32484,"i_long":106.640411,"time":4},{"station_name":"Cicayur","distance":2519,"is_transit":false,"station_id":"CC","i_lat":-6.329547,"time":4,"transit":false,"i_long":106.617853,"line":3},{"line":6,"distance":5968,"station_id":"PRP","station_name":"Parung Panjang","transit":false,"i_lat":-6.3441410000000005,"time":8,"is_transit":false,"i_long":106.568863},{"station_name":"Cilejit","line":3,"is_transit":false,"i_lat":-6.354349,"station_id":"CJT","transit":false,"time":9,"distance":7025,"i_long":106.508482},{"transit":false,"i_lat":-6.338021,"i_long":106.491338,"is_transit":false,"time":6,"distance":2675,"station_id":"DAR","station_name":"Daru","line":0},{"station_name":"Tenjo","distance":3902,"is_transit":false,"station_id":"TEJ","i_lat":-6.327251,"time":5,"transit":false,"i_long":106.460812,"line":6},{"line":6,"is_transit":false,"distance":2974,"station_name":"Tigaraksa","i_long":106.425991,"time":5,"station_id":"TGS","i_lat":-6.328533,"transit":false}],[{"station_name":"Pesing","distance":0,"line":5,"i_lat":-6.161433,"is_transit":false,"transit":false,"time":0,"i_long":106.771379,"station_id":"PSG"},{"line":5,"i_long":106.788277,"is_transit":false,"station_name":"Grogol","time":2,"distance":2036,"transit":false,"station_id":"GRG","i_lat":-6.162021},{"line":1,"is_transit":true,"distance":1700,"station_name":"Duri","station_id":"DU","i_lat":-6.155215,"i_long":106.800832,"transit":true,"time":3},{"time":4,"distance":1230,"is_transit":false,"i_lat":-6.144674,"transit":false,"i_long":106.79867,"line":1,"station_id":"AK","station_name":"Angke"},{"time":9,"distance":4102,"station_id":"KPB","i_long":106.826365,"station_name":"Kampung Bandan","is_transit":true,"i_lat":-6.132549,"line":4,"transit":true},{"station_name":"Jakarta Kota","distance":1364,"i_lat":-6.137569,"time":3,"line":2,"is_transit":true,"station_id":"JAKK","transit":true,"i_long":106.812439},{"is_transit":false,"transit":false,"i_lat":-6.141205,"distance":1264,"station_id":"JAY","line":2,"time":4,"station_name":"Jayakarta","i_long":106.820901},{"i_lat":-6.149769,"i_long":106.82482,"time":2,"station_id":"MGB","is_transit":false,"station_name":"Manggabesar","distance":1080,"line":2,"transit":false},{"is_transit":false,"i_lat":-6.160725,"station_id":"SW","station_name":"Sawah Besar","time":2,"line":2,"transit":false,"i_long":106.827103,"distance":906},{"i_lat":-6.166716,"transit":false,"i_long":106.828284,"line":2,"time":2,"is_transit":false,"distance":1149,"station_id":"JUA","station_name":"Juanda"},{"i_lat":-6.186295,"station_name":"Gondangdia","is_transit":false,"distance":2015,"time":4,"station_id":"GDD","transit":false,"i_long":106.832183,"line":2},{"station_id":"CKI","transit":false,"line":2,"i_lat":-6.198556,"i_long":106.840169,"distance":1750,"is_transit":false,"time":3,"station_name":"Cikini"},{"transit":true,"line":2,"i_long":106.84912,"is_transit":true,"time":4,"distance":1590,"station_name":"Manggarai","i_lat":-6.209883,"station_id":"MRI"},{"time":4,"is_transit":false,"line":1,"distance":3186,"transit":false,"station_name":"Sudirman","i_lat":-6.202263,"i_long":106.822649,"station_id":"SUD"},{"time":1,"station_name":"Sudirman Baru","station_id":"SUDB","i_lat":-6.201433,"line":1,"distance":280,"i_long":106.819881,"is_transit":false,"transit":false},{"line":1,"transit":false,"time":1,"distance":471,"station_name":"Karet","station_id":"KAT","i_lat":-6.20132,"i_long":106.816351,"is_transit":false},{"transit":true,"station_name":"Tanah Abang","i_long":106.811091,"distance":2029,"line":1,"station_id":"THB","time":5,"is_transit":true,"i_lat":-6.185545},{"time":6,"station_id":"PLM","line":6,"is_transit":false,"transit":false,"distance":3191,"i_long":106.79689,"i_lat":-6.207404,"station_name":"Palmerah"},{"line":6,"station_name":"Kebayoran","time":7,"is_transit":false,"i_lat":-6.237242,"transit":false,"i_long":106.780334,"distance":3737,"station_id":"KBY"},{"station_name":"Pondokranji","is_transit":false,"time":8,"distance":6218,"transit":false,"i_lat":-6.276362,"line":6,"station_id":"PDJ","i_long":106.74273},{"i_lat":-6.288927,"is_transit":false,"transit":false,"time":3,"distance":2179,"line":6,"station_id":"JMU","station_name":"Jurangmangu","i_long":106.728916},{"distance":1994,"i_long":106.712277,"is_transit":false,"line":6,"transit":false,"station_id":"SDM","time":4,"station_name":"Sudimara","i_lat":-6.296963},{"station_id":"RU","transit":false,"is_transit":false,"i_long":106.675475,"distance":4566,"line":6,"station_name":"Rawa Buntu","i_lat":-6.314823,"time":6},{"transit":false,"distance":2413,"station_id":"SRP","i_long":106.66566,"i_lat":-6.319871,"time":4,"line":6,"is_transit":false,"station_name":"Serpong"},{"station_name":"Cisauk","i_lat":-6.32484,"i_long":106.640411,"is_transit":false,"transit":false,"distance":1784,"line":3,"station_id":"CSK","time":4},{"transit":false,"line":3,"is_transit":false,"i_lat":-6.329547,"station_id":"CC","time":4,"distance":2519,"i_long":106.617853,"station_name":"Cicayur"},{"line":6,"transit":false,"i_lat":-6.3441410000000005,"station_name":"Parung Panjang","is_transit":false,"time":8,"i_long":106.568863,"distance":5968,"station_id":"PRP"},{"is_transit":false,"i_long":106.508482,"transit":false,"station_id":"CJT","line":3,"station_name":"Cilejit","distance":7025,"i_lat":-6.354349,"time":9},{"transit":false,"i_long":106.491338,"line":0,"station_name":"Daru","is_transit":false,"time":6,"distance":2675,"i_lat":-6.338021,"station_id":"DAR"},{"time":5,"i_long":106.460812,"is_transit":false,"transit":false,"distance":3902,"station_name":"Tenjo","i_lat":-6.327251,"line":6,"station_id":"TEJ"},{"transit":false,"distance":2974,"station_id":"TGS","i_lat":-6.328533,"station_name":"Tigaraksa","time":5,"line":6,"i_long":106.425991,"is_transit":false}],[{"i_lat":-6.161433,"line":5,"transit":false,"distance":0,"is_transit":false,"time":0,"i_long":106.771379,"station_name":"Pesing","station_id":"PSG"},{"i_long":106.788277,"is_transit":false,"transit":false,"i_lat":-6.162021,"station_name":"Grogol","time":2,"distance":2036,"station_id":"GRG","line":5},{"time":3,"station_id":"DU","i_lat":-6.155215,"line":1,"transit":true,"i_long":106.800832,"is_transit":true,"station_name":"Duri","distance":1700},{"station_name":"Angke","transit":false,"i_long":106.79867,"is_transit":false,"time":4,"distance":1230,"station_id":"AK","i_lat":-6.144674,"line":1},{"is_transit":true,"distance":4102,"i_long":106.826365,"transit":true,"time":9,"i_lat":-6.132549,"station_name":"Kampung Bandan","line":4,"station_id":"KPB"},{"i_lat":-6.14505,"transit":false,"is_transit":false,"station_id":"RJW","station_name":"Rajawali","line":11,"distance":1444,"i_long":106.836569,"time":3},{"i_long":106.839204,"is_transit":false,"distance":1901,"station_id":"KMO","station_name":"Kemayoran","i_lat":-6.161728,"line":11,"time":5,"transit":false},{"station_id":"PSE","station_name":"Pasar Senen","is_transit":false,"transit":false,"distance":1436,"line":11,"time":4,"i_lat":-6.174784,"i_long":106.84368},{"line":11,"is_transit":false,"time":8,"distance":1567,"station_id":"GST","i_lat":-6.185975,"i_long":106.850107,"transit":false,"station_name":"Gang Sentiong"},{"i_long":106.855437,"station_name":"Kramat","distance":973,"i_lat":-6.193792,"time":1,"station_id":"KMT","line":11,"is_transit":false,"transit":false},{"i_long":106.861737,"station_id":"POK","transit":false,"is_transit":false,"line":11,"i_lat":-6.209188,"distance":1829,"time":2,"station_name":"Pondok Jati"},{"i_lat":-6.215091,"time":9,"distance":1236,"line":1,"station_name":"Jatinegara","station_id":"JNG","transit":true,"i_long":106.86807400000001,"is_transit":true},{"station_name":"Matraman","transit":false,"station_id":"MTR","i_long":106.858896,"time":2,"i_lat":-6.212485,"distance":1377,"line":1,"is_transit":false},{"i_lat":-6.209883,"station_name":"Manggarai","i_long":106.84912,"is_transit":false,"distance":1275,"time":2,"line":2,"transit":false,"station_id":"MRI"},{"time":4,"station_id":"SUD","i_lat":-6.202263,"is_transit":false,"transit":false,"distance":3186,"line":1,"i_long":106.822649,"station_name":"Sudirman"},{"time":1,"station_name":"Sudirman Baru","is_transit":false,"transit":false,"i_long":106.819881,"distance":280,"station_id":"SUDB","i_lat":-6.201433,"line":1},{"station_id":"KAT","i_long":106.816351,"time":1,"transit":false,"line":1,"station_name":"Karet","is_transit":false,"distance":471,"i_lat":-6.20132},{"station_name":"Tanah Abang","station_id":"THB","line":1,"is_transit":true,"transit":true,"time":5,"distance":2029,"i_lat":-6.185545,"i_long":106.811091},{"distance":3191,"station_id":"PLM","station_name":"Palmerah","time":6,"transit":false,"line":6,"is_transit":false,"i_long":106.79689,"i_lat":-6.207404},{"distance":3737,"station_name":"Kebayoran","transit":false,"line":6,"is_transit":false,"i_lat":-6.237242,"time":7,"station_id":"KBY","i_long":106.780334},{"is_transit":false,"time":8,"distance":6218,"i_lat":-6.276362,"i_long":106.74273,"station_id":"PDJ","station_name":"Pondokranji","transit":false,"line":6},{"time":3,"station_id":"JMU","is_transit":false,"station_name":"Jurangmangu","i_lat":-6.288927,"line":6,"i_long":106.728916,"transit":false,"distance":2179},{"transit":false,"i_long":106.712277,"i_lat":-6.296963,"time":4,"distance":1994,"station_id":"SDM","station_name":"Sudimara","is_transit":false,"line":6},{"station_name":"Rawa Buntu","station_id":"RU","i_lat":-6.314823,"time":6,"transit":false,"line":6,"distance":4566,"is_transit":false,"i_long":106.675475},{"line":6,"transit":false,"distance":2413,"i_long":106.66566,"station_id":"SRP","is_transit":false,"i_lat":-6.319871,"station_name":"Serpong","time":4},{"time":4,"transit":false,"distance":1784,"i_lat":-6.32484,"i_long":106.640411,"is_transit":false,"line":3,"station_name":"Cisauk","station_id":"CSK"},{"i_lat":-6.329547,"station_id":"CC","station_name":"Cicayur","transit":false,"distance":2519,"i_long":106.617853,"time":4,"is_transit":false,"line":3},{"station_name":"Parung Panjang","is_transit":false,"time":8,"transit":false,"station_id":"PRP","i_lat":-6.3441410000000005,"line":6,"distance":5968,"i_long":106.568863},{"i_lat":-6.354349,"station_name":"Cilejit","is_transit":false,"time":9,"distance":7025,"line":3,"transit":false,"i_long":106.508482,"station_id":"CJT"},{"time":6,"station_id":"DAR","i_lat":-6.338021,"line":0,"i_long":106.491338,"is_transit":false,"station_name":"Daru","transit":false,"distance":2675},{"is_transit":false,"time":5,"distance":3902,"station_id":"TEJ","station_name":"Tenjo","i_lat":-6.327251,"i_long":106.460812,"line":6,"transit":false},{"time":5,"station_name":"Tigaraksa","station_id":"TGS","line":6,"i_long":106.425991,"transit":false,"distance":2974,"i_lat":-6.328533,"is_transit":false}]]}