{"data":[[{"i_long":106.771379,"distance":0,"line":5,"i_lat":-6.161433,"station_id":"PSG","transit":false,"station_name":"Pesing","time":0,"is_transit":false},{"is_transit":false,"line":5,"station_id":"GGL","distance":2036,"time":2,"transit":false,"station_name":"Grogol","i_lat":-6.162021,"i_long":106.788277},{"distance":1700,"i_long":106.800832,"transit":true,"time":3,"is_transit":true,"station_id":"DU","i_lat":-6.155215,"line":1,"station_name":"Duri"},{"i_long":106.811091,"station_id":"THB","line":1,"i_lat":-6.185545,"distance":3632,"station_name":"Tanah Abang","transit":false,"time":8,"is_transit":true},{"is_transit":false,"distance":2029,"station_name":"Karet","i_lat":-6.20132,"transit":false,"i_long":106.816351,"line":1,"time":5,"station_id":"KAT"},{"i_long":106.819881,"line":1,"i_lat":-6.201433,"is_transit":false,"transit":false,"distance":471,"station_name":"Sudirman Baru","time":1,"station_id":"SUDB"},{"time":1,"distance":280,"station_id":"SUD","station_name":"Sudirman","i_lat":-6.202263,"line":1,"i_long":106.822649,"is_transit":false,"transit":false},{"station_id":"MRI","is_transit":true,"distance":3186,"i_lat":-6.209883,"i_long":106.84912,"transit":false,"time":4,"station_name":"Manggarai","line":0},{"line":1,"time":2,"distance":1275,"station_id":"MTR","is_transit":false,"station_name":"Matraman","transit":false,"i_long":106.858896,"i_lat":-6.212485},{"transit":false,"is_transit":true,"time":8,"distance":1377,"line":0,"station_id":"JNG","station_name":"Jatinegara","i_long":106.86807400000001,"i_lat":-6.215091}],[{"distance":0,"line":5,"time":0,"station_id":"PSG","is_transit":false,"station_name":"Pesing","transit":false,"i_long":106.771379,"i_lat":-6.161433},{"i_lat":-6.162021,"station_name":"Grogol","is_transit":false,"station_id":"GGL","distance":2036,"transit":false,"time":2,"i_long":106.788277,"line":5},{"is_transit":true,"distance":1700,"station_name":"Duri","station_id":"DU","i_long":106.800832,"time":3,"line":1,"transit":true,"i_lat":-6.155215},{"station_id":"AK","transit":false,"i_lat":-6.144674,"i_long":106.79867,"station_name":"Angke","line":0,"is_transit":false,"distance":1230,"time":4},{"i_lat":-6.132549,"line":0,"time":9,"i_long":106.826365,"station_name":"Kampung Bandan","distance":4102,"transit":true,"station_id":"KPB","is_transit":true},{"i_lat":-6.14505,"i_long":106.836569,"transit":false,"time":3,"distance":1444,"line":11,"station_name":"Rajawali","is_transit":false,"station_id":"RJW"},{"distance":1901,"i_long":106.839204,"line":11,"transit":false,"station_name":"Kemayoran","is_transit":false,"time":5,"i_lat":-6.161728,"station_id":"KMO"},{"station_id":"PSE","line":11,"i_lat":-6.174784,"is_transit":false,"station_name":"Pasar Senen","time":4,"transit":false,"i_long":106.84368,"distance":1436},{"station_id":"GST","i_lat":-6.185975,"station_name":"Gang Sentiong","i_long":106.850107,"time":8,"transit":false,"distance":1567,"is_transit":false,"line":11},{"line":11,"time":1,"station_name":"Kramat","is_transit":false,"i_lat":-6.193792,"distance":973,"station_id":"KMT","transit":false,"i_long":106.855437},{"is_transit":false,"i_lat":-6.209188,"i_long":106.861737,"line":11,"station_name":"Pondok Jati","time":2,"station_id":"POK","distance":1829,"transit":false},{"i_lat":-6.215091,"line":0,"station_name":"Jatinegara","transit":false,"time":9,"distance":1236,"is_transit":true,"station_id":"JNG","i_long":106.86807400000001}],[{"transit":false,"time":0,"i_long":106.771379,"is_transit":false,"line":5,"i_lat":-6.161433,"distance":0,"station_id":"PSG","station_name":"Pesing"},{"is_transit":false,"i_long":106.788277,"transit":false,"time":2,"i_lat":-6.162021,"distance":2036,"station_name":"Grogol","station_id":"GGL","line":5},{"station_name":"Duri","is_transit":true,"i_lat":-6.155215,"station_id":"DU","time":3,"line":1,"transit":true,"distance":1700,"i_long":106.800832},{"distance":1230,"station_id":"AK","i_long":106.79867,"line":0,"transit":false,"station_name":"Angke","is_transit":false,"time":4,"i_lat":-6.144674},{"i_long":106.826365,"is_transit":true,"station_id":"KPB","station_name":"Kampung Bandan","transit":false,"time":9,"i_lat":-6.132549,"distance":4102,"line":0},{"station_name":"Jakarta Kota","distance":1364,"transit":true,"time":3,"station_id":"JAKK","i_lat":-6.137569,"line":0,"is_transit":true,"i_long":106.812439},{"station_name":"Jayakarta","transit":false,"distance":1264,"is_transit":false,"i_long":106.820901,"time":4,"i_lat":-6.141205,"line":7,"station_id":"JAY"},{"is_transit":false,"station_name":"Manggabesar","transit":false,"time":2,"line":2,"i_lat":-6.149769,"station_id":"MGB","i_long":106.82482,"distance":1080},{"transit":false,"distance":906,"time":2,"i_long":106.827103,"line":2,"station_name":"Sawah Besar","i_lat":-6.160725,"is_transit":false,"station_id":"SW"},{"transit":false,"distance":1149,"station_id":"JUA","is_transit":false,"time":2,"line":2,"i_lat":-6.166716,"station_name":"Juanda","i_long":106.828284},{"station_name":"Gondangdia","is_transit":false,"transit":false,"i_lat":-6.186295,"i_long":106.832183,"station_id":"GDD","time":4,"line":2,"distance":2015},{"i_lat":-6.198556,"transit":false,"station_id":"CKI","line":0,"station_name":"Cikini","time":3,"distance":1750,"is_transit":false,"i_long":106.840169},{"transit":true,"time":4,"station_id":"MRI","distance":1590,"i_lat":-6.209883,"line":0,"i_long":106.84912,"station_name":"Manggarai","is_transit":true},{"is_transit":false,"time":2,"i_long":106.858896,"line":1,"transit":false,"distance":1275,"i_lat":-6.212485,"station_id":"MTR","station_name":"Matraman"},{"time":8,"is_transit":true,"i_long":106.86807400000001,"line":0,"transit":false,"station_id":"JNG","i_lat":-6.215091,"distance":1377,"station_name":"Jatinegara"}],[{"is_transit":false,"station_name":"Pesing","transit":false,"i_lat":-6.161433,"station_id":"PSG","i_long":106.771379,"line":5,"time":0,"distance":0},{"station_name":"Grogol","station_id":"GGL","time":2,"i_long":106.788277,"is_transit":false,"i_lat":-6.162021,"line":5,"transit":false,"distance":2036},{"time":3,"i_lat":-6.155215,"i_long":106.800832,"distance":1700,"is_transit":true,"line":1,"transit":true,"station_id":"DU","station_name":"Duri"},{"line":1,"i_long":106.811091,"station_name":"Tanah Abang","i_lat":-6.185545,"station_id":"THB","is_transit":true,"transit":false,"time":8,"distance":3632},{"station_id":"KAT","i_long":106.816351,"line":1,"distance":2029,"is_transit":false,"station_name":"Karet","transit":false,"time":5,"i_lat":-6.20132},{"distance":471,"transit":false,"i_lat":-6.201433,"station_name":"Sudirman Baru","station_id":"SUDB","i_long":106.819881,"line":1,"is_transit":false,"time":1},{"distance":280,"transit":false,"i_lat":-6.202263,"station_id":"SUD","time":1,"i_long":106.822649,"line":1,"is_transit":false,"station_name":"Sudirman"},{"distance":3186,"time":4,"transit":true,"i_long":106.84912,"is_transit":true,"i_lat":-6.209883,"line":0,"station_id":"MRI","station_name":"Manggarai"},{"time":4,"line":0,"is_transit":false,"station_id":"CKI","station_name":"Cikini","distance":1590,"transit":false,"i_lat":-6.198556,"i_long":106.840169},{"i_long":106.832183,"i_lat":-6.186295,"line":2,"distance":1750,"is_transit":false,"station_name":"Gondangdia","station_id":"GDD","transit":false,"time":3},{"is_transit":false,"time":4,"i_lat":-6.166716,"transit":false,"distance":2015,"station_name":"Juanda","i_long":106.828284,"line":2,"station_id":"JUA"},{"distance":1149,"i_long":106.827103,"line":2,"i_lat":-6.160725,"transit":false,"station_id":"SW","time":2,"station_name":"Sawah Besar","is_transit":false},{"is_transit":false,"time":2,"station_name":"Manggabesar","line":2,"distance":906,"i_lat":-6.149769,"i_long":106.82482,"station_id":"MGB","transit":false},{"i_lat":-6.141205,"is_transit":false,"distance":1080,"time":2,"transit":false,"i_long":106.820901,"line":7,"station_name":"Jayakarta","station_id":"JAY"},{"distance":1264,"is_transit":true,"time":4,"transit":true,"station_id":"JAKK","i_long":106.812439,"station_name":"Jakarta Kota","line":0,"i_lat":-6.137569},{"transit":true,"time":3,"i_long":106.826365,"line":0,"station_id":"KPB","distance":1364,"is_transit":true,"station_name":"Kampung Bandan","i_lat":-6.132549},{"line":11,"station_id":"RJW","time":3,"i_lat":-6.14505,"distance":1444,"transit":false,"i_long":106.836569,"is_transit":false,"station_name":"Rajawali"},{"distance":1901,"transit":false,"time":5,"i_long":106.839204,"line":11,"i_lat":-6.161728,"station_id":"KMO","station_name":"Kemayoran","is_transit":false},{"is_transit":false,"line":11,"transit":false,"i_lat":-6.174784,"i_long":106.84368,"station_id":"PSE","distance":1436,"station_name":"Pasar Senen","time":4},{"transit":false,"time":8,"is_transit":false,"station_id":"GST","i_lat":-6.185975,"distance":1567,"station_name":"Gang Sentiong","i_long":106.850107,"line":11},{"station_id":"KMT","transit":false,"i_long":106.855437,"is_transit":false,"distance":973,"station_name":"Kramat","time":1,"line":11,"i_lat":-6.193792},{"line":11,"transit":false,"station_id":"POK","station_name":"Pondok Jati","i_long":106.861737,"distance":1829,"is_transit":false,"time":2,"i_lat":-6.209188},{"distance":1236,"station_name":"Jatinegara","station_id":"JNG","is_transit":true,"transit":false,"time":9,"line":0,"i_lat":-6.215091,"i_long":106.86807400000001}]]}