{"data":[[{"is_transit":false,"station_id":"PSG","transit":false,"station_name":"Pesing","distance":0,"i_long":106.771379,"time":0,"line":5,"i_lat":-6.161433},{"station_id":"GGL","station_name":"Grogol","line":5,"transit":false,"distance":2036,"is_transit":false,"time":2,"i_lat":-6.162021,"i_long":106.788277},{"i_long":106.800832,"line":1,"i_lat":-6.155215,"transit":true,"time":3,"station_name":"Duri","station_id":"DU","is_transit":true,"distance":1700},{"i_lat":-6.144674,"distance":1230,"i_long":106.79867,"transit":false,"is_transit":false,"line":1,"station_name":"Angke","time":4,"station_id":"AK"},{"distance":4102,"time":9,"station_name":"Kampung Bandan","i_lat":-6.132549,"transit":true,"line":4,"is_transit":true,"i_long":106.826365,"station_id":"KPB"},{"time":3,"line":11,"station_name":"Rajawali","distance":1444,"is_transit":false,"transit":false,"i_lat":-6.14505,"i_long":106.836569,"station_id":"RJW"},{"line":11,"i_lat":-6.161728,"station_id":"KMO","station_name":"Kemayoran","transit":false,"i_long":106.839204,"time":5,"is_transit":false,"distance":1901},{"station_id":"PSE","transit":false,"station_name":"Pasar Senen","line":11,"distance":1436,"i_long":106.84368,"time":4,"i_lat":-6.174784,"is_transit":false},{"line":11,"is_transit":false,"station_name":"Gang Sentiong","distance":1567,"i_lat":-6.185975,"i_long":106.850107,"transit":false,"station_id":"GST","time":8},{"line":11,"i_lat":-6.193792,"is_transit":false,"time":1,"transit":false,"station_name":"Kramat","i_long":106.855437,"distance":973,"station_id":"KMT"},{"i_lat":-6.209188,"line":11,"is_transit":false,"distance":1829,"i_long":106.861737,"time":2,"station_name":"Pondok Jati","station_id":"POK","transit":false}],[{"i_lat":-6.161433,"i_long":106.771379,"line":5,"distance":0,"transit":false,"station_id":"PSG","is_transit":false,"station_name":"Pesing","time":0},{"i_long":106.788277,"time":2,"is_transit":false,"i_lat":-6.162021,"station_name":"Grogol","line":5,"station_id":"GGL","distance":2036,"transit":false},{"distance":1700,"line":1,"station_name":"Duri","station_id":"DU","i_lat":-6.155215,"transit":true,"time":3,"is_transit":true,"i_long":106.800832},{"transit":false,"i_lat":-6.185545,"time":8,"i_long":106.811091,"distance":3632,"station_id":"THB","line":1,"is_transit":false,"station_name":"Tanah Abang"},{"time":5,"station_name":"Karet","i_lat":-6.20132,"is_transit":false,"i_long":106.816351,"station_id":"KAT","transit":false,"line":1,"distance":2029},{"line":1,"is_transit":false,"station_id":"SUDB","station_name":"Sudirman Baru","i_lat":-6.201433,"i_long":106.819881,"distance":471,"transit":false,"time":1},{"distance":280,"i_long":106.822649,"is_transit":false,"station_name":"Sudirman","station_id":"SUD","i_lat":-6.202263,"time":1,"transit":false,"line":1},{"line":2,"distance":3186,"station_id":"MRI","i_long":106.84912,"station_name":"Manggarai","i_lat":-6.209883,"time":4,"is_transit":false,"transit":false},{"transit":false,"station_name":"Matraman","line":1,"time":2,"distance":1275,"i_long":106.858896,"i_lat":-6.212485,"is_transit":false,"station_id":"MTR"},{"line":1,"i_lat":-6.215091,"distance":1377,"is_transit":true,"time":8,"transit":true,"station_name":"Jatinegara","i_long":106.86807400000001,"station_id":"JNG"},{"transit":false,"i_long":106.861737,"time":2,"is_transit":false,"distance":1236,"station_id":"POK","station_name":"Pondok Jati","line":11,"i_lat":-6.209188}],[{"transit":false,"station_id":"PSG","i_long":106.771379,"line":5,"time":0,"station_name":"Pesing","i_lat":-6.161433,"is_transit":false,"distance":0},{"line":5,"is_transit":false,"i_long":106.788277,"transit":false,"station_name":"Grogol","distance":2036,"time":2,"station_id":"GGL","i_lat":-6.162021},{"i_lat":-6.155215,"station_name":"Duri","distance":1700,"line":1,"station_id":"DU","time":3,"i_long":106.800832,"transit":true,"is_transit":true},{"line":1,"station_name":"Angke","is_transit":false,"i_lat":-6.144674,"i_long":106.79867,"distance":1230,"station_id":"AK","transit":false,"time":4},{"station_name":"Kampung Bandan","distance":4102,"is_transit":true,"i_lat":-6.132549,"i_long":106.826365,"time":9,"station_id":"KPB","line":4,"transit":true},{"time":3,"is_transit":true,"i_lat":-6.137569,"i_long":106.812439,"distance":1364,"transit":true,"station_name":"Jakarta Kota","line":2,"station_id":"JAKK"},{"is_transit":false,"i_lat":-6.141205,"transit":false,"station_id":"JAY","station_name":"Jayakarta","time":4,"i_long":106.820901,"distance":1264,"line":2},{"time":2,"i_lat":-6.149769,"is_transit":false,"line":2,"distance":1080,"station_id":"MGB","i_long":106.82482,"transit":false,"station_name":"Manggabesar"},{"station_name":"Sawah Besar","i_lat":-6.160725,"station_id":"SW","transit":false,"distance":906,"time":2,"line":2,"is_transit":false,"i_long":106.827103},{"distance":1149,"is_transit":false,"i_lat":-6.166716,"transit":false,"station_id":"JUA","line":2,"station_name":"Juanda","i_long":106.828284,"time":2},{"station_id":"GDD","line":2,"station_name":"Gondangdia","i_lat":-6.186295,"time":4,"is_transit":false,"transit":false,"distance":2015,"i_long":106.832183},{"line":2,"i_long":106.840169,"i_lat":-6.198556,"is_transit":false,"station_name":"Cikini","time":3,"transit":false,"station_id":"CKI","distance":1750},{"is_transit":true,"i_long":106.84912,"distance":1590,"line":2,"transit":true,"time":4,"station_name":"Manggarai","i_lat":-6.209883,"station_id":"MRI"},{"is_transit":false,"time":2,"transit":false,"line":1,"station_id":"MTR","distance":1275,"station_name":"Matraman","i_lat":-6.212485,"i_long":106.858896},{"station_id":"JNG","is_transit":true,"station_name":"Jatinegara","line":1,"i_lat":-6.215091,"time":8,"i_long":106.86807400000001,"distance":1377,"transit":true},{"station_name":"Pondok Jati","station_id":"POK","is_transit":false,"transit":false,"line":11,"i_long":106.861737,"distance":1236,"time":2,"i_lat":-6.209188}],[{"i_lat":-6.161433,"line":5,"time":0,"i_long":106.771379,"distance":0,"is_transit":false,"station_name":"Pesing","station_id":"PSG","transit":false},{"station_id":"GGL","transit":false,"station_name":"Grogol","is_transit":false,"distance":2036,"i_lat":-6.162021,"line":5,"i_long":106.788277,"time":2},{"transit":true,"line":1,"station_id":"DU","is_transit":true,"time":3,"station_name":"Duri","i_long":106.800832,"distance":1700,"i_lat":-6.155215},{"station_name":"Tanah Abang","transit":false,"station_id":"THB","line":1,"time":8,"is_transit":false,"i_lat":-6.185545,"i_long":106.811091,"distance":3632},{"station_id":"KAT","station_name":"Karet","line":1,"time":5,"i_long":106.816351,"transit":false,"distance":2029,"i_lat":-6.20132,"is_transit":false},{"i_long":106.819881,"distance":471,"i_lat":-6.201433,"transit":false,"is_transit":false,"station_id":"SUDB","line":1,"time":1,"station_name":"Sudirman Baru"},{"station_name":"Sudirman","transit":false,"station_id":"SUD","is_transit":false,"distance":280,"i_long":106.822649,"line":1,"time":1,"i_lat":-6.202263},{"time":4,"is_transit":true,"i_lat":-6.209883,"station_id":"MRI","i_long":106.84912,"transit":true,"station_name":"Manggarai","line":2,"distance":3186},{"line":2,"transit":false,"i_lat":-6.198556,"time":4,"station_name":"Cikini","distance":1590,"i_long":106.840169,"station_id":"CKI","is_transit":false},{"is_transit":false,"distance":1750,"time":3,"i_long":106.832183,"line":2,"station_id":"GDD","station_name":"Gondangdia","transit":false,"i_lat":-6.186295},{"station_id":"JUA","is_transit":false,"i_long":106.828284,"transit":false,"time":4,"distance":2015,"line":2,"station_name":"Juanda","i_lat":-6.166716},{"time":2,"i_lat":-6.160725,"is_transit":false,"station_id":"SW","distance":1149,"line":2,"transit":false,"station_name":"Sawah Besar","i_long":106.827103},{"station_id":"MGB","i_long":106.82482,"time":2,"line":2,"distance":906,"is_transit":false,"station_name":"Manggabesar","i_lat":-6.149769,"transit":false},{"distance":1080,"transit":false,"i_long":106.820901,"station_id":"JAY","is_transit":false,"station_name":"Jayakarta","time":2,"i_lat":-6.141205,"line":2},{"is_transit":true,"transit":true,"distance":1264,"station_id":"JAKK","line":2,"i_long":106.812439,"i_lat":-6.137569,"time":4,"station_name":"Jakarta Kota"},{"transit":true,"station_id":"KPB","time":3,"station_name":"Kampung Bandan","distance":1364,"i_lat":-6.132549,"i_long":106.826365,"line":4,"is_transit":true},{"time":3,"transit":false,"station_name":"Rajawali","distance":1444,"station_id":"RJW","i_lat":-6.14505,"line":11,"i_long":106.836569,"is_transit":false},{"line":11,"i_lat":-6.161728,"time":5,"distance":1901,"transit":false,"i_long":106.839204,"station_name":"Kemayoran","is_transit":false,"station_id":"KMO"},{"distance":1436,"line":11,"is_transit":false,"station_name":"Pasar Senen","i_lat":-6.174784,"transit":false,"time":4,"i_long":106.84368,"station_id":"PSE"},{"line":11,"i_long":106.850107,"i_lat":-6.185975,"distance":1567,"time":8,"transit":false,"station_name":"Gang Sentiong","is_transit":false,"station_id":"GST"},{"time":1,"distance":973,"i_long":106.855437,"transit":false,"line":11,"station_name":"Kramat","is_transit":false,"i_lat":-6.193792,"station_id":"KMT"},{"distance":1829,"i_lat":-6.209188,"station_name":"Pondok Jati","line":11,"time":2,"station_id":"POK","is_transit":false,"transit":false,"i_long":106.861737}]]}