{"data":[[{"distance":0,"time":0,"line":5,"is_transit":false,"i_long":106.771379,"transit":false,"station_id":"PSG","station_name":"Pesing","i_lat":-6.161433},{"line":5,"i_long":106.788277,"transit":false,"station_id":"GGL","distance":2036,"station_name":"Grogol","time":2,"is_transit":false,"i_lat":-6.162021},{"time":3,"i_long":106.800832,"distance":1700,"station_id":"DU","station_name":"Duri","transit":true,"is_transit":true,"i_lat":-6.155215,"line":1},{"station_id":"THB","is_transit":false,"line":1,"i_lat":-6.185545,"transit":false,"distance":3632,"station_name":"Tanah Abang","i_long":106.811091,"time":8},{"transit":false,"line":1,"station_name":"Karet","time":5,"station_id":"KAT","i_lat":-6.20132,"distance":2029,"i_long":106.816351,"is_transit":false},{"is_transit":false,"i_long":106.819881,"station_id":"SUDB","i_lat":-6.201433,"distance":471,"transit":false,"line":1,"time":1,"station_name":"Sudirman Baru"},{"station_name":"Sudirman","transit":false,"line":1,"station_id":"SUD","is_transit":false,"i_lat":-6.202263,"i_long":106.822649,"distance":280,"time":1},{"station_id":"MRI","transit":true,"i_long":106.84912,"station_name":"Manggarai","i_lat":-6.209883,"distance":3186,"time":4,"is_transit":true,"line":2},{"i_long":106.857948,"distance":2610,"station_id":"TEB","is_transit":false,"i_lat":-6.226659,"time":4,"line":2,"station_name":"Tebet","transit":false},{"line":2,"station_id":"CW","distance":1230,"time":2,"station_name":"Cawang","i_lat":-6.242512,"is_transit":false,"i_long":106.856607,"transit":false},{"transit":false,"distance":1546,"station_name":"Duren Kalibata","time":3,"line":2,"i_long":106.85449,"is_transit":false,"i_lat":-6.255332,"station_id":"DRN"},{"i_lat":-6.263214,"distance":824,"is_transit":false,"i_long":106.851577,"line":2,"transit":false,"station_id":"PSMB","time":2,"station_name":"Pasar Minggu Baru"},{"i_long":106.843999,"is_transit":false,"transit":false,"i_lat":-6.2842400000000005,"distance":2380,"station_name":"Pasar Minggu","line":2,"time":2,"station_id":"PSM"},{"time":4,"is_transit":false,"station_name":"Tanjung Barat","distance":2820,"line":2,"i_lat":-6.3080680000000005,"transit":false,"i_long":106.838896,"station_id":"TNT"},{"line":2,"station_id":"LNA","is_transit":false,"distance":2671,"i_lat":-6.330363,"time":3,"i_long":106.832616,"transit":false,"station_name":"Lenteng Agung"},{"i_lat":-6.339291,"is_transit":false,"time":2,"i_long":106.834175,"line":2,"distance":1029,"station_id":"UP","transit":false,"station_name":"Univ. Pancasila"},{"station_id":"UI","i_lat":-6.360749,"distance":2264,"transit":false,"line":2,"station_name":"Univ. Indonesia","time":3,"i_long":106.831474,"is_transit":false},{"is_transit":false,"time":2,"transit":false,"station_id":"POC","station_name":"Pondok Cina","i_lat":-6.369073,"i_long":106.831114,"line":2,"distance":1109},{"i_long":106.819451,"line":2,"transit":false,"station_name":"Depokbaru","is_transit":false,"time":4,"distance":2727,"station_id":"DPB","i_lat":-6.391065}],[{"distance":0,"station_name":"Pesing","i_long":106.771379,"is_transit":false,"station_id":"PSG","transit":false,"line":5,"i_lat":-6.161433,"time":0},{"station_name":"Grogol","time":2,"i_lat":-6.162021,"is_transit":false,"distance":2036,"line":5,"i_long":106.788277,"station_id":"GGL","transit":false},{"time":3,"station_id":"DU","station_name":"Duri","transit":true,"is_transit":true,"i_long":106.800832,"distance":1700,"i_lat":-6.155215,"line":1},{"i_lat":-6.144674,"time":4,"line":1,"is_transit":false,"transit":false,"distance":1230,"station_name":"Angke","station_id":"AK","i_long":106.79867},{"i_lat":-6.132549,"i_long":106.826365,"is_transit":true,"station_id":"KPB","line":4,"distance":4102,"transit":true,"station_name":"Kampung Bandan","time":9},{"time":3,"transit":true,"i_lat":-6.137569,"i_long":106.812439,"is_transit":true,"station_id":"JAKK","line":2,"station_name":"Jakarta Kota","distance":1364},{"line":2,"station_name":"Jayakarta","is_transit":false,"i_long":106.820901,"i_lat":-6.141205,"time":4,"distance":1264,"station_id":"JAY","transit":false},{"station_id":"MGB","line":2,"transit":false,"time":2,"is_transit":false,"i_lat":-6.149769,"i_long":106.82482,"station_name":"Manggabesar","distance":1080},{"station_name":"Sawah Besar","i_lat":-6.160725,"line":2,"transit":false,"station_id":"SW","i_long":106.827103,"is_transit":false,"distance":906,"time":2},{"distance":1149,"station_id":"JUA","station_name":"Juanda","is_transit":false,"time":2,"transit":false,"i_lat":-6.166716,"i_long":106.828284,"line":2},{"line":2,"time":4,"distance":2015,"is_transit":false,"i_lat":-6.186295,"station_name":"Gondangdia","i_long":106.832183,"transit":false,"station_id":"GDD"},{"station_name":"Cikini","is_transit":false,"transit":false,"i_lat":-6.198556,"i_long":106.840169,"line":2,"station_id":"CKI","distance":1750,"time":3},{"is_transit":false,"time":4,"line":2,"station_id":"MRI","transit":false,"i_long":106.84912,"station_name":"Manggarai","distance":1590,"i_lat":-6.209883},{"i_long":106.857948,"station_name":"Tebet","time":4,"distance":2610,"station_id":"TEB","line":2,"i_lat":-6.226659,"is_transit":false,"transit":false},{"time":2,"is_transit":false,"transit":false,"i_long":106.856607,"i_lat":-6.242512,"station_name":"Cawang","line":2,"distance":1230,"station_id":"CW"},{"transit":false,"station_name":"Duren Kalibata","line":2,"is_transit":false,"time":3,"distance":1546,"i_lat":-6.255332,"station_id":"DRN","i_long":106.85449},{"distance":824,"i_long":106.851577,"line":2,"i_lat":-6.263214,"station_name":"Pasar Minggu Baru","is_transit":false,"station_id":"PSMB","time":2,"transit":false},{"station_name":"Pasar Minggu","transit":false,"i_lat":-6.2842400000000005,"line":2,"is_transit":false,"time":2,"distance":2380,"station_id":"PSM","i_long":106.843999},{"station_name":"Tanjung Barat","is_transit":false,"i_long":106.838896,"line":2,"station_id":"TNT","time":4,"transit":false,"i_lat":-6.3080680000000005,"distance":2820},{"line":2,"time":3,"distance":2671,"transit":false,"i_long":106.832616,"station_name":"Lenteng Agung","is_transit":false,"station_id":"LNA","i_lat":-6.330363},{"i_lat":-6.339291,"i_long":106.834175,"line":2,"is_transit":false,"distance":1029,"station_id":"UP","time":2,"transit":false,"station_name":"Univ. Pancasila"},{"is_transit":false,"transit":false,"distance":2264,"station_name":"Univ. Indonesia","time":3,"station_id":"UI","i_lat":-6.360749,"i_long":106.831474,"line":2},{"station_name":"Pondok Cina","time":2,"station_id":"POC","transit":false,"i_long":106.831114,"line":2,"distance":1109,"is_transit":false,"i_lat":-6.369073},{"transit":false,"line":2,"i_long":106.819451,"i_lat":-6.391065,"distance":2727,"is_transit":false,"station_name":"Depokbaru","time":4,"station_id":"DPB"}],[{"station_name":"Pesing","distance":0,"station_id":"PSG","i_lat":-6.161433,"line":5,"transit":false,"i_long":106.771379,"is_transit":false,"time":0},{"line":5,"i_long":106.788277,"distance":2036,"i_lat":-6.162021,"time":2,"station_id":"GGL","transit":false,"station_name":"Grogol","is_transit":false},{"distance":1700,"i_lat":-6.155215,"time":3,"i_long":106.800832,"is_transit":true,"station_name":"Duri","station_id":"DU","transit":true,"line":1},{"transit":false,"station_name":"Angke","i_lat":-6.144674,"i_long":106.79867,"line":1,"time":4,"is_transit":false,"station_id":"AK","distance":1230},{"distance":4102,"time":9,"station_id":"KPB","transit":true,"is_transit":true,"line":4,"station_name":"Kampung Bandan","i_long":106.826365,"i_lat":-6.132549},{"transit":false,"time":3,"i_long":106.836569,"line":11,"i_lat":-6.14505,"is_transit":false,"distance":1444,"station_id":"RJW","station_name":"Rajawali"},{"line":11,"station_id":"KMO","is_transit":false,"time":5,"transit":false,"i_long":106.839204,"distance":1901,"i_lat":-6.161728,"station_name":"Kemayoran"},{"i_long":106.84368,"i_lat":-6.174784,"station_name":"Pasar Senen","line":11,"transit":false,"distance":1436,"time":4,"station_id":"PSE","is_transit":false},{"station_name":"Gang Sentiong","is_transit":false,"i_long":106.850107,"i_lat":-6.185975,"distance":1567,"station_id":"GST","transit":false,"time":8,"line":11},{"transit":false,"line":11,"station_name":"Kramat","time":1,"distance":973,"is_transit":false,"i_lat":-6.193792,"station_id":"KMT","i_long":106.855437},{"station_name":"Pondok Jati","transit":false,"i_lat":-6.209188,"line":11,"time":2,"station_id":"POK","distance":1829,"is_transit":false,"i_long":106.861737},{"station_id":"JNG","time":9,"station_name":"Jatinegara","is_transit":true,"distance":1236,"i_long":106.86807400000001,"transit":true,"i_lat":-6.215091,"line":1},{"is_transit":false,"station_name":"Matraman","i_lat":-6.212485,"distance":1377,"transit":false,"time":2,"i_long":106.858896,"station_id":"MTR","line":1},{"time":2,"station_id":"MRI","transit":true,"line":2,"distance":1275,"i_lat":-6.209883,"i_long":106.84912,"station_name":"Manggarai","is_transit":true},{"line":2,"i_long":106.857948,"time":4,"station_id":"TEB","distance":2610,"transit":false,"i_lat":-6.226659,"station_name":"Tebet","is_transit":false},{"i_long":106.856607,"i_lat":-6.242512,"station_name":"Cawang","transit":false,"line":2,"time":2,"distance":1230,"is_transit":false,"station_id":"CW"},{"station_name":"Duren Kalibata","transit":false,"station_id":"DRN","time":3,"i_lat":-6.255332,"distance":1546,"is_transit":false,"i_long":106.85449,"line":2},{"time":2,"transit":false,"station_name":"Pasar Minggu Baru","i_lat":-6.263214,"is_transit":false,"distance":824,"station_id":"PSMB","i_long":106.851577,"line":2},{"line":2,"i_long":106.843999,"time":2,"transit":false,"is_transit":false,"station_name":"Pasar Minggu","distance":2380,"i_lat":-6.2842400000000005,"station_id":"PSM"},{"transit":false,"station_name":"Tanjung Barat","station_id":"TNT","distance":2820,"is_transit":false,"time":4,"line":2,"i_lat":-6.3080680000000005,"i_long":106.838896},{"i_lat":-6.330363,"transit":false,"distance":2671,"line":2,"station_name":"Lenteng Agung","time":3,"station_id":"LNA","i_long":106.832616,"is_transit":false},{"time":2,"i_lat":-6.339291,"distance":1029,"station_name":"Univ. Pancasila","transit":false,"is_transit":false,"station_id":"UP","line":2,"i_long":106.834175},{"i_lat":-6.360749,"is_transit":false,"station_id":"UI","transit":false,"time":3,"station_name":"Univ. Indonesia","line":2,"distance":2264,"i_long":106.831474},{"station_name":"Pondok Cina","i_long":106.831114,"transit":false,"is_transit":false,"time":2,"distance":1109,"line":2,"station_id":"POC","i_lat":-6.369073},{"transit":false,"distance":2727,"i_lat":-6.391065,"station_id":"DPB","time":4,"i_long":106.819451,"station_name":"Depokbaru","is_transit":false,"line":2}]]}