{"data":[[{"station_id":"PSG","distance":0,"i_long":106.771379,"station_name":"Pesing","time":0,"is_transit":false,"line":5,"transit":false,"i_lat":-6.161433},{"line":5,"station_name":"Grogol","is_transit":false,"distance":2036,"transit":false,"i_lat":-6.162021,"i_long":106.788277,"time":2,"station_id":"GGL"},{"i_long":106.800832,"line":1,"transit":true,"station_id":"DU","time":3,"distance":1700,"station_name":"Duri","is_transit":true,"i_lat":-6.155215},{"i_lat":-6.185545,"is_transit":false,"i_long":106.811091,"station_id":"THB","line":1,"time":8,"distance":3632,"station_name":"Tanah Abang","transit":false},{"station_name":"Karet","station_id":"KAT","line":1,"transit":false,"time":5,"i_lat":-6.20132,"distance":2029,"is_transit":false,"i_long":106.816351},{"distance":471,"station_id":"SUDB","is_transit":false,"transit":false,"i_long":106.819881,"time":1,"i_lat":-6.201433,"line":1,"station_name":"Sudirman Baru"},{"i_long":106.822649,"line":1,"station_id":"SUD","time":1,"station_name":"Sudirman","distance":280,"transit":false,"i_lat":-6.202263,"is_transit":false},{"is_transit":true,"distance":3186,"time":4,"station_id":"MRI","station_name":"Manggarai","i_long":106.84912,"line":2,"i_lat":-6.209883,"transit":true},{"distance":2610,"station_id":"TEB","is_transit":false,"i_long":106.857948,"time":4,"line":2,"station_name":"Tebet","transit":false,"i_lat":-6.226659},{"station_id":"CW","distance":1230,"transit":false,"station_name":"Cawang","i_long":106.856607,"line":2,"time":2,"is_transit":false,"i_lat":-6.242512},{"station_name":"Duren Kalibata","i_lat":-6.255332,"i_long":106.85449,"time":3,"station_id":"DRN","is_transit":false,"distance":1546,"line":2,"transit":false},{"station_name":"Pasar Minggu Baru","distance":824,"transit":false,"station_id":"PSMB","is_transit":false,"time":2,"i_lat":-6.263214,"i_long":106.851577,"line":2},{"distance":2380,"line":2,"transit":false,"i_lat":-6.2842400000000005,"i_long":106.843999,"station_id":"PSM","time":2,"station_name":"Pasar Minggu","is_transit":false},{"is_transit":false,"line":2,"i_long":106.838896,"time":4,"station_name":"Tanjung Barat","transit":false,"station_id":"TNT","i_lat":-6.3080680000000005,"distance":2820},{"line":2,"time":3,"distance":2671,"i_long":106.832616,"station_name":"Lenteng Agung","station_id":"LNA","transit":false,"is_transit":false,"i_lat":-6.330363},{"i_lat":-6.339291,"station_id":"UP","is_transit":false,"time":2,"distance":1029,"station_name":"Univ. Pancasila","line":2,"transit":false,"i_long":106.834175},{"time":3,"distance":2264,"station_id":"UI","line":2,"station_name":"Univ. Indonesia","is_transit":false,"i_lat":-6.360749,"i_long":106.831474,"transit":false},{"distance":1109,"station_name":"Pondok Cina","transit":false,"i_lat":-6.369073,"i_long":106.831114,"line":2,"is_transit":false,"time":2,"station_id":"POC"},{"line":2,"time":4,"station_id":"DPB","i_long":106.819451,"distance":2727,"transit":false,"i_lat":-6.391065,"is_transit":false,"station_name":"Depokbaru"}],[{"distance":0,"is_transit":false,"station_id":"PSG","line":5,"i_long":106.771379,"station_name":"Pesing","i_lat":-6.161433,"time":0,"transit":false},{"is_transit":false,"time":2,"transit":false,"line":5,"station_id":"GGL","station_name":"Grogol","distance":2036,"i_long":106.788277,"i_lat":-6.162021},{"i_long":106.800832,"station_name":"Duri","distance":1700,"transit":true,"i_lat":-6.155215,"time":3,"is_transit":true,"station_id":"DU","line":1},{"station_name":"Angke","time":4,"transit":false,"i_lat":-6.144674,"i_long":106.79867,"is_transit":false,"line":1,"distance":1230,"station_id":"AK"},{"is_transit":true,"station_name":"Kampung Bandan","station_id":"KPB","transit":true,"i_lat":-6.132549,"i_long":106.826365,"line":4,"time":9,"distance":4102},{"time":3,"line":2,"transit":true,"i_long":106.812439,"distance":1364,"is_transit":true,"station_name":"Jakarta Kota","i_lat":-6.137569,"station_id":"JAKK"},{"station_name":"Jayakarta","i_long":106.820901,"distance":1264,"is_transit":false,"transit":false,"line":2,"station_id":"JAY","time":4,"i_lat":-6.141205},{"transit":false,"station_id":"MGB","i_lat":-6.149769,"is_transit":false,"distance":1080,"station_name":"Manggabesar","time":2,"i_long":106.82482,"line":2},{"i_lat":-6.160725,"station_name":"Sawah Besar","i_long":106.827103,"transit":false,"time":2,"is_transit":false,"station_id":"SW","distance":906,"line":2},{"station_name":"Juanda","distance":1149,"transit":false,"i_lat":-6.166716,"i_long":106.828284,"time":2,"is_transit":false,"station_id":"JUA","line":2},{"time":4,"transit":false,"station_name":"Gondangdia","line":2,"station_id":"GDD","i_lat":-6.186295,"distance":2015,"is_transit":false,"i_long":106.832183},{"is_transit":false,"time":3,"i_long":106.840169,"station_id":"CKI","distance":1750,"i_lat":-6.198556,"station_name":"Cikini","line":2,"transit":false},{"station_id":"MRI","i_lat":-6.209883,"station_name":"Manggarai","line":2,"distance":1590,"transit":false,"is_transit":false,"i_long":106.84912,"time":4},{"i_lat":-6.226659,"i_long":106.857948,"transit":false,"line":2,"station_id":"TEB","time":4,"station_name":"Tebet","distance":2610,"is_transit":false},{"time":2,"station_id":"CW","is_transit":false,"transit":false,"line":2,"station_name":"Cawang","i_long":106.856607,"distance":1230,"i_lat":-6.242512},{"station_name":"Duren Kalibata","i_long":106.85449,"distance":1546,"station_id":"DRN","time":3,"transit":false,"i_lat":-6.255332,"is_transit":false,"line":2},{"station_id":"PSMB","distance":824,"line":2,"i_long":106.851577,"station_name":"Pasar Minggu Baru","transit":false,"time":2,"is_transit":false,"i_lat":-6.263214},{"is_transit":false,"i_long":106.843999,"time":2,"line":2,"i_lat":-6.2842400000000005,"station_id":"PSM","distance":2380,"transit":false,"station_name":"Pasar Minggu"},{"i_lat":-6.3080680000000005,"i_long":106.838896,"distance":2820,"transit":false,"time":4,"is_transit":false,"station_name":"Tanjung Barat","station_id":"TNT","line":2},{"station_id":"LNA","line":2,"transit":false,"is_transit":false,"i_long":106.832616,"time":3,"distance":2671,"station_name":"Lenteng Agung","i_lat":-6.330363},{"distance":1029,"i_lat":-6.339291,"i_long":106.834175,"transit":false,"time":2,"station_id":"UP","line":2,"station_name":"Univ. Pancasila","is_transit":false},{"station_name":"Univ. Indonesia","line":2,"distance":2264,"transit":false,"i_long":106.831474,"time":3,"station_id":"UI","is_transit":false,"i_lat":-6.360749},{"i_long":106.831114,"i_lat":-6.369073,"station_name":"Pondok Cina","is_transit":false,"distance":1109,"line":2,"time":2,"transit":false,"station_id":"POC"},{"station_name":"Depokbaru","station_id":"DPB","i_long":106.819451,"distance":2727,"time":4,"transit":false,"is_transit":false,"i_lat":-6.391065,"line":2}],[{"time":0,"i_long":106.771379,"is_transit":false,"station_id":"PSG","line":5,"transit":false,"distance":0,"i_lat":-6.161433,"station_name":"Pesing"},{"distance":2036,"line":5,"time":2,"i_lat":-6.162021,"station_name":"Grogol","i_long":106.788277,"transit":false,"station_id":"GGL","is_transit":false},{"transit":true,"is_transit":true,"station_id":"DU","station_name":"Duri","line":1,"i_lat":-6.155215,"i_long":106.800832,"time":3,"distance":1700},{"station_name":"Angke","time":4,"transit":false,"i_lat":-6.144674,"i_long":106.79867,"line":1,"distance":1230,"station_id":"AK","is_transit":false},{"i_lat":-6.132549,"i_long":106.826365,"line":4,"station_id":"KPB","is_transit":true,"transit":true,"time":9,"station_name":"Kampung Bandan","distance":4102},{"time":3,"line":11,"i_lat":-6.14505,"transit":false,"station_id":"RJW","station_name":"Rajawali","i_long":106.836569,"is_transit":false,"distance":1444},{"station_id":"KMO","time":5,"is_transit":false,"transit":false,"i_long":106.839204,"line":11,"station_name":"Kemayoran","i_lat":-6.161728,"distance":1901},{"distance":1436,"time":4,"i_long":106.84368,"station_id":"PSE","is_transit":false,"station_name":"Pasar Senen","i_lat":-6.174784,"line":11,"transit":false},{"is_transit":false,"line":11,"distance":1567,"i_lat":-6.185975,"i_long":106.850107,"station_name":"Gang Sentiong","transit":false,"station_id":"GST","time":8},{"i_lat":-6.193792,"line":11,"is_transit":false,"time":1,"transit":false,"station_name":"Kramat","distance":973,"i_long":106.855437,"station_id":"KMT"},{"distance":1829,"transit":false,"station_id":"POK","station_name":"Pondok Jati","is_transit":false,"time":2,"i_lat":-6.209188,"i_long":106.861737,"line":11},{"distance":1236,"station_id":"JNG","station_name":"Jatinegara","transit":true,"i_lat":-6.215091,"is_transit":true,"time":9,"line":1,"i_long":106.86807400000001},{"station_name":"Matraman","is_transit":false,"time":2,"distance":1377,"i_long":106.858896,"transit":false,"line":1,"station_id":"MTR","i_lat":-6.212485},{"station_name":"Manggarai","i_lat":-6.209883,"transit":true,"line":2,"i_long":106.84912,"distance":1275,"station_id":"MRI","time":2,"is_transit":true},{"station_id":"TEB","transit":false,"time":4,"distance":2610,"station_name":"Tebet","i_long":106.857948,"i_lat":-6.226659,"line":2,"is_transit":false},{"station_id":"CW","station_name":"Cawang","i_long":106.856607,"is_transit":false,"distance":1230,"i_lat":-6.242512,"transit":false,"time":2,"line":2},{"time":3,"station_name":"Duren Kalibata","is_transit":false,"line":2,"distance":1546,"station_id":"DRN","i_long":106.85449,"transit":false,"i_lat":-6.255332},{"transit":false,"time":2,"i_lat":-6.263214,"station_name":"Pasar Minggu Baru","i_long":106.851577,"distance":824,"is_transit":false,"line":2,"station_id":"PSMB"},{"i_long":106.843999,"line":2,"time":2,"is_transit":false,"i_lat":-6.2842400000000005,"station_name":"Pasar Minggu","distance":2380,"station_id":"PSM","transit":false},{"station_id":"TNT","is_transit":false,"distance":2820,"i_long":106.838896,"transit":false,"i_lat":-6.3080680000000005,"station_name":"Tanjung Barat","line":2,"time":4},{"time":3,"distance":2671,"is_transit":false,"i_lat":-6.330363,"line":2,"i_long":106.832616,"transit":false,"station_id":"LNA","station_name":"Lenteng Agung"},{"station_name":"Univ. Pancasila","station_id":"UP","i_long":106.834175,"time":2,"line":2,"distance":1029,"is_transit":false,"transit":false,"i_lat":-6.339291},{"transit":false,"station_name":"Univ. Indonesia","is_transit":false,"station_id":"UI","line":2,"i_lat":-6.360749,"i_long":106.831474,"time":3,"distance":2264},{"station_name":"Pondok Cina","transit":false,"is_transit":false,"i_lat":-6.369073,"time":2,"station_id":"POC","line":2,"distance":1109,"i_long":106.831114},{"i_lat":-6.391065,"is_transit":false,"line":2,"i_long":106.819451,"time":4,"distance":2727,"station_id":"DPB","station_name":"Depokbaru","transit":false}]]}