{
  "data": [
    [
      {
        "distance": 0,
        "i_lat": -6.161433,
        "i_long": 106.771379,
        "is_transit": false,
        "line": 5,
        "station_id": "PSG",
        "station_name": "Pesing",
        "time": 0,
        "transit": false
      },
      {
        "distance": 1614,
        "i_lat": -6.1587309999999995,
        "i_long": 106.756522,
        "is_transit": false,
        "line": 5,
        "station_id": "TKO",
        "station_name": "Taman Kota",
        "time": 2,
        "transit": false
      },
      {
        "distance": 2334,
        "i_lat": -6.159876,
        "i_long": 106.737035,
        "is_transit": false,
        "line": 5,
        "station_id": "BOI",
        "station_name": "Bojongindah",
        "time": 2,
        "transit": false
      },
      {
        "distance": 1152,
        "i_lat": -6.162758,
        "i_long": 106.723064,
        "is_transit": false,
        "line": 5,
        "station_id": "RW",
        "station_name": "Rawa Buaya",
        "time": 4,
        "transit": false
      },
      {
        "distance": 2504,
        "i_lat": -6.166068,
        "i_long": 106.701612,
        "is_transit": false,
        "line": 5,
        "station_id": "KDS",
        "station_name": "Kalideres",
        "time": 3,
        "transit": false
      },
      {
        "distance": 2548,
        "i_lat": -6.169933,
        "i_long": 106.679458,
        "is_transit": false,
        "line": 5,
        "station_id": "PI",
        "station_name": "Poris",
        "time": 3,
        "transit": false
      }
    ]
  ]
}
