{"data":[[{"i_lat":-6.161433,"time":0,"line":5,"i_long":106.771379,"is_transit":false,"transit":false,"station_id":"PSG","distance":0,"station_name":"Pesing"},{"is_transit":false,"station_id":"GGL","time":2,"distance":2036,"station_name":"Grogol","transit":false,"i_lat":-6.162021,"line":5,"i_long":106.788277},{"line":1,"station_name":"Duri","transit":true,"i_lat":-6.155215,"station_id":"DU","i_long":106.800832,"time":3,"is_transit":true,"distance":1700},{"station_name":"Angke","line":1,"station_id":"AK","is_transit":false,"i_long":106.79867,"transit":false,"time":4,"distance":1230,"i_lat":-6.144674},{"station_id":"KPB","i_lat":-6.132549,"i_long":106.826365,"station_name":"Kampung Bandan","is_transit":false,"transit":false,"time":9,"line":4,"distance":4102}],[{"station_id":"PSG","transit":false,"i_lat":-6.161433,"time":0,"distance":0,"station_name":"Pesing","line":5,"i_long":106.771379,"is_transit":false},{"station_id":"GGL","is_transit":false,"i_long":106.788277,"distance":2036,"line":5,"transit":false,"time":2,"i_lat":-6.162021,"station_name":"Grogol"},{"i_long":106.800832,"distance":1700,"time":3,"station_name":"Duri","is_transit":true,"line":1,"i_lat":-6.155215,"station_id":"DU","transit":true},{"line":1,"station_id":"THB","time":8,"transit":false,"station_name":"Tanah Abang","is_transit":false,"distance":3632,"i_lat":-6.185545,"i_long":106.811091},{"time":5,"is_transit":false,"line":1,"station_name":"Karet","transit":false,"i_lat":-6.20132,"station_id":"KAT","i_long":106.816351,"distance":2029},{"station_id":"SUDB","is_transit":false,"station_name":"Sudirman Baru","i_lat":-6.201433,"transit":false,"line":1,"distance":471,"i_long":106.819881,"time":1},{"station_id":"SUD","transit":false,"time":1,"line":1,"distance":280,"is_transit":false,"i_lat":-6.202263,"i_long":106.822649,"station_name":"Sudirman"},{"distance":3186,"i_long":106.84912,"station_id":"MRI","transit":true,"i_lat":-6.209883,"station_name":"Manggarai","is_transit":true,"line":2,"time":4},{"station_id":"CKI","is_transit":false,"station_name":"Cikini","time":4,"transit":false,"i_lat":-6.198556,"i_long":106.840169,"distance":1590,"line":2},{"is_transit":false,"station_id":"GDD","transit":false,"i_long":106.832183,"line":2,"distance":1750,"station_name":"Gondangdia","i_lat":-6.186295,"time":3},{"station_id":"JUA","station_name":"Juanda","transit":false,"i_long":106.828284,"is_transit":false,"distance":2015,"line":2,"time":4,"i_lat":-6.166716},{"transit":false,"time":2,"i_lat":-6.160725,"i_long":106.827103,"line":2,"station_name":"Sawah Besar","distance":1149,"station_id":"SW","is_transit":false},{"i_long":106.82482,"line":2,"distance":906,"time":2,"station_id":"MGB","is_transit":false,"i_lat":-6.149769,"transit":false,"station_name":"Manggabesar"},{"i_lat":-6.141205,"i_long":106.820901,"line":2,"station_id":"JAY","time":2,"distance":1080,"is_transit":false,"transit":false,"station_name":"Jayakarta"},{"i_lat":-6.137569,"station_name":"Jakarta Kota","distance":1264,"is_transit":true,"line":2,"station_id":"JAKK","transit":true,"time":4,"i_long":106.812439},{"i_lat":-6.132549,"station_name":"Kampung Bandan","transit":false,"time":3,"distance":1364,"is_transit":false,"station_id":"KPB","i_long":106.826365,"line":4}],[{"distance":0,"station_name":"Pesing","is_transit":false,"transit":false,"i_long":106.771379,"line":5,"station_id":"PSG","time":0,"i_lat":-6.161433},{"transit":false,"station_id":"GGL","distance":2036,"station_name":"Grogol","i_lat":-6.162021,"i_long":106.788277,"line":5,"time":2,"is_transit":false},{"station_id":"DU","transit":true,"time":3,"distance":1700,"station_name":"Duri","i_lat":-6.155215,"i_long":106.800832,"is_transit":true,"line":1},{"i_long":106.811091,"time":8,"station_name":"Tanah Abang","transit":false,"is_transit":false,"line":1,"station_id":"THB","i_lat":-6.185545,"distance":3632},{"distance":2029,"station_name":"Karet","i_long":106.816351,"i_lat":-6.20132,"station_id":"KAT","transit":false,"line":1,"time":5,"is_transit":false},{"distance":471,"is_transit":false,"station_name":"Sudirman Baru","transit":false,"i_lat":-6.201433,"i_long":106.819881,"line":1,"time":1,"station_id":"SUDB"},{"transit":false,"i_lat":-6.202263,"i_long":106.822649,"is_transit":false,"line":1,"station_id":"SUD","time":1,"distance":280,"station_name":"Sudirman"},{"line":2,"transit":false,"time":4,"station_name":"Manggarai","i_lat":-6.209883,"i_long":106.84912,"distance":3186,"station_id":"MRI","is_transit":false},{"station_id":"MTR","transit":false,"distance":1275,"station_name":"Matraman","i_lat":-6.212485,"is_transit":false,"line":1,"time":2,"i_long":106.858896},{"time":8,"distance":1377,"station_id":"JNG","is_transit":true,"line":1,"i_lat":-6.215091,"i_long":106.86807400000001,"transit":true,"station_name":"Jatinegara"},{"station_name":"Pondok Jati","is_transit":false,"transit":false,"time":2,"i_lat":-6.209188,"i_long":106.861737,"line":11,"distance":1236,"station_id":"POK"},{"station_id":"KMT","line":11,"time":2,"station_name":"Kramat","is_transit":false,"transit":false,"distance":1829,"i_lat":-6.193792,"i_long":106.855437},{"station_name":"Gang Sentiong","time":1,"is_transit":false,"transit":false,"distance":973,"i_lat":-6.185975,"i_long":106.850107,"station_id":"GST","line":11},{"i_lat":-6.174784,"time":8,"i_long":106.84368,"is_transit":false,"transit":false,"line":11,"station_id":"PSE","station_name":"Pasar Senen","distance":1567},{"station_id":"KMO","station_name":"Kemayoran","transit":false,"i_lat":-6.161728,"is_transit":false,"line":11,"distance":1436,"i_long":106.839204,"time":4},{"distance":1901,"transit":false,"time":5,"station_id":"RJW","station_name":"Rajawali","is_transit":false,"i_long":106.836569,"line":11,"i_lat":-6.14505},{"is_transit":false,"distance":1444,"i_long":106.826365,"line":4,"transit":false,"station_id":"KPB","station_name":"Kampung Bandan","time":3,"i_lat":-6.132549}]]}