{"data":[[{"station_id":"PSG","transit":false,"station_name":"Pesing","is_transit":false,"distance":0,"i_long":106.771379,"line":5,"time":0,"i_lat":-6.161433},{"i_lat":-6.162021,"time":2,"i_long":106.788277,"line":5,"is_transit":false,"station_name":"Grogol","transit":false,"distance":2036,"station_id":"GGL"},{"time":3,"transit":true,"is_transit":true,"station_id":"DU","station_name":"Duri","distance":1700,"i_lat":-6.155215,"line":1,"i_long":106.800832},{"i_long":106.811091,"line":1,"station_name":"Tanah Abang","station_id":"THB","time":8,"transit":false,"distance":3632,"is_transit":false,"i_lat":-6.185545},{"is_transit":false,"i_lat":-6.20132,"transit":false,"station_id":"KAT","time":5,"station_name":"Karet","distance":2029,"i_long":106.816351,"line":1},{"is_transit":false,"i_lat":-6.201433,"time":1,"line":1,"transit":false,"distance":471,"i_long":106.819881,"station_name":"Sudirman Baru","station_id":"SUDB"},{"line":1,"station_name":"Sudirman","i_lat":-6.202263,"time":1,"i_long":106.822649,"transit":false,"is_transit":false,"distance":280,"station_id":"SUD"},{"is_transit":true,"transit":true,"station_id":"MRI","time":4,"i_long":106.84912,"station_name":"Manggarai","distance":3186,"i_lat":-6.209883,"line":2},{"time":4,"i_lat":-6.226659,"distance":2610,"station_id":"TEB","transit":false,"i_long":106.857948,"line":2,"is_transit":false,"station_name":"Tebet"},{"i_long":106.856607,"station_id":"CW","transit":false,"distance":1230,"i_lat":-6.242512,"time":2,"line":2,"station_name":"Cawang","is_transit":false}],[{"distance":0,"station_id":"PSG","time":0,"line":5,"transit":false,"i_long":106.771379,"station_name":"Pesing","i_lat":-6.161433,"is_transit":false},{"i_long":106.788277,"i_lat":-6.162021,"time":2,"station_name":"Grogol","station_id":"GGL","distance":2036,"transit":false,"is_transit":false,"line":5},{"transit":true,"station_name":"Duri","time":3,"station_id":"DU","distance":1700,"i_lat":-6.155215,"line":1,"is_transit":true,"i_long":106.800832},{"distance":1230,"i_lat":-6.144674,"station_name":"Angke","time":4,"transit":false,"line":1,"is_transit":false,"i_long":106.79867,"station_id":"AK"},{"line":4,"i_lat":-6.132549,"i_long":106.826365,"station_id":"KPB","transit":true,"time":9,"station_name":"Kampung Bandan","is_transit":true,"distance":4102},{"line":2,"time":3,"distance":1364,"is_transit":true,"station_name":"Jakarta Kota","station_id":"JAKK","i_lat":-6.137569,"transit":true,"i_long":106.812439},{"time":4,"distance":1264,"is_transit":false,"line":2,"station_name":"Jayakarta","transit":false,"i_lat":-6.141205,"station_id":"JAY","i_long":106.820901},{"station_id":"MGB","i_lat":-6.149769,"is_transit":false,"distance":1080,"time":2,"i_long":106.82482,"line":2,"station_name":"Manggabesar","transit":false},{"i_lat":-6.160725,"line":2,"i_long":106.827103,"transit":false,"station_id":"SW","is_transit":false,"station_name":"Sawah Besar","time":2,"distance":906},{"station_id":"JUA","i_long":106.828284,"is_transit":false,"distance":1149,"transit":false,"i_lat":-6.166716,"line":2,"station_name":"Juanda","time":2},{"station_id":"GDD","i_long":106.832183,"station_name":"Gondangdia","time":4,"line":2,"distance":2015,"transit":false,"is_transit":false,"i_lat":-6.186295},{"distance":1750,"transit":false,"station_name":"Cikini","is_transit":false,"time":3,"i_long":106.840169,"i_lat":-6.198556,"line":2,"station_id":"CKI"},{"line":2,"i_lat":-6.209883,"station_name":"Manggarai","i_long":106.84912,"station_id":"MRI","time":4,"transit":false,"is_transit":false,"distance":1590},{"line":2,"i_lat":-6.226659,"i_long":106.857948,"transit":false,"time":4,"is_transit":false,"station_id":"TEB","distance":2610,"station_name":"Tebet"},{"station_id":"CW","is_transit":false,"time":2,"distance":1230,"line":2,"i_lat":-6.242512,"i_long":106.856607,"station_name":"Cawang","transit":false}],[{"transit":false,"time":0,"distance":0,"station_id":"PSG","is_transit":false,"i_lat":-6.161433,"station_name":"Pesing","i_long":106.771379,"line":5},{"station_id":"GGL","distance":2036,"time":2,"is_transit":false,"station_name":"Grogol","i_lat":-6.162021,"line":5,"transit":false,"i_long":106.788277},{"station_id":"DU","transit":true,"distance":1700,"time":3,"i_long":106.800832,"station_name":"Duri","i_lat":-6.155215,"line":1,"is_transit":true},{"is_transit":false,"station_name":"Angke","distance":1230,"i_lat":-6.144674,"i_long":106.79867,"station_id":"AK","transit":false,"time":4,"line":1},{"i_long":106.826365,"i_lat":-6.132549,"station_name":"Kampung Bandan","station_id":"KPB","time":9,"line":4,"distance":4102,"is_transit":true,"transit":true},{"is_transit":false,"station_name":"Rajawali","station_id":"RJW","i_long":106.836569,"line":11,"i_lat":-6.14505,"transit":false,"distance":1444,"time":3},{"station_name":"Kemayoran","i_lat":-6.161728,"transit":false,"distance":1901,"is_transit":false,"station_id":"KMO","time":5,"i_long":106.839204,"line":11},{"station_id":"PSE","station_name":"Pasar Senen","is_transit":false,"time":4,"distance":1436,"line":11,"i_lat":-6.174784,"i_long":106.84368,"transit":false},{"time":8,"station_name":"Gang Sentiong","station_id":"GST","i_lat":-6.185975,"transit":false,"distance":1567,"line":11,"is_transit":false,"i_long":106.850107},{"transit":false,"station_name":"Kramat","is_transit":false,"station_id":"KMT","time":1,"distance":973,"i_lat":-6.193792,"i_long":106.855437,"line":11},{"time":2,"i_lat":-6.209188,"transit":false,"i_long":106.861737,"is_transit":false,"station_id":"POK","line":11,"station_name":"Pondok Jati","distance":1829},{"is_transit":true,"time":9,"station_id":"JNG","transit":true,"distance":1236,"i_lat":-6.215091,"line":1,"i_long":106.86807400000001,"station_name":"Jatinegara"},{"distance":1377,"i_lat":-6.212485,"is_transit":false,"station_id":"MTR","station_name":"Matraman","line":1,"transit":false,"time":2,"i_long":106.858896},{"line":2,"transit":true,"is_transit":true,"distance":1275,"station_id":"MRI","i_lat":-6.209883,"i_long":106.84912,"station_name":"Manggarai","time":2},{"transit":false,"station_id":"TEB","is_transit":false,"time":4,"i_long":106.857948,"station_name":"Tebet","distance":2610,"i_lat":-6.226659,"line":2},{"transit":false,"time":2,"station_name":"Cawang","station_id":"CW","i_long":106.856607,"i_lat":-6.242512,"distance":1230,"line":2,"is_transit":false}]]}