{"data":[[{"time":0,"i_long":106.771379,"distance":0,"i_lat":-6.161433,"transit":false,"station_name":"Pesing","is_transit":false,"line":5,"station_id":"PSG"},{"transit":false,"station_name":"Taman Kota","i_lat":-6.1587309999999995,"line":5,"time":2,"i_long":106.756522,"distance":1614,"is_transit":false,"station_id":"TKO"},{"i_lat":-6.159876,"distance":2334,"transit":false,"line":0,"i_long":106.737035,"station_name":"Bojongindah","is_transit":false,"station_id":"BOI","time":2},{"is_transit":false,"station_name":"Rawa Buaya","distance":1152,"i_long":106.723064,"transit":false,"i_lat":-6.162758,"line":5,"station_id":"RW","time":4},{"transit":false,"line":5,"distance":2504,"i_long":106.701612,"station_id":"KDS","station_name":"Kalideres","i_lat":-6.166068,"time":3,"is_transit":false},{"time":3,"transit":false,"i_long":106.679458,"line":5,"is_transit":false,"i_lat":-6.169933,"distance":2548,"station_name":"Poris","station_id":"PI"}]]}