{"data":[[{"i_long":106.771379,"line":5,"station_id":"PSG","distance":0,"transit":false,"is_transit":false,"i_lat":-6.161433,"time":0,"station_name":"Pesing"},{"is_transit":false,"station_id":"GGL","i_lat":-6.162021,"time":2,"transit":false,"line":5,"station_name":"Grogol","i_long":106.788277,"distance":2036},{"station_name":"Duri","is_transit":true,"transit":true,"i_long":106.800832,"time":3,"station_id":"DU","i_lat":-6.155215,"line":1,"distance":1700},{"line":1,"distance":3632,"station_id":"THB","transit":true,"is_transit":true,"i_lat":-6.185545,"time":8,"station_name":"Tanah Abang","i_long":106.811091},{"station_name":"Palmerah","transit":false,"time":6,"distance":3191,"is_transit":false,"line":6,"i_long":106.79689,"station_id":"PLM","i_lat":-6.207404},{"i_lat":-6.237242,"is_transit":false,"station_name":"Kebayoran","i_long":106.780334,"station_id":"KBY","line":6,"transit":false,"distance":3737,"time":7}],[{"station_name":"Pesing","is_transit":false,"i_lat":-6.161433,"line":5,"transit":false,"station_id":"PSG","time":0,"i_long":106.771379,"distance":0},{"distance":2036,"is_transit":false,"station_name":"Grogol","i_long":106.788277,"line":5,"i_lat":-6.162021,"time":2,"station_id":"GGL","transit":false},{"time":3,"i_long":106.800832,"station_id":"DU","distance":1700,"station_name":"Duri","transit":true,"i_lat":-6.155215,"is_transit":true,"line":1},{"station_name":"Angke","station_id":"AK","line":1,"transit":false,"i_long":106.79867,"distance":1230,"time":4,"is_transit":false,"i_lat":-6.144674},{"transit":true,"line":4,"i_long":106.826365,"time":9,"station_id":"KPB","station_name":"Kampung Bandan","distance":4102,"i_lat":-6.132549,"is_transit":true},{"time":3,"i_long":106.812439,"station_name":"Jakarta Kota","i_lat":-6.137569,"is_transit":true,"station_id":"JAKK","transit":true,"line":2,"distance":1364},{"station_name":"Jayakarta","line":2,"is_transit":false,"station_id":"JAY","time":4,"transit":false,"i_lat":-6.141205,"i_long":106.820901,"distance":1264},{"is_transit":false,"transit":false,"line":2,"station_id":"MGB","station_name":"Manggabesar","i_long":106.82482,"i_lat":-6.149769,"time":2,"distance":1080},{"i_lat":-6.160725,"time":2,"distance":906,"station_name":"Sawah Besar","line":2,"i_long":106.827103,"transit":false,"is_transit":false,"station_id":"SW"},{"is_transit":false,"line":2,"station_name":"Juanda","time":2,"transit":false,"distance":1149,"station_id":"JUA","i_long":106.828284,"i_lat":-6.166716},{"station_name":"Gondangdia","distance":2015,"station_id":"GDD","time":4,"i_lat":-6.186295,"transit":false,"i_long":106.832183,"line":2,"is_transit":false},{"time":3,"distance":1750,"i_lat":-6.198556,"line":2,"station_id":"CKI","is_transit":false,"station_name":"Cikini","transit":false,"i_long":106.840169},{"transit":true,"station_name":"Manggarai","distance":1590,"time":4,"i_lat":-6.209883,"i_long":106.84912,"is_transit":true,"line":2,"station_id":"MRI"},{"time":4,"station_name":"Sudirman","distance":3186,"is_transit":false,"i_lat":-6.202263,"i_long":106.822649,"transit":false,"line":1,"station_id":"SUD"},{"time":1,"station_name":"Sudirman Baru","station_id":"SUDB","is_transit":false,"i_lat":-6.201433,"i_long":106.819881,"line":1,"distance":280,"transit":false},{"time":1,"distance":471,"station_name":"Karet","station_id":"KAT","i_long":106.816351,"is_transit":false,"transit":false,"i_lat":-6.20132,"line":1},{"time":5,"line":1,"is_transit":true,"distance":2029,"i_long":106.811091,"station_name":"Tanah Abang","station_id":"THB","transit":true,"i_lat":-6.185545},{"is_transit":false,"transit":false,"station_id":"PLM","distance":3191,"i_lat":-6.207404,"line":6,"station_name":"Palmerah","i_long":106.79689,"time":6},{"i_long":106.780334,"line":6,"station_name":"Kebayoran","is_transit":false,"station_id":"KBY","time":7,"transit":false,"distance":3737,"i_lat":-6.237242}],[{"i_long":106.771379,"i_lat":-6.161433,"station_id":"PSG","distance":0,"line":5,"is_transit":false,"time":0,"transit":false,"station_name":"Pesing"},{"is_transit":false,"i_lat":-6.162021,"i_long":106.788277,"line":5,"transit":false,"station_id":"GGL","station_name":"Grogol","time":2,"distance":2036},{"station_id":"DU","i_long":106.800832,"transit":true,"time":3,"station_name":"Duri","distance":1700,"is_transit":true,"i_lat":-6.155215,"line":1},{"is_transit":false,"distance":1230,"station_name":"Angke","transit":false,"i_lat":-6.144674,"line":1,"station_id":"AK","i_long":106.79867,"time":4},{"time":9,"i_lat":-6.132549,"line":4,"distance":4102,"station_name":"Kampung Bandan","station_id":"KPB","i_long":106.826365,"is_transit":true,"transit":true},{"distance":1444,"time":3,"station_id":"RJW","i_lat":-6.14505,"line":11,"station_name":"Rajawali","is_transit":false,"transit":false,"i_long":106.836569},{"time":5,"i_lat":-6.161728,"station_name":"Kemayoran","distance":1901,"is_transit":false,"transit":false,"i_long":106.839204,"station_id":"KMO","line":11},{"i_long":106.84368,"distance":1436,"time":4,"transit":false,"station_name":"Pasar Senen","is_transit":false,"line":11,"station_id":"PSE","i_lat":-6.174784},{"time":8,"distance":1567,"i_lat":-6.185975,"station_id":"GST","station_name":"Gang Sentiong","transit":false,"i_long":106.850107,"is_transit":false,"line":11},{"station_id":"KMT","time":1,"i_lat":-6.193792,"line":11,"transit":false,"i_long":106.855437,"station_name":"Kramat","distance":973,"is_transit":false},{"transit":false,"distance":1829,"station_name":"Pondok Jati","line":11,"time":2,"is_transit":false,"i_lat":-6.209188,"station_id":"POK","i_long":106.861737},{"distance":1236,"time":9,"i_lat":-6.215091,"is_transit":true,"i_long":106.86807400000001,"station_name":"Jatinegara","line":1,"station_id":"JNG","transit":true},{"time":2,"transit":false,"station_id":"MTR","distance":1377,"station_name":"Matraman","i_lat":-6.212485,"line":1,"i_long":106.858896,"is_transit":false},{"station_name":"Manggarai","line":2,"i_lat":-6.209883,"station_id":"MRI","i_long":106.84912,"time":2,"transit":false,"is_transit":false,"distance":1275},{"transit":false,"i_long":106.822649,"line":1,"time":4,"i_lat":-6.202263,"station_id":"SUD","station_name":"Sudirman","distance":3186,"is_transit":false},{"transit":false,"i_lat":-6.201433,"station_id":"SUDB","time":1,"is_transit":false,"station_name":"Sudirman Baru","line":1,"distance":280,"i_long":106.819881},{"station_id":"KAT","is_transit":false,"transit":false,"i_lat":-6.20132,"time":1,"station_name":"Karet","distance":471,"line":1,"i_long":106.816351},{"station_name":"Tanah Abang","i_long":106.811091,"transit":true,"distance":2029,"station_id":"THB","i_lat":-6.185545,"line":1,"time":5,"is_transit":true},{"transit":false,"i_long":106.79689,"is_transit":false,"distance":3191,"station_id":"PLM","station_name":"Palmerah","time":6,"line":6,"i_lat":-6.207404},{"time":7,"line":6,"is_transit":false,"i_lat":-6.237242,"station_name":"Kebayoran","transit":false,"distance":3737,"i_long":106.780334,"station_id":"KBY"}]]}