{"data":[[{"time":0,"i_lat":-6.161433,"i_long":106.771379,"distance":0,"is_transit":false,"line":5,"transit":false,"station_id":"PSG","station_name":"Pesing"},{"line":5,"i_long":106.788277,"station_name":"Grogol","i_lat":-6.162021,"station_id":"GGL","is_transit":false,"transit":false,"time":2,"distance":2036},{"station_id":"DU","i_long":106.800832,"line":1,"distance":1700,"is_transit":true,"station_name":"Duri","transit":true,"time":3,"i_lat":-6.155215},{"distance":3632,"transit":false,"i_lat":-6.185545,"station_name":"Tanah Abang","station_id":"THB","i_long":106.811091,"line":1,"is_transit":true,"time":8},{"distance":2029,"transit":false,"i_lat":-6.20132,"station_id":"KAT","time":5,"i_long":106.816351,"line":1,"is_transit":false,"station_name":"Karet"},{"distance":471,"time":1,"transit":false,"i_long":106.819881,"is_transit":false,"i_lat":-6.201433,"line":1,"station_id":"SUDB","station_name":"Sudirman Baru"},{"time":1,"line":1,"is_transit":false,"station_id":"SUD","station_name":"Sudirman","distance":280,"transit":false,"i_lat":-6.202263,"i_long":106.822649}],[{"i_long":106.771379,"i_lat":-6.161433,"line":5,"distance":0,"is_transit":false,"station_name":"Pesing","station_id":"PSG","transit":false,"time":0},{"is_transit":false,"time":2,"i_lat":-6.162021,"transit":false,"distance":2036,"station_name":"Grogol","i_long":106.788277,"line":5,"station_id":"GGL"},{"distance":1700,"i_long":106.800832,"line":1,"i_lat":-6.155215,"transit":true,"station_id":"DU","time":3,"station_name":"Duri","is_transit":true},{"is_transit":false,"time":4,"station_name":"Angke","line":0,"distance":1230,"i_lat":-6.144674,"i_long":106.79867,"station_id":"AK","transit":false},{"i_lat":-6.132549,"is_transit":true,"distance":4102,"time":9,"transit":false,"i_long":106.826365,"line":0,"station_name":"Kampung Bandan","station_id":"KPB"},{"distance":1364,"is_transit":true,"time":3,"transit":true,"station_id":"JAKK","i_long":106.812439,"station_name":"Jakarta Kota","line":0,"i_lat":-6.137569},{"transit":false,"time":4,"i_long":106.820901,"line":7,"station_id":"JAY","distance":1264,"is_transit":false,"station_name":"Jayakarta","i_lat":-6.141205},{"line":2,"station_id":"MGB","time":2,"i_lat":-6.149769,"distance":1080,"transit":false,"i_long":106.82482,"is_transit":false,"station_name":"Manggabesar"},{"station_name":"Sawah Besar","transit":false,"i_long":106.827103,"is_transit":false,"station_id":"SW","distance":906,"line":2,"time":2,"i_lat":-6.160725},{"transit":false,"i_long":106.828284,"distance":1149,"station_name":"Juanda","i_lat":-6.166716,"line":2,"time":2,"station_id":"JUA","is_transit":false},{"is_transit":false,"station_id":"GDD","distance":2015,"line":2,"time":4,"station_name":"Gondangdia","transit":false,"i_lat":-6.186295,"i_long":106.832183},{"station_id":"CKI","station_name":"Cikini","line":0,"is_transit":false,"distance":1750,"i_long":106.840169,"time":3,"i_lat":-6.198556,"transit":false},{"station_name":"Manggarai","time":4,"line":0,"station_id":"MRI","is_transit":true,"transit":true,"distance":1590,"i_lat":-6.209883,"i_long":106.84912},{"i_long":106.822649,"line":1,"time":4,"is_transit":false,"transit":false,"station_name":"Sudirman","station_id":"SUD","distance":3186,"i_lat":-6.202263}],[{"i_long":106.771379,"transit":false,"is_transit":false,"time":0,"distance":0,"i_lat":-6.161433,"line":5,"station_id":"PSG","station_name":"Pesing"},{"distance":2036,"is_transit":false,"station_name":"Grogol","transit":false,"station_id":"GGL","time":2,"i_lat":-6.162021,"i_long":106.788277,"line":5},{"distance":1700,"station_id":"DU","is_transit":true,"transit":true,"i_lat":-6.155215,"station_name":"Duri","time":3,"i_long":106.800832,"line":1},{"i_lat":-6.144674,"distance":1230,"i_long":106.79867,"line":0,"station_name":"Angke","is_transit":false,"transit":false,"time":4,"station_id":"AK"},{"station_id":"KPB","is_transit":true,"transit":true,"i_long":106.826365,"distance":4102,"time":9,"station_name":"Kampung Bandan","i_lat":-6.132549,"line":0},{"i_lat":-6.14505,"transit":false,"is_transit":false,"line":11,"station_id":"RJW","i_long":106.836569,"station_name":"Rajawali","distance":1444,"time":3},{"is_transit":false,"transit":false,"i_long":106.839204,"line":11,"station_id":"KMO","i_lat":-6.161728,"distance":1901,"station_name":"Kemayoran","time":5},{"is_transit":false,"transit":false,"line":11,"time":4,"i_long":106.84368,"station_id":"PSE","station_name":"Pasar Senen","i_lat":-6.174784,"distance":1436},{"i_long":106.850107,"i_lat":-6.185975,"station_id":"GST","transit":false,"is_transit":false,"time":8,"station_name":"Gang Sentiong","distance":1567,"line":11},{"time":1,"distance":973,"is_transit":false,"station_id":"KMT","transit":false,"station_name":"Kramat","i_long":106.855437,"i_lat":-6.193792,"line":11},{"i_lat":-6.209188,"station_name":"Pondok Jati","transit":false,"is_transit":false,"distance":1829,"line":11,"station_id":"POK","i_long":106.861737,"time":2},{"distance":1236,"time":9,"transit":true,"i_lat":-6.215091,"i_long":106.86807400000001,"station_name":"Jatinegara","station_id":"JNG","is_transit":true,"line":0},{"station_name":"Matraman","is_transit":false,"station_id":"MTR","time":2,"line":1,"transit":false,"i_lat":-6.212485,"distance":1377,"i_long":106.858896},{"distance":1275,"line":0,"i_lat":-6.209883,"is_transit":true,"station_name":"Manggarai","i_long":106.84912,"time":2,"station_id":"MRI","transit":false},{"station_name":"Sudirman","i_long":106.822649,"distance":3186,"transit":false,"i_lat":-6.202263,"line":1,"time":4,"station_id":"SUD","is_transit":false}]]}