{"data":[[{"transit":false,"line":5,"i_long":106.771379,"i_lat":-6.161433,"is_transit":false,"station_id":"PSG","station_name":"Pesing","time":0,"distance":0},{"i_lat":-6.162021,"station_id":"GGL","time":2,"transit":false,"line":5,"i_long":106.788277,"is_transit":false,"distance":2036,"station_name":"Grogol"},{"station_name":"Duri","i_lat":-6.155215,"i_long":106.800832,"line":1,"station_id":"DU","is_transit":true,"time":3,"transit":true,"distance":1700},{"transit":false,"i_lat":-6.144674,"is_transit":false,"station_id":"AK","time":4,"distance":1230,"i_long":106.79867,"line":1,"station_name":"Angke"},{"i_lat":-6.132549,"is_transit":true,"station_name":"Kampung Bandan","transit":true,"i_long":106.826365,"line":4,"distance":4102,"station_id":"KPB","time":9},{"is_transit":false,"distance":2185,"line":4,"i_lat":-6.128023,"time":4,"i_long":106.84464,"transit":false,"station_id":"AC","station_name":"Ancol"}],[{"is_transit":false,"distance":0,"i_long":106.771379,"station_name":"Pesing","station_id":"PSG","line":5,"time":0,"transit":false,"i_lat":-6.161433},{"station_name":"Grogol","i_long":106.788277,"distance":2036,"transit":false,"station_id":"GGL","is_transit":false,"i_lat":-6.162021,"time":2,"line":5},{"time":3,"i_lat":-6.155215,"i_long":106.800832,"line":1,"is_transit":true,"station_name":"Duri","station_id":"DU","transit":true,"distance":1700},{"line":1,"station_id":"THB","station_name":"Tanah Abang","is_transit":false,"i_lat":-6.185545,"time":8,"distance":3632,"transit":false,"i_long":106.811091},{"distance":2029,"i_lat":-6.20132,"is_transit":false,"transit":false,"station_id":"KAT","i_long":106.816351,"time":5,"line":1,"station_name":"Karet"},{"line":1,"is_transit":false,"transit":false,"station_id":"SUDB","time":1,"i_long":106.819881,"station_name":"Sudirman Baru","distance":471,"i_lat":-6.201433},{"station_id":"SUD","time":1,"station_name":"Sudirman","line":1,"i_long":106.822649,"is_transit":false,"distance":280,"transit":false,"i_lat":-6.202263},{"i_long":106.84912,"station_name":"Manggarai","is_transit":true,"line":2,"transit":true,"station_id":"MRI","distance":3186,"time":4,"i_lat":-6.209883},{"station_name":"Cikini","is_transit":false,"i_lat":-6.198556,"distance":1590,"line":2,"transit":false,"time":4,"i_long":106.840169,"station_id":"CKI"},{"station_id":"GDD","i_lat":-6.186295,"time":3,"i_long":106.832183,"transit":false,"distance":1750,"is_transit":false,"line":2,"station_name":"Gondangdia"},{"transit":false,"time":4,"i_long":106.828284,"line":2,"station_id":"JUA","station_name":"Juanda","distance":2015,"i_lat":-6.166716,"is_transit":false},{"is_transit":false,"i_lat":-6.160725,"time":2,"i_long":106.827103,"distance":1149,"line":2,"transit":false,"station_name":"Sawah Besar","station_id":"SW"},{"transit":false,"station_name":"Manggabesar","station_id":"MGB","is_transit":false,"i_lat":-6.149769,"line":2,"i_long":106.82482,"distance":906,"time":2},{"is_transit":false,"line":2,"i_lat":-6.141205,"station_id":"JAY","station_name":"Jayakarta","distance":1080,"time":2,"transit":false,"i_long":106.820901},{"station_id":"JAKK","i_lat":-6.137569,"i_long":106.812439,"is_transit":true,"distance":1264,"station_name":"Jakarta Kota","transit":true,"time":4,"line":2},{"transit":true,"station_name":"Kampung Bandan","station_id":"KPB","is_transit":true,"distance":1364,"i_long":106.826365,"time":3,"i_lat":-6.132549,"line":4},{"transit":false,"time":4,"line":4,"i_lat":-6.128023,"station_id":"AC","station_name":"Ancol","is_transit":false,"i_long":106.84464,"distance":2185}],[{"is_transit":false,"i_long":106.771379,"transit":false,"station_name":"Pesing","time":0,"station_id":"PSG","distance":0,"line":5,"i_lat":-6.161433},{"distance":2036,"line":5,"station_name":"Grogol","time":2,"i_lat":-6.162021,"transit":false,"station_id":"GGL","is_transit":false,"i_long":106.788277},{"transit":true,"station_id":"DU","line":1,"is_transit":true,"station_name":"Duri","distance":1700,"time":3,"i_long":106.800832,"i_lat":-6.155215},{"i_lat":-6.185545,"line":1,"station_name":"Tanah Abang","is_transit":false,"i_long":106.811091,"transit":false,"station_id":"THB","time":8,"distance":3632},{"is_transit":false,"time":5,"distance":2029,"transit":false,"station_name":"Karet","i_lat":-6.20132,"i_long":106.816351,"station_id":"KAT","line":1},{"line":1,"station_id":"SUDB","transit":false,"i_lat":-6.201433,"time":1,"is_transit":false,"distance":471,"station_name":"Sudirman Baru","i_long":106.819881},{"distance":280,"i_long":106.822649,"is_transit":false,"i_lat":-6.202263,"line":1,"station_name":"Sudirman","transit":false,"station_id":"SUD","time":1},{"is_transit":false,"i_lat":-6.209883,"i_long":106.84912,"transit":false,"line":2,"station_id":"MRI","time":4,"distance":3186,"station_name":"Manggarai"},{"station_id":"MTR","is_transit":false,"time":2,"i_lat":-6.212485,"line":1,"station_name":"Matraman","i_long":106.858896,"distance":1275,"transit":false},{"i_long":106.86807400000001,"station_id":"JNG","time":8,"i_lat":-6.215091,"station_name":"Jatinegara","line":1,"transit":true,"is_transit":true,"distance":1377},{"time":2,"i_long":106.861737,"transit":false,"distance":1236,"line":11,"station_id":"POK","station_name":"Pondok Jati","is_transit":false,"i_lat":-6.209188},{"transit":false,"station_id":"KMT","is_transit":false,"i_lat":-6.193792,"distance":1829,"line":11,"i_long":106.855437,"station_name":"Kramat","time":2},{"i_long":106.850107,"is_transit":false,"station_id":"GST","distance":973,"transit":false,"time":1,"i_lat":-6.185975,"station_name":"Gang Sentiong","line":11},{"line":11,"distance":1567,"time":8,"transit":false,"i_long":106.84368,"is_transit":false,"station_name":"Pasar Senen","i_lat":-6.174784,"station_id":"PSE"},{"time":4,"station_id":"KMO","i_lat":-6.161728,"distance":1436,"i_long":106.839204,"transit":false,"line":11,"station_name":"Kemayoran","is_transit":false},{"distance":1901,"station_id":"RJW","transit":false,"time":5,"i_long":106.836569,"is_transit":false,"line":11,"i_lat":-6.14505,"station_name":"Rajawali"},{"is_transit":true,"line":4,"transit":true,"i_lat":-6.132549,"time":3,"distance":1444,"i_long":106.826365,"station_name":"Kampung Bandan","station_id":"KPB"},{"station_name":"Ancol","line":4,"i_lat":-6.128023,"is_transit":false,"i_long":106.84464,"station_id":"AC","distance":2185,"transit":false,"time":4}]]}