{"data":[[{"i_long":106.771379,"line":5,"station_name":"Pesing","time":0,"distance":0,"is_transit":false,"i_lat":-6.161433,"station_id":"PSG","transit":false},{"station_id":"TKO","time":2,"transit":false,"station_name":"Taman Kota","i_lat":-6.1587309999999995,"distance":1614,"is_transit":false,"i_long":106.756522,"line":5},{"time":2,"i_lat":-6.159876,"i_long":106.737035,"station_name":"Bojongindah","line":0,"is_transit":false,"distance":2334,"station_id":"BOI","transit":false},{"line":5,"i_lat":-6.162758,"is_transit":false,"station_id":"RW","station_name":"Rawa Buaya","transit":false,"time":4,"i_long":106.723064,"distance":1152},{"is_transit":false,"i_long":106.701612,"line":5,"time":3,"station_name":"Kalideres","i_lat":-6.166068,"distance":2504,"station_id":"KDS","transit":false}]]}