{"data":[[{"time":0,"i_long":106.771379,"station_id":"PSG","transit":false,"station_name":"Pesing","is_transit":false,"i_lat":-6.161433,"distance":0,"line":5},{"line":5,"i_lat":-6.162021,"station_id":"GGL","transit":false,"time":2,"is_transit":false,"distance":2036,"station_name":"Grogol","i_long":106.788277},{"i_long":106.800832,"distance":1700,"time":3,"line":1,"station_name":"Duri","transit":true,"is_transit":true,"i_lat":-6.155215,"station_id":"DU"},{"distance":3632,"station_id":"THB","is_transit":false,"station_name":"Tanah Abang","i_lat":-6.185545,"transit":false,"i_long":106.811091,"line":1,"time":8},{"is_transit":false,"station_id":"KAT","i_long":106.816351,"i_lat":-6.20132,"time":5,"line":1,"transit":false,"distance":2029,"station_name":"Karet"},{"distance":471,"station_name":"Sudirman Baru","line":1,"station_id":"SUDB","is_transit":false,"i_lat":-6.201433,"time":1,"transit":false,"i_long":106.819881},{"transit":false,"i_long":106.822649,"station_id":"SUD","i_lat":-6.202263,"line":1,"distance":280,"time":1,"is_transit":false,"station_name":"Sudirman"},{"is_transit":true,"time":4,"station_name":"Manggarai","i_lat":-6.209883,"distance":3186,"i_long":106.84912,"line":2,"station_id":"MRI","transit":true},{"time":4,"station_name":"Tebet","transit":false,"i_long":106.857948,"is_transit":false,"i_lat":-6.226659,"distance":2610,"line":2,"station_id":"TEB"},{"i_lat":-6.242512,"station_name":"Cawang","transit":false,"distance":1230,"i_long":106.856607,"station_id":"CW","is_transit":false,"time":2,"line":2},{"distance":1546,"station_id":"DRN","station_name":"Duren Kalibata","i_lat":-6.255332,"line":2,"i_long":106.85449,"transit":false,"time":3,"is_transit":false},{"is_transit":false,"line":2,"time":2,"distance":824,"transit":false,"i_lat":-6.263214,"i_long":106.851577,"station_id":"PSMB","station_name":"Pasar Minggu Baru"},{"is_transit":false,"i_long":106.843999,"distance":2380,"i_lat":-6.2842400000000005,"station_id":"PSM","station_name":"Pasar Minggu","line":2,"transit":false,"time":2},{"is_transit":false,"i_lat":-6.3080680000000005,"i_long":106.838896,"station_id":"TNT","station_name":"Tanjung Barat","line":2,"time":4,"transit":false,"distance":2820},{"transit":false,"time":3,"station_id":"LNA","i_lat":-6.330363,"distance":2671,"station_name":"Lenteng Agung","i_long":106.832616,"is_transit":false,"line":2},{"station_name":"Univ. Pancasila","transit":false,"distance":1029,"i_lat":-6.339291,"line":2,"is_transit":false,"i_long":106.834175,"time":2,"station_id":"UP"},{"is_transit":false,"time":3,"distance":2264,"i_lat":-6.360749,"transit":false,"station_name":"Univ. Indonesia","i_long":106.831474,"line":2,"station_id":"UI"},{"station_id":"POC","line":2,"is_transit":false,"distance":1109,"transit":false,"time":2,"i_long":106.831114,"i_lat":-6.369073,"station_name":"Pondok Cina"},{"time":4,"is_transit":false,"distance":2727,"transit":false,"station_name":"Depokbaru","station_id":"DPB","i_long":106.819451,"line":2,"i_lat":-6.391065},{"station_id":"DP","is_transit":false,"time":3,"station_name":"Depok","i_long":106.816926,"line":2,"distance":1584,"i_lat":-6.405256,"transit":false},{"station_id":"CTA","station_name":"Citayam","i_long":106.800298,"line":2,"i_lat":-6.448811,"is_transit":true,"transit":true,"time":6,"distance":5084},{"time":0,"transit":false,"line":21,"station_name":"Pondok Rajeg","station_id":"PDRG","i_long":106.824374,"is_transit":false,"i_lat":-6.460735,"distance":0},{"time":0,"station_name":"Cibinong","station_id":"CBN","transit":false,"i_long":106.851978,"distance":0,"i_lat":-6.46424,"is_transit":false,"line":21},{"is_transit":false,"transit":false,"i_long":106.905196,"distance":6527,"station_id":"NMO","station_name":"Nambo","i_lat":-6.466285,"time":10,"line":21}],[{"transit":false,"station_id":"PSG","distance":0,"i_lat":-6.161433,"time":0,"is_transit":false,"station_name":"Pesing","line":5,"i_long":106.771379},{"i_long":106.788277,"is_transit":false,"station_name":"Grogol","time":2,"transit":false,"line":5,"distance":2036,"station_id":"GGL","i_lat":-6.162021},{"i_lat":-6.155215,"distance":1700,"station_id":"DU","i_long":106.800832,"is_transit":true,"transit":true,"time":3,"line":1,"station_name":"Duri"},{"is_transit":false,"station_name":"Angke","line":1,"i_long":106.79867,"station_id":"AK","time":4,"i_lat":-6.144674,"transit":false,"distance":1230},{"station_name":"Kampung Bandan","transit":true,"station_id":"KPB","time":9,"i_long":106.826365,"i_lat":-6.132549,"distance":4102,"is_transit":true,"line":4},{"line":2,"time":3,"i_lat":-6.137569,"station_name":"Jakarta Kota","station_id":"JAKK","distance":1364,"transit":true,"i_long":106.812439,"is_transit":true},{"station_name":"Jayakarta","station_id":"JAY","i_lat":-6.141205,"distance":1264,"is_transit":false,"line":2,"transit":false,"time":4,"i_long":106.820901},{"station_name":"Manggabesar","is_transit":false,"i_lat":-6.149769,"distance":1080,"transit":false,"line":2,"time":2,"station_id":"MGB","i_long":106.82482},{"i_long":106.827103,"station_name":"Sawah Besar","distance":906,"time":2,"line":2,"transit":false,"station_id":"SW","i_lat":-6.160725,"is_transit":false},{"i_lat":-6.166716,"station_id":"JUA","line":2,"transit":false,"distance":1149,"i_long":106.828284,"station_name":"Juanda","time":2,"is_transit":false},{"line":2,"station_name":"Gondangdia","is_transit":false,"station_id":"GDD","transit":false,"i_lat":-6.186295,"i_long":106.832183,"time":4,"distance":2015},{"distance":1750,"line":2,"transit":false,"time":3,"is_transit":false,"station_name":"Cikini","station_id":"CKI","i_lat":-6.198556,"i_long":106.840169},{"is_transit":false,"time":4,"station_name":"Manggarai","distance":1590,"transit":false,"station_id":"MRI","i_lat":-6.209883,"i_long":106.84912,"line":2},{"is_transit":false,"i_long":106.857948,"distance":2610,"time":4,"station_id":"TEB","transit":false,"i_lat":-6.226659,"station_name":"Tebet","line":2},{"line":2,"distance":1230,"time":2,"i_lat":-6.242512,"transit":false,"is_transit":false,"i_long":106.856607,"station_name":"Cawang","station_id":"CW"},{"i_long":106.85449,"line":2,"transit":false,"i_lat":-6.255332,"station_name":"Duren Kalibata","station_id":"DRN","time":3,"distance":1546,"is_transit":false},{"is_transit":false,"i_lat":-6.263214,"transit":false,"line":2,"station_id":"PSMB","i_long":106.851577,"distance":824,"time":2,"station_name":"Pasar Minggu Baru"},{"time":2,"station_id":"PSM","transit":false,"station_name":"Pasar Minggu","i_lat":-6.2842400000000005,"i_long":106.843999,"distance":2380,"line":2,"is_transit":false},{"transit":false,"is_transit":false,"station_name":"Tanjung Barat","time":4,"station_id":"TNT","distance":2820,"i_long":106.838896,"i_lat":-6.3080680000000005,"line":2},{"time":3,"station_id":"LNA","transit":false,"i_long":106.832616,"is_transit":false,"line":2,"station_name":"Lenteng Agung","i_lat":-6.330363,"distance":2671},{"i_long":106.834175,"time":2,"i_lat":-6.339291,"station_name":"Univ. Pancasila","station_id":"UP","distance":1029,"line":2,"transit":false,"is_transit":false},{"i_long":106.831474,"station_name":"Univ. Indonesia","line":2,"is_transit":false,"time":3,"transit":false,"distance":2264,"station_id":"UI","i_lat":-6.360749},{"i_long":106.831114,"time":2,"distance":1109,"line":2,"station_name":"Pondok Cina","is_transit":false,"i_lat":-6.369073,"station_id":"POC","transit":false},{"time":4,"station_id":"DPB","station_name":"Depokbaru","distance":2727,"is_transit":false,"transit":false,"i_lat":-6.391065,"i_long":106.819451,"line":2},{"is_transit":false,"transit":false,"i_lat":-6.405256,"line":2,"time":3,"station_id":"DP","i_long":106.816926,"distance":1584,"station_name":"Depok"},{"station_name":"Citayam","line":2,"time":6,"transit":true,"station_id":"CTA","distance":5084,"is_transit":true,"i_lat":-6.448811,"i_long":106.800298},{"i_lat":-6.460735,"station_name":"Pondok Rajeg","distance":0,"station_id":"PDRG","line":21,"i_long":106.824374,"time":0,"transit":false,"is_transit":false},{"is_transit":false,"station_name":"Cibinong","i_lat":-6.46424,"line":21,"time":0,"distance":0,"i_long":106.851978,"transit":false,"station_id":"CBN"},{"i_long":106.905196,"station_name":"Nambo","distance":6527,"i_lat":-6.466285,"line":21,"time":10,"is_transit":false,"transit":false,"station_id":"NMO"}],[{"transit":false,"i_lat":-6.161433,"station_name":"Pesing","is_transit":false,"station_id":"PSG","line":5,"distance":0,"i_long":106.771379,"time":0},{"transit":false,"distance":2036,"is_transit":false,"i_lat":-6.162021,"time":2,"i_long":106.788277,"station_id":"GGL","line":5,"station_name":"Grogol"},{"is_transit":true,"distance":1700,"time":3,"transit":true,"station_name":"Duri","i_lat":-6.155215,"i_long":106.800832,"station_id":"DU","line":1},{"time":4,"is_transit":false,"distance":1230,"station_id":"AK","station_name":"Angke","transit":false,"i_long":106.79867,"i_lat":-6.144674,"line":1},{"station_name":"Kampung Bandan","distance":4102,"i_long":106.826365,"is_transit":true,"transit":true,"station_id":"KPB","i_lat":-6.132549,"time":9,"line":4},{"transit":false,"i_lat":-6.14505,"line":11,"is_transit":false,"distance":1444,"station_name":"Rajawali","station_id":"RJW","time":3,"i_long":106.836569},{"transit":false,"distance":1901,"time":5,"station_id":"KMO","station_name":"Kemayoran","i_lat":-6.161728,"is_transit":false,"i_long":106.839204,"line":11},{"line":11,"station_name":"Pasar Senen","station_id":"PSE","time":4,"distance":1436,"i_lat":-6.174784,"i_long":106.84368,"transit":false,"is_transit":false},{"station_id":"GST","is_transit":false,"i_lat":-6.185975,"transit":false,"station_name":"Gang Sentiong","distance":1567,"time":8,"i_long":106.850107,"line":11},{"is_transit":false,"station_id":"KMT","distance":973,"station_name":"Kramat","line":11,"time":1,"transit":false,"i_lat":-6.193792,"i_long":106.855437},{"i_lat":-6.209188,"is_transit":false,"time":2,"distance":1829,"transit":false,"station_id":"POK","station_name":"Pondok Jati","i_long":106.861737,"line":11},{"station_name":"Jatinegara","time":9,"distance":1236,"transit":true,"i_lat":-6.215091,"i_long":106.86807400000001,"is_transit":true,"line":1,"station_id":"JNG"},{"i_lat":-6.212485,"distance":1377,"i_long":106.858896,"station_name":"Matraman","line":1,"transit":false,"is_transit":false,"time":2,"station_id":"MTR"},{"station_name":"Manggarai","distance":1275,"time":2,"line":2,"i_lat":-6.209883,"is_transit":true,"i_long":106.84912,"station_id":"MRI","transit":true},{"station_id":"TEB","is_transit":false,"station_name":"Tebet","i_lat":-6.226659,"time":4,"distance":2610,"transit":false,"i_long":106.857948,"line":2},{"line":2,"i_lat":-6.242512,"is_transit":false,"time":2,"transit":false,"station_name":"Cawang","distance":1230,"i_long":106.856607,"station_id":"CW"},{"i_lat":-6.255332,"station_name":"Duren Kalibata","is_transit":false,"time":3,"distance":1546,"line":2,"transit":false,"i_long":106.85449,"station_id":"DRN"},{"time":2,"station_name":"Pasar Minggu Baru","i_lat":-6.263214,"station_id":"PSMB","i_long":106.851577,"is_transit":false,"line":2,"transit":false,"distance":824},{"is_transit":false,"station_name":"Pasar Minggu","transit":false,"i_lat":-6.2842400000000005,"time":2,"i_long":106.843999,"line":2,"distance":2380,"station_id":"PSM"},{"i_lat":-6.3080680000000005,"transit":false,"line":2,"station_id":"TNT","is_transit":false,"time":4,"i_long":106.838896,"distance":2820,"station_name":"Tanjung Barat"},{"line":2,"station_name":"Lenteng Agung","i_long":106.832616,"transit":false,"is_transit":false,"i_lat":-6.330363,"time":3,"station_id":"LNA","distance":2671},{"i_lat":-6.339291,"station_name":"Univ. Pancasila","distance":1029,"line":2,"station_id":"UP","is_transit":false,"transit":false,"i_long":106.834175,"time":2},{"distance":2264,"i_lat":-6.360749,"line":2,"is_transit":false,"station_name":"Univ. Indonesia","transit":false,"i_long":106.831474,"station_id":"UI","time":3},{"line":2,"is_transit":false,"i_lat":-6.369073,"transit":false,"time":2,"station_id":"POC","station_name":"Pondok Cina","distance":1109,"i_long":106.831114},{"station_name":"Depokbaru","i_lat":-6.391065,"i_long":106.819451,"station_id":"DPB","time":4,"transit":false,"line":2,"is_transit":false,"distance":2727},{"station_id":"DP","i_lat":-6.405256,"distance":1584,"time":3,"station_name":"Depok","i_long":106.816926,"transit":false,"line":2,"is_transit":false},{"line":2,"station_name":"Citayam","i_lat":-6.448811,"station_id":"CTA","i_long":106.800298,"transit":true,"distance":5084,"is_transit":true,"time":6},{"i_long":106.824374,"time":0,"transit":false,"is_transit":false,"distance":0,"station_name":"Pondok Rajeg","station_id":"PDRG","line":21,"i_lat":-6.460735},{"i_long":106.851978,"station_name":"Cibinong","time":0,"is_transit":false,"station_id":"CBN","transit":false,"i_lat":-6.46424,"line":21,"distance":0},{"is_transit":false,"i_lat":-6.466285,"i_long":106.905196,"line":21,"station_name":"Nambo","time":10,"station_id":"NMO","distance":6527,"transit":false}]]}