{"data":[[{"distance":0,"is_transit":false,"line":5,"transit":false,"station_id":"PSG","time":0,"i_lat":-6.161433,"i_long":106.771379,"station_name":"Pesing"},{"line":5,"is_transit":false,"transit":false,"station_id":"GGL","i_long":106.788277,"station_name":"Grogol","time":2,"distance":2036,"i_lat":-6.162021},{"line":1,"transit":true,"station_name":"Duri","station_id":"DU","distance":1700,"time":3,"i_lat":-6.155215,"is_transit":true,"i_long":106.800832},{"station_name":"Angke","distance":1230,"time":4,"i_lat":-6.144674,"station_id":"AK","transit":false,"is_transit":false,"line":1,"i_long":106.79867},{"time":9,"i_long":106.826365,"is_transit":true,"station_name":"Kampung Bandan","station_id":"KPB","distance":4102,"line":4,"transit":true,"i_lat":-6.132549},{"line":2,"station_id":"JAKK","is_transit":true,"time":3,"transit":true,"station_name":"Jakarta Kota","distance":1364,"i_long":106.812439,"i_lat":-6.137569},{"station_id":"JAY","distance":1264,"transit":false,"i_lat":-6.141205,"station_name":"Jayakarta","time":4,"i_long":106.820901,"line":2,"is_transit":false},{"i_long":106.82482,"transit":false,"station_name":"Manggabesar","i_lat":-6.149769,"station_id":"MGB","distance":1080,"is_transit":false,"time":2,"line":2},{"is_transit":false,"time":2,"line":2,"transit":false,"station_id":"SW","distance":906,"station_name":"Sawah Besar","i_long":106.827103,"i_lat":-6.160725},{"is_transit":false,"transit":false,"station_name":"Juanda","time":2,"station_id":"JUA","i_lat":-6.166716,"distance":1149,"i_long":106.828284,"line":2}],[{"station_name":"Pesing","time":0,"is_transit":false,"distance":0,"i_long":106.771379,"line":5,"i_lat":-6.161433,"transit":false,"station_id":"PSG"},{"i_long":106.788277,"line":5,"is_transit":false,"station_name":"Grogol","i_lat":-6.162021,"station_id":"GGL","distance":2036,"transit":false,"time":2},{"i_lat":-6.155215,"line":1,"station_id":"DU","is_transit":true,"distance":1700,"i_long":106.800832,"station_name":"Duri","time":3,"transit":true},{"distance":3632,"station_name":"Tanah Abang","station_id":"THB","i_lat":-6.185545,"i_long":106.811091,"transit":false,"time":8,"line":1,"is_transit":false},{"line":1,"station_name":"Karet","station_id":"KAT","is_transit":false,"i_long":106.816351,"time":5,"distance":2029,"i_lat":-6.20132,"transit":false},{"i_long":106.819881,"station_name":"Sudirman Baru","line":1,"time":1,"station_id":"SUDB","is_transit":false,"transit":false,"distance":471,"i_lat":-6.201433},{"station_id":"SUD","station_name":"Sudirman","time":1,"is_transit":false,"i_lat":-6.202263,"i_long":106.822649,"transit":false,"distance":280,"line":1},{"i_lat":-6.209883,"time":4,"i_long":106.84912,"transit":true,"station_name":"Manggarai","distance":3186,"line":2,"is_transit":true,"station_id":"MRI"},{"i_lat":-6.198556,"station_id":"CKI","station_name":"Cikini","is_transit":false,"i_long":106.840169,"distance":1590,"transit":false,"line":2,"time":4},{"transit":false,"i_long":106.832183,"time":3,"line":2,"station_name":"Gondangdia","i_lat":-6.186295,"distance":1750,"station_id":"GDD","is_transit":false},{"station_id":"JUA","i_long":106.828284,"is_transit":false,"transit":false,"line":2,"station_name":"Juanda","i_lat":-6.166716,"distance":2015,"time":4}],[{"distance":0,"transit":false,"i_long":106.771379,"line":5,"time":0,"i_lat":-6.161433,"station_name":"Pesing","station_id":"PSG","is_transit":false},{"i_long":106.788277,"i_lat":-6.162021,"station_name":"Grogol","line":5,"distance":2036,"station_id":"GGL","time":2,"transit":false,"is_transit":false},{"i_lat":-6.155215,"transit":true,"line":1,"distance":1700,"time":3,"station_name":"Duri","station_id":"DU","is_transit":true,"i_long":106.800832},{"station_name":"Angke","transit":false,"i_lat":-6.144674,"i_long":106.79867,"is_transit":false,"time":4,"station_id":"AK","distance":1230,"line":1},{"station_id":"KPB","time":9,"transit":true,"is_transit":true,"distance":4102,"station_name":"Kampung Bandan","i_lat":-6.132549,"i_long":106.826365,"line":4},{"station_id":"RJW","station_name":"Rajawali","time":3,"i_lat":-6.14505,"distance":1444,"line":11,"i_long":106.836569,"is_transit":false,"transit":false},{"i_long":106.839204,"station_id":"KMO","transit":false,"station_name":"Kemayoran","is_transit":false,"time":5,"distance":1901,"i_lat":-6.161728,"line":11},{"time":4,"transit":false,"station_id":"PSE","i_long":106.84368,"line":11,"station_name":"Pasar Senen","distance":1436,"is_transit":false,"i_lat":-6.174784},{"is_transit":false,"distance":1567,"line":11,"i_long":106.850107,"time":8,"i_lat":-6.185975,"transit":false,"station_name":"Gang Sentiong","station_id":"GST"},{"time":1,"i_long":106.855437,"transit":false,"distance":973,"i_lat":-6.193792,"is_transit":false,"station_id":"KMT","station_name":"Kramat","line":11},{"line":11,"station_name":"Pondok Jati","is_transit":false,"distance":1829,"transit":false,"i_lat":-6.209188,"i_long":106.861737,"time":2,"station_id":"POK"},{"is_transit":true,"distance":1236,"station_id":"JNG","time":9,"station_name":"Jatinegara","i_lat":-6.215091,"transit":true,"line":1,"i_long":106.86807400000001},{"station_name":"Matraman","time":2,"station_id":"MTR","i_long":106.858896,"line":1,"transit":false,"distance":1377,"i_lat":-6.212485,"is_transit":false},{"line":2,"transit":true,"station_name":"Manggarai","is_transit":true,"station_id":"MRI","i_lat":-6.209883,"distance":1275,"time":2,"i_long":106.84912},{"station_name":"Cikini","distance":1590,"is_transit":false,"station_id":"CKI","time":4,"i_long":106.840169,"transit":false,"line":2,"i_lat":-6.198556},{"station_id":"GDD","transit":false,"line":2,"i_long":106.832183,"station_name":"Gondangdia","is_transit":false,"i_lat":-6.186295,"time":3,"distance":1750},{"i_lat":-6.166716,"distance":2015,"transit":false,"station_name":"Juanda","time":4,"i_long":106.828284,"line":2,"is_transit":false,"station_id":"JUA"}],[{"i_lat":-6.161433,"station_name":"Pesing","transit":false,"is_transit":false,"i_long":106.771379,"station_id":"PSG","time":0,"distance":0,"line":5},{"is_transit":false,"time":2,"distance":2036,"line":5,"station_name":"Grogol","transit":false,"station_id":"GGL","i_lat":-6.162021,"i_long":106.788277},{"i_long":106.800832,"station_name":"Duri","time":3,"transit":true,"line":1,"is_transit":true,"i_lat":-6.155215,"station_id":"DU","distance":1700},{"transit":false,"i_lat":-6.185545,"station_name":"Tanah Abang","line":1,"time":8,"i_long":106.811091,"is_transit":false,"distance":3632,"station_id":"THB"},{"time":5,"i_lat":-6.20132,"station_name":"Karet","is_transit":false,"station_id":"KAT","distance":2029,"line":1,"transit":false,"i_long":106.816351},{"station_name":"Sudirman Baru","is_transit":false,"time":1,"station_id":"SUDB","i_lat":-6.201433,"distance":471,"i_long":106.819881,"line":1,"transit":false},{"i_long":106.822649,"is_transit":false,"transit":false,"station_id":"SUD","line":1,"time":1,"distance":280,"station_name":"Sudirman","i_lat":-6.202263},{"transit":false,"i_lat":-6.209883,"i_long":106.84912,"station_id":"MRI","time":4,"distance":3186,"line":2,"station_name":"Manggarai","is_transit":false},{"i_lat":-6.212485,"is_transit":false,"line":1,"time":2,"station_id":"MTR","transit":false,"distance":1275,"station_name":"Matraman","i_long":106.858896},{"transit":true,"i_long":106.86807400000001,"station_name":"Jatinegara","is_transit":true,"time":8,"station_id":"JNG","i_lat":-6.215091,"distance":1377,"line":1},{"station_name":"Pondok Jati","i_long":106.861737,"is_transit":false,"station_id":"POK","i_lat":-6.209188,"distance":1236,"time":2,"transit":false,"line":11},{"station_name":"Kramat","i_long":106.855437,"is_transit":false,"distance":1829,"transit":false,"time":2,"station_id":"KMT","line":11,"i_lat":-6.193792},{"i_lat":-6.185975,"station_id":"GST","distance":973,"line":11,"i_long":106.850107,"transit":false,"station_name":"Gang Sentiong","is_transit":false,"time":1},{"i_lat":-6.174784,"i_long":106.84368,"time":8,"is_transit":false,"station_id":"PSE","station_name":"Pasar Senen","distance":1567,"transit":false,"line":11},{"i_lat":-6.161728,"time":4,"i_long":106.839204,"transit":false,"line":11,"station_id":"KMO","station_name":"Kemayoran","is_transit":false,"distance":1436},{"i_lat":-6.14505,"i_long":106.836569,"station_name":"Rajawali","is_transit":false,"time":5,"transit":false,"distance":1901,"line":11,"station_id":"RJW"},{"time":3,"line":4,"i_long":106.826365,"transit":true,"is_transit":true,"station_id":"KPB","i_lat":-6.132549,"station_name":"Kampung Bandan","distance":1444},{"i_lat":-6.137569,"is_transit":true,"i_long":106.812439,"transit":true,"station_id":"JAKK","line":2,"station_name":"Jakarta Kota","time":3,"distance":1364},{"i_lat":-6.141205,"distance":1264,"transit":false,"time":4,"station_name":"Jayakarta","is_transit":false,"i_long":106.820901,"station_id":"JAY","line":2},{"station_id":"MGB","station_name":"Manggabesar","is_transit":false,"distance":1080,"i_long":106.82482,"transit":false,"i_lat":-6.149769,"line":2,"time":2},{"time":2,"station_name":"Sawah Besar","station_id":"SW","distance":906,"is_transit":false,"line":2,"i_lat":-6.160725,"i_long":106.827103,"transit":false},{"time":2,"distance":1149,"station_name":"Juanda","station_id":"JUA","i_lat":-6.166716,"i_long":106.828284,"line":2,"is_transit":false,"transit":false}]]}