{"data":[[{"transit":false,"distance":0,"i_lat":-6.161433,"i_long":106.771379,"line":5,"is_transit":false,"station_id":"PSG","station_name":"Pesing","time":0},{"transit":false,"time":2,"distance":2036,"station_name":"Grogol","i_long":106.788277,"line":5,"is_transit":false,"i_lat":-6.162021,"station_id":"GGL"},{"distance":1700,"station_name":"Duri","i_lat":-6.155215,"is_transit":true,"station_id":"DU","i_long":106.800832,"transit":true,"time":3,"line":1},{"is_transit":true,"station_id":"THB","line":1,"station_name":"Tanah Abang","i_long":106.811091,"time":8,"transit":false,"distance":3632,"i_lat":-6.185545},{"line":1,"transit":false,"i_lat":-6.20132,"i_long":106.816351,"is_transit":false,"distance":2029,"station_id":"KAT","time":5,"station_name":"Karet"},{"i_lat":-6.201433,"station_id":"SUDB","is_transit":false,"station_name":"Sudirman Baru","i_long":106.819881,"time":1,"line":1,"distance":471,"transit":false},{"station_id":"SUD","station_name":"Sudirman","time":1,"is_transit":false,"transit":false,"distance":280,"i_lat":-6.202263,"line":1,"i_long":106.822649},{"line":0,"is_transit":true,"station_name":"Manggarai","station_id":"MRI","transit":true,"time":4,"distance":3186,"i_lat":-6.209883,"i_long":106.84912},{"line":2,"transit":false,"time":4,"is_transit":false,"i_long":106.857948,"station_id":"TEB","station_name":"Tebet","i_lat":-6.226659,"distance":2610},{"line":0,"i_lat":-6.242512,"station_name":"Cawang","time":2,"distance":1230,"station_id":"CW","is_transit":false,"transit":false,"i_long":106.856607},{"station_id":"DRN","i_long":106.85449,"i_lat":-6.255332,"distance":1546,"station_name":"Duren Kalibata","transit":false,"time":3,"line":0,"is_transit":false},{"station_id":"PSMB","is_transit":false,"transit":false,"station_name":"Pasar Minggu Baru","time":2,"line":2,"i_long":106.851577,"distance":824,"i_lat":-6.263214},{"transit":false,"i_long":106.843999,"time":2,"station_name":"Pasar Minggu","is_transit":false,"station_id":"PSM","distance":2380,"i_lat":-6.2842400000000005,"line":2},{"distance":2820,"time":4,"station_name":"Tanjung Barat","i_long":106.838896,"i_lat":-6.3080680000000005,"is_transit":false,"station_id":"TNT","line":2,"transit":false},{"transit":false,"i_lat":-6.330363,"station_name":"Lenteng Agung","time":3,"is_transit":false,"i_long":106.832616,"distance":2671,"line":2,"station_id":"LNA"}],[{"distance":0,"i_lat":-6.161433,"station_id":"PSG","is_transit":false,"station_name":"Pesing","line":5,"i_long":106.771379,"time":0,"transit":false},{"distance":2036,"station_name":"Grogol","transit":false,"station_id":"GGL","is_transit":false,"i_long":106.788277,"time":2,"line":5,"i_lat":-6.162021},{"is_transit":true,"distance":1700,"station_id":"DU","line":1,"i_lat":-6.155215,"time":3,"i_long":106.800832,"transit":true,"station_name":"Duri"},{"time":4,"line":0,"transit":false,"station_name":"Angke","is_transit":false,"i_long":106.79867,"distance":1230,"i_lat":-6.144674,"station_id":"AK"},{"is_transit":true,"station_id":"KPB","station_name":"Kampung Bandan","time":9,"i_long":106.826365,"line":0,"distance":4102,"transit":false,"i_lat":-6.132549},{"station_id":"JAKK","line":0,"distance":1364,"is_transit":true,"i_lat":-6.137569,"i_long":106.812439,"transit":true,"station_name":"Jakarta Kota","time":3},{"station_id":"JAY","line":7,"i_lat":-6.141205,"time":4,"distance":1264,"station_name":"Jayakarta","i_long":106.820901,"transit":false,"is_transit":false},{"station_id":"MGB","i_lat":-6.149769,"transit":false,"line":2,"i_long":106.82482,"is_transit":false,"station_name":"Manggabesar","distance":1080,"time":2},{"time":2,"i_lat":-6.160725,"transit":false,"line":2,"distance":906,"station_id":"SW","station_name":"Sawah Besar","i_long":106.827103,"is_transit":false},{"transit":false,"is_transit":false,"station_id":"JUA","i_long":106.828284,"line":2,"station_name":"Juanda","time":2,"i_lat":-6.166716,"distance":1149},{"station_name":"Gondangdia","station_id":"GDD","i_lat":-6.186295,"line":2,"transit":false,"i_long":106.832183,"is_transit":false,"time":4,"distance":2015},{"transit":false,"time":3,"i_lat":-6.198556,"is_transit":false,"i_long":106.840169,"station_name":"Cikini","line":0,"station_id":"CKI","distance":1750},{"i_lat":-6.209883,"distance":1590,"is_transit":true,"line":0,"station_id":"MRI","station_name":"Manggarai","i_long":106.84912,"transit":true,"time":4},{"transit":false,"i_long":106.857948,"station_name":"Tebet","time":4,"line":2,"station_id":"TEB","is_transit":false,"i_lat":-6.226659,"distance":2610},{"is_transit":false,"station_id":"CW","transit":false,"i_lat":-6.242512,"i_long":106.856607,"distance":1230,"station_name":"Cawang","time":2,"line":0},{"distance":1546,"transit":false,"station_name":"Duren Kalibata","time":3,"i_lat":-6.255332,"is_transit":false,"i_long":106.85449,"line":0,"station_id":"DRN"},{"i_long":106.851577,"station_id":"PSMB","station_name":"Pasar Minggu Baru","time":2,"distance":824,"line":2,"is_transit":false,"i_lat":-6.263214,"transit":false},{"i_long":106.843999,"distance":2380,"station_name":"Pasar Minggu","transit":false,"line":2,"i_lat":-6.2842400000000005,"is_transit":false,"station_id":"PSM","time":2},{"line":2,"is_transit":false,"distance":2820,"station_name":"Tanjung Barat","i_long":106.838896,"station_id":"TNT","time":4,"transit":false,"i_lat":-6.3080680000000005},{"line":2,"is_transit":false,"station_id":"LNA","time":3,"i_lat":-6.330363,"distance":2671,"i_long":106.832616,"station_name":"Lenteng Agung","transit":false}],[{"line":5,"time":0,"station_id":"PSG","station_name":"Pesing","distance":0,"transit":false,"i_lat":-6.161433,"i_long":106.771379,"is_transit":false},{"i_long":106.788277,"is_transit":false,"time":2,"station_name":"Grogol","distance":2036,"line":5,"station_id":"GGL","transit":false,"i_lat":-6.162021},{"i_lat":-6.155215,"station_id":"DU","is_transit":true,"line":1,"distance":1700,"station_name":"Duri","transit":true,"i_long":106.800832,"time":3},{"is_transit":false,"transit":false,"i_long":106.79867,"i_lat":-6.144674,"station_id":"AK","station_name":"Angke","distance":1230,"time":4,"line":0},{"station_name":"Kampung Bandan","i_long":106.826365,"distance":4102,"is_transit":true,"transit":true,"i_lat":-6.132549,"station_id":"KPB","time":9,"line":0},{"time":3,"transit":false,"distance":1444,"station_id":"RJW","i_long":106.836569,"i_lat":-6.14505,"line":11,"station_name":"Rajawali","is_transit":false},{"station_id":"KMO","is_transit":false,"time":5,"i_lat":-6.161728,"line":11,"i_long":106.839204,"station_name":"Kemayoran","distance":1901,"transit":false},{"time":4,"i_long":106.84368,"line":11,"distance":1436,"station_id":"PSE","station_name":"Pasar Senen","is_transit":false,"i_lat":-6.174784,"transit":false},{"distance":1567,"time":8,"i_long":106.850107,"station_id":"GST","station_name":"Gang Sentiong","i_lat":-6.185975,"transit":false,"line":11,"is_transit":false},{"station_name":"Kramat","transit":false,"distance":973,"time":1,"line":11,"i_long":106.855437,"is_transit":false,"station_id":"KMT","i_lat":-6.193792},{"i_long":106.861737,"transit":false,"distance":1829,"is_transit":false,"station_id":"POK","time":2,"station_name":"Pondok Jati","line":11,"i_lat":-6.209188},{"time":9,"i_long":106.86807400000001,"distance":1236,"is_transit":true,"line":0,"i_lat":-6.215091,"station_id":"JNG","station_name":"Jatinegara","transit":true},{"station_id":"MTR","i_lat":-6.212485,"is_transit":false,"distance":1377,"transit":false,"line":1,"station_name":"Matraman","time":2,"i_long":106.858896},{"i_lat":-6.209883,"distance":1275,"transit":true,"station_id":"MRI","i_long":106.84912,"station_name":"Manggarai","time":2,"line":0,"is_transit":true},{"is_transit":false,"transit":false,"time":4,"i_long":106.857948,"station_id":"TEB","line":2,"distance":2610,"station_name":"Tebet","i_lat":-6.226659},{"line":0,"station_id":"CW","distance":1230,"station_name":"Cawang","transit":false,"time":2,"i_long":106.856607,"is_transit":false,"i_lat":-6.242512},{"station_name":"Duren Kalibata","station_id":"DRN","time":3,"is_transit":false,"line":0,"transit":false,"distance":1546,"i_long":106.85449,"i_lat":-6.255332},{"line":2,"is_transit":false,"time":2,"distance":824,"station_id":"PSMB","station_name":"Pasar Minggu Baru","i_lat":-6.263214,"transit":false,"i_long":106.851577},{"i_long":106.843999,"is_transit":false,"i_lat":-6.2842400000000005,"transit":false,"line":2,"station_name":"Pasar Minggu","time":2,"distance":2380,"station_id":"PSM"},{"distance":2820,"is_transit":false,"station_name":"Tanjung Barat","transit":false,"i_lat":-6.3080680000000005,"line":2,"station_id":"TNT","i_long":106.838896,"time":4},{"is_transit":false,"line":2,"station_id":"LNA","distance":2671,"station_name":"Lenteng Agung","transit":false,"i_lat":-6.330363,"i_long":106.832616,"time":3}]]}