{"data":[[{"line":5,"distance":0,"station_id":"PSG","is_transit":false,"i_lat":-6.161433,"station_name":"Pesing","transit":false,"time":0,"i_long":106.771379},{"is_transit":false,"time":2,"i_lat":-6.1587309999999995,"station_name":"Taman Kota","distance":1614,"station_id":"TKO","transit":false,"line":5,"i_long":106.756522},{"transit":false,"i_long":106.737035,"distance":2334,"station_id":"BOI","is_transit":false,"station_name":"Bojongindah","time":2,"i_lat":-6.159876,"line":5},{"i_lat":-6.162758,"station_name":"Rawa Buaya","distance":1152,"time":4,"station_id":"RW","transit":false,"i_long":106.723064,"is_transit":false,"line":5},{"station_name":"Kalideres","time":3,"line":5,"transit":false,"distance":2504,"station_id":"KDS","i_long":106.701612,"is_transit":false,"i_lat":-6.166068}]]}