{"data":[[{"line":5,"transit":false,"station_id":"PSG","i_lat":-6.161433,"time":0,"i_long":106.771379,"station_name":"Pesing","distance":0,"is_transit":false},{"i_long":106.788277,"is_transit":false,"time":2,"distance":2036,"station_id":"GGL","transit":false,"station_name":"Grogol","i_lat":-6.162021,"line":5},{"i_long":106.800832,"station_id":"DU","is_transit":true,"i_lat":-6.155215,"line":1,"transit":true,"distance":1700,"time":3,"station_name":"Duri"},{"distance":3632,"i_lat":-6.185545,"line":1,"time":8,"transit":true,"is_transit":true,"i_long":106.811091,"station_name":"Tanah Abang","station_id":"THB"},{"i_lat":-6.207404,"line":6,"station_name":"Palmerah","distance":3191,"transit":false,"is_transit":false,"time":6,"i_long":106.79689,"station_id":"PLM"},{"is_transit":false,"station_id":"KBY","i_lat":-6.237242,"i_long":106.780334,"time":7,"transit":false,"station_name":"Kebayoran","line":6,"distance":3737},{"line":6,"distance":6218,"i_long":106.74273,"is_transit":false,"transit":false,"time":8,"station_id":"PDJ","station_name":"Pondokranji","i_lat":-6.276362},{"is_transit":false,"time":3,"transit":false,"station_name":"Jurangmangu","i_lat":-6.288927,"station_id":"JMU","line":6,"distance":2179,"i_long":106.728916},{"station_name":"Sudimara","i_lat":-6.296963,"station_id":"SDM","is_transit":false,"distance":1994,"line":6,"transit":false,"i_long":106.712277,"time":4},{"station_name":"Rawa Buntu","transit":false,"distance":4566,"is_transit":false,"station_id":"RU","i_lat":-6.314823,"i_long":106.675475,"line":6,"time":6},{"transit":false,"station_name":"Serpong","line":6,"station_id":"SRP","i_lat":-6.319871,"i_long":106.66566,"is_transit":false,"distance":2413,"time":4},{"time":4,"transit":false,"station_name":"Cisauk","i_long":106.640411,"distance":1784,"i_lat":-6.32484,"station_id":"CSK","line":3,"is_transit":false},{"i_long":106.617853,"time":4,"distance":2519,"station_name":"Cicayur","line":3,"station_id":"CC","is_transit":false,"i_lat":-6.329547,"transit":false},{"line":6,"transit":false,"i_lat":-6.3441410000000005,"i_long":106.568863,"distance":5968,"is_transit":false,"station_id":"PRP","time":8,"station_name":"Parung Panjang"},{"time":9,"station_name":"Cilejit","station_id":"CJT","line":3,"transit":false,"i_lat":-6.354349,"distance":7025,"is_transit":false,"i_long":106.508482},{"station_id":"DAR","transit":false,"i_lat":-6.338021,"i_long":106.491338,"time":6,"is_transit":false,"station_name":"Daru","distance":2675,"line":0},{"line":6,"i_lat":-6.327251,"distance":3902,"i_long":106.460812,"is_transit":false,"transit":false,"time":5,"station_name":"Tenjo","station_id":"TEJ"}],[{"i_long":106.771379,"distance":0,"station_name":"Pesing","time":0,"i_lat":-6.161433,"line":5,"is_transit":false,"station_id":"PSG","transit":false},{"line":5,"distance":2036,"station_name":"Grogol","i_lat":-6.162021,"i_long":106.788277,"is_transit":false,"time":2,"transit":false,"station_id":"GGL"},{"transit":true,"station_name":"Duri","is_transit":true,"time":3,"i_lat":-6.155215,"i_long":106.800832,"station_id":"DU","line":1,"distance":1700},{"i_long":106.79867,"station_id":"AK","station_name":"Angke","is_transit":false,"time":4,"line":1,"transit":false,"i_lat":-6.144674,"distance":1230},{"distance":4102,"station_name":"Kampung Bandan","is_transit":true,"station_id":"KPB","i_long":106.826365,"i_lat":-6.132549,"line":4,"time":9,"transit":true},{"distance":1364,"line":2,"time":3,"is_transit":true,"station_name":"Jakarta Kota","transit":true,"i_long":106.812439,"station_id":"JAKK","i_lat":-6.137569},{"time":4,"transit":false,"distance":1264,"i_lat":-6.141205,"i_long":106.820901,"station_name":"Jayakarta","line":2,"is_transit":false,"station_id":"JAY"},{"line":2,"time":2,"i_lat":-6.149769,"station_name":"Manggabesar","distance":1080,"i_long":106.82482,"is_transit":false,"station_id":"MGB","transit":false},{"station_id":"SW","i_lat":-6.160725,"is_transit":false,"line":2,"i_long":106.827103,"time":2,"distance":906,"transit":false,"station_name":"Sawah Besar"},{"distance":1149,"i_long":106.828284,"i_lat":-6.166716,"line":2,"station_id":"JUA","is_transit":false,"station_name":"Juanda","time":2,"transit":false},{"i_long":106.832183,"is_transit":false,"distance":2015,"time":4,"station_name":"Gondangdia","line":2,"station_id":"GDD","i_lat":-6.186295,"transit":false},{"line":2,"distance":1750,"transit":false,"time":3,"i_lat":-6.198556,"station_name":"Cikini","i_long":106.840169,"station_id":"CKI","is_transit":false},{"distance":1590,"station_name":"Manggarai","is_transit":true,"time":4,"station_id":"MRI","line":2,"i_lat":-6.209883,"transit":true,"i_long":106.84912},{"time":4,"i_long":106.822649,"station_name":"Sudirman","station_id":"SUD","transit":false,"distance":3186,"is_transit":false,"line":1,"i_lat":-6.202263},{"line":1,"time":1,"transit":false,"distance":280,"station_name":"Sudirman Baru","station_id":"SUDB","is_transit":false,"i_lat":-6.201433,"i_long":106.819881},{"station_name":"Karet","distance":471,"i_long":106.816351,"time":1,"line":1,"i_lat":-6.20132,"is_transit":false,"station_id":"KAT","transit":false},{"station_name":"Tanah Abang","is_transit":true,"line":1,"time":5,"station_id":"THB","i_lat":-6.185545,"distance":2029,"i_long":106.811091,"transit":true},{"i_long":106.79689,"line":6,"is_transit":false,"time":6,"station_id":"PLM","transit":false,"station_name":"Palmerah","distance":3191,"i_lat":-6.207404},{"transit":false,"line":6,"station_id":"KBY","station_name":"Kebayoran","i_lat":-6.237242,"is_transit":false,"distance":3737,"time":7,"i_long":106.780334},{"transit":false,"i_lat":-6.276362,"station_name":"Pondokranji","time":8,"distance":6218,"station_id":"PDJ","i_long":106.74273,"line":6,"is_transit":false},{"station_name":"Jurangmangu","i_long":106.728916,"transit":false,"distance":2179,"time":3,"i_lat":-6.288927,"is_transit":false,"station_id":"JMU","line":6},{"i_lat":-6.296963,"time":4,"transit":false,"station_name":"Sudimara","is_transit":false,"station_id":"SDM","line":6,"distance":1994,"i_long":106.712277},{"i_long":106.675475,"distance":4566,"line":6,"is_transit":false,"time":6,"transit":false,"station_id":"RU","station_name":"Rawa Buntu","i_lat":-6.314823},{"time":4,"is_transit":false,"i_long":106.66566,"station_id":"SRP","distance":2413,"transit":false,"station_name":"Serpong","line":6,"i_lat":-6.319871},{"i_lat":-6.32484,"i_long":106.640411,"time":4,"is_transit":false,"transit":false,"distance":1784,"station_name":"Cisauk","line":3,"station_id":"CSK"},{"distance":2519,"station_id":"CC","station_name":"Cicayur","is_transit":false,"i_long":106.617853,"line":3,"i_lat":-6.329547,"transit":false,"time":4},{"time":8,"i_long":106.568863,"station_id":"PRP","distance":5968,"i_lat":-6.3441410000000005,"station_name":"Parung Panjang","is_transit":false,"transit":false,"line":6},{"distance":7025,"i_long":106.508482,"station_name":"Cilejit","time":9,"station_id":"CJT","transit":false,"i_lat":-6.354349,"is_transit":false,"line":3},{"i_lat":-6.338021,"i_long":106.491338,"station_id":"DAR","transit":false,"time":6,"line":0,"is_transit":false,"distance":2675,"station_name":"Daru"},{"time":5,"distance":3902,"transit":false,"i_lat":-6.327251,"station_id":"TEJ","line":6,"i_long":106.460812,"is_transit":false,"station_name":"Tenjo"}],[{"time":0,"i_long":106.771379,"is_transit":false,"transit":false,"station_id":"PSG","i_lat":-6.161433,"line":5,"distance":0,"station_name":"Pesing"},{"station_name":"Grogol","time":2,"line":5,"is_transit":false,"transit":false,"distance":2036,"i_long":106.788277,"station_id":"GGL","i_lat":-6.162021},{"distance":1700,"station_id":"DU","transit":true,"i_long":106.800832,"i_lat":-6.155215,"line":1,"is_transit":true,"station_name":"Duri","time":3},{"station_name":"Angke","distance":1230,"i_long":106.79867,"transit":false,"is_transit":false,"time":4,"line":1,"i_lat":-6.144674,"station_id":"AK"},{"transit":true,"station_name":"Kampung Bandan","is_transit":true,"i_long":106.826365,"distance":4102,"i_lat":-6.132549,"time":9,"line":4,"station_id":"KPB"},{"i_lat":-6.14505,"time":3,"transit":false,"i_long":106.836569,"station_name":"Rajawali","line":11,"distance":1444,"is_transit":false,"station_id":"RJW"},{"distance":1901,"transit":false,"i_lat":-6.161728,"station_name":"Kemayoran","time":5,"line":11,"station_id":"KMO","i_long":106.839204,"is_transit":false},{"line":11,"is_transit":false,"time":4,"station_id":"PSE","transit":false,"i_lat":-6.174784,"i_long":106.84368,"distance":1436,"station_name":"Pasar Senen"},{"station_name":"Gang Sentiong","transit":false,"station_id":"GST","time":8,"distance":1567,"line":11,"is_transit":false,"i_lat":-6.185975,"i_long":106.850107},{"distance":973,"time":1,"transit":false,"i_lat":-6.193792,"is_transit":false,"station_name":"Kramat","i_long":106.855437,"line":11,"station_id":"KMT"},{"station_name":"Pondok Jati","is_transit":false,"line":11,"distance":1829,"transit":false,"i_lat":-6.209188,"time":2,"i_long":106.861737,"station_id":"POK"},{"time":9,"distance":1236,"station_id":"JNG","line":1,"is_transit":true,"station_name":"Jatinegara","i_lat":-6.215091,"i_long":106.86807400000001,"transit":true},{"line":1,"time":2,"i_lat":-6.212485,"is_transit":false,"distance":1377,"station_name":"Matraman","transit":false,"i_long":106.858896,"station_id":"MTR"},{"transit":false,"i_long":106.84912,"line":2,"station_name":"Manggarai","station_id":"MRI","i_lat":-6.209883,"distance":1275,"time":2,"is_transit":false},{"station_name":"Sudirman","time":4,"distance":3186,"transit":false,"station_id":"SUD","i_long":106.822649,"is_transit":false,"line":1,"i_lat":-6.202263},{"transit":false,"i_long":106.819881,"is_transit":false,"i_lat":-6.201433,"station_name":"Sudirman Baru","station_id":"SUDB","line":1,"time":1,"distance":280},{"line":1,"i_lat":-6.20132,"time":1,"station_name":"Karet","is_transit":false,"station_id":"KAT","transit":false,"distance":471,"i_long":106.816351},{"is_transit":true,"transit":true,"station_id":"THB","station_name":"Tanah Abang","i_long":106.811091,"distance":2029,"time":5,"i_lat":-6.185545,"line":1},{"transit":false,"distance":3191,"station_name":"Palmerah","i_long":106.79689,"station_id":"PLM","time":6,"i_lat":-6.207404,"is_transit":false,"line":6},{"station_id":"KBY","distance":3737,"i_lat":-6.237242,"transit":false,"station_name":"Kebayoran","is_transit":false,"line":6,"time":7,"i_long":106.780334},{"is_transit":false,"station_id":"PDJ","i_lat":-6.276362,"i_long":106.74273,"transit":false,"line":6,"time":8,"distance":6218,"station_name":"Pondokranji"},{"i_long":106.728916,"is_transit":false,"station_name":"Jurangmangu","time":3,"station_id":"JMU","transit":false,"distance":2179,"i_lat":-6.288927,"line":6},{"line":6,"transit":false,"station_name":"Sudimara","i_lat":-6.296963,"distance":1994,"is_transit":false,"time":4,"station_id":"SDM","i_long":106.712277},{"is_transit":false,"i_lat":-6.314823,"station_id":"RU","transit":false,"time":6,"station_name":"Rawa Buntu","line":6,"distance":4566,"i_long":106.675475},{"distance":2413,"transit":false,"i_lat":-6.319871,"time":4,"i_long":106.66566,"station_id":"SRP","line":6,"is_transit":false,"station_name":"Serpong"},{"i_long":106.640411,"time":4,"i_lat":-6.32484,"distance":1784,"is_transit":false,"transit":false,"station_name":"Cisauk","station_id":"CSK","line":3},{"time":4,"station_id":"CC","distance":2519,"is_transit":false,"transit":false,"i_long":106.617853,"line":3,"i_lat":-6.329547,"station_name":"Cicayur"},{"distance":5968,"station_id":"PRP","i_lat":-6.3441410000000005,"line":6,"transit":false,"is_transit":false,"station_name":"Parung Panjang","time":8,"i_long":106.568863},{"i_lat":-6.354349,"line":3,"station_name":"Cilejit","distance":7025,"is_transit":false,"station_id":"CJT","i_long":106.508482,"time":9,"transit":false},{"station_name":"Daru","transit":false,"time":6,"i_lat":-6.338021,"is_transit":false,"i_long":106.491338,"distance":2675,"station_id":"DAR","line":0},{"distance":3902,"transit":false,"line":6,"i_lat":-6.327251,"time":5,"is_transit":false,"station_id":"TEJ","i_long":106.460812,"station_name":"Tenjo"}]]}