{"data":[[{"line":5,"station_id":"PSG","i_long":106.771379,"transit":false,"is_transit":false,"distance":0,"station_name":"Pesing","i_lat":-6.161433,"time":0},{"line":5,"station_name":"Grogol","time":2,"i_long":106.788277,"is_transit":false,"transit":false,"i_lat":-6.162021,"station_id":"GGL","distance":2036},{"station_id":"DU","transit":true,"station_name":"Duri","i_long":106.800832,"is_transit":true,"i_lat":-6.155215,"line":1,"distance":1700,"time":3},{"i_lat":-6.185545,"station_id":"THB","time":8,"line":1,"distance":3632,"is_transit":true,"i_long":106.811091,"station_name":"Tanah Abang","transit":true},{"transit":false,"i_long":106.79689,"station_id":"PLM","is_transit":false,"distance":3191,"time":6,"station_name":"Palmerah","i_lat":-6.207404,"line":6},{"time":7,"distance":3737,"i_long":106.780334,"i_lat":-6.237242,"transit":false,"station_name":"Kebayoran","is_transit":false,"station_id":"KBY","line":6},{"distance":6218,"station_id":"PDJ","is_transit":false,"transit":false,"i_lat":-6.276362,"time":8,"i_long":106.74273,"station_name":"Pondokranji","line":6},{"station_name":"Jurangmangu","transit":false,"station_id":"JMU","time":3,"i_long":106.728916,"line":6,"distance":2179,"i_lat":-6.288927,"is_transit":false},{"station_id":"SDM","transit":false,"i_long":106.712277,"time":4,"station_name":"Sudimara","i_lat":-6.296963,"distance":1994,"line":6,"is_transit":false},{"distance":4566,"station_id":"RU","is_transit":false,"i_lat":-6.314823,"i_long":106.675475,"transit":false,"station_name":"Rawa Buntu","line":6,"time":6},{"time":4,"i_lat":-6.319871,"i_long":106.66566,"line":6,"distance":2413,"station_id":"SRP","station_name":"Serpong","is_transit":false,"transit":false},{"i_lat":-6.32484,"time":4,"i_long":106.640411,"line":0,"distance":1784,"station_name":"Cisauk","is_transit":false,"station_id":"CSK","transit":false},{"i_lat":-6.329547,"line":0,"transit":false,"time":4,"station_name":"Cicayur","distance":2519,"i_long":106.617853,"station_id":"CC","is_transit":false},{"station_id":"PRP","station_name":"Parung Panjang","i_lat":-6.3441410000000005,"i_long":106.568863,"line":6,"transit":false,"is_transit":false,"distance":5968,"time":8},{"is_transit":false,"transit":false,"i_lat":-6.354349,"station_id":"CJT","i_long":106.508482,"station_name":"Cilejit","line":0,"distance":7025,"time":9},{"i_long":106.491338,"station_id":"DAR","station_name":"Daru","transit":false,"line":0,"is_transit":false,"i_lat":-6.338021,"time":6,"distance":2675}],[{"i_long":106.771379,"time":0,"line":5,"station_name":"Pesing","transit":false,"distance":0,"station_id":"PSG","i_lat":-6.161433,"is_transit":false},{"i_lat":-6.162021,"distance":2036,"transit":false,"station_name":"Grogol","line":5,"station_id":"GGL","time":2,"is_transit":false,"i_long":106.788277},{"i_long":106.800832,"station_id":"DU","i_lat":-6.155215,"is_transit":true,"station_name":"Duri","time":3,"line":1,"transit":true,"distance":1700},{"station_id":"AK","i_long":106.79867,"i_lat":-6.144674,"is_transit":false,"transit":false,"line":0,"station_name":"Angke","distance":1230,"time":4},{"transit":false,"i_long":106.826365,"i_lat":-6.132549,"station_id":"KPB","is_transit":true,"station_name":"Kampung Bandan","line":0,"time":9,"distance":4102},{"transit":true,"station_id":"JAKK","time":3,"i_long":106.812439,"i_lat":-6.137569,"line":0,"station_name":"Jakarta Kota","is_transit":true,"distance":1364},{"i_lat":-6.141205,"transit":false,"line":7,"is_transit":false,"time":4,"distance":1264,"station_id":"JAY","station_name":"Jayakarta","i_long":106.820901},{"i_lat":-6.149769,"distance":1080,"is_transit":false,"time":2,"line":2,"i_long":106.82482,"station_id":"MGB","transit":false,"station_name":"Manggabesar"},{"i_lat":-6.160725,"transit":false,"distance":906,"station_id":"SW","is_transit":false,"line":2,"time":2,"i_long":106.827103,"station_name":"Sawah Besar"},{"line":2,"transit":false,"distance":1149,"station_name":"Juanda","is_transit":false,"i_lat":-6.166716,"time":2,"i_long":106.828284,"station_id":"JUA"},{"i_long":106.832183,"time":4,"line":2,"distance":2015,"station_id":"GDD","i_lat":-6.186295,"station_name":"Gondangdia","transit":false,"is_transit":false},{"is_transit":false,"time":3,"distance":1750,"transit":false,"station_id":"CKI","i_lat":-6.198556,"line":0,"station_name":"Cikini","i_long":106.840169},{"i_lat":-6.209883,"is_transit":true,"station_name":"Manggarai","time":4,"distance":1590,"i_long":106.84912,"transit":true,"station_id":"MRI","line":0},{"line":1,"i_lat":-6.202263,"station_name":"Sudirman","time":4,"i_long":106.822649,"distance":3186,"is_transit":false,"transit":false,"station_id":"SUD"},{"transit":false,"distance":280,"time":1,"line":1,"station_id":"SUDB","station_name":"Sudirman Baru","i_lat":-6.201433,"is_transit":false,"i_long":106.819881},{"station_name":"Karet","line":1,"time":1,"station_id":"KAT","is_transit":false,"transit":false,"distance":471,"i_long":106.816351,"i_lat":-6.20132},{"station_name":"Tanah Abang","distance":2029,"i_long":106.811091,"is_transit":true,"station_id":"THB","transit":true,"time":5,"line":1,"i_lat":-6.185545},{"station_id":"PLM","station_name":"Palmerah","time":6,"i_long":106.79689,"is_transit":false,"transit":false,"distance":3191,"i_lat":-6.207404,"line":6},{"time":7,"station_id":"KBY","i_lat":-6.237242,"distance":3737,"is_transit":false,"station_name":"Kebayoran","i_long":106.780334,"line":6,"transit":false},{"line":6,"i_lat":-6.276362,"distance":6218,"time":8,"station_name":"Pondokranji","is_transit":false,"station_id":"PDJ","i_long":106.74273,"transit":false},{"i_lat":-6.288927,"time":3,"transit":false,"line":6,"distance":2179,"station_id":"JMU","is_transit":false,"station_name":"Jurangmangu","i_long":106.728916},{"station_name":"Sudimara","distance":1994,"is_transit":false,"station_id":"SDM","transit":false,"i_long":106.712277,"line":6,"i_lat":-6.296963,"time":4},{"station_id":"RU","transit":false,"distance":4566,"time":6,"is_transit":false,"station_name":"Rawa Buntu","i_lat":-6.314823,"line":6,"i_long":106.675475},{"station_id":"SRP","station_name":"Serpong","i_lat":-6.319871,"time":4,"is_transit":false,"i_long":106.66566,"distance":2413,"transit":false,"line":6},{"station_id":"CSK","line":0,"i_long":106.640411,"time":4,"transit":false,"station_name":"Cisauk","is_transit":false,"i_lat":-6.32484,"distance":1784},{"transit":false,"time":4,"is_transit":false,"distance":2519,"i_lat":-6.329547,"station_id":"CC","line":0,"station_name":"Cicayur","i_long":106.617853},{"time":8,"i_lat":-6.3441410000000005,"station_name":"Parung Panjang","distance":5968,"transit":false,"i_long":106.568863,"line":6,"station_id":"PRP","is_transit":false},{"i_lat":-6.354349,"i_long":106.508482,"is_transit":false,"transit":false,"line":0,"time":9,"station_name":"Cilejit","distance":7025,"station_id":"CJT"},{"is_transit":false,"i_lat":-6.338021,"station_id":"DAR","time":6,"transit":false,"station_name":"Daru","i_long":106.491338,"distance":2675,"line":0}],[{"line":5,"i_long":106.771379,"transit":false,"is_transit":false,"station_name":"Pesing","time":0,"distance":0,"station_id":"PSG","i_lat":-6.161433},{"station_name":"Grogol","i_lat":-6.162021,"is_transit":false,"distance":2036,"time":2,"i_long":106.788277,"line":5,"transit":false,"station_id":"GGL"},{"is_transit":true,"station_id":"DU","station_name":"Duri","transit":true,"i_long":106.800832,"time":3,"line":1,"distance":1700,"i_lat":-6.155215},{"station_id":"AK","time":4,"distance":1230,"is_transit":false,"station_name":"Angke","i_lat":-6.144674,"line":0,"i_long":106.79867,"transit":false},{"i_long":106.826365,"line":0,"time":9,"station_name":"Kampung Bandan","transit":true,"is_transit":true,"i_lat":-6.132549,"station_id":"KPB","distance":4102},{"time":3,"distance":1444,"i_long":106.836569,"is_transit":false,"station_id":"RJW","line":11,"station_name":"Rajawali","i_lat":-6.14505,"transit":false},{"transit":false,"distance":1901,"time":5,"i_lat":-6.161728,"station_name":"Kemayoran","station_id":"KMO","i_long":106.839204,"is_transit":false,"line":11},{"i_long":106.84368,"line":11,"distance":1436,"is_transit":false,"station_id":"PSE","station_name":"Pasar Senen","time":4,"transit":false,"i_lat":-6.174784},{"station_id":"GST","time":8,"transit":false,"i_lat":-6.185975,"i_long":106.850107,"distance":1567,"station_name":"Gang Sentiong","line":11,"is_transit":false},{"station_id":"KMT","distance":973,"line":11,"i_long":106.855437,"transit":false,"station_name":"Kramat","is_transit":false,"time":1,"i_lat":-6.193792},{"station_name":"Pondok Jati","station_id":"POK","distance":1829,"line":11,"is_transit":false,"transit":false,"i_long":106.861737,"i_lat":-6.209188,"time":2},{"station_id":"JNG","station_name":"Jatinegara","is_transit":true,"i_lat":-6.215091,"distance":1236,"i_long":106.86807400000001,"line":0,"transit":true,"time":9},{"station_name":"Matraman","line":1,"transit":false,"distance":1377,"is_transit":false,"i_lat":-6.212485,"i_long":106.858896,"station_id":"MTR","time":2},{"distance":1275,"time":2,"station_name":"Manggarai","line":0,"transit":false,"i_lat":-6.209883,"is_transit":true,"station_id":"MRI","i_long":106.84912},{"transit":false,"line":1,"is_transit":false,"station_name":"Sudirman","i_lat":-6.202263,"time":4,"distance":3186,"station_id":"SUD","i_long":106.822649},{"i_long":106.819881,"i_lat":-6.201433,"station_id":"SUDB","line":1,"distance":280,"is_transit":false,"station_name":"Sudirman Baru","transit":false,"time":1},{"line":1,"station_name":"Karet","time":1,"i_lat":-6.20132,"distance":471,"is_transit":false,"transit":false,"station_id":"KAT","i_long":106.816351},{"station_id":"THB","distance":2029,"transit":true,"station_name":"Tanah Abang","i_lat":-6.185545,"is_transit":true,"line":1,"i_long":106.811091,"time":5},{"is_transit":false,"station_id":"PLM","transit":false,"time":6,"i_lat":-6.207404,"station_name":"Palmerah","i_long":106.79689,"line":6,"distance":3191},{"station_id":"KBY","transit":false,"i_long":106.780334,"time":7,"distance":3737,"is_transit":false,"i_lat":-6.237242,"line":6,"station_name":"Kebayoran"},{"transit":false,"is_transit":false,"station_id":"PDJ","line":6,"i_lat":-6.276362,"distance":6218,"station_name":"Pondokranji","time":8,"i_long":106.74273},{"i_lat":-6.288927,"is_transit":false,"distance":2179,"station_name":"Jurangmangu","line":6,"transit":false,"station_id":"JMU","i_long":106.728916,"time":3},{"time":4,"station_id":"SDM","i_long":106.712277,"distance":1994,"station_name":"Sudimara","i_lat":-6.296963,"transit":false,"is_transit":false,"line":6},{"i_long":106.675475,"distance":4566,"line":6,"time":6,"station_name":"Rawa Buntu","is_transit":false,"transit":false,"i_lat":-6.314823,"station_id":"RU"},{"i_long":106.66566,"transit":false,"i_lat":-6.319871,"station_id":"SRP","distance":2413,"station_name":"Serpong","line":6,"is_transit":false,"time":4},{"station_id":"CSK","distance":1784,"i_lat":-6.32484,"time":4,"transit":false,"station_name":"Cisauk","i_long":106.640411,"line":0,"is_transit":false},{"i_long":106.617853,"line":0,"station_id":"CC","time":4,"i_lat":-6.329547,"station_name":"Cicayur","transit":false,"is_transit":false,"distance":2519},{"station_name":"Parung Panjang","station_id":"PRP","i_long":106.568863,"transit":false,"distance":5968,"i_lat":-6.3441410000000005,"time":8,"is_transit":false,"line":6},{"is_transit":false,"i_long":106.508482,"transit":false,"station_id":"CJT","i_lat":-6.354349,"line":0,"station_name":"Cilejit","time":9,"distance":7025},{"station_id":"DAR","distance":2675,"time":6,"i_lat":-6.338021,"i_long":106.491338,"line":0,"station_name":"Daru","is_transit":false,"transit":false}]]}