{"data":[[{"i_lat":-6.161433,"i_long":106.771379,"station_name":"Pesing","station_id":"PSG","is_transit":false,"time":0,"transit":false,"distance":0,"line":5},{"is_transit":false,"distance":2036,"station_id":"GGL","i_long":106.788277,"transit":false,"i_lat":-6.162021,"station_name":"Grogol","line":5,"time":2},{"i_lat":-6.155215,"distance":1700,"time":3,"line":1,"station_name":"Duri","is_transit":true,"i_long":106.800832,"transit":true,"station_id":"DU"},{"station_name":"Tanah Abang","transit":true,"i_lat":-6.185545,"i_long":106.811091,"time":8,"station_id":"THB","distance":3632,"line":1,"is_transit":true},{"line":6,"station_id":"PLM","i_long":106.79689,"transit":false,"is_transit":false,"i_lat":-6.207404,"time":6,"distance":3191,"station_name":"Palmerah"},{"transit":false,"distance":3737,"i_long":106.780334,"line":6,"i_lat":-6.237242,"station_name":"Kebayoran","time":7,"station_id":"KBY","is_transit":false}],[{"transit":false,"i_long":106.771379,"time":0,"i_lat":-6.161433,"is_transit":false,"distance":0,"line":5,"station_id":"PSG","station_name":"Pesing"},{"distance":2036,"transit":false,"station_name":"Grogol","is_transit":false,"line":5,"i_lat":-6.162021,"station_id":"GGL","i_long":106.788277,"time":2},{"distance":1700,"line":1,"i_lat":-6.155215,"is_transit":true,"time":3,"station_name":"Duri","transit":true,"i_long":106.800832,"station_id":"DU"},{"station_id":"AK","i_lat":-6.144674,"line":1,"time":4,"distance":1230,"transit":false,"i_long":106.79867,"station_name":"Angke","is_transit":false},{"i_lat":-6.132549,"station_name":"Kampung Bandan","i_long":106.826365,"distance":4102,"transit":true,"is_transit":true,"time":9,"line":4,"station_id":"KPB"},{"i_long":106.812439,"time":3,"is_transit":true,"distance":1364,"station_id":"JAKK","station_name":"Jakarta Kota","transit":true,"line":2,"i_lat":-6.137569},{"is_transit":false,"distance":1264,"line":2,"time":4,"i_long":106.820901,"i_lat":-6.141205,"station_name":"Jayakarta","station_id":"JAY","transit":false},{"line":2,"distance":1080,"station_id":"MGB","i_lat":-6.149769,"station_name":"Manggabesar","is_transit":false,"i_long":106.82482,"transit":false,"time":2},{"transit":false,"time":2,"is_transit":false,"i_lat":-6.160725,"distance":906,"line":2,"station_name":"Sawah Besar","i_long":106.827103,"station_id":"SW"},{"is_transit":false,"transit":false,"station_id":"JUA","station_name":"Juanda","time":2,"i_long":106.828284,"line":2,"i_lat":-6.166716,"distance":1149},{"i_long":106.832183,"is_transit":false,"station_id":"GDD","time":4,"distance":2015,"i_lat":-6.186295,"transit":false,"station_name":"Gondangdia","line":2},{"station_name":"Cikini","i_long":106.840169,"line":2,"i_lat":-6.198556,"time":3,"is_transit":false,"transit":false,"station_id":"CKI","distance":1750},{"station_id":"MRI","is_transit":true,"i_lat":-6.209883,"line":2,"i_long":106.84912,"time":4,"station_name":"Manggarai","distance":1590,"transit":true},{"time":4,"i_long":106.822649,"distance":3186,"station_id":"SUD","i_lat":-6.202263,"line":1,"is_transit":false,"transit":false,"station_name":"Sudirman"},{"is_transit":false,"time":1,"station_name":"Sudirman Baru","i_lat":-6.201433,"distance":280,"i_long":106.819881,"station_id":"SUDB","line":1,"transit":false},{"distance":471,"i_lat":-6.20132,"station_name":"Karet","i_long":106.816351,"line":1,"time":1,"station_id":"KAT","is_transit":false,"transit":false},{"i_long":106.811091,"station_name":"Tanah Abang","time":5,"station_id":"THB","is_transit":true,"distance":2029,"i_lat":-6.185545,"line":1,"transit":true},{"time":6,"i_long":106.79689,"line":6,"station_id":"PLM","is_transit":false,"distance":3191,"transit":false,"station_name":"Palmerah","i_lat":-6.207404},{"time":7,"transit":false,"i_long":106.780334,"line":6,"is_transit":false,"i_lat":-6.237242,"station_id":"KBY","station_name":"Kebayoran","distance":3737}],[{"line":5,"i_lat":-6.161433,"i_long":106.771379,"distance":0,"station_name":"Pesing","station_id":"PSG","transit":false,"is_transit":false,"time":0},{"i_lat":-6.162021,"station_id":"GGL","transit":false,"i_long":106.788277,"time":2,"is_transit":false,"line":5,"distance":2036,"station_name":"Grogol"},{"station_id":"DU","is_transit":true,"transit":true,"i_lat":-6.155215,"line":1,"i_long":106.800832,"time":3,"station_name":"Duri","distance":1700},{"i_long":106.79867,"station_name":"Angke","station_id":"AK","distance":1230,"line":1,"i_lat":-6.144674,"is_transit":false,"time":4,"transit":false},{"i_long":106.826365,"time":9,"distance":4102,"station_id":"KPB","is_transit":true,"i_lat":-6.132549,"line":4,"transit":true,"station_name":"Kampung Bandan"},{"i_long":106.836569,"line":11,"i_lat":-6.14505,"time":3,"is_transit":false,"transit":false,"distance":1444,"station_name":"Rajawali","station_id":"RJW"},{"station_name":"Kemayoran","i_long":106.839204,"is_transit":false,"time":5,"station_id":"KMO","distance":1901,"i_lat":-6.161728,"line":11,"transit":false},{"line":11,"transit":false,"station_name":"Pasar Senen","distance":1436,"station_id":"PSE","is_transit":false,"i_long":106.84368,"time":4,"i_lat":-6.174784},{"transit":false,"distance":1567,"i_long":106.850107,"is_transit":false,"station_name":"Gang Sentiong","time":8,"station_id":"GST","i_lat":-6.185975,"line":11},{"station_id":"KMT","is_transit":false,"time":1,"i_lat":-6.193792,"line":11,"distance":973,"transit":false,"i_long":106.855437,"station_name":"Kramat"},{"i_long":106.861737,"station_name":"Pondok Jati","station_id":"POK","i_lat":-6.209188,"transit":false,"time":2,"distance":1829,"line":11,"is_transit":false},{"time":9,"station_name":"Jatinegara","is_transit":true,"i_lat":-6.215091,"i_long":106.86807400000001,"line":1,"distance":1236,"transit":true,"station_id":"JNG"},{"transit":false,"line":1,"i_long":106.858896,"is_transit":false,"i_lat":-6.212485,"station_name":"Matraman","station_id":"MTR","time":2,"distance":1377},{"distance":1275,"i_long":106.84912,"is_transit":false,"i_lat":-6.209883,"time":2,"transit":false,"station_id":"MRI","line":2,"station_name":"Manggarai"},{"time":4,"i_long":106.822649,"station_id":"SUD","line":1,"is_transit":false,"i_lat":-6.202263,"station_name":"Sudirman","distance":3186,"transit":false},{"station_id":"SUDB","line":1,"transit":false,"time":1,"distance":280,"i_long":106.819881,"is_transit":false,"i_lat":-6.201433,"station_name":"Sudirman Baru"},{"i_lat":-6.20132,"transit":false,"is_transit":false,"time":1,"distance":471,"i_long":106.816351,"line":1,"station_name":"Karet","station_id":"KAT"},{"line":1,"i_long":106.811091,"station_id":"THB","transit":true,"is_transit":true,"station_name":"Tanah Abang","i_lat":-6.185545,"time":5,"distance":2029},{"time":6,"distance":3191,"i_lat":-6.207404,"i_long":106.79689,"station_id":"PLM","line":6,"station_name":"Palmerah","is_transit":false,"transit":false},{"line":6,"transit":false,"station_name":"Kebayoran","time":7,"i_long":106.780334,"is_transit":false,"station_id":"KBY","i_lat":-6.237242,"distance":3737}]]}