{"data":[[{"distance":0,"time":0,"is_transit":false,"line":5,"station_id":"PSG","station_name":"Pesing","transit":false,"i_lat":-6.161433,"i_long":106.771379},{"station_id":"GGL","is_transit":false,"i_lat":-6.162021,"station_name":"Grogol","transit":false,"time":2,"distance":2036,"i_long":106.788277,"line":5},{"station_id":"DU","station_name":"Duri","distance":1700,"transit":true,"time":3,"i_long":106.800832,"line":1,"is_transit":true,"i_lat":-6.155215},{"i_lat":-6.144674,"distance":1230,"station_id":"AK","transit":false,"time":4,"is_transit":false,"i_long":106.79867,"line":0,"station_name":"Angke"},{"transit":false,"station_id":"KPB","is_transit":true,"distance":4102,"i_long":106.826365,"i_lat":-6.132549,"line":0,"station_name":"Kampung Bandan","time":9}],[{"is_transit":false,"station_id":"PSG","i_lat":-6.161433,"i_long":106.771379,"time":0,"line":5,"transit":false,"station_name":"Pesing","distance":0},{"distance":2036,"station_name":"Grogol","station_id":"GGL","transit":false,"i_long":106.788277,"time":2,"is_transit":false,"i_lat":-6.162021,"line":5},{"i_long":106.800832,"time":3,"i_lat":-6.155215,"station_id":"DU","transit":true,"station_name":"Duri","distance":1700,"is_transit":true,"line":1},{"distance":3632,"line":1,"time":8,"is_transit":true,"i_long":106.811091,"station_name":"Tanah Abang","transit":false,"i_lat":-6.185545,"station_id":"THB"},{"is_transit":false,"i_lat":-6.20132,"station_id":"KAT","station_name":"Karet","time":5,"distance":2029,"transit":false,"i_long":106.816351,"line":1},{"i_long":106.819881,"transit":false,"distance":471,"station_name":"Sudirman Baru","time":1,"station_id":"SUDB","i_lat":-6.201433,"line":1,"is_transit":false},{"i_lat":-6.202263,"line":1,"time":1,"i_long":106.822649,"station_name":"Sudirman","station_id":"SUD","transit":false,"distance":280,"is_transit":false},{"station_id":"MRI","line":0,"distance":3186,"is_transit":true,"time":4,"transit":true,"station_name":"Manggarai","i_lat":-6.209883,"i_long":106.84912},{"i_long":106.840169,"station_id":"CKI","time":4,"i_lat":-6.198556,"line":0,"distance":1590,"is_transit":false,"station_name":"Cikini","transit":false},{"station_id":"GDD","i_lat":-6.186295,"is_transit":false,"distance":1750,"time":3,"i_long":106.832183,"line":2,"station_name":"Gondangdia","transit":false},{"i_long":106.828284,"distance":2015,"time":4,"is_transit":false,"station_id":"JUA","station_name":"Juanda","i_lat":-6.166716,"line":2,"transit":false},{"transit":false,"i_long":106.827103,"line":2,"time":2,"station_name":"Sawah Besar","i_lat":-6.160725,"station_id":"SW","distance":1149,"is_transit":false},{"i_lat":-6.149769,"station_name":"Manggabesar","line":2,"station_id":"MGB","transit":false,"distance":906,"time":2,"is_transit":false,"i_long":106.82482},{"transit":false,"i_lat":-6.141205,"is_transit":false,"line":7,"station_id":"JAY","station_name":"Jayakarta","i_long":106.820901,"distance":1080,"time":2},{"time":4,"transit":true,"line":0,"is_transit":true,"station_id":"JAKK","station_name":"Jakarta Kota","i_lat":-6.137569,"distance":1264,"i_long":106.812439},{"i_long":106.826365,"distance":1364,"is_transit":true,"station_name":"Kampung Bandan","i_lat":-6.132549,"time":3,"station_id":"KPB","transit":false,"line":0}],[{"line":5,"i_long":106.771379,"is_transit":false,"distance":0,"transit":false,"station_name":"Pesing","time":0,"i_lat":-6.161433,"station_id":"PSG"},{"time":2,"line":5,"station_id":"GGL","distance":2036,"transit":false,"is_transit":false,"i_long":106.788277,"i_lat":-6.162021,"station_name":"Grogol"},{"transit":true,"i_lat":-6.155215,"time":3,"distance":1700,"station_name":"Duri","line":1,"is_transit":true,"station_id":"DU","i_long":106.800832},{"distance":3632,"i_long":106.811091,"line":1,"station_name":"Tanah Abang","is_transit":true,"time":8,"i_lat":-6.185545,"transit":false,"station_id":"THB"},{"station_name":"Karet","time":5,"station_id":"KAT","i_long":106.816351,"line":1,"transit":false,"i_lat":-6.20132,"is_transit":false,"distance":2029},{"line":1,"i_lat":-6.201433,"transit":false,"is_transit":false,"i_long":106.819881,"station_id":"SUDB","time":1,"distance":471,"station_name":"Sudirman Baru"},{"is_transit":false,"station_id":"SUD","i_long":106.822649,"time":1,"transit":false,"distance":280,"i_lat":-6.202263,"line":1,"station_name":"Sudirman"},{"distance":3186,"station_name":"Manggarai","is_transit":true,"i_long":106.84912,"line":0,"time":4,"transit":false,"station_id":"MRI","i_lat":-6.209883},{"station_id":"MTR","i_long":106.858896,"line":1,"is_transit":false,"distance":1275,"i_lat":-6.212485,"time":2,"station_name":"Matraman","transit":false},{"time":8,"is_transit":true,"station_id":"JNG","i_long":106.86807400000001,"distance":1377,"line":0,"station_name":"Jatinegara","transit":true,"i_lat":-6.215091},{"transit":false,"time":2,"i_long":106.861737,"line":11,"station_id":"POK","i_lat":-6.209188,"station_name":"Pondok Jati","distance":1236,"is_transit":false},{"is_transit":false,"i_lat":-6.193792,"line":11,"time":2,"i_long":106.855437,"station_name":"Kramat","station_id":"KMT","distance":1829,"transit":false},{"distance":973,"time":1,"station_name":"Gang Sentiong","i_long":106.850107,"station_id":"GST","i_lat":-6.185975,"line":11,"is_transit":false,"transit":false},{"time":8,"i_long":106.84368,"station_name":"Pasar Senen","transit":false,"station_id":"PSE","i_lat":-6.174784,"line":11,"distance":1567,"is_transit":false},{"station_id":"KMO","time":4,"i_long":106.839204,"line":11,"station_name":"Kemayoran","i_lat":-6.161728,"distance":1436,"transit":false,"is_transit":false},{"station_name":"Rajawali","is_transit":false,"distance":1901,"transit":false,"i_long":106.836569,"station_id":"RJW","i_lat":-6.14505,"line":11,"time":5},{"distance":1444,"station_name":"Kampung Bandan","transit":false,"time":3,"station_id":"KPB","i_lat":-6.132549,"i_long":106.826365,"is_transit":true,"line":0}]]}