{"data":[[{"i_long":106.771379,"line":5,"time":0,"transit":false,"distance":0,"station_id":"PSG","station_name":"Pesing","i_lat":-6.161433,"is_transit":false},{"distance":2036,"is_transit":false,"i_lat":-6.162021,"transit":false,"station_id":"GGL","i_long":106.788277,"line":5,"time":2,"station_name":"Grogol"},{"time":3,"station_name":"Duri","station_id":"DU","i_long":106.800832,"is_transit":true,"distance":1700,"line":1,"i_lat":-6.155215,"transit":true},{"distance":3632,"line":1,"i_long":106.811091,"time":8,"i_lat":-6.185545,"station_id":"THB","station_name":"Tanah Abang","transit":false,"is_transit":false},{"i_long":106.816351,"is_transit":false,"station_name":"Karet","line":1,"time":5,"transit":false,"distance":2029,"station_id":"KAT","i_lat":-6.20132},{"i_lat":-6.201433,"station_name":"Sudirman Baru","station_id":"SUDB","distance":471,"line":1,"time":1,"transit":false,"i_long":106.819881,"is_transit":false},{"i_long":106.822649,"is_transit":false,"transit":false,"station_id":"SUD","time":1,"i_lat":-6.202263,"station_name":"Sudirman","line":1,"distance":280}],[{"time":0,"distance":0,"line":5,"transit":false,"station_id":"PSG","is_transit":false,"i_lat":-6.161433,"station_name":"Pesing","i_long":106.771379},{"i_lat":-6.162021,"line":5,"time":2,"transit":false,"station_id":"GGL","distance":2036,"station_name":"Grogol","is_transit":false,"i_long":106.788277},{"i_lat":-6.155215,"line":1,"station_id":"DU","distance":1700,"i_long":106.800832,"is_transit":true,"time":3,"transit":true,"station_name":"Duri"},{"line":1,"station_id":"AK","i_long":106.79867,"is_transit":false,"time":4,"distance":1230,"transit":false,"station_name":"Angke","i_lat":-6.144674},{"transit":true,"distance":4102,"station_id":"KPB","line":4,"i_long":106.826365,"station_name":"Kampung Bandan","time":9,"i_lat":-6.132549,"is_transit":true},{"is_transit":true,"i_lat":-6.137569,"line":2,"station_name":"Jakarta Kota","i_long":106.812439,"distance":1364,"transit":true,"station_id":"JAKK","time":3},{"transit":false,"is_transit":false,"i_lat":-6.141205,"station_id":"JAY","time":4,"line":2,"station_name":"Jayakarta","distance":1264,"i_long":106.820901},{"is_transit":false,"station_id":"MGB","station_name":"Manggabesar","line":2,"time":2,"distance":1080,"i_long":106.82482,"transit":false,"i_lat":-6.149769},{"i_lat":-6.160725,"distance":906,"i_long":106.827103,"station_id":"SW","line":2,"station_name":"Sawah Besar","is_transit":false,"transit":false,"time":2},{"i_lat":-6.166716,"distance":1149,"line":2,"station_name":"Juanda","station_id":"JUA","i_long":106.828284,"is_transit":false,"time":2,"transit":false},{"line":2,"station_name":"Gondangdia","distance":2015,"is_transit":false,"transit":false,"i_long":106.832183,"i_lat":-6.186295,"station_id":"GDD","time":4},{"station_id":"CKI","transit":false,"station_name":"Cikini","is_transit":false,"time":3,"line":2,"i_long":106.840169,"distance":1750,"i_lat":-6.198556},{"line":2,"is_transit":true,"distance":1590,"transit":true,"i_lat":-6.209883,"station_name":"Manggarai","station_id":"MRI","time":4,"i_long":106.84912},{"station_name":"Sudirman","station_id":"SUD","time":4,"distance":3186,"i_long":106.822649,"transit":false,"i_lat":-6.202263,"line":1,"is_transit":false}],[{"time":0,"transit":false,"i_lat":-6.161433,"distance":0,"station_id":"PSG","i_long":106.771379,"line":5,"station_name":"Pesing","is_transit":false},{"station_id":"GGL","is_transit":false,"time":2,"line":5,"i_long":106.788277,"transit":false,"station_name":"Grogol","distance":2036,"i_lat":-6.162021},{"i_lat":-6.155215,"station_id":"DU","station_name":"Duri","is_transit":true,"transit":true,"distance":1700,"time":3,"line":1,"i_long":106.800832},{"is_transit":false,"station_name":"Angke","distance":1230,"i_lat":-6.144674,"i_long":106.79867,"line":1,"station_id":"AK","time":4,"transit":false},{"line":4,"station_name":"Kampung Bandan","station_id":"KPB","i_long":106.826365,"transit":true,"is_transit":true,"i_lat":-6.132549,"time":9,"distance":4102},{"line":11,"station_name":"Rajawali","time":3,"distance":1444,"transit":false,"is_transit":false,"i_lat":-6.14505,"station_id":"RJW","i_long":106.836569},{"line":11,"distance":1901,"station_id":"KMO","time":5,"is_transit":false,"i_lat":-6.161728,"transit":false,"station_name":"Kemayoran","i_long":106.839204},{"time":4,"line":11,"i_lat":-6.174784,"transit":false,"station_name":"Pasar Senen","i_long":106.84368,"is_transit":false,"distance":1436,"station_id":"PSE"},{"time":8,"is_transit":false,"line":11,"station_id":"GST","transit":false,"i_lat":-6.185975,"station_name":"Gang Sentiong","i_long":106.850107,"distance":1567},{"station_name":"Kramat","transit":false,"distance":973,"time":1,"line":11,"is_transit":false,"i_long":106.855437,"i_lat":-6.193792,"station_id":"KMT"},{"line":11,"station_id":"POK","i_lat":-6.209188,"transit":false,"station_name":"Pondok Jati","time":2,"distance":1829,"is_transit":false,"i_long":106.861737},{"line":1,"station_name":"Jatinegara","transit":true,"time":9,"is_transit":true,"distance":1236,"i_lat":-6.215091,"station_id":"JNG","i_long":106.86807400000001},{"transit":false,"distance":1377,"station_id":"MTR","i_long":106.858896,"time":2,"line":1,"station_name":"Matraman","is_transit":false,"i_lat":-6.212485},{"station_name":"Manggarai","time":2,"distance":1275,"i_long":106.84912,"line":2,"station_id":"MRI","i_lat":-6.209883,"is_transit":false,"transit":false},{"distance":3186,"station_id":"SUD","is_transit":false,"station_name":"Sudirman","transit":false,"time":4,"i_long":106.822649,"line":1,"i_lat":-6.202263}]]}