{"data":[[{"distance":0,"i_long":106.771379,"station_id":"PSG","line":5,"time":0,"is_transit":false,"i_lat":-6.161433,"station_name":"Pesing","transit":false},{"i_lat":-6.162021,"station_name":"Grogol","transit":false,"distance":2036,"time":2,"station_id":"GRG","line":5,"is_transit":false,"i_long":106.788277},{"i_lat":-6.155215,"time":3,"is_transit":true,"i_long":106.800832,"line":1,"distance":1700,"station_name":"Duri","station_id":"DU","transit":true},{"is_transit":true,"transit":true,"time":8,"i_lat":-6.185545,"line":1,"distance":3632,"i_long":106.811091,"station_name":"Tanah Abang","station_id":"THB"},{"station_name":"Palmerah","is_transit":false,"station_id":"PLM","line":6,"distance":3191,"i_lat":-6.207404,"transit":false,"time":6,"i_long":106.79689},{"line":6,"station_name":"Kebayoran","station_id":"KBY","time":7,"transit":false,"distance":3737,"is_transit":false,"i_lat":-6.237242,"i_long":106.780334},{"i_long":106.74273,"is_transit":false,"station_id":"PDJ","station_name":"Pondokranji","transit":false,"line":6,"distance":6218,"time":8,"i_lat":-6.276362},{"distance":2179,"station_id":"JMU","i_lat":-6.288927,"i_long":106.728916,"transit":false,"is_transit":false,"station_name":"Jurangmangu","line":6,"time":3},{"station_name":"Sudimara","time":4,"transit":false,"i_lat":-6.296963,"line":6,"i_long":106.712277,"distance":1994,"station_id":"SDM","is_transit":false},{"time":6,"is_transit":false,"i_long":106.675475,"station_name":"Rawa Buntu","station_id":"RU","transit":false,"line":6,"i_lat":-6.314823,"distance":4566},{"station_id":"SRP","distance":2413,"i_long":106.66566,"station_name":"Serpong","time":4,"is_transit":false,"transit":false,"i_lat":-6.319871,"line":6},{"transit":false,"is_transit":false,"i_lat":-6.32484,"distance":1784,"station_name":"Cisauk","i_long":106.640411,"line":3,"time":4,"station_id":"CSK"},{"is_transit":false,"distance":2519,"i_lat":-6.329547,"i_long":106.617853,"station_id":"CC","transit":false,"time":4,"line":3,"station_name":"Cicayur"},{"transit":false,"i_lat":-6.3441410000000005,"station_name":"Parung Panjang","distance":5968,"station_id":"PRP","time":8,"is_transit":false,"line":6,"i_long":106.568863},{"time":9,"i_long":106.508482,"distance":7025,"line":3,"station_name":"Cilejit","transit":false,"i_lat":-6.354349,"station_id":"CJT","is_transit":false},{"i_lat":-6.338021,"station_id":"DAR","distance":2675,"transit":false,"time":6,"is_transit":false,"i_long":106.491338,"line":0,"station_name":"Daru"}],[{"transit":false,"distance":0,"i_long":106.771379,"is_transit":false,"station_id":"PSG","time":0,"station_name":"Pesing","i_lat":-6.161433,"line":5},{"station_name":"Grogol","station_id":"GRG","transit":false,"distance":2036,"i_long":106.788277,"time":2,"line":5,"i_lat":-6.162021,"is_transit":false},{"station_name":"Duri","line":1,"transit":true,"i_long":106.800832,"time":3,"distance":1700,"is_transit":true,"i_lat":-6.155215,"station_id":"DU"},{"i_lat":-6.144674,"distance":1230,"time":4,"line":1,"transit":false,"is_transit":false,"i_long":106.79867,"station_id":"AK","station_name":"Angke"},{"station_name":"Kampung Bandan","is_transit":true,"station_id":"KPB","i_lat":-6.132549,"line":4,"distance":4102,"transit":true,"time":9,"i_long":106.826365},{"is_transit":true,"station_name":"Jakarta Kota","station_id":"JAKK","time":3,"transit":true,"distance":1364,"i_long":106.812439,"line":2,"i_lat":-6.137569},{"line":2,"station_id":"JAY","time":4,"transit":false,"i_lat":-6.141205,"i_long":106.820901,"station_name":"Jayakarta","distance":1264,"is_transit":false},{"i_lat":-6.149769,"i_long":106.82482,"station_name":"Manggabesar","line":2,"transit":false,"time":2,"distance":1080,"is_transit":false,"station_id":"MGB"},{"station_id":"SW","time":2,"line":2,"is_transit":false,"transit":false,"i_lat":-6.160725,"station_name":"Sawah Besar","distance":906,"i_long":106.827103},{"station_id":"JUA","is_transit":false,"transit":false,"line":2,"i_long":106.828284,"distance":1149,"station_name":"Juanda","i_lat":-6.166716,"time":2},{"station_id":"GDD","i_long":106.832183,"transit":false,"time":4,"is_transit":false,"distance":2015,"station_name":"Gondangdia","i_lat":-6.186295,"line":2},{"station_name":"Cikini","is_transit":false,"distance":1750,"station_id":"CKI","transit":false,"time":3,"i_long":106.840169,"line":2,"i_lat":-6.198556},{"station_name":"Manggarai","time":4,"is_transit":true,"i_long":106.84912,"transit":true,"station_id":"MRI","line":2,"i_lat":-6.209883,"distance":1590},{"transit":false,"time":4,"distance":3186,"station_id":"SUD","is_transit":false,"line":1,"i_lat":-6.202263,"i_long":106.822649,"station_name":"Sudirman"},{"line":1,"station_name":"Sudirman Baru","distance":280,"transit":false,"station_id":"SUDB","i_long":106.819881,"time":1,"is_transit":false,"i_lat":-6.201433},{"station_name":"Karet","i_lat":-6.20132,"is_transit":false,"transit":false,"station_id":"KAT","distance":471,"i_long":106.816351,"time":1,"line":1},{"i_lat":-6.185545,"line":1,"i_long":106.811091,"station_id":"THB","transit":true,"is_transit":true,"distance":2029,"time":5,"station_name":"Tanah Abang"},{"station_id":"PLM","i_lat":-6.207404,"line":6,"time":6,"i_long":106.79689,"station_name":"Palmerah","distance":3191,"is_transit":false,"transit":false},{"station_name":"Kebayoran","distance":3737,"is_transit":false,"i_lat":-6.237242,"i_long":106.780334,"time":7,"transit":false,"station_id":"KBY","line":6},{"line":6,"distance":6218,"is_transit":false,"transit":false,"i_lat":-6.276362,"station_id":"PDJ","time":8,"station_name":"Pondokranji","i_long":106.74273},{"is_transit":false,"i_long":106.728916,"time":3,"station_name":"Jurangmangu","station_id":"JMU","transit":false,"line":6,"distance":2179,"i_lat":-6.288927},{"is_transit":false,"transit":false,"i_long":106.712277,"time":4,"station_id":"SDM","distance":1994,"station_name":"Sudimara","i_lat":-6.296963,"line":6},{"distance":4566,"transit":false,"station_id":"RU","line":6,"is_transit":false,"i_long":106.675475,"i_lat":-6.314823,"station_name":"Rawa Buntu","time":6},{"i_lat":-6.319871,"station_id":"SRP","i_long":106.66566,"is_transit":false,"transit":false,"line":6,"time":4,"distance":2413,"station_name":"Serpong"},{"is_transit":false,"i_lat":-6.32484,"distance":1784,"transit":false,"time":4,"station_name":"Cisauk","station_id":"CSK","i_long":106.640411,"line":3},{"station_id":"CC","i_long":106.617853,"transit":false,"time":4,"distance":2519,"is_transit":false,"station_name":"Cicayur","i_lat":-6.329547,"line":3},{"transit":false,"i_long":106.568863,"distance":5968,"i_lat":-6.3441410000000005,"is_transit":false,"line":6,"time":8,"station_id":"PRP","station_name":"Parung Panjang"},{"station_name":"Cilejit","transit":false,"distance":7025,"i_long":106.508482,"i_lat":-6.354349,"line":3,"is_transit":false,"station_id":"CJT","time":9},{"distance":2675,"station_id":"DAR","time":6,"line":0,"i_long":106.491338,"station_name":"Daru","i_lat":-6.338021,"is_transit":false,"transit":false}],[{"time":0,"distance":0,"is_transit":false,"station_id":"PSG","i_lat":-6.161433,"station_name":"Pesing","i_long":106.771379,"line":5,"transit":false},{"is_transit":false,"distance":2036,"i_long":106.788277,"time":2,"line":5,"i_lat":-6.162021,"transit":false,"station_id":"GRG","station_name":"Grogol"},{"distance":1700,"time":3,"is_transit":true,"station_id":"DU","i_lat":-6.155215,"i_long":106.800832,"line":1,"transit":true,"station_name":"Duri"},{"time":4,"station_name":"Angke","line":1,"i_long":106.79867,"distance":1230,"transit":false,"is_transit":false,"station_id":"AK","i_lat":-6.144674},{"transit":true,"time":9,"distance":4102,"line":4,"i_long":106.826365,"is_transit":true,"i_lat":-6.132549,"station_id":"KPB","station_name":"Kampung Bandan"},{"distance":1444,"transit":false,"i_long":106.836569,"i_lat":-6.14505,"time":3,"line":11,"station_name":"Rajawali","station_id":"RJW","is_transit":false},{"station_name":"Kemayoran","station_id":"KMO","i_lat":-6.161728,"is_transit":false,"transit":false,"distance":1901,"time":5,"i_long":106.839204,"line":11},{"line":11,"is_transit":false,"i_lat":-6.174784,"time":4,"transit":false,"distance":1436,"station_id":"PSE","i_long":106.84368,"station_name":"Pasar Senen"},{"transit":false,"line":11,"distance":1567,"time":8,"is_transit":false,"i_long":106.850107,"station_name":"Gang Sentiong","station_id":"GST","i_lat":-6.185975},{"i_lat":-6.193792,"distance":973,"station_name":"Kramat","transit":false,"time":1,"is_transit":false,"i_long":106.855437,"station_id":"KMT","line":11},{"time":2,"distance":1829,"line":11,"i_long":106.861737,"station_id":"POK","i_lat":-6.209188,"station_name":"Pondok Jati","transit":false,"is_transit":false},{"station_name":"Jatinegara","distance":1236,"i_lat":-6.215091,"transit":true,"station_id":"JNG","i_long":106.86807400000001,"time":9,"is_transit":true,"line":1},{"time":2,"distance":1377,"i_long":106.858896,"is_transit":false,"station_name":"Matraman","station_id":"MTR","i_lat":-6.212485,"line":1,"transit":false},{"station_id":"MRI","i_lat":-6.209883,"line":2,"station_name":"Manggarai","transit":false,"distance":1275,"i_long":106.84912,"time":2,"is_transit":false},{"i_long":106.822649,"line":1,"distance":3186,"is_transit":false,"transit":false,"station_id":"SUD","time":4,"station_name":"Sudirman","i_lat":-6.202263},{"is_transit":false,"i_lat":-6.201433,"i_long":106.819881,"distance":280,"transit":false,"station_id":"SUDB","line":1,"time":1,"station_name":"Sudirman Baru"},{"i_lat":-6.20132,"line":1,"i_long":106.816351,"transit":false,"is_transit":false,"station_id":"KAT","station_name":"Karet","time":1,"distance":471},{"station_name":"Tanah Abang","time":5,"station_id":"THB","line":1,"i_long":106.811091,"i_lat":-6.185545,"is_transit":true,"transit":true,"distance":2029},{"station_id":"PLM","is_transit":false,"i_lat":-6.207404,"transit":false,"i_long":106.79689,"time":6,"station_name":"Palmerah","distance":3191,"line":6},{"line":6,"i_lat":-6.237242,"transit":false,"station_name":"Kebayoran","is_transit":false,"i_long":106.780334,"time":7,"station_id":"KBY","distance":3737},{"i_lat":-6.276362,"transit":false,"station_id":"PDJ","line":6,"time":8,"distance":6218,"station_name":"Pondokranji","i_long":106.74273,"is_transit":false},{"time":3,"i_lat":-6.288927,"station_name":"Jurangmangu","i_long":106.728916,"distance":2179,"line":6,"transit":false,"is_transit":false,"station_id":"JMU"},{"time":4,"line":6,"station_id":"SDM","distance":1994,"i_lat":-6.296963,"transit":false,"is_transit":false,"station_name":"Sudimara","i_long":106.712277},{"station_id":"RU","is_transit":false,"transit":false,"i_lat":-6.314823,"line":6,"i_long":106.675475,"time":6,"distance":4566,"station_name":"Rawa Buntu"},{"station_id":"SRP","i_lat":-6.319871,"transit":false,"distance":2413,"station_name":"Serpong","i_long":106.66566,"is_transit":false,"time":4,"line":6},{"i_long":106.640411,"station_id":"CSK","distance":1784,"i_lat":-6.32484,"station_name":"Cisauk","is_transit":false,"transit":false,"time":4,"line":3},{"transit":false,"time":4,"distance":2519,"i_lat":-6.329547,"station_id":"CC","i_long":106.617853,"station_name":"Cicayur","line":3,"is_transit":false},{"time":8,"transit":false,"station_id":"PRP","is_transit":false,"i_lat":-6.3441410000000005,"station_name":"Parung Panjang","distance":5968,"i_long":106.568863,"line":6},{"station_id":"CJT","is_transit":false,"i_lat":-6.354349,"time":9,"i_long":106.508482,"line":3,"transit":false,"distance":7025,"station_name":"Cilejit"},{"line":0,"distance":2675,"time":6,"i_long":106.491338,"transit":false,"i_lat":-6.338021,"is_transit":false,"station_name":"Daru","station_id":"DAR"}]]}