{"data":[[{"distance":0,"station_id":"PSG","transit":false,"is_transit":false,"i_long":106.771379,"i_lat":-6.161433,"station_name":"Pesing","line":5,"time":0},{"is_transit":false,"time":2,"station_name":"Grogol","transit":false,"i_lat":-6.162021,"i_long":106.788277,"line":5,"distance":2036,"station_id":"GGL"},{"line":1,"distance":1700,"station_id":"DU","is_transit":true,"station_name":"Duri","i_lat":-6.155215,"i_long":106.800832,"time":3,"transit":true},{"distance":3632,"i_lat":-6.185545,"i_long":106.811091,"is_transit":false,"station_id":"THB","line":1,"time":8,"transit":false,"station_name":"Tanah Abang"},{"transit":false,"distance":2029,"is_transit":false,"i_long":106.816351,"time":5,"station_name":"Karet","station_id":"KAT","line":1,"i_lat":-6.20132},{"transit":false,"station_name":"Sudirman Baru","line":1,"station_id":"SUDB","i_lat":-6.201433,"time":1,"is_transit":false,"i_long":106.819881,"distance":471},{"station_name":"Sudirman","i_lat":-6.202263,"time":1,"i_long":106.822649,"transit":false,"is_transit":false,"station_id":"SUD","distance":280,"line":1},{"time":4,"station_name":"Manggarai","i_lat":-6.209883,"line":2,"station_id":"MRI","i_long":106.84912,"is_transit":true,"transit":true,"distance":3186},{"i_lat":-6.226659,"distance":2610,"transit":false,"station_id":"TEB","line":2,"time":4,"is_transit":false,"station_name":"Tebet","i_long":106.857948},{"i_long":106.856607,"line":2,"i_lat":-6.242512,"distance":1230,"time":2,"station_id":"CW","is_transit":false,"transit":false,"station_name":"Cawang"}],[{"time":0,"station_id":"PSG","i_lat":-6.161433,"distance":0,"transit":false,"station_name":"Pesing","i_long":106.771379,"is_transit":false,"line":5},{"distance":2036,"station_id":"GGL","station_name":"Grogol","is_transit":false,"time":2,"transit":false,"i_long":106.788277,"line":5,"i_lat":-6.162021},{"station_name":"Duri","i_lat":-6.155215,"time":3,"line":1,"distance":1700,"i_long":106.800832,"is_transit":true,"station_id":"DU","transit":true},{"transit":false,"station_id":"AK","distance":1230,"i_lat":-6.144674,"i_long":106.79867,"time":4,"station_name":"Angke","is_transit":false,"line":1},{"station_id":"KPB","is_transit":true,"distance":4102,"i_long":106.826365,"i_lat":-6.132549,"transit":true,"line":4,"time":9,"station_name":"Kampung Bandan"},{"station_id":"JAKK","station_name":"Jakarta Kota","i_long":106.812439,"i_lat":-6.137569,"line":2,"is_transit":true,"transit":true,"distance":1364,"time":3},{"station_id":"JAY","i_long":106.820901,"time":4,"i_lat":-6.141205,"line":2,"is_transit":false,"transit":false,"distance":1264,"station_name":"Jayakarta"},{"i_long":106.82482,"time":2,"is_transit":false,"station_id":"MGB","transit":false,"i_lat":-6.149769,"distance":1080,"station_name":"Manggabesar","line":2},{"distance":906,"i_lat":-6.160725,"time":2,"station_name":"Sawah Besar","station_id":"SW","i_long":106.827103,"is_transit":false,"transit":false,"line":2},{"time":2,"i_lat":-6.166716,"is_transit":false,"distance":1149,"line":2,"transit":false,"station_id":"JUA","station_name":"Juanda","i_long":106.828284},{"is_transit":false,"i_long":106.832183,"distance":2015,"i_lat":-6.186295,"transit":false,"station_id":"GDD","time":4,"station_name":"Gondangdia","line":2},{"line":2,"station_name":"Cikini","i_long":106.840169,"station_id":"CKI","transit":false,"distance":1750,"time":3,"is_transit":false,"i_lat":-6.198556},{"station_name":"Manggarai","transit":false,"i_long":106.84912,"is_transit":false,"i_lat":-6.209883,"distance":1590,"station_id":"MRI","line":2,"time":4},{"station_id":"TEB","is_transit":false,"distance":2610,"station_name":"Tebet","transit":false,"i_long":106.857948,"time":4,"i_lat":-6.226659,"line":2},{"time":2,"distance":1230,"i_lat":-6.242512,"i_long":106.856607,"transit":false,"station_name":"Cawang","line":2,"station_id":"CW","is_transit":false}],[{"transit":false,"i_lat":-6.161433,"station_id":"PSG","line":5,"i_long":106.771379,"time":0,"is_transit":false,"distance":0,"station_name":"Pesing"},{"i_lat":-6.162021,"is_transit":false,"station_name":"Grogol","time":2,"station_id":"GGL","transit":false,"distance":2036,"i_long":106.788277,"line":5},{"is_transit":true,"i_lat":-6.155215,"station_id":"DU","distance":1700,"time":3,"transit":true,"i_long":106.800832,"line":1,"station_name":"Duri"},{"i_lat":-6.144674,"transit":false,"distance":1230,"station_id":"AK","is_transit":false,"i_long":106.79867,"time":4,"line":1,"station_name":"Angke"},{"station_name":"Kampung Bandan","transit":true,"is_transit":true,"time":9,"station_id":"KPB","distance":4102,"i_lat":-6.132549,"i_long":106.826365,"line":4},{"line":11,"time":3,"station_name":"Rajawali","distance":1444,"station_id":"RJW","transit":false,"i_long":106.836569,"i_lat":-6.14505,"is_transit":false},{"is_transit":false,"line":11,"station_id":"KMO","transit":false,"i_lat":-6.161728,"station_name":"Kemayoran","i_long":106.839204,"distance":1901,"time":5},{"time":4,"distance":1436,"i_lat":-6.174784,"i_long":106.84368,"line":11,"station_name":"Pasar Senen","station_id":"PSE","is_transit":false,"transit":false},{"station_name":"Gang Sentiong","i_lat":-6.185975,"station_id":"GST","is_transit":false,"i_long":106.850107,"line":11,"time":8,"transit":false,"distance":1567},{"station_id":"KMT","i_lat":-6.193792,"i_long":106.855437,"is_transit":false,"line":11,"distance":973,"time":1,"transit":false,"station_name":"Kramat"},{"i_long":106.861737,"station_id":"POK","transit":false,"is_transit":false,"line":11,"i_lat":-6.209188,"distance":1829,"station_name":"Pondok Jati","time":2},{"distance":1236,"transit":true,"time":9,"station_name":"Jatinegara","i_long":106.86807400000001,"line":1,"station_id":"JNG","is_transit":true,"i_lat":-6.215091},{"i_lat":-6.212485,"line":1,"i_long":106.858896,"station_name":"Matraman","distance":1377,"is_transit":false,"time":2,"transit":false,"station_id":"MTR"},{"distance":1275,"is_transit":true,"transit":true,"station_name":"Manggarai","line":2,"i_long":106.84912,"station_id":"MRI","i_lat":-6.209883,"time":2},{"time":4,"is_transit":false,"station_id":"TEB","transit":false,"i_lat":-6.226659,"i_long":106.857948,"line":2,"station_name":"Tebet","distance":2610},{"time":2,"i_lat":-6.242512,"station_id":"CW","distance":1230,"is_transit":false,"i_long":106.856607,"line":2,"transit":false,"station_name":"Cawang"}]]}