{"data":[[{"is_transit":false,"transit":false,"distance":0,"i_lat":-6.161433,"i_long":106.771379,"line":5,"station_name":"Pesing","time":0,"station_id":"PSG"},{"i_lat":-6.162021,"distance":2036,"transit":false,"station_name":"Grogol","time":2,"is_transit":false,"line":5,"station_id":"GGL","i_long":106.788277},{"station_id":"DU","station_name":"Duri","time":3,"i_lat":-6.155215,"line":1,"is_transit":true,"transit":true,"distance":1700,"i_long":106.800832},{"transit":true,"distance":3632,"station_id":"THB","i_long":106.811091,"is_transit":true,"i_lat":-6.185545,"time":8,"station_name":"Tanah Abang","line":1},{"time":6,"i_lat":-6.207404,"station_name":"Palmerah","i_long":106.79689,"distance":3191,"station_id":"PLM","transit":false,"is_transit":false,"line":6},{"i_lat":-6.237242,"distance":3737,"transit":false,"time":7,"station_id":"KBY","i_long":106.780334,"line":6,"is_transit":false,"station_name":"Kebayoran"}],[{"station_id":"PSG","distance":0,"time":0,"i_long":106.771379,"is_transit":false,"line":5,"station_name":"Pesing","i_lat":-6.161433,"transit":false},{"station_id":"GGL","distance":2036,"i_lat":-6.162021,"i_long":106.788277,"is_transit":false,"station_name":"Grogol","line":5,"transit":false,"time":2},{"i_long":106.800832,"station_name":"Duri","is_transit":true,"time":3,"station_id":"DU","transit":true,"i_lat":-6.155215,"distance":1700,"line":1},{"is_transit":false,"transit":false,"station_name":"Angke","time":4,"i_lat":-6.144674,"i_long":106.79867,"line":1,"distance":1230,"station_id":"AK"},{"i_long":106.826365,"station_name":"Kampung Bandan","time":9,"i_lat":-6.132549,"distance":4102,"station_id":"KPB","is_transit":true,"transit":true,"line":4},{"line":2,"i_lat":-6.137569,"station_id":"JAKK","distance":1364,"i_long":106.812439,"is_transit":true,"station_name":"Jakarta Kota","time":3,"transit":true},{"station_name":"Jayakarta","line":2,"i_long":106.820901,"transit":false,"distance":1264,"is_transit":false,"time":4,"i_lat":-6.141205,"station_id":"JAY"},{"station_name":"Manggabesar","line":2,"transit":false,"i_lat":-6.149769,"time":2,"i_long":106.82482,"is_transit":false,"station_id":"MGB","distance":1080},{"station_id":"SW","i_lat":-6.160725,"i_long":106.827103,"distance":906,"station_name":"Sawah Besar","is_transit":false,"line":2,"time":2,"transit":false},{"is_transit":false,"line":2,"time":2,"i_long":106.828284,"station_name":"Juanda","i_lat":-6.166716,"distance":1149,"station_id":"JUA","transit":false},{"station_id":"GDD","time":4,"is_transit":false,"line":2,"i_long":106.832183,"distance":2015,"transit":false,"station_name":"Gondangdia","i_lat":-6.186295},{"transit":false,"line":2,"station_id":"CKI","station_name":"Cikini","distance":1750,"i_lat":-6.198556,"i_long":106.840169,"is_transit":false,"time":3},{"distance":1590,"station_id":"MRI","i_lat":-6.209883,"time":4,"i_long":106.84912,"station_name":"Manggarai","line":2,"transit":true,"is_transit":true},{"station_id":"SUD","distance":3186,"is_transit":false,"station_name":"Sudirman","i_lat":-6.202263,"line":1,"i_long":106.822649,"transit":false,"time":4},{"transit":false,"line":1,"station_id":"SUDB","is_transit":false,"time":1,"distance":280,"i_lat":-6.201433,"station_name":"Sudirman Baru","i_long":106.819881},{"i_long":106.816351,"line":1,"transit":false,"station_id":"KAT","station_name":"Karet","time":1,"i_lat":-6.20132,"is_transit":false,"distance":471},{"line":1,"station_id":"THB","distance":2029,"time":5,"is_transit":true,"transit":true,"station_name":"Tanah Abang","i_long":106.811091,"i_lat":-6.185545},{"transit":false,"is_transit":false,"distance":3191,"i_long":106.79689,"station_name":"Palmerah","time":6,"i_lat":-6.207404,"line":6,"station_id":"PLM"},{"time":7,"station_id":"KBY","line":6,"station_name":"Kebayoran","distance":3737,"i_long":106.780334,"transit":false,"is_transit":false,"i_lat":-6.237242}],[{"transit":false,"distance":0,"is_transit":false,"i_long":106.771379,"i_lat":-6.161433,"station_id":"PSG","station_name":"Pesing","time":0,"line":5},{"transit":false,"is_transit":false,"time":2,"i_long":106.788277,"line":5,"i_lat":-6.162021,"station_name":"Grogol","station_id":"GGL","distance":2036},{"station_name":"Duri","station_id":"DU","is_transit":true,"i_lat":-6.155215,"distance":1700,"line":1,"time":3,"transit":true,"i_long":106.800832},{"time":4,"i_long":106.79867,"i_lat":-6.144674,"station_name":"Angke","transit":false,"line":1,"station_id":"AK","is_transit":false,"distance":1230},{"i_long":106.826365,"is_transit":true,"transit":true,"distance":4102,"time":9,"station_name":"Kampung Bandan","i_lat":-6.132549,"station_id":"KPB","line":4},{"station_id":"RJW","line":11,"i_long":106.836569,"station_name":"Rajawali","i_lat":-6.14505,"transit":false,"distance":1444,"is_transit":false,"time":3},{"i_lat":-6.161728,"transit":false,"is_transit":false,"i_long":106.839204,"time":5,"line":11,"distance":1901,"station_id":"KMO","station_name":"Kemayoran"},{"i_long":106.84368,"is_transit":false,"transit":false,"line":11,"station_name":"Pasar Senen","time":4,"i_lat":-6.174784,"distance":1436,"station_id":"PSE"},{"line":11,"distance":1567,"is_transit":false,"time":8,"i_lat":-6.185975,"station_name":"Gang Sentiong","station_id":"GST","transit":false,"i_long":106.850107},{"station_name":"Kramat","is_transit":false,"line":11,"distance":973,"time":1,"station_id":"KMT","transit":false,"i_lat":-6.193792,"i_long":106.855437},{"transit":false,"time":2,"i_lat":-6.209188,"line":11,"distance":1829,"is_transit":false,"station_id":"POK","i_long":106.861737,"station_name":"Pondok Jati"},{"distance":1236,"station_name":"Jatinegara","station_id":"JNG","transit":true,"is_transit":true,"i_long":106.86807400000001,"i_lat":-6.215091,"line":1,"time":9},{"is_transit":false,"station_id":"MTR","station_name":"Matraman","i_long":106.858896,"i_lat":-6.212485,"line":1,"time":2,"distance":1377,"transit":false},{"distance":1275,"station_name":"Manggarai","station_id":"MRI","is_transit":false,"time":2,"i_long":106.84912,"line":2,"transit":false,"i_lat":-6.209883},{"i_long":106.822649,"line":1,"station_name":"Sudirman","time":4,"distance":3186,"i_lat":-6.202263,"transit":false,"station_id":"SUD","is_transit":false},{"station_id":"SUDB","transit":false,"line":1,"station_name":"Sudirman Baru","i_long":106.819881,"i_lat":-6.201433,"distance":280,"is_transit":false,"time":1},{"is_transit":false,"distance":471,"time":1,"station_name":"Karet","i_long":106.816351,"line":1,"station_id":"KAT","transit":false,"i_lat":-6.20132},{"transit":true,"station_name":"Tanah Abang","i_lat":-6.185545,"i_long":106.811091,"line":1,"time":5,"distance":2029,"station_id":"THB","is_transit":true},{"line":6,"station_name":"Palmerah","distance":3191,"time":6,"i_lat":-6.207404,"i_long":106.79689,"is_transit":false,"station_id":"PLM","transit":false},{"i_long":106.780334,"station_id":"KBY","time":7,"i_lat":-6.237242,"station_name":"Kebayoran","distance":3737,"transit":false,"is_transit":false,"line":6}]]}