{"data":[[{"i_lat":-6.161433,"transit":false,"station_name":"Pesing","distance":0,"i_long":106.771379,"line":5,"time":0,"station_id":"PSG","is_transit":false},{"is_transit":false,"i_lat":-6.162021,"i_long":106.788277,"distance":2036,"time":2,"station_name":"Grogol","station_id":"GGL","line":5,"transit":false},{"i_long":106.800832,"transit":true,"station_id":"DU","station_name":"Duri","is_transit":true,"line":1,"distance":1700,"i_lat":-6.155215,"time":3},{"is_transit":false,"i_long":106.811091,"transit":false,"station_id":"THB","distance":3632,"station_name":"Tanah Abang","i_lat":-6.185545,"line":1,"time":8},{"line":1,"distance":2029,"transit":false,"is_transit":false,"i_long":106.816351,"station_name":"Karet","time":5,"station_id":"KAT","i_lat":-6.20132},{"distance":471,"is_transit":false,"time":1,"i_lat":-6.201433,"station_name":"Sudirman Baru","station_id":"SUDB","i_long":106.819881,"transit":false,"line":1},{"transit":false,"time":1,"line":1,"is_transit":false,"distance":280,"station_name":"Sudirman","i_lat":-6.202263,"station_id":"SUD","i_long":106.822649},{"line":2,"station_name":"Manggarai","i_lat":-6.209883,"is_transit":true,"i_long":106.84912,"station_id":"MRI","transit":true,"time":4,"distance":3186},{"transit":false,"station_id":"TEB","distance":2610,"i_long":106.857948,"is_transit":false,"i_lat":-6.226659,"line":2,"station_name":"Tebet","time":4},{"distance":1230,"station_name":"Cawang","transit":false,"i_long":106.856607,"i_lat":-6.242512,"time":2,"line":2,"is_transit":false,"station_id":"CW"},{"transit":false,"time":3,"distance":1546,"i_lat":-6.255332,"station_id":"DRN","i_long":106.85449,"line":2,"station_name":"Duren Kalibata","is_transit":false},{"i_lat":-6.263214,"is_transit":false,"station_id":"PSMB","line":2,"transit":false,"distance":824,"i_long":106.851577,"station_name":"Pasar Minggu Baru","time":2},{"is_transit":false,"transit":false,"i_long":106.843999,"line":2,"time":2,"distance":2380,"station_id":"PSM","station_name":"Pasar Minggu","i_lat":-6.2842400000000005},{"distance":2820,"line":2,"is_transit":false,"i_long":106.838896,"i_lat":-6.3080680000000005,"station_name":"Tanjung Barat","station_id":"TNT","transit":false,"time":4},{"time":3,"station_id":"LNA","line":2,"distance":2671,"station_name":"Lenteng Agung","transit":false,"is_transit":false,"i_lat":-6.330363,"i_long":106.832616},{"i_lat":-6.339291,"i_long":106.834175,"line":2,"transit":false,"station_id":"UP","is_transit":false,"time":2,"distance":1029,"station_name":"Univ. Pancasila"},{"station_id":"UI","line":2,"station_name":"Univ. Indonesia","time":3,"i_lat":-6.360749,"i_long":106.831474,"is_transit":false,"transit":false,"distance":2264},{"station_id":"POC","is_transit":false,"time":2,"transit":false,"station_name":"Pondok Cina","distance":1109,"i_lat":-6.369073,"i_long":106.831114,"line":2},{"station_name":"Depokbaru","station_id":"DPB","is_transit":false,"distance":2727,"i_lat":-6.391065,"line":2,"time":4,"transit":false,"i_long":106.819451},{"station_id":"DP","line":2,"time":3,"i_long":106.816926,"distance":1584,"transit":false,"i_lat":-6.405256,"is_transit":false,"station_name":"Depok"}],[{"is_transit":false,"line":5,"i_long":106.771379,"station_id":"PSG","time":0,"transit":false,"distance":0,"station_name":"Pesing","i_lat":-6.161433},{"is_transit":false,"station_name":"Grogol","transit":false,"i_lat":-6.162021,"distance":2036,"station_id":"GGL","time":2,"i_long":106.788277,"line":5},{"time":3,"station_id":"DU","transit":true,"i_lat":-6.155215,"distance":1700,"is_transit":true,"i_long":106.800832,"station_name":"Duri","line":1},{"time":4,"distance":1230,"station_id":"AK","i_lat":-6.144674,"is_transit":false,"i_long":106.79867,"line":1,"transit":false,"station_name":"Angke"},{"distance":4102,"i_lat":-6.132549,"station_name":"Kampung Bandan","time":9,"is_transit":true,"i_long":106.826365,"line":4,"transit":true,"station_id":"KPB"},{"time":3,"station_id":"JAKK","line":2,"distance":1364,"i_lat":-6.137569,"is_transit":true,"transit":true,"i_long":106.812439,"station_name":"Jakarta Kota"},{"transit":false,"i_lat":-6.141205,"time":4,"i_long":106.820901,"is_transit":false,"station_name":"Jayakarta","distance":1264,"line":2,"station_id":"JAY"},{"i_long":106.82482,"line":2,"is_transit":false,"transit":false,"time":2,"station_name":"Manggabesar","station_id":"MGB","distance":1080,"i_lat":-6.149769},{"transit":false,"is_transit":false,"line":2,"distance":906,"station_name":"Sawah Besar","station_id":"SW","i_lat":-6.160725,"time":2,"i_long":106.827103},{"is_transit":false,"station_name":"Juanda","i_long":106.828284,"i_lat":-6.166716,"line":2,"time":2,"station_id":"JUA","distance":1149,"transit":false},{"time":4,"distance":2015,"i_lat":-6.186295,"station_id":"GDD","i_long":106.832183,"is_transit":false,"line":2,"station_name":"Gondangdia","transit":false},{"station_name":"Cikini","distance":1750,"i_long":106.840169,"station_id":"CKI","time":3,"line":2,"transit":false,"i_lat":-6.198556,"is_transit":false},{"transit":false,"is_transit":false,"station_id":"MRI","line":2,"time":4,"i_long":106.84912,"station_name":"Manggarai","distance":1590,"i_lat":-6.209883},{"i_long":106.857948,"is_transit":false,"i_lat":-6.226659,"line":2,"transit":false,"station_name":"Tebet","station_id":"TEB","time":4,"distance":2610},{"line":2,"i_lat":-6.242512,"transit":false,"station_name":"Cawang","is_transit":false,"station_id":"CW","distance":1230,"time":2,"i_long":106.856607},{"i_lat":-6.255332,"station_id":"DRN","is_transit":false,"distance":1546,"i_long":106.85449,"station_name":"Duren Kalibata","time":3,"line":2,"transit":false},{"transit":false,"distance":824,"station_name":"Pasar Minggu Baru","time":2,"i_long":106.851577,"is_transit":false,"line":2,"i_lat":-6.263214,"station_id":"PSMB"},{"distance":2380,"i_lat":-6.2842400000000005,"station_id":"PSM","time":2,"line":2,"transit":false,"i_long":106.843999,"is_transit":false,"station_name":"Pasar Minggu"},{"transit":false,"i_lat":-6.3080680000000005,"i_long":106.838896,"station_name":"Tanjung Barat","station_id":"TNT","is_transit":false,"distance":2820,"time":4,"line":2},{"time":3,"i_long":106.832616,"station_id":"LNA","line":2,"is_transit":false,"station_name":"Lenteng Agung","i_lat":-6.330363,"transit":false,"distance":2671},{"i_long":106.834175,"transit":false,"station_id":"UP","distance":1029,"is_transit":false,"time":2,"line":2,"station_name":"Univ. Pancasila","i_lat":-6.339291},{"time":3,"distance":2264,"line":2,"i_long":106.831474,"transit":false,"station_id":"UI","is_transit":false,"station_name":"Univ. Indonesia","i_lat":-6.360749},{"is_transit":false,"station_id":"POC","station_name":"Pondok Cina","time":2,"transit":false,"distance":1109,"i_lat":-6.369073,"line":2,"i_long":106.831114},{"i_long":106.819451,"station_name":"Depokbaru","distance":2727,"time":4,"i_lat":-6.391065,"station_id":"DPB","line":2,"transit":false,"is_transit":false},{"time":3,"distance":1584,"transit":false,"i_lat":-6.405256,"line":2,"i_long":106.816926,"station_name":"Depok","is_transit":false,"station_id":"DP"}],[{"transit":false,"station_id":"PSG","i_lat":-6.161433,"i_long":106.771379,"is_transit":false,"line":5,"distance":0,"time":0,"station_name":"Pesing"},{"distance":2036,"station_name":"Grogol","i_lat":-6.162021,"is_transit":false,"i_long":106.788277,"station_id":"GGL","line":5,"transit":false,"time":2},{"station_name":"Duri","i_lat":-6.155215,"station_id":"DU","transit":true,"distance":1700,"i_long":106.800832,"line":1,"is_transit":true,"time":3},{"i_lat":-6.144674,"station_id":"AK","line":1,"is_transit":false,"station_name":"Angke","time":4,"transit":false,"distance":1230,"i_long":106.79867},{"transit":true,"i_lat":-6.132549,"station_name":"Kampung Bandan","station_id":"KPB","distance":4102,"line":4,"is_transit":true,"i_long":106.826365,"time":9},{"line":11,"i_long":106.836569,"i_lat":-6.14505,"is_transit":false,"transit":false,"distance":1444,"station_name":"Rajawali","station_id":"RJW","time":3},{"transit":false,"line":11,"station_id":"KMO","station_name":"Kemayoran","is_transit":false,"distance":1901,"time":5,"i_lat":-6.161728,"i_long":106.839204},{"is_transit":false,"i_long":106.84368,"transit":false,"i_lat":-6.174784,"line":11,"station_id":"PSE","time":4,"station_name":"Pasar Senen","distance":1436},{"i_lat":-6.185975,"transit":false,"is_transit":false,"station_id":"GST","time":8,"i_long":106.850107,"line":11,"station_name":"Gang Sentiong","distance":1567},{"station_id":"KMT","station_name":"Kramat","transit":false,"distance":973,"is_transit":false,"i_lat":-6.193792,"i_long":106.855437,"time":1,"line":11},{"line":11,"i_long":106.861737,"station_name":"Pondok Jati","is_transit":false,"station_id":"POK","time":2,"i_lat":-6.209188,"distance":1829,"transit":false},{"time":9,"i_long":106.86807400000001,"line":1,"station_name":"Jatinegara","is_transit":true,"station_id":"JNG","distance":1236,"i_lat":-6.215091,"transit":true},{"station_name":"Matraman","transit":false,"distance":1377,"i_long":106.858896,"is_transit":false,"i_lat":-6.212485,"line":1,"station_id":"MTR","time":2},{"station_name":"Manggarai","is_transit":true,"i_long":106.84912,"i_lat":-6.209883,"line":2,"distance":1275,"station_id":"MRI","time":2,"transit":true},{"i_lat":-6.226659,"line":2,"station_name":"Tebet","transit":false,"distance":2610,"i_long":106.857948,"station_id":"TEB","is_transit":false,"time":4},{"i_lat":-6.242512,"distance":1230,"time":2,"i_long":106.856607,"station_id":"CW","is_transit":false,"line":2,"station_name":"Cawang","transit":false},{"time":3,"station_name":"Duren Kalibata","line":2,"is_transit":false,"station_id":"DRN","i_long":106.85449,"transit":false,"i_lat":-6.255332,"distance":1546},{"distance":824,"i_lat":-6.263214,"line":2,"transit":false,"station_name":"Pasar Minggu Baru","station_id":"PSMB","i_long":106.851577,"is_transit":false,"time":2},{"transit":false,"distance":2380,"station_id":"PSM","line":2,"i_long":106.843999,"is_transit":false,"i_lat":-6.2842400000000005,"station_name":"Pasar Minggu","time":2},{"i_long":106.838896,"distance":2820,"station_id":"TNT","time":4,"i_lat":-6.3080680000000005,"line":2,"transit":false,"station_name":"Tanjung Barat","is_transit":false},{"station_id":"LNA","is_transit":false,"i_lat":-6.330363,"i_long":106.832616,"station_name":"Lenteng Agung","line":2,"time":3,"transit":false,"distance":2671},{"time":2,"transit":false,"line":2,"i_lat":-6.339291,"distance":1029,"is_transit":false,"i_long":106.834175,"station_name":"Univ. Pancasila","station_id":"UP"},{"is_transit":false,"time":3,"distance":2264,"line":2,"station_name":"Univ. Indonesia","i_long":106.831474,"i_lat":-6.360749,"transit":false,"station_id":"UI"},{"station_id":"POC","station_name":"Pondok Cina","i_lat":-6.369073,"time":2,"is_transit":false,"transit":false,"i_long":106.831114,"line":2,"distance":1109},{"transit":false,"station_id":"DPB","is_transit":false,"time":4,"i_lat":-6.391065,"i_long":106.819451,"line":2,"station_name":"Depokbaru","distance":2727},{"transit":false,"i_lat":-6.405256,"i_long":106.816926,"is_transit":false,"distance":1584,"station_name":"Depok","time":3,"station_id":"DP","line":2}]]}