{"data":[[{"is_transit":false,"station_id":"PSG","time":0,"station_name":"Pesing","i_lat":-6.161433,"i_long":106.771379,"transit":false,"distance":0,"line":5},{"i_lat":-6.162021,"is_transit":false,"station_name":"Grogol","time":2,"i_long":106.788277,"distance":2036,"transit":false,"line":5,"station_id":"GGL"},{"i_lat":-6.155215,"distance":1700,"time":3,"line":1,"transit":true,"station_id":"DU","i_long":106.800832,"is_transit":true,"station_name":"Duri"},{"i_lat":-6.185545,"station_name":"Tanah Abang","is_transit":true,"transit":false,"station_id":"THB","i_long":106.811091,"distance":3632,"line":1,"time":8},{"i_lat":-6.20132,"i_long":106.816351,"line":1,"transit":false,"time":5,"is_transit":false,"distance":2029,"station_name":"Karet","station_id":"KAT"},{"is_transit":false,"distance":471,"i_long":106.819881,"station_id":"SUDB","transit":false,"time":1,"line":1,"i_lat":-6.201433,"station_name":"Sudirman Baru"},{"i_lat":-6.202263,"i_long":106.822649,"station_id":"SUD","station_name":"Sudirman","line":1,"distance":280,"time":1,"is_transit":false,"transit":false},{"i_long":106.84912,"i_lat":-6.209883,"station_id":"MRI","station_name":"Manggarai","time":4,"line":0,"distance":3186,"is_transit":true,"transit":true},{"line":2,"is_transit":false,"distance":2610,"station_name":"Tebet","time":4,"i_lat":-6.226659,"i_long":106.857948,"station_id":"TEB","transit":false}],[{"i_long":106.771379,"distance":0,"i_lat":-6.161433,"station_name":"Pesing","station_id":"PSG","line":5,"is_transit":false,"transit":false,"time":0},{"station_id":"GGL","time":2,"is_transit":false,"i_lat":-6.162021,"distance":2036,"i_long":106.788277,"transit":false,"station_name":"Grogol","line":5},{"distance":1700,"is_transit":true,"station_name":"Duri","transit":true,"i_lat":-6.155215,"line":1,"time":3,"i_long":106.800832,"station_id":"DU"},{"line":0,"distance":1230,"station_name":"Angke","is_transit":false,"i_lat":-6.144674,"i_long":106.79867,"transit":false,"time":4,"station_id":"AK"},{"distance":4102,"transit":false,"station_id":"KPB","station_name":"Kampung Bandan","is_transit":true,"time":9,"i_lat":-6.132549,"line":0,"i_long":106.826365},{"station_name":"Jakarta Kota","i_long":106.812439,"time":3,"is_transit":true,"station_id":"JAKK","transit":true,"line":0,"distance":1364,"i_lat":-6.137569},{"distance":1264,"is_transit":false,"station_name":"Jayakarta","time":4,"transit":false,"i_long":106.820901,"line":7,"station_id":"JAY","i_lat":-6.141205},{"line":2,"i_long":106.82482,"time":2,"is_transit":false,"i_lat":-6.149769,"station_id":"MGB","distance":1080,"station_name":"Manggabesar","transit":false},{"station_id":"SW","is_transit":false,"time":2,"distance":906,"i_lat":-6.160725,"station_name":"Sawah Besar","i_long":106.827103,"line":2,"transit":false},{"transit":false,"time":2,"i_lat":-6.166716,"distance":1149,"is_transit":false,"station_name":"Juanda","line":2,"i_long":106.828284,"station_id":"JUA"},{"station_id":"GDD","distance":2015,"transit":false,"i_lat":-6.186295,"line":2,"station_name":"Gondangdia","is_transit":false,"time":4,"i_long":106.832183},{"transit":false,"time":3,"i_lat":-6.198556,"is_transit":false,"station_id":"CKI","distance":1750,"line":0,"station_name":"Cikini","i_long":106.840169},{"is_transit":true,"i_long":106.84912,"station_id":"MRI","transit":true,"distance":1590,"time":4,"i_lat":-6.209883,"line":0,"station_name":"Manggarai"},{"station_name":"Tebet","transit":false,"station_id":"TEB","time":4,"distance":2610,"i_long":106.857948,"line":2,"i_lat":-6.226659,"is_transit":false}],[{"transit":false,"time":0,"distance":0,"line":5,"is_transit":false,"station_id":"PSG","station_name":"Pesing","i_lat":-6.161433,"i_long":106.771379},{"line":5,"i_long":106.788277,"station_name":"Grogol","transit":false,"is_transit":false,"distance":2036,"i_lat":-6.162021,"time":2,"station_id":"GGL"},{"line":1,"is_transit":true,"time":3,"distance":1700,"station_id":"DU","station_name":"Duri","i_lat":-6.155215,"transit":true,"i_long":106.800832},{"i_long":106.79867,"is_transit":false,"i_lat":-6.144674,"transit":false,"line":0,"station_name":"Angke","time":4,"distance":1230,"station_id":"AK"},{"distance":4102,"is_transit":true,"station_name":"Kampung Bandan","transit":true,"i_lat":-6.132549,"line":0,"station_id":"KPB","i_long":106.826365,"time":9},{"is_transit":false,"line":11,"station_id":"RJW","distance":1444,"station_name":"Rajawali","transit":false,"i_lat":-6.14505,"i_long":106.836569,"time":3},{"station_id":"KMO","time":5,"station_name":"Kemayoran","distance":1901,"i_long":106.839204,"is_transit":false,"line":11,"transit":false,"i_lat":-6.161728},{"station_name":"Pasar Senen","line":11,"transit":false,"station_id":"PSE","i_lat":-6.174784,"time":4,"i_long":106.84368,"distance":1436,"is_transit":false},{"line":11,"distance":1567,"i_lat":-6.185975,"time":8,"station_name":"Gang Sentiong","station_id":"GST","is_transit":false,"transit":false,"i_long":106.850107},{"station_id":"KMT","time":1,"i_lat":-6.193792,"line":11,"i_long":106.855437,"distance":973,"is_transit":false,"station_name":"Kramat","transit":false},{"line":11,"time":2,"station_name":"Pondok Jati","transit":false,"distance":1829,"is_transit":false,"i_long":106.861737,"station_id":"POK","i_lat":-6.209188},{"i_lat":-6.215091,"station_name":"Jatinegara","line":0,"distance":1236,"time":9,"is_transit":true,"station_id":"JNG","transit":true,"i_long":106.86807400000001},{"station_name":"Matraman","line":1,"station_id":"MTR","is_transit":false,"time":2,"transit":false,"i_lat":-6.212485,"i_long":106.858896,"distance":1377},{"transit":true,"distance":1275,"time":2,"i_long":106.84912,"station_name":"Manggarai","i_lat":-6.209883,"is_transit":true,"line":0,"station_id":"MRI"},{"station_id":"TEB","transit":false,"station_name":"Tebet","line":2,"i_long":106.857948,"is_transit":false,"distance":2610,"time":4,"i_lat":-6.226659}]]}