{"data":[[{"station_id":"PSG","is_transit":false,"transit":false,"station_name":"Pesing","i_lat":-6.161433,"i_long":106.771379,"line":5,"time":0,"distance":0},{"time":2,"distance":2036,"i_long":106.788277,"line":5,"transit":false,"station_name":"Grogol","station_id":"GGL","is_transit":false,"i_lat":-6.162021},{"is_transit":true,"station_id":"DU","i_lat":-6.155215,"i_long":106.800832,"transit":true,"distance":1700,"line":1,"station_name":"Duri","time":3},{"station_id":"THB","station_name":"Tanah Abang","distance":3632,"transit":true,"line":1,"i_long":106.811091,"is_transit":true,"time":8,"i_lat":-6.185545},{"i_long":106.79689,"is_transit":false,"station_name":"Palmerah","station_id":"PLM","i_lat":-6.207404,"transit":false,"time":6,"distance":3191,"line":6},{"station_id":"KBY","i_long":106.780334,"time":7,"is_transit":false,"distance":3737,"transit":false,"station_name":"Kebayoran","i_lat":-6.237242,"line":6},{"is_transit":false,"i_long":106.74273,"line":6,"transit":false,"station_name":"Pondokranji","station_id":"PDJ","distance":6218,"i_lat":-6.276362,"time":8},{"station_name":"Jurangmangu","is_transit":false,"i_lat":-6.288927,"time":3,"i_long":106.728916,"station_id":"JMU","distance":2179,"transit":false,"line":6}],[{"station_id":"PSG","i_long":106.771379,"i_lat":-6.161433,"line":5,"transit":false,"time":0,"distance":0,"station_name":"Pesing","is_transit":false},{"line":5,"transit":false,"i_long":106.788277,"station_id":"GGL","distance":2036,"station_name":"Grogol","is_transit":false,"time":2,"i_lat":-6.162021},{"distance":1700,"is_transit":true,"time":3,"i_long":106.800832,"transit":true,"line":1,"station_name":"Duri","station_id":"DU","i_lat":-6.155215},{"i_lat":-6.144674,"line":1,"distance":1230,"station_id":"AK","i_long":106.79867,"station_name":"Angke","time":4,"transit":false,"is_transit":false},{"i_lat":-6.132549,"i_long":106.826365,"line":4,"station_id":"KPB","transit":true,"is_transit":true,"time":9,"distance":4102,"station_name":"Kampung Bandan"},{"time":3,"i_long":106.812439,"transit":true,"station_name":"Jakarta Kota","distance":1364,"i_lat":-6.137569,"is_transit":true,"station_id":"JAKK","line":2},{"line":2,"transit":false,"is_transit":false,"time":4,"i_lat":-6.141205,"i_long":106.820901,"station_name":"Jayakarta","station_id":"JAY","distance":1264},{"transit":false,"station_id":"MGB","i_long":106.82482,"distance":1080,"i_lat":-6.149769,"line":2,"time":2,"station_name":"Manggabesar","is_transit":false},{"transit":false,"station_id":"SW","time":2,"is_transit":false,"distance":906,"i_long":106.827103,"line":2,"station_name":"Sawah Besar","i_lat":-6.160725},{"station_name":"Juanda","distance":1149,"transit":false,"station_id":"JUA","is_transit":false,"time":2,"i_long":106.828284,"line":2,"i_lat":-6.166716},{"i_long":106.832183,"station_name":"Gondangdia","time":4,"distance":2015,"i_lat":-6.186295,"transit":false,"line":2,"is_transit":false,"station_id":"GDD"},{"i_lat":-6.198556,"i_long":106.840169,"line":2,"station_name":"Cikini","transit":false,"distance":1750,"time":3,"is_transit":false,"station_id":"CKI"},{"time":4,"i_long":106.84912,"is_transit":true,"line":2,"station_name":"Manggarai","transit":true,"i_lat":-6.209883,"station_id":"MRI","distance":1590},{"line":1,"station_name":"Sudirman","is_transit":false,"i_lat":-6.202263,"i_long":106.822649,"transit":false,"distance":3186,"station_id":"SUD","time":4},{"i_lat":-6.201433,"time":1,"distance":280,"line":1,"station_name":"Sudirman Baru","station_id":"SUDB","is_transit":false,"transit":false,"i_long":106.819881},{"station_name":"Karet","station_id":"KAT","transit":false,"distance":471,"line":1,"i_long":106.816351,"is_transit":false,"i_lat":-6.20132,"time":1},{"distance":2029,"i_long":106.811091,"station_name":"Tanah Abang","transit":true,"line":1,"time":5,"i_lat":-6.185545,"is_transit":true,"station_id":"THB"},{"station_name":"Palmerah","transit":false,"time":6,"i_lat":-6.207404,"line":6,"distance":3191,"is_transit":false,"station_id":"PLM","i_long":106.79689},{"line":6,"station_id":"KBY","i_lat":-6.237242,"station_name":"Kebayoran","i_long":106.780334,"time":7,"is_transit":false,"transit":false,"distance":3737},{"transit":false,"is_transit":false,"distance":6218,"i_lat":-6.276362,"station_name":"Pondokranji","line":6,"i_long":106.74273,"time":8,"station_id":"PDJ"},{"is_transit":false,"station_name":"Jurangmangu","line":6,"transit":false,"distance":2179,"i_lat":-6.288927,"station_id":"JMU","time":3,"i_long":106.728916}],[{"station_id":"PSG","time":0,"distance":0,"i_long":106.771379,"is_transit":false,"i_lat":-6.161433,"line":5,"station_name":"Pesing","transit":false},{"is_transit":false,"line":5,"station_name":"Grogol","i_lat":-6.162021,"transit":false,"time":2,"i_long":106.788277,"distance":2036,"station_id":"GGL"},{"i_long":106.800832,"i_lat":-6.155215,"station_name":"Duri","time":3,"line":1,"station_id":"DU","is_transit":true,"transit":true,"distance":1700},{"i_lat":-6.144674,"is_transit":false,"distance":1230,"i_long":106.79867,"line":1,"transit":false,"station_id":"AK","time":4,"station_name":"Angke"},{"line":4,"is_transit":true,"time":9,"distance":4102,"i_lat":-6.132549,"station_name":"Kampung Bandan","i_long":106.826365,"transit":true,"station_id":"KPB"},{"is_transit":false,"time":3,"i_long":106.836569,"station_name":"Rajawali","transit":false,"line":11,"station_id":"RJW","i_lat":-6.14505,"distance":1444},{"distance":1901,"i_lat":-6.161728,"station_id":"KMO","i_long":106.839204,"is_transit":false,"line":11,"station_name":"Kemayoran","transit":false,"time":5},{"is_transit":false,"station_name":"Pasar Senen","i_long":106.84368,"i_lat":-6.174784,"time":4,"distance":1436,"transit":false,"line":11,"station_id":"PSE"},{"station_name":"Gang Sentiong","time":8,"is_transit":false,"i_lat":-6.185975,"station_id":"GST","line":11,"transit":false,"distance":1567,"i_long":106.850107},{"time":1,"station_name":"Kramat","line":11,"distance":973,"i_lat":-6.193792,"is_transit":false,"station_id":"KMT","i_long":106.855437,"transit":false},{"distance":1829,"station_name":"Pondok Jati","i_long":106.861737,"station_id":"POK","is_transit":false,"line":11,"time":2,"transit":false,"i_lat":-6.209188},{"is_transit":true,"distance":1236,"i_lat":-6.215091,"line":1,"i_long":106.86807400000001,"station_id":"JNG","time":9,"transit":true,"station_name":"Jatinegara"},{"distance":1377,"i_lat":-6.212485,"transit":false,"time":2,"line":1,"station_name":"Matraman","i_long":106.858896,"is_transit":false,"station_id":"MTR"},{"i_lat":-6.209883,"station_name":"Manggarai","is_transit":false,"time":2,"station_id":"MRI","i_long":106.84912,"transit":false,"distance":1275,"line":2},{"i_lat":-6.202263,"time":4,"station_id":"SUD","distance":3186,"station_name":"Sudirman","line":1,"i_long":106.822649,"transit":false,"is_transit":false},{"station_name":"Sudirman Baru","station_id":"SUDB","is_transit":false,"i_lat":-6.201433,"time":1,"i_long":106.819881,"transit":false,"distance":280,"line":1},{"line":1,"distance":471,"i_lat":-6.20132,"station_name":"Karet","station_id":"KAT","is_transit":false,"i_long":106.816351,"transit":false,"time":1},{"station_id":"THB","line":1,"distance":2029,"i_lat":-6.185545,"i_long":106.811091,"is_transit":true,"time":5,"transit":true,"station_name":"Tanah Abang"},{"i_lat":-6.207404,"line":6,"is_transit":false,"transit":false,"time":6,"station_name":"Palmerah","station_id":"PLM","distance":3191,"i_long":106.79689},{"station_id":"KBY","time":7,"i_lat":-6.237242,"i_long":106.780334,"distance":3737,"transit":false,"line":6,"is_transit":false,"station_name":"Kebayoran"},{"transit":false,"is_transit":false,"i_lat":-6.276362,"station_name":"Pondokranji","time":8,"i_long":106.74273,"distance":6218,"line":6,"station_id":"PDJ"},{"time":3,"distance":2179,"line":6,"i_lat":-6.288927,"is_transit":false,"i_long":106.728916,"transit":false,"station_name":"Jurangmangu","station_id":"JMU"}]]}