{"data":[[{"i_long":106.771379,"is_transit":false,"time":0,"line":5,"transit":false,"distance":0,"station_name":"Pesing","station_id":"PSG","i_lat":-6.161433},{"distance":2036,"transit":false,"station_name":"Grogol","i_lat":-6.162021,"is_transit":false,"station_id":"GGL","i_long":106.788277,"time":2,"line":5},{"station_name":"Duri","distance":1700,"line":1,"is_transit":true,"time":3,"station_id":"DU","i_lat":-6.155215,"i_long":106.800832,"transit":true},{"transit":false,"station_name":"Tanah Abang","i_lat":-6.185545,"line":1,"station_id":"THB","distance":3632,"time":8,"i_long":106.811091,"is_transit":false},{"station_id":"KAT","i_lat":-6.20132,"is_transit":false,"station_name":"Karet","distance":2029,"transit":false,"time":5,"i_long":106.816351,"line":1},{"station_name":"Sudirman Baru","distance":471,"station_id":"SUDB","i_lat":-6.201433,"is_transit":false,"line":1,"transit":false,"i_long":106.819881,"time":1},{"i_long":106.822649,"time":1,"line":1,"station_id":"SUD","i_lat":-6.202263,"transit":false,"distance":280,"station_name":"Sudirman","is_transit":false},{"station_name":"Manggarai","transit":false,"i_long":106.84912,"i_lat":-6.209883,"is_transit":false,"line":2,"time":4,"station_id":"MRI","distance":3186},{"time":2,"transit":false,"station_id":"MTR","is_transit":false,"i_lat":-6.212485,"distance":1275,"i_long":106.858896,"station_name":"Matraman","line":1},{"station_name":"Jatinegara","i_long":106.86807400000001,"station_id":"JNG","line":1,"i_lat":-6.215091,"transit":false,"is_transit":false,"distance":1377,"time":8},{"transit":false,"i_long":106.899548,"time":3,"i_lat":-6.2135,"distance":3395,"is_transit":false,"line":1,"station_name":"Klender","station_id":"KLD"},{"time":2,"is_transit":false,"station_id":"BUA","i_long":106.922662,"i_lat":-6.215568,"station_name":"Buaran","transit":false,"distance":3100,"line":1}],[{"station_name":"Pesing","time":0,"line":5,"station_id":"PSG","is_transit":false,"transit":false,"i_lat":-6.161433,"distance":0,"i_long":106.771379},{"station_name":"Grogol","line":5,"distance":2036,"i_lat":-6.162021,"transit":false,"time":2,"station_id":"GGL","i_long":106.788277,"is_transit":false},{"distance":1700,"transit":true,"station_name":"Duri","is_transit":true,"i_lat":-6.155215,"i_long":106.800832,"time":3,"station_id":"DU","line":1},{"line":1,"i_long":106.79867,"is_transit":false,"station_id":"AK","distance":1230,"time":4,"transit":false,"station_name":"Angke","i_lat":-6.144674},{"line":4,"time":9,"station_name":"Kampung Bandan","station_id":"KPB","distance":4102,"i_lat":-6.132549,"i_long":106.826365,"transit":true,"is_transit":true},{"transit":false,"i_lat":-6.14505,"line":11,"i_long":106.836569,"station_id":"RJW","station_name":"Rajawali","time":3,"distance":1444,"is_transit":false},{"time":5,"distance":1901,"station_id":"KMO","station_name":"Kemayoran","i_lat":-6.161728,"line":11,"is_transit":false,"transit":false,"i_long":106.839204},{"distance":1436,"station_name":"Pasar Senen","time":4,"i_lat":-6.174784,"is_transit":false,"i_long":106.84368,"line":11,"station_id":"PSE","transit":false},{"station_name":"Gang Sentiong","i_lat":-6.185975,"is_transit":false,"transit":false,"line":11,"time":8,"i_long":106.850107,"distance":1567,"station_id":"GST"},{"transit":false,"i_lat":-6.193792,"i_long":106.855437,"distance":973,"time":1,"station_id":"KMT","station_name":"Kramat","line":11,"is_transit":false},{"station_id":"POK","distance":1829,"is_transit":false,"transit":false,"i_lat":-6.209188,"line":11,"time":2,"station_name":"Pondok Jati","i_long":106.861737},{"distance":1236,"station_name":"Jatinegara","i_long":106.86807400000001,"is_transit":true,"time":9,"i_lat":-6.215091,"transit":true,"line":1,"station_id":"JNG"},{"i_lat":-6.2135,"time":3,"distance":3395,"station_id":"KLD","station_name":"Klender","i_long":106.899548,"line":1,"is_transit":false,"transit":false},{"distance":3100,"transit":false,"station_id":"BUA","station_name":"Buaran","i_long":106.922662,"is_transit":false,"line":1,"i_lat":-6.215568,"time":2}],[{"i_long":106.771379,"line":5,"transit":false,"station_name":"Pesing","station_id":"PSG","is_transit":false,"distance":0,"time":0,"i_lat":-6.161433},{"station_name":"Grogol","line":5,"time":2,"is_transit":false,"transit":false,"i_lat":-6.162021,"station_id":"GGL","i_long":106.788277,"distance":2036},{"distance":1700,"station_name":"Duri","line":1,"station_id":"DU","is_transit":true,"i_long":106.800832,"transit":true,"i_lat":-6.155215,"time":3},{"i_lat":-6.144674,"transit":false,"line":1,"time":4,"is_transit":false,"i_long":106.79867,"station_id":"AK","station_name":"Angke","distance":1230},{"station_id":"KPB","is_transit":true,"line":4,"transit":true,"i_lat":-6.132549,"distance":4102,"station_name":"Kampung Bandan","i_long":106.826365,"time":9},{"time":3,"i_long":106.812439,"line":2,"station_name":"Jakarta Kota","distance":1364,"is_transit":true,"i_lat":-6.137569,"transit":true,"station_id":"JAKK"},{"station_id":"JAY","is_transit":false,"transit":false,"distance":1264,"station_name":"Jayakarta","i_lat":-6.141205,"line":2,"i_long":106.820901,"time":4},{"is_transit":false,"transit":false,"time":2,"distance":1080,"line":2,"i_long":106.82482,"station_name":"Manggabesar","station_id":"MGB","i_lat":-6.149769},{"is_transit":false,"station_id":"SW","time":2,"distance":906,"transit":false,"station_name":"Sawah Besar","i_lat":-6.160725,"i_long":106.827103,"line":2},{"time":2,"i_lat":-6.166716,"transit":false,"line":2,"station_id":"JUA","station_name":"Juanda","is_transit":false,"distance":1149,"i_long":106.828284},{"distance":2015,"is_transit":false,"transit":false,"line":2,"i_lat":-6.186295,"station_id":"GDD","i_long":106.832183,"station_name":"Gondangdia","time":4},{"i_lat":-6.198556,"i_long":106.840169,"time":3,"is_transit":false,"station_name":"Cikini","transit":false,"station_id":"CKI","line":2,"distance":1750},{"is_transit":true,"station_name":"Manggarai","distance":1590,"time":4,"i_lat":-6.209883,"station_id":"MRI","transit":true,"line":2,"i_long":106.84912},{"station_name":"Matraman","is_transit":false,"line":1,"distance":1275,"i_long":106.858896,"station_id":"MTR","transit":false,"time":2,"i_lat":-6.212485},{"transit":false,"i_lat":-6.215091,"distance":1377,"station_name":"Jatinegara","i_long":106.86807400000001,"line":1,"time":8,"is_transit":false,"station_id":"JNG"},{"is_transit":false,"transit":false,"i_lat":-6.2135,"station_name":"Klender","i_long":106.899548,"line":1,"time":3,"station_id":"KLD","distance":3395},{"transit":false,"station_id":"BUA","station_name":"Buaran","is_transit":false,"i_lat":-6.215568,"distance":3100,"time":2,"i_long":106.922662,"line":1}],[{"station_id":"PSG","station_name":"Pesing","transit":false,"distance":0,"i_lat":-6.161433,"is_transit":false,"time":0,"i_long":106.771379,"line":5},{"time":2,"station_id":"GGL","is_transit":false,"line":5,"station_name":"Grogol","distance":2036,"i_lat":-6.162021,"i_long":106.788277,"transit":false},{"i_long":106.800832,"is_transit":true,"transit":true,"line":1,"station_id":"DU","station_name":"Duri","distance":1700,"time":3,"i_lat":-6.155215},{"time":8,"is_transit":false,"station_name":"Tanah Abang","distance":3632,"i_lat":-6.185545,"line":1,"i_long":106.811091,"transit":false,"station_id":"THB"},{"i_lat":-6.20132,"distance":2029,"station_name":"Karet","time":5,"i_long":106.816351,"is_transit":false,"station_id":"KAT","transit":false,"line":1},{"station_id":"SUDB","distance":471,"line":1,"is_transit":false,"transit":false,"station_name":"Sudirman Baru","time":1,"i_lat":-6.201433,"i_long":106.819881},{"station_name":"Sudirman","i_long":106.822649,"i_lat":-6.202263,"is_transit":false,"station_id":"SUD","transit":false,"time":1,"distance":280,"line":1},{"distance":3186,"i_lat":-6.209883,"i_long":106.84912,"line":2,"transit":true,"station_id":"MRI","station_name":"Manggarai","time":4,"is_transit":true},{"transit":false,"is_transit":false,"distance":1590,"i_long":106.840169,"line":2,"station_name":"Cikini","station_id":"CKI","time":4,"i_lat":-6.198556},{"is_transit":false,"i_lat":-6.186295,"line":2,"transit":false,"station_id":"GDD","distance":1750,"i_long":106.832183,"station_name":"Gondangdia","time":3},{"time":4,"transit":false,"i_long":106.828284,"station_name":"Juanda","is_transit":false,"station_id":"JUA","i_lat":-6.166716,"line":2,"distance":2015},{"time":2,"station_id":"SW","line":2,"station_name":"Sawah Besar","i_long":106.827103,"is_transit":false,"transit":false,"distance":1149,"i_lat":-6.160725},{"station_id":"MGB","time":2,"distance":906,"i_lat":-6.149769,"transit":false,"line":2,"station_name":"Manggabesar","is_transit":false,"i_long":106.82482},{"station_name":"Jayakarta","i_long":106.820901,"transit":false,"distance":1080,"time":2,"is_transit":false,"i_lat":-6.141205,"line":2,"station_id":"JAY"},{"is_transit":true,"station_id":"JAKK","time":4,"i_lat":-6.137569,"i_long":106.812439,"station_name":"Jakarta Kota","transit":true,"distance":1264,"line":2},{"transit":true,"is_transit":true,"station_name":"Kampung Bandan","line":4,"distance":1364,"station_id":"KPB","i_long":106.826365,"i_lat":-6.132549,"time":3},{"station_id":"RJW","time":3,"i_long":106.836569,"transit":false,"line":11,"distance":1444,"is_transit":false,"station_name":"Rajawali","i_lat":-6.14505},{"transit":false,"distance":1901,"is_transit":false,"i_long":106.839204,"i_lat":-6.161728,"station_id":"KMO","station_name":"Kemayoran","time":5,"line":11},{"transit":false,"is_transit":false,"time":4,"i_long":106.84368,"line":11,"i_lat":-6.174784,"station_name":"Pasar Senen","station_id":"PSE","distance":1436},{"station_id":"GST","station_name":"Gang Sentiong","is_transit":false,"i_lat":-6.185975,"distance":1567,"line":11,"transit":false,"time":8,"i_long":106.850107},{"distance":973,"i_long":106.855437,"i_lat":-6.193792,"station_name":"Kramat","transit":false,"line":11,"station_id":"KMT","is_transit":false,"time":1},{"i_long":106.861737,"is_transit":false,"transit":false,"time":2,"distance":1829,"station_name":"Pondok Jati","i_lat":-6.209188,"station_id":"POK","line":11},{"is_transit":true,"line":1,"i_long":106.86807400000001,"station_name":"Jatinegara","i_lat":-6.215091,"transit":true,"distance":1236,"station_id":"JNG","time":9},{"i_lat":-6.2135,"transit":false,"is_transit":false,"i_long":106.899548,"time":3,"line":1,"station_id":"KLD","distance":3395,"station_name":"Klender"},{"i_long":106.922662,"is_transit":false,"transit":false,"line":1,"station_name":"Buaran","time":2,"i_lat":-6.215568,"station_id":"BUA","distance":3100}]]}