{"data":[[{"station_name":"Pesing","time":0,"line":5,"i_lat":-6.161433,"transit":false,"station_id":"PSG","is_transit":false,"distance":0,"i_long":106.771379},{"is_transit":false,"time":2,"distance":2036,"i_long":106.788277,"station_name":"Grogol","station_id":"GGL","line":5,"transit":false,"i_lat":-6.162021},{"station_name":"Duri","is_transit":true,"time":3,"i_long":106.800832,"transit":true,"distance":1700,"i_lat":-6.155215,"station_id":"DU","line":1},{"station_id":"THB","time":8,"distance":3632,"i_lat":-6.185545,"is_transit":true,"station_name":"Tanah Abang","transit":false,"i_long":106.811091,"line":1},{"transit":false,"distance":2029,"is_transit":false,"time":5,"station_id":"KAT","i_lat":-6.20132,"line":1,"station_name":"Karet","i_long":106.816351},{"transit":false,"station_name":"Sudirman Baru","is_transit":false,"i_long":106.819881,"i_lat":-6.201433,"station_id":"SUDB","line":1,"distance":471,"time":1},{"i_long":106.822649,"is_transit":false,"transit":false,"station_name":"Sudirman","distance":280,"station_id":"SUD","line":1,"i_lat":-6.202263,"time":1},{"line":0,"i_long":106.84912,"transit":true,"station_name":"Manggarai","time":4,"distance":3186,"i_lat":-6.209883,"station_id":"MRI","is_transit":true},{"is_transit":false,"transit":false,"distance":2610,"time":4,"i_long":106.857948,"station_id":"TEB","station_name":"Tebet","i_lat":-6.226659,"line":2},{"time":2,"i_long":106.856607,"distance":1230,"station_name":"Cawang","i_lat":-6.242512,"line":0,"transit":false,"station_id":"CW","is_transit":false},{"station_id":"DRN","time":3,"station_name":"Duren Kalibata","distance":1546,"is_transit":false,"i_long":106.85449,"line":0,"transit":false,"i_lat":-6.255332},{"i_lat":-6.263214,"i_long":106.851577,"transit":false,"station_id":"PSMB","station_name":"Pasar Minggu Baru","line":2,"is_transit":false,"distance":824,"time":2},{"time":2,"is_transit":false,"station_name":"Pasar Minggu","line":2,"transit":false,"i_long":106.843999,"distance":2380,"i_lat":-6.2842400000000005,"station_id":"PSM"},{"station_id":"TNT","is_transit":false,"time":4,"transit":false,"line":2,"station_name":"Tanjung Barat","i_lat":-6.3080680000000005,"distance":2820,"i_long":106.838896},{"i_lat":-6.330363,"station_id":"LNA","station_name":"Lenteng Agung","line":2,"time":3,"distance":2671,"i_long":106.832616,"is_transit":false,"transit":false},{"station_name":"Univ. Pancasila","is_transit":false,"distance":1029,"transit":false,"i_long":106.834175,"i_lat":-6.339291,"station_id":"UP","time":2,"line":2}],[{"transit":false,"time":0,"i_lat":-6.161433,"station_id":"PSG","station_name":"Pesing","distance":0,"i_long":106.771379,"line":5,"is_transit":false},{"station_name":"Grogol","i_lat":-6.162021,"i_long":106.788277,"station_id":"GGL","distance":2036,"transit":false,"is_transit":false,"time":2,"line":5},{"time":3,"line":1,"i_lat":-6.155215,"transit":true,"i_long":106.800832,"station_id":"DU","station_name":"Duri","is_transit":true,"distance":1700},{"distance":1230,"transit":false,"i_lat":-6.144674,"is_transit":false,"station_name":"Angke","line":0,"i_long":106.79867,"station_id":"AK","time":4},{"transit":false,"i_long":106.826365,"is_transit":true,"station_name":"Kampung Bandan","i_lat":-6.132549,"station_id":"KPB","time":9,"line":0,"distance":4102},{"time":3,"station_name":"Jakarta Kota","transit":true,"line":0,"distance":1364,"i_long":106.812439,"station_id":"JAKK","is_transit":true,"i_lat":-6.137569},{"time":4,"line":7,"is_transit":false,"transit":false,"station_id":"JAY","distance":1264,"i_lat":-6.141205,"i_long":106.820901,"station_name":"Jayakarta"},{"transit":false,"time":2,"is_transit":false,"i_lat":-6.149769,"station_id":"MGB","station_name":"Manggabesar","distance":1080,"i_long":106.82482,"line":2},{"i_long":106.827103,"time":2,"station_id":"SW","transit":false,"i_lat":-6.160725,"is_transit":false,"station_name":"Sawah Besar","distance":906,"line":2},{"station_id":"JUA","station_name":"Juanda","is_transit":false,"time":2,"distance":1149,"i_lat":-6.166716,"line":2,"transit":false,"i_long":106.828284},{"is_transit":false,"time":4,"i_lat":-6.186295,"transit":false,"distance":2015,"line":2,"station_name":"Gondangdia","i_long":106.832183,"station_id":"GDD"},{"i_lat":-6.198556,"time":3,"is_transit":false,"line":0,"station_id":"CKI","station_name":"Cikini","i_long":106.840169,"transit":false,"distance":1750},{"station_name":"Manggarai","i_long":106.84912,"station_id":"MRI","transit":true,"i_lat":-6.209883,"is_transit":true,"time":4,"distance":1590,"line":0},{"line":2,"i_long":106.857948,"distance":2610,"time":4,"is_transit":false,"transit":false,"i_lat":-6.226659,"station_id":"TEB","station_name":"Tebet"},{"station_name":"Cawang","transit":false,"line":0,"station_id":"CW","i_lat":-6.242512,"is_transit":false,"time":2,"distance":1230,"i_long":106.856607},{"i_long":106.85449,"transit":false,"is_transit":false,"distance":1546,"i_lat":-6.255332,"line":0,"station_id":"DRN","station_name":"Duren Kalibata","time":3},{"line":2,"i_long":106.851577,"station_id":"PSMB","time":2,"transit":false,"distance":824,"i_lat":-6.263214,"station_name":"Pasar Minggu Baru","is_transit":false},{"i_lat":-6.2842400000000005,"distance":2380,"i_long":106.843999,"line":2,"station_id":"PSM","is_transit":false,"station_name":"Pasar Minggu","transit":false,"time":2},{"is_transit":false,"time":4,"i_lat":-6.3080680000000005,"station_id":"TNT","distance":2820,"station_name":"Tanjung Barat","transit":false,"i_long":106.838896,"line":2},{"station_id":"LNA","distance":2671,"is_transit":false,"station_name":"Lenteng Agung","transit":false,"time":3,"line":2,"i_lat":-6.330363,"i_long":106.832616},{"i_lat":-6.339291,"i_long":106.834175,"line":2,"station_name":"Univ. Pancasila","station_id":"UP","distance":1029,"is_transit":false,"transit":false,"time":2}],[{"i_lat":-6.161433,"station_name":"Pesing","transit":false,"line":5,"station_id":"PSG","i_long":106.771379,"time":0,"distance":0,"is_transit":false},{"station_id":"GGL","station_name":"Grogol","distance":2036,"i_lat":-6.162021,"time":2,"transit":false,"i_long":106.788277,"line":5,"is_transit":false},{"time":3,"i_lat":-6.155215,"transit":true,"is_transit":true,"i_long":106.800832,"distance":1700,"line":1,"station_name":"Duri","station_id":"DU"},{"is_transit":false,"distance":1230,"i_lat":-6.144674,"station_id":"AK","transit":false,"i_long":106.79867,"station_name":"Angke","time":4,"line":0},{"station_id":"KPB","is_transit":true,"i_long":106.826365,"time":9,"transit":true,"i_lat":-6.132549,"station_name":"Kampung Bandan","line":0,"distance":4102},{"i_long":106.836569,"transit":false,"distance":1444,"i_lat":-6.14505,"is_transit":false,"station_id":"RJW","station_name":"Rajawali","time":3,"line":11},{"station_name":"Kemayoran","time":5,"line":11,"station_id":"KMO","distance":1901,"transit":false,"i_long":106.839204,"is_transit":false,"i_lat":-6.161728},{"transit":false,"station_name":"Pasar Senen","i_long":106.84368,"is_transit":false,"station_id":"PSE","i_lat":-6.174784,"distance":1436,"line":11,"time":4},{"transit":false,"station_name":"Gang Sentiong","line":11,"time":8,"distance":1567,"is_transit":false,"i_lat":-6.185975,"i_long":106.850107,"station_id":"GST"},{"is_transit":false,"distance":973,"transit":false,"line":11,"i_lat":-6.193792,"station_id":"KMT","station_name":"Kramat","time":1,"i_long":106.855437},{"time":2,"transit":false,"line":11,"station_name":"Pondok Jati","i_lat":-6.209188,"i_long":106.861737,"distance":1829,"is_transit":false,"station_id":"POK"},{"is_transit":true,"time":9,"transit":true,"station_id":"JNG","distance":1236,"i_lat":-6.215091,"i_long":106.86807400000001,"line":0,"station_name":"Jatinegara"},{"is_transit":false,"time":2,"distance":1377,"transit":false,"station_id":"MTR","i_long":106.858896,"line":1,"i_lat":-6.212485,"station_name":"Matraman"},{"station_id":"MRI","time":2,"line":0,"is_transit":true,"i_lat":-6.209883,"station_name":"Manggarai","transit":true,"distance":1275,"i_long":106.84912},{"is_transit":false,"station_name":"Tebet","distance":2610,"station_id":"TEB","transit":false,"i_lat":-6.226659,"time":4,"i_long":106.857948,"line":2},{"station_name":"Cawang","distance":1230,"transit":false,"station_id":"CW","is_transit":false,"time":2,"i_lat":-6.242512,"i_long":106.856607,"line":0},{"transit":false,"i_lat":-6.255332,"station_name":"Duren Kalibata","is_transit":false,"i_long":106.85449,"station_id":"DRN","distance":1546,"time":3,"line":0},{"station_id":"PSMB","station_name":"Pasar Minggu Baru","time":2,"distance":824,"i_long":106.851577,"line":2,"transit":false,"i_lat":-6.263214,"is_transit":false},{"i_lat":-6.2842400000000005,"station_id":"PSM","distance":2380,"transit":false,"i_long":106.843999,"station_name":"Pasar Minggu","is_transit":false,"line":2,"time":2},{"station_name":"Tanjung Barat","transit":false,"station_id":"TNT","i_lat":-6.3080680000000005,"i_long":106.838896,"line":2,"is_transit":false,"time":4,"distance":2820},{"distance":2671,"station_name":"Lenteng Agung","is_transit":false,"transit":false,"i_lat":-6.330363,"i_long":106.832616,"station_id":"LNA","time":3,"line":2},{"time":2,"is_transit":false,"distance":1029,"i_long":106.834175,"line":2,"station_name":"Univ. Pancasila","transit":false,"i_lat":-6.339291,"station_id":"UP"}]]}