{"data":[[{"i_lat":-6.161433,"time":0,"station_id":"PSG","is_transit":false,"i_long":106.771379,"distance":0,"line":5,"station_name":"Pesing","transit":false},{"i_lat":-6.162021,"distance":2036,"station_name":"Grogol","i_long":106.788277,"is_transit":false,"transit":false,"time":2,"line":5,"station_id":"GGL"},{"station_name":"Duri","is_transit":true,"transit":true,"i_long":106.800832,"time":3,"distance":1700,"station_id":"DU","i_lat":-6.155215,"line":1},{"is_transit":true,"time":8,"transit":false,"i_long":106.811091,"station_id":"THB","i_lat":-6.185545,"line":1,"station_name":"Tanah Abang","distance":3632},{"station_id":"KAT","station_name":"Karet","i_long":106.816351,"i_lat":-6.20132,"distance":2029,"line":1,"transit":false,"is_transit":false,"time":5},{"station_name":"Sudirman Baru","time":1,"line":1,"i_lat":-6.201433,"i_long":106.819881,"is_transit":false,"station_id":"SUDB","distance":471,"transit":false},{"line":1,"i_lat":-6.202263,"i_long":106.822649,"station_id":"SUD","distance":280,"time":1,"station_name":"Sudirman","is_transit":false,"transit":false},{"station_id":"MRI","station_name":"Manggarai","is_transit":true,"time":4,"distance":3186,"i_lat":-6.209883,"i_long":106.84912,"line":0,"transit":true},{"time":4,"transit":false,"i_long":106.857948,"station_name":"Tebet","i_lat":-6.226659,"line":2,"is_transit":false,"distance":2610,"station_id":"TEB"},{"i_lat":-6.242512,"i_long":106.856607,"station_id":"CW","is_transit":false,"transit":false,"station_name":"Cawang","distance":1230,"line":0,"time":2},{"i_long":106.85449,"station_id":"DRN","i_lat":-6.255332,"is_transit":false,"transit":false,"line":0,"time":3,"station_name":"Duren Kalibata","distance":1546},{"station_name":"Pasar Minggu Baru","transit":false,"is_transit":false,"station_id":"PSMB","distance":824,"i_lat":-6.263214,"time":2,"line":2,"i_long":106.851577},{"line":2,"distance":2380,"i_lat":-6.2842400000000005,"i_long":106.843999,"station_id":"PSM","station_name":"Pasar Minggu","time":2,"transit":false,"is_transit":false},{"line":2,"transit":false,"station_id":"TNT","station_name":"Tanjung Barat","is_transit":false,"i_lat":-6.3080680000000005,"i_long":106.838896,"time":4,"distance":2820},{"transit":false,"is_transit":false,"time":3,"station_id":"LNA","i_lat":-6.330363,"station_name":"Lenteng Agung","i_long":106.832616,"line":2,"distance":2671},{"station_id":"UP","station_name":"Univ. Pancasila","is_transit":false,"i_long":106.834175,"line":2,"time":2,"distance":1029,"transit":false,"i_lat":-6.339291},{"distance":2264,"is_transit":false,"station_name":"Univ. Indonesia","station_id":"UI","line":2,"transit":false,"i_lat":-6.360749,"i_long":106.831474,"time":3},{"transit":false,"i_long":106.831114,"station_name":"Pondok Cina","line":2,"time":2,"distance":1109,"i_lat":-6.369073,"station_id":"POC","is_transit":false},{"station_name":"Depokbaru","station_id":"DPB","time":4,"i_lat":-6.391065,"line":0,"is_transit":false,"distance":2727,"transit":false,"i_long":106.819451},{"line":0,"i_lat":-6.405256,"station_name":"Depok","station_id":"DP","is_transit":false,"i_long":106.816926,"distance":1584,"time":3,"transit":false},{"distance":5084,"is_transit":true,"station_id":"CTA","transit":false,"time":6,"i_lat":-6.448811,"i_long":106.800298,"station_name":"Citayam","line":1},{"station_id":"CBN","distance":6740,"transit":false,"station_name":"Cibinong","i_lat":-6.46424,"i_long":106.851978,"time":10,"is_transit":false,"line":0}],[{"i_long":106.771379,"is_transit":false,"station_name":"Pesing","i_lat":-6.161433,"station_id":"PSG","line":5,"time":0,"distance":0,"transit":false},{"time":2,"transit":false,"i_long":106.788277,"i_lat":-6.162021,"distance":2036,"station_name":"Grogol","line":5,"station_id":"GGL","is_transit":false},{"line":1,"station_name":"Duri","time":3,"distance":1700,"transit":true,"i_lat":-6.155215,"is_transit":true,"station_id":"DU","i_long":106.800832},{"station_name":"Angke","time":4,"i_long":106.79867,"line":0,"is_transit":false,"distance":1230,"station_id":"AK","i_lat":-6.144674,"transit":false},{"transit":false,"station_id":"KPB","is_transit":true,"time":9,"line":0,"distance":4102,"i_long":106.826365,"i_lat":-6.132549,"station_name":"Kampung Bandan"},{"station_id":"JAKK","station_name":"Jakarta Kota","time":3,"distance":1364,"i_lat":-6.137569,"i_long":106.812439,"transit":true,"is_transit":true,"line":0},{"transit":false,"time":4,"is_transit":false,"i_long":106.820901,"distance":1264,"i_lat":-6.141205,"line":7,"station_id":"JAY","station_name":"Jayakarta"},{"distance":1080,"line":2,"transit":false,"i_lat":-6.149769,"is_transit":false,"time":2,"station_id":"MGB","i_long":106.82482,"station_name":"Manggabesar"},{"transit":false,"time":2,"is_transit":false,"station_id":"SW","station_name":"Sawah Besar","i_long":106.827103,"i_lat":-6.160725,"line":2,"distance":906},{"i_lat":-6.166716,"line":2,"i_long":106.828284,"station_id":"JUA","is_transit":false,"distance":1149,"time":2,"station_name":"Juanda","transit":false},{"transit":false,"i_long":106.832183,"distance":2015,"is_transit":false,"station_id":"GDD","station_name":"Gondangdia","i_lat":-6.186295,"time":4,"line":2},{"i_long":106.840169,"station_id":"CKI","distance":1750,"is_transit":false,"station_name":"Cikini","time":3,"line":0,"transit":false,"i_lat":-6.198556},{"i_long":106.84912,"line":0,"transit":true,"station_id":"MRI","i_lat":-6.209883,"time":4,"is_transit":true,"station_name":"Manggarai","distance":1590},{"transit":false,"time":4,"i_long":106.857948,"is_transit":false,"station_name":"Tebet","i_lat":-6.226659,"station_id":"TEB","line":2,"distance":2610},{"station_id":"CW","i_long":106.856607,"line":0,"time":2,"i_lat":-6.242512,"is_transit":false,"distance":1230,"transit":false,"station_name":"Cawang"},{"distance":1546,"station_id":"DRN","time":3,"transit":false,"line":0,"station_name":"Duren Kalibata","i_long":106.85449,"i_lat":-6.255332,"is_transit":false},{"is_transit":false,"station_id":"PSMB","transit":false,"i_long":106.851577,"time":2,"station_name":"Pasar Minggu Baru","distance":824,"i_lat":-6.263214,"line":2},{"i_long":106.843999,"distance":2380,"is_transit":false,"station_name":"Pasar Minggu","i_lat":-6.2842400000000005,"time":2,"transit":false,"line":2,"station_id":"PSM"},{"station_name":"Tanjung Barat","distance":2820,"i_lat":-6.3080680000000005,"transit":false,"i_long":106.838896,"line":2,"is_transit":false,"station_id":"TNT","time":4},{"station_id":"LNA","i_long":106.832616,"i_lat":-6.330363,"transit":false,"is_transit":false,"line":2,"time":3,"distance":2671,"station_name":"Lenteng Agung"},{"station_name":"Univ. Pancasila","distance":1029,"transit":false,"line":2,"i_lat":-6.339291,"station_id":"UP","is_transit":false,"time":2,"i_long":106.834175},{"i_long":106.831474,"transit":false,"is_transit":false,"distance":2264,"time":3,"station_id":"UI","station_name":"Univ. Indonesia","line":2,"i_lat":-6.360749},{"time":2,"station_id":"POC","station_name":"Pondok Cina","distance":1109,"transit":false,"i_lat":-6.369073,"line":2,"i_long":106.831114,"is_transit":false},{"station_name":"Depokbaru","i_long":106.819451,"station_id":"DPB","transit":false,"line":0,"i_lat":-6.391065,"distance":2727,"time":4,"is_transit":false},{"time":3,"is_transit":false,"line":0,"i_lat":-6.405256,"station_name":"Depok","distance":1584,"station_id":"DP","transit":false,"i_long":106.816926},{"i_long":106.800298,"station_id":"CTA","time":6,"station_name":"Citayam","transit":false,"is_transit":true,"i_lat":-6.448811,"distance":5084,"line":1},{"station_id":"CBN","line":0,"station_name":"Cibinong","distance":6740,"i_long":106.851978,"time":10,"transit":false,"is_transit":false,"i_lat":-6.46424}],[{"i_long":106.771379,"station_name":"Pesing","time":0,"station_id":"PSG","is_transit":false,"distance":0,"line":5,"i_lat":-6.161433,"transit":false},{"transit":false,"i_long":106.788277,"line":5,"station_id":"GGL","distance":2036,"time":2,"i_lat":-6.162021,"is_transit":false,"station_name":"Grogol"},{"i_long":106.800832,"is_transit":true,"transit":true,"i_lat":-6.155215,"time":3,"line":1,"station_name":"Duri","distance":1700,"station_id":"DU"},{"is_transit":false,"time":4,"transit":false,"i_long":106.79867,"i_lat":-6.144674,"station_name":"Angke","line":0,"distance":1230,"station_id":"AK"},{"is_transit":true,"line":0,"station_id":"KPB","time":9,"i_lat":-6.132549,"i_long":106.826365,"distance":4102,"station_name":"Kampung Bandan","transit":true},{"i_lat":-6.14505,"station_id":"RJW","is_transit":false,"distance":1444,"station_name":"Rajawali","time":3,"transit":false,"i_long":106.836569,"line":11},{"station_id":"KMO","i_lat":-6.161728,"distance":1901,"transit":false,"i_long":106.839204,"time":5,"station_name":"Kemayoran","is_transit":false,"line":11},{"line":11,"station_name":"Pasar Senen","i_lat":-6.174784,"i_long":106.84368,"station_id":"PSE","is_transit":false,"time":4,"distance":1436,"transit":false},{"transit":false,"distance":1567,"line":11,"is_transit":false,"station_id":"GST","station_name":"Gang Sentiong","time":8,"i_lat":-6.185975,"i_long":106.850107},{"distance":973,"transit":false,"is_transit":false,"station_id":"KMT","i_long":106.855437,"time":1,"i_lat":-6.193792,"line":11,"station_name":"Kramat"},{"distance":1829,"i_lat":-6.209188,"transit":false,"is_transit":false,"i_long":106.861737,"line":11,"station_name":"Pondok Jati","station_id":"POK","time":2},{"distance":1236,"is_transit":true,"station_id":"JNG","station_name":"Jatinegara","time":9,"i_lat":-6.215091,"i_long":106.86807400000001,"transit":true,"line":0},{"i_lat":-6.212485,"station_id":"MTR","distance":1377,"i_long":106.858896,"time":2,"transit":false,"station_name":"Matraman","is_transit":false,"line":1},{"line":0,"station_name":"Manggarai","time":2,"distance":1275,"i_lat":-6.209883,"transit":true,"station_id":"MRI","is_transit":true,"i_long":106.84912},{"transit":false,"station_name":"Tebet","station_id":"TEB","i_long":106.857948,"line":2,"is_transit":false,"time":4,"i_lat":-6.226659,"distance":2610},{"distance":1230,"time":2,"station_id":"CW","transit":false,"i_long":106.856607,"line":0,"is_transit":false,"i_lat":-6.242512,"station_name":"Cawang"},{"is_transit":false,"distance":1546,"station_name":"Duren Kalibata","i_long":106.85449,"line":0,"transit":false,"i_lat":-6.255332,"station_id":"DRN","time":3},{"station_name":"Pasar Minggu Baru","distance":824,"line":2,"i_lat":-6.263214,"i_long":106.851577,"time":2,"transit":false,"station_id":"PSMB","is_transit":false},{"station_id":"PSM","station_name":"Pasar Minggu","is_transit":false,"i_long":106.843999,"line":2,"distance":2380,"time":2,"transit":false,"i_lat":-6.2842400000000005},{"station_name":"Tanjung Barat","time":4,"is_transit":false,"distance":2820,"line":2,"i_long":106.838896,"station_id":"TNT","transit":false,"i_lat":-6.3080680000000005},{"line":2,"station_id":"LNA","transit":false,"i_lat":-6.330363,"i_long":106.832616,"distance":2671,"is_transit":false,"station_name":"Lenteng Agung","time":3},{"time":2,"distance":1029,"i_lat":-6.339291,"line":2,"station_id":"UP","i_long":106.834175,"transit":false,"station_name":"Univ. Pancasila","is_transit":false},{"i_long":106.831474,"i_lat":-6.360749,"station_name":"Univ. Indonesia","station_id":"UI","is_transit":false,"distance":2264,"transit":false,"time":3,"line":2},{"is_transit":false,"i_lat":-6.369073,"distance":1109,"transit":false,"time":2,"line":2,"station_name":"Pondok Cina","i_long":106.831114,"station_id":"POC"},{"station_id":"DPB","i_lat":-6.391065,"line":0,"station_name":"Depokbaru","is_transit":false,"time":4,"distance":2727,"transit":false,"i_long":106.819451},{"station_name":"Depok","is_transit":false,"transit":false,"i_long":106.816926,"station_id":"DP","i_lat":-6.405256,"distance":1584,"line":0,"time":3},{"is_transit":true,"i_lat":-6.448811,"i_long":106.800298,"distance":5084,"station_name":"Citayam","station_id":"CTA","time":6,"line":1,"transit":false},{"line":0,"transit":false,"station_name":"Cibinong","station_id":"CBN","is_transit":false,"distance":6740,"i_long":106.851978,"i_lat":-6.46424,"time":10}]]}