{"data":[[{"station_name":"Pesing","station_id":"PSG","time":0,"is_transit":false,"i_long":106.771379,"distance":0,"i_lat":-6.161433,"line":5,"transit":false},{"station_name":"Taman Kota","transit":false,"distance":1614,"i_long":106.756522,"time":2,"i_lat":-6.1587309999999995,"line":5,"station_id":"TKO","is_transit":false},{"is_transit":false,"distance":2334,"i_lat":-6.159876,"time":2,"i_long":106.737035,"station_name":"Bojongindah","station_id":"BOI","line":5,"transit":false},{"is_transit":false,"distance":1152,"time":4,"i_lat":-6.162758,"line":5,"transit":false,"i_long":106.723064,"station_name":"Rawa Buaya","station_id":"RW"},{"time":3,"is_transit":false,"distance":2504,"transit":false,"i_lat":-6.166068,"i_long":106.701612,"line":5,"station_id":"KDS","station_name":"Kalideres"},{"distance":2548,"is_transit":false,"time":3,"i_long":106.679458,"station_name":"Poris","i_lat":-6.169933,"transit":false,"station_id":"PI","line":5}]]}