{"data":[[{"station_name":"Pesing","station_id":"PSG","is_transit":false,"distance":0,"i_long":106.771379,"time":0,"transit":false,"line":5,"i_lat":-6.161433},{"line":5,"station_name":"Grogol","is_transit":false,"station_id":"GGL","i_lat":-6.162021,"i_long":106.788277,"distance":2036,"time":2,"transit":false},{"station_id":"DU","time":3,"is_transit":true,"i_lat":-6.155215,"i_long":106.800832,"line":1,"station_name":"Duri","distance":1700,"transit":true},{"transit":false,"time":8,"line":1,"station_name":"Tanah Abang","distance":3632,"i_long":106.811091,"i_lat":-6.185545,"is_transit":false,"station_id":"THB"},{"station_id":"KAT","i_lat":-6.20132,"time":5,"line":1,"is_transit":false,"distance":2029,"station_name":"Karet","transit":false,"i_long":106.816351},{"station_id":"SUDB","i_lat":-6.201433,"station_name":"Sudirman Baru","is_transit":false,"distance":471,"time":1,"transit":false,"line":1,"i_long":106.819881},{"time":1,"station_id":"SUD","i_lat":-6.202263,"is_transit":false,"transit":false,"station_name":"Sudirman","line":1,"distance":280,"i_long":106.822649},{"station_id":"MRI","is_transit":true,"distance":3186,"line":2,"i_long":106.84912,"station_name":"Manggarai","time":4,"transit":true,"i_lat":-6.209883},{"distance":2610,"is_transit":false,"transit":false,"time":4,"i_lat":-6.226659,"station_name":"Tebet","i_long":106.857948,"line":2,"station_id":"TEB"},{"line":2,"transit":false,"i_long":106.856607,"distance":1230,"i_lat":-6.242512,"time":2,"station_id":"CW","station_name":"Cawang","is_transit":false},{"station_id":"DRN","is_transit":false,"time":3,"station_name":"Duren Kalibata","i_lat":-6.255332,"transit":false,"distance":1546,"i_long":106.85449,"line":2},{"i_lat":-6.263214,"transit":false,"line":2,"is_transit":false,"station_name":"Pasar Minggu Baru","time":2,"station_id":"PSMB","i_long":106.851577,"distance":824},{"distance":2380,"is_transit":false,"transit":false,"i_long":106.843999,"time":2,"i_lat":-6.2842400000000005,"station_id":"PSM","line":2,"station_name":"Pasar Minggu"},{"line":2,"is_transit":false,"i_lat":-6.3080680000000005,"station_name":"Tanjung Barat","time":4,"station_id":"TNT","transit":false,"i_long":106.838896,"distance":2820},{"station_name":"Lenteng Agung","transit":false,"distance":2671,"i_lat":-6.330363,"station_id":"LNA","time":3,"line":2,"is_transit":false,"i_long":106.832616},{"transit":false,"station_name":"Univ. Pancasila","is_transit":false,"time":2,"i_lat":-6.339291,"station_id":"UP","distance":1029,"line":2,"i_long":106.834175},{"i_lat":-6.360749,"is_transit":false,"distance":2264,"line":2,"transit":false,"station_id":"UI","i_long":106.831474,"station_name":"Univ. Indonesia","time":3}],[{"transit":false,"station_id":"PSG","distance":0,"station_name":"Pesing","i_long":106.771379,"is_transit":false,"time":0,"i_lat":-6.161433,"line":5},{"station_name":"Grogol","distance":2036,"i_long":106.788277,"time":2,"i_lat":-6.162021,"is_transit":false,"line":5,"transit":false,"station_id":"GGL"},{"station_id":"DU","transit":true,"time":3,"is_transit":true,"line":1,"i_long":106.800832,"station_name":"Duri","distance":1700,"i_lat":-6.155215},{"i_lat":-6.144674,"i_long":106.79867,"distance":1230,"transit":false,"line":1,"is_transit":false,"station_name":"Angke","station_id":"AK","time":4},{"station_name":"Kampung Bandan","line":4,"time":9,"is_transit":true,"transit":true,"i_long":106.826365,"station_id":"KPB","distance":4102,"i_lat":-6.132549},{"is_transit":true,"distance":1364,"line":2,"station_name":"Jakarta Kota","transit":true,"station_id":"JAKK","i_lat":-6.137569,"i_long":106.812439,"time":3},{"station_name":"Jayakarta","is_transit":false,"time":4,"station_id":"JAY","line":2,"distance":1264,"transit":false,"i_lat":-6.141205,"i_long":106.820901},{"distance":1080,"i_lat":-6.149769,"is_transit":false,"station_name":"Manggabesar","line":2,"time":2,"station_id":"MGB","transit":false,"i_long":106.82482},{"distance":906,"i_long":106.827103,"transit":false,"i_lat":-6.160725,"station_id":"SW","station_name":"Sawah Besar","time":2,"is_transit":false,"line":2},{"i_long":106.828284,"line":2,"station_id":"JUA","transit":false,"is_transit":false,"distance":1149,"time":2,"i_lat":-6.166716,"station_name":"Juanda"},{"line":2,"transit":false,"i_lat":-6.186295,"station_name":"Gondangdia","is_transit":false,"time":4,"distance":2015,"station_id":"GDD","i_long":106.832183},{"i_long":106.840169,"line":2,"is_transit":false,"station_name":"Cikini","time":3,"station_id":"CKI","transit":false,"distance":1750,"i_lat":-6.198556},{"is_transit":false,"time":4,"station_name":"Manggarai","transit":false,"line":2,"i_lat":-6.209883,"i_long":106.84912,"station_id":"MRI","distance":1590},{"time":4,"i_long":106.857948,"i_lat":-6.226659,"station_id":"TEB","is_transit":false,"station_name":"Tebet","line":2,"transit":false,"distance":2610},{"i_long":106.856607,"time":2,"station_name":"Cawang","distance":1230,"i_lat":-6.242512,"transit":false,"line":2,"station_id":"CW","is_transit":false},{"is_transit":false,"i_long":106.85449,"transit":false,"distance":1546,"station_name":"Duren Kalibata","line":2,"i_lat":-6.255332,"time":3,"station_id":"DRN"},{"station_name":"Pasar Minggu Baru","i_lat":-6.263214,"time":2,"transit":false,"is_transit":false,"station_id":"PSMB","line":2,"distance":824,"i_long":106.851577},{"station_id":"PSM","station_name":"Pasar Minggu","time":2,"line":2,"i_long":106.843999,"distance":2380,"i_lat":-6.2842400000000005,"is_transit":false,"transit":false},{"line":2,"i_long":106.838896,"is_transit":false,"station_id":"TNT","station_name":"Tanjung Barat","distance":2820,"transit":false,"time":4,"i_lat":-6.3080680000000005},{"time":3,"is_transit":false,"station_id":"LNA","line":2,"distance":2671,"transit":false,"station_name":"Lenteng Agung","i_lat":-6.330363,"i_long":106.832616},{"time":2,"is_transit":false,"line":2,"i_long":106.834175,"distance":1029,"station_id":"UP","i_lat":-6.339291,"station_name":"Univ. Pancasila","transit":false},{"distance":2264,"transit":false,"i_long":106.831474,"line":2,"station_name":"Univ. Indonesia","is_transit":false,"time":3,"i_lat":-6.360749,"station_id":"UI"}],[{"is_transit":false,"transit":false,"distance":0,"station_id":"PSG","i_long":106.771379,"line":5,"station_name":"Pesing","time":0,"i_lat":-6.161433},{"station_name":"Grogol","i_lat":-6.162021,"is_transit":false,"distance":2036,"i_long":106.788277,"transit":false,"line":5,"time":2,"station_id":"GGL"},{"station_id":"DU","distance":1700,"time":3,"station_name":"Duri","i_lat":-6.155215,"line":1,"is_transit":true,"transit":true,"i_long":106.800832},{"time":4,"distance":1230,"i_long":106.79867,"transit":false,"station_name":"Angke","line":1,"i_lat":-6.144674,"station_id":"AK","is_transit":false},{"station_name":"Kampung Bandan","transit":true,"i_long":106.826365,"line":4,"station_id":"KPB","time":9,"distance":4102,"i_lat":-6.132549,"is_transit":true},{"i_long":106.836569,"station_id":"RJW","line":11,"is_transit":false,"distance":1444,"transit":false,"time":3,"station_name":"Rajawali","i_lat":-6.14505},{"i_long":106.839204,"station_name":"Kemayoran","time":5,"distance":1901,"i_lat":-6.161728,"station_id":"KMO","transit":false,"is_transit":false,"line":11},{"station_name":"Pasar Senen","i_lat":-6.174784,"i_long":106.84368,"transit":false,"time":4,"distance":1436,"station_id":"PSE","line":11,"is_transit":false},{"distance":1567,"station_name":"Gang Sentiong","is_transit":false,"i_long":106.850107,"station_id":"GST","transit":false,"i_lat":-6.185975,"time":8,"line":11},{"transit":false,"i_long":106.855437,"station_id":"KMT","distance":973,"is_transit":false,"time":1,"i_lat":-6.193792,"line":11,"station_name":"Kramat"},{"is_transit":false,"time":2,"line":11,"transit":false,"station_id":"POK","distance":1829,"i_lat":-6.209188,"station_name":"Pondok Jati","i_long":106.861737},{"i_long":106.86807400000001,"distance":1236,"line":1,"station_name":"Jatinegara","station_id":"JNG","transit":true,"is_transit":true,"time":9,"i_lat":-6.215091},{"time":2,"is_transit":false,"station_name":"Matraman","station_id":"MTR","i_long":106.858896,"line":1,"distance":1377,"i_lat":-6.212485,"transit":false},{"is_transit":true,"distance":1275,"i_lat":-6.209883,"i_long":106.84912,"line":2,"station_name":"Manggarai","station_id":"MRI","transit":true,"time":2},{"i_long":106.857948,"station_id":"TEB","is_transit":false,"line":2,"transit":false,"time":4,"distance":2610,"i_lat":-6.226659,"station_name":"Tebet"},{"distance":1230,"line":2,"i_long":106.856607,"station_id":"CW","is_transit":false,"time":2,"i_lat":-6.242512,"transit":false,"station_name":"Cawang"},{"i_long":106.85449,"time":3,"distance":1546,"transit":false,"station_id":"DRN","i_lat":-6.255332,"line":2,"station_name":"Duren Kalibata","is_transit":false},{"distance":824,"i_long":106.851577,"time":2,"transit":false,"station_name":"Pasar Minggu Baru","station_id":"PSMB","i_lat":-6.263214,"line":2,"is_transit":false},{"distance":2380,"is_transit":false,"i_long":106.843999,"station_id":"PSM","station_name":"Pasar Minggu","transit":false,"i_lat":-6.2842400000000005,"time":2,"line":2},{"time":4,"distance":2820,"i_long":106.838896,"i_lat":-6.3080680000000005,"station_id":"TNT","line":2,"transit":false,"is_transit":false,"station_name":"Tanjung Barat"},{"i_lat":-6.330363,"is_transit":false,"transit":false,"distance":2671,"i_long":106.832616,"line":2,"station_name":"Lenteng Agung","time":3,"station_id":"LNA"},{"is_transit":false,"time":2,"distance":1029,"station_name":"Univ. Pancasila","transit":false,"i_long":106.834175,"line":2,"station_id":"UP","i_lat":-6.339291},{"transit":false,"is_transit":false,"station_name":"Univ. Indonesia","i_lat":-6.360749,"i_long":106.831474,"line":2,"time":3,"distance":2264,"station_id":"UI"}]]}