{"data":[[{"i_lat":-6.161433,"transit":false,"is_transit":false,"station_id":"PSG","time":0,"i_long":106.771379,"station_name":"Pesing","line":5,"distance":0},{"is_transit":false,"transit":false,"station_id":"GGL","distance":2036,"time":2,"station_name":"Grogol","i_lat":-6.162021,"i_long":106.788277,"line":5},{"transit":true,"distance":1700,"is_transit":true,"station_name":"Duri","i_lat":-6.155215,"station_id":"DU","line":1,"time":3,"i_long":106.800832},{"i_lat":-6.185545,"line":1,"transit":true,"station_id":"THB","station_name":"Tanah Abang","i_long":106.811091,"distance":3632,"time":8,"is_transit":true},{"station_name":"Palmerah","transit":false,"station_id":"PLM","distance":3191,"i_long":106.79689,"time":6,"line":6,"is_transit":false,"i_lat":-6.207404},{"distance":3737,"time":7,"is_transit":false,"station_name":"Kebayoran","i_lat":-6.237242,"transit":false,"line":6,"station_id":"KBY","i_long":106.780334},{"i_lat":-6.276362,"station_name":"Pondokranji","i_long":106.74273,"time":8,"distance":6218,"station_id":"PDJ","line":6,"transit":false,"is_transit":false},{"i_lat":-6.288927,"station_id":"JMU","i_long":106.728916,"distance":2179,"transit":false,"is_transit":false,"line":6,"station_name":"Jurangmangu","time":3}],[{"transit":false,"line":5,"is_transit":false,"distance":0,"i_long":106.771379,"station_id":"PSG","station_name":"Pesing","time":0,"i_lat":-6.161433},{"i_long":106.788277,"transit":false,"line":5,"station_name":"Grogol","station_id":"GGL","time":2,"is_transit":false,"distance":2036,"i_lat":-6.162021},{"is_transit":true,"station_id":"DU","station_name":"Duri","distance":1700,"transit":true,"time":3,"i_lat":-6.155215,"i_long":106.800832,"line":1},{"station_id":"AK","is_transit":false,"i_lat":-6.144674,"station_name":"Angke","distance":1230,"transit":false,"time":4,"line":0,"i_long":106.79867},{"i_long":106.826365,"distance":4102,"transit":false,"station_id":"KPB","station_name":"Kampung Bandan","i_lat":-6.132549,"is_transit":true,"time":9,"line":0},{"i_long":106.812439,"i_lat":-6.137569,"time":3,"line":0,"station_id":"JAKK","station_name":"Jakarta Kota","transit":true,"distance":1364,"is_transit":true},{"i_long":106.820901,"distance":1264,"station_name":"Jayakarta","is_transit":false,"time":4,"i_lat":-6.141205,"station_id":"JAY","line":7,"transit":false},{"time":2,"i_lat":-6.149769,"i_long":106.82482,"line":2,"distance":1080,"is_transit":false,"station_id":"MGB","transit":false,"station_name":"Manggabesar"},{"transit":false,"distance":906,"station_id":"SW","line":2,"station_name":"Sawah Besar","i_lat":-6.160725,"i_long":106.827103,"time":2,"is_transit":false},{"station_id":"JUA","distance":1149,"is_transit":false,"station_name":"Juanda","transit":false,"i_long":106.828284,"line":2,"i_lat":-6.166716,"time":2},{"i_long":106.832183,"is_transit":false,"station_name":"Gondangdia","distance":2015,"station_id":"GDD","transit":false,"time":4,"line":2,"i_lat":-6.186295},{"time":3,"i_lat":-6.198556,"line":0,"i_long":106.840169,"is_transit":false,"station_id":"CKI","distance":1750,"station_name":"Cikini","transit":false},{"line":0,"station_id":"MRI","transit":true,"time":4,"station_name":"Manggarai","distance":1590,"is_transit":true,"i_lat":-6.209883,"i_long":106.84912},{"distance":3186,"station_name":"Sudirman","i_lat":-6.202263,"line":1,"i_long":106.822649,"time":4,"transit":false,"is_transit":false,"station_id":"SUD"},{"i_lat":-6.201433,"station_name":"Sudirman Baru","time":1,"i_long":106.819881,"is_transit":false,"station_id":"SUDB","line":1,"distance":280,"transit":false},{"time":1,"i_long":106.816351,"i_lat":-6.20132,"is_transit":false,"transit":false,"station_id":"KAT","distance":471,"station_name":"Karet","line":1},{"station_name":"Tanah Abang","i_long":106.811091,"is_transit":true,"distance":2029,"line":1,"time":5,"station_id":"THB","transit":true,"i_lat":-6.185545},{"is_transit":false,"transit":false,"line":6,"i_long":106.79689,"time":6,"station_id":"PLM","i_lat":-6.207404,"distance":3191,"station_name":"Palmerah"},{"i_long":106.780334,"is_transit":false,"station_name":"Kebayoran","transit":false,"distance":3737,"time":7,"i_lat":-6.237242,"station_id":"KBY","line":6},{"i_lat":-6.276362,"line":6,"time":8,"is_transit":false,"station_name":"Pondokranji","i_long":106.74273,"distance":6218,"transit":false,"station_id":"PDJ"},{"station_name":"Jurangmangu","distance":2179,"is_transit":false,"line":6,"time":3,"i_lat":-6.288927,"station_id":"JMU","transit":false,"i_long":106.728916}],[{"time":0,"line":5,"i_lat":-6.161433,"distance":0,"is_transit":false,"station_id":"PSG","station_name":"Pesing","transit":false,"i_long":106.771379},{"station_name":"Grogol","transit":false,"station_id":"GGL","i_lat":-6.162021,"time":2,"is_transit":false,"distance":2036,"i_long":106.788277,"line":5},{"station_name":"Duri","i_lat":-6.155215,"line":1,"i_long":106.800832,"time":3,"station_id":"DU","is_transit":true,"transit":true,"distance":1700},{"time":4,"i_long":106.79867,"line":0,"i_lat":-6.144674,"distance":1230,"station_name":"Angke","transit":false,"is_transit":false,"station_id":"AK"},{"is_transit":true,"line":0,"station_name":"Kampung Bandan","time":9,"i_long":106.826365,"distance":4102,"station_id":"KPB","transit":true,"i_lat":-6.132549},{"distance":1444,"station_name":"Rajawali","station_id":"RJW","i_long":106.836569,"transit":false,"time":3,"i_lat":-6.14505,"line":11,"is_transit":false},{"i_lat":-6.161728,"i_long":106.839204,"line":11,"station_name":"Kemayoran","transit":false,"time":5,"is_transit":false,"station_id":"KMO","distance":1901},{"distance":1436,"is_transit":false,"transit":false,"line":11,"station_name":"Pasar Senen","i_lat":-6.174784,"i_long":106.84368,"time":4,"station_id":"PSE"},{"i_long":106.850107,"transit":false,"i_lat":-6.185975,"time":8,"station_name":"Gang Sentiong","line":11,"is_transit":false,"distance":1567,"station_id":"GST"},{"time":1,"line":11,"i_long":106.855437,"is_transit":false,"i_lat":-6.193792,"distance":973,"station_id":"KMT","station_name":"Kramat","transit":false},{"transit":false,"time":2,"line":11,"is_transit":false,"station_id":"POK","station_name":"Pondok Jati","i_lat":-6.209188,"i_long":106.861737,"distance":1829},{"station_id":"JNG","station_name":"Jatinegara","transit":true,"i_lat":-6.215091,"distance":1236,"time":9,"i_long":106.86807400000001,"line":0,"is_transit":true},{"line":1,"time":2,"distance":1377,"is_transit":false,"i_long":106.858896,"station_name":"Matraman","station_id":"MTR","transit":false,"i_lat":-6.212485},{"i_lat":-6.209883,"time":2,"distance":1275,"station_id":"MRI","station_name":"Manggarai","i_long":106.84912,"line":0,"is_transit":true,"transit":false},{"transit":false,"station_id":"SUD","station_name":"Sudirman","time":4,"distance":3186,"line":1,"is_transit":false,"i_long":106.822649,"i_lat":-6.202263},{"distance":280,"i_lat":-6.201433,"station_id":"SUDB","time":1,"i_long":106.819881,"is_transit":false,"line":1,"station_name":"Sudirman Baru","transit":false},{"station_id":"KAT","is_transit":false,"transit":false,"time":1,"line":1,"i_long":106.816351,"distance":471,"station_name":"Karet","i_lat":-6.20132},{"time":5,"station_id":"THB","line":1,"i_long":106.811091,"is_transit":true,"i_lat":-6.185545,"distance":2029,"station_name":"Tanah Abang","transit":true},{"station_id":"PLM","i_long":106.79689,"distance":3191,"line":6,"transit":false,"station_name":"Palmerah","i_lat":-6.207404,"time":6,"is_transit":false},{"distance":3737,"time":7,"i_long":106.780334,"station_name":"Kebayoran","transit":false,"i_lat":-6.237242,"line":6,"is_transit":false,"station_id":"KBY"},{"distance":6218,"time":8,"i_long":106.74273,"line":6,"is_transit":false,"i_lat":-6.276362,"transit":false,"station_id":"PDJ","station_name":"Pondokranji"},{"station_id":"JMU","i_lat":-6.288927,"station_name":"Jurangmangu","time":3,"line":6,"transit":false,"i_long":106.728916,"is_transit":false,"distance":2179}]]}