{"data":[[{"i_lat":-6.161433,"line":5,"distance":0,"i_long":106.771379,"time":0,"is_transit":false,"station_name":"Pesing","station_id":"PSG","transit":false},{"station_id":"TKO","station_name":"Taman Kota","i_lat":-6.1587309999999995,"transit":false,"i_long":106.756522,"distance":1614,"time":2,"is_transit":false,"line":5},{"i_long":106.737035,"distance":2334,"line":5,"i_lat":-6.159876,"station_name":"Bojongindah","station_id":"BOI","is_transit":false,"time":2,"transit":false},{"i_lat":-6.162758,"transit":false,"time":4,"i_long":106.723064,"station_name":"Rawa Buaya","is_transit":false,"distance":1152,"station_id":"RW","line":5},{"station_id":"KDS","is_transit":false,"transit":false,"station_name":"Kalideres","i_long":106.701612,"time":3,"distance":2504,"i_lat":-6.166068,"line":5},{"station_id":"PI","distance":2548,"i_lat":-6.169933,"is_transit":false,"transit":false,"station_name":"Poris","line":5,"time":3,"i_long":106.679458},{"transit":false,"station_name":"Batuceper","station_id":"BPR","distance":1834,"line":5,"i_long":106.665036,"i_lat":-6.171811,"is_transit":false,"time":3},{"time":3,"distance":2028,"i_long":106.64657,"line":5,"transit":false,"is_transit":false,"i_lat":-6.17331,"station_id":"TTI","station_name":"Tanah Tinggi"},{"time":3,"distance":1547,"station_name":"Tangerang","transit":false,"is_transit":false,"line":5,"i_long":106.632761,"i_lat":-6.176583,"station_id":"TNG"}]]}