{"data":[[{"transit":false,"is_transit":false,"distance":0,"time":0,"station_name":"Pesing","line":5,"i_lat":-6.161433,"i_long":106.771379,"station_id":"PSG"},{"i_long":106.788277,"station_name":"Grogol","transit":false,"is_transit":false,"i_lat":-6.162021,"line":5,"distance":2036,"station_id":"GGL","time":2},{"i_lat":-6.155215,"transit":true,"i_long":106.800832,"line":1,"station_id":"DU","time":3,"distance":1700,"station_name":"Duri","is_transit":true},{"i_long":106.811091,"distance":3632,"station_id":"THB","station_name":"Tanah Abang","is_transit":true,"time":8,"transit":true,"i_lat":-6.185545,"line":1},{"station_name":"Palmerah","is_transit":false,"i_long":106.79689,"i_lat":-6.207404,"distance":3191,"line":6,"transit":false,"station_id":"PLM","time":6},{"line":6,"i_lat":-6.237242,"distance":3737,"station_name":"Kebayoran","is_transit":false,"station_id":"KBY","time":7,"i_long":106.780334,"transit":false},{"station_id":"PDJ","is_transit":false,"time":8,"distance":6218,"line":6,"station_name":"Pondokranji","i_long":106.74273,"i_lat":-6.276362,"transit":false},{"i_long":106.728916,"i_lat":-6.288927,"time":3,"is_transit":false,"station_name":"Jurangmangu","distance":2179,"line":6,"station_id":"JMU","transit":false},{"time":4,"i_long":106.712277,"station_name":"Sudimara","station_id":"SDM","transit":false,"i_lat":-6.296963,"is_transit":false,"distance":1994,"line":6},{"is_transit":false,"transit":false,"i_lat":-6.314823,"i_long":106.675475,"distance":4566,"time":6,"line":6,"station_id":"RU","station_name":"Rawa Buntu"},{"is_transit":false,"time":4,"i_long":106.66566,"line":6,"transit":false,"distance":2413,"i_lat":-6.319871,"station_name":"Serpong","station_id":"SRP"},{"station_name":"Cisauk","station_id":"CSK","is_transit":false,"time":4,"i_lat":-6.32484,"i_long":106.640411,"transit":false,"distance":1784,"line":3},{"is_transit":false,"time":4,"transit":false,"station_name":"Cicayur","i_long":106.617853,"station_id":"CC","i_lat":-6.329547,"distance":2519,"line":3},{"distance":5968,"i_long":106.568863,"is_transit":false,"station_name":"Parung Panjang","line":6,"transit":false,"station_id":"PRP","time":8,"i_lat":-6.3441410000000005},{"line":3,"station_name":"Cilejit","i_long":106.508482,"station_id":"CJT","distance":7025,"i_lat":-6.354349,"is_transit":false,"transit":false,"time":9},{"is_transit":false,"station_id":"DAR","line":0,"i_long":106.491338,"time":6,"distance":2675,"station_name":"Daru","transit":false,"i_lat":-6.338021},{"station_name":"Tenjo","i_long":106.460812,"transit":false,"station_id":"TEJ","i_lat":-6.327251,"distance":3902,"time":5,"line":6,"is_transit":false},{"is_transit":false,"station_id":"TGS","transit":false,"i_long":106.425991,"time":5,"distance":2974,"i_lat":-6.328533,"line":6,"station_name":"Tigaraksa"},{"line":3,"transit":false,"is_transit":false,"i_long":106.411216,"station_name":"Cikoya","distance":2651,"time":3,"i_lat":-6.33561,"station_id":"CKY"},{"i_lat":-6.332307,"transit":false,"station_id":"MJ","i_long":106.394373,"time":4,"line":6,"distance":1853,"station_name":"Maja","is_transit":false},{"station_id":"CTR","line":3,"transit":false,"i_lat":-6.334892,"station_name":"Citeras","distance":7293,"i_long":106.332092,"time":10,"is_transit":false}],[{"i_long":106.771379,"time":0,"station_name":"Pesing","station_id":"PSG","i_lat":-6.161433,"distance":0,"is_transit":false,"line":5,"transit":false},{"is_transit":false,"distance":2036,"time":2,"line":5,"station_id":"GGL","i_long":106.788277,"i_lat":-6.162021,"transit":false,"station_name":"Grogol"},{"i_lat":-6.155215,"distance":1700,"time":3,"i_long":106.800832,"station_name":"Duri","station_id":"DU","is_transit":true,"line":1,"transit":true},{"time":4,"distance":1230,"transit":false,"i_lat":-6.144674,"line":1,"is_transit":false,"i_long":106.79867,"station_name":"Angke","station_id":"AK"},{"time":9,"line":4,"transit":true,"station_name":"Kampung Bandan","station_id":"KPB","is_transit":true,"distance":4102,"i_lat":-6.132549,"i_long":106.826365},{"time":3,"distance":1364,"i_long":106.812439,"transit":true,"i_lat":-6.137569,"line":2,"station_id":"JAKK","is_transit":true,"station_name":"Jakarta Kota"},{"line":2,"station_id":"JAY","transit":false,"station_name":"Jayakarta","i_lat":-6.141205,"distance":1264,"time":4,"i_long":106.820901,"is_transit":false},{"i_lat":-6.149769,"is_transit":false,"time":2,"station_name":"Manggabesar","distance":1080,"transit":false,"i_long":106.82482,"station_id":"MGB","line":2},{"distance":906,"i_long":106.827103,"is_transit":false,"station_id":"SW","time":2,"transit":false,"i_lat":-6.160725,"line":2,"station_name":"Sawah Besar"},{"station_id":"JUA","is_transit":false,"station_name":"Juanda","distance":1149,"i_long":106.828284,"i_lat":-6.166716,"line":2,"time":2,"transit":false},{"station_id":"GDD","station_name":"Gondangdia","is_transit":false,"time":4,"distance":2015,"line":2,"i_lat":-6.186295,"transit":false,"i_long":106.832183},{"station_id":"CKI","distance":1750,"i_lat":-6.198556,"i_long":106.840169,"transit":false,"is_transit":false,"line":2,"station_name":"Cikini","time":3},{"distance":1590,"time":4,"i_lat":-6.209883,"station_id":"MRI","i_long":106.84912,"transit":true,"is_transit":true,"line":2,"station_name":"Manggarai"},{"station_id":"SUD","station_name":"Sudirman","i_lat":-6.202263,"i_long":106.822649,"transit":false,"time":4,"is_transit":false,"distance":3186,"line":1},{"distance":280,"transit":false,"i_long":106.819881,"station_name":"Sudirman Baru","station_id":"SUDB","is_transit":false,"time":1,"line":1,"i_lat":-6.201433},{"station_name":"Karet","time":1,"is_transit":false,"station_id":"KAT","i_lat":-6.20132,"distance":471,"line":1,"i_long":106.816351,"transit":false},{"is_transit":true,"i_long":106.811091,"time":5,"station_name":"Tanah Abang","distance":2029,"line":1,"station_id":"THB","transit":true,"i_lat":-6.185545},{"transit":false,"i_long":106.79689,"is_transit":false,"line":6,"i_lat":-6.207404,"distance":3191,"time":6,"station_id":"PLM","station_name":"Palmerah"},{"station_id":"KBY","i_long":106.780334,"station_name":"Kebayoran","distance":3737,"i_lat":-6.237242,"transit":false,"is_transit":false,"line":6,"time":7},{"is_transit":false,"station_name":"Pondokranji","distance":6218,"i_long":106.74273,"station_id":"PDJ","time":8,"transit":false,"line":6,"i_lat":-6.276362},{"line":6,"is_transit":false,"i_lat":-6.288927,"time":3,"transit":false,"distance":2179,"station_name":"Jurangmangu","station_id":"JMU","i_long":106.728916},{"station_id":"SDM","is_transit":false,"i_long":106.712277,"line":6,"i_lat":-6.296963,"transit":false,"distance":1994,"station_name":"Sudimara","time":4},{"is_transit":false,"transit":false,"distance":4566,"time":6,"i_lat":-6.314823,"i_long":106.675475,"station_name":"Rawa Buntu","station_id":"RU","line":6},{"i_lat":-6.319871,"station_name":"Serpong","i_long":106.66566,"line":6,"is_transit":false,"distance":2413,"transit":false,"time":4,"station_id":"SRP"},{"station_name":"Cisauk","distance":1784,"i_lat":-6.32484,"time":4,"i_long":106.640411,"station_id":"CSK","line":3,"is_transit":false,"transit":false},{"time":4,"line":3,"station_name":"Cicayur","station_id":"CC","is_transit":false,"distance":2519,"i_long":106.617853,"transit":false,"i_lat":-6.329547},{"station_id":"PRP","station_name":"Parung Panjang","time":8,"i_lat":-6.3441410000000005,"i_long":106.568863,"line":6,"distance":5968,"is_transit":false,"transit":false},{"station_id":"CJT","transit":false,"is_transit":false,"i_long":106.508482,"line":3,"i_lat":-6.354349,"time":9,"distance":7025,"station_name":"Cilejit"},{"distance":2675,"station_name":"Daru","station_id":"DAR","i_long":106.491338,"transit":false,"time":6,"i_lat":-6.338021,"is_transit":false,"line":0},{"transit":false,"station_name":"Tenjo","station_id":"TEJ","is_transit":false,"distance":3902,"i_lat":-6.327251,"i_long":106.460812,"line":6,"time":5},{"i_long":106.425991,"station_id":"TGS","distance":2974,"line":6,"is_transit":false,"transit":false,"station_name":"Tigaraksa","time":5,"i_lat":-6.328533},{"station_name":"Cikoya","time":3,"station_id":"CKY","transit":false,"is_transit":false,"i_lat":-6.33561,"i_long":106.411216,"distance":2651,"line":3},{"transit":false,"station_id":"MJ","time":4,"line":6,"distance":1853,"station_name":"Maja","i_lat":-6.332307,"is_transit":false,"i_long":106.394373},{"distance":7293,"station_name":"Citeras","line":3,"i_long":106.332092,"is_transit":false,"i_lat":-6.334892,"station_id":"CTR","transit":false,"time":10}],[{"distance":0,"i_long":106.771379,"i_lat":-6.161433,"line":5,"station_id":"PSG","is_transit":false,"transit":false,"station_name":"Pesing","time":0},{"is_transit":false,"line":5,"time":2,"transit":false,"distance":2036,"station_name":"Grogol","station_id":"GGL","i_lat":-6.162021,"i_long":106.788277},{"is_transit":true,"station_id":"DU","station_name":"Duri","time":3,"transit":true,"distance":1700,"line":1,"i_lat":-6.155215,"i_long":106.800832},{"is_transit":false,"distance":1230,"i_lat":-6.144674,"station_name":"Angke","i_long":106.79867,"station_id":"AK","line":1,"transit":false,"time":4},{"line":4,"time":9,"i_long":106.826365,"station_id":"KPB","station_name":"Kampung Bandan","i_lat":-6.132549,"transit":true,"is_transit":true,"distance":4102},{"station_id":"RJW","i_lat":-6.14505,"line":11,"is_transit":false,"time":3,"transit":false,"station_name":"Rajawali","i_long":106.836569,"distance":1444},{"time":5,"line":11,"i_lat":-6.161728,"distance":1901,"transit":false,"station_name":"Kemayoran","station_id":"KMO","i_long":106.839204,"is_transit":false},{"station_id":"PSE","time":4,"i_lat":-6.174784,"is_transit":false,"transit":false,"station_name":"Pasar Senen","i_long":106.84368,"line":11,"distance":1436},{"i_long":106.850107,"time":8,"is_transit":false,"station_id":"GST","station_name":"Gang Sentiong","line":11,"distance":1567,"transit":false,"i_lat":-6.185975},{"distance":973,"i_long":106.855437,"station_id":"KMT","station_name":"Kramat","transit":false,"time":1,"i_lat":-6.193792,"line":11,"is_transit":false},{"station_id":"POK","line":11,"distance":1829,"i_lat":-6.209188,"i_long":106.861737,"is_transit":false,"time":2,"transit":false,"station_name":"Pondok Jati"},{"i_lat":-6.215091,"line":1,"is_transit":true,"transit":true,"time":9,"station_name":"Jatinegara","station_id":"JNG","distance":1236,"i_long":106.86807400000001},{"station_id":"MTR","time":2,"i_lat":-6.212485,"i_long":106.858896,"distance":1377,"transit":false,"line":1,"is_transit":false,"station_name":"Matraman"},{"transit":false,"is_transit":false,"i_lat":-6.209883,"station_name":"Manggarai","time":2,"i_long":106.84912,"distance":1275,"line":2,"station_id":"MRI"},{"time":4,"distance":3186,"line":1,"i_lat":-6.202263,"is_transit":false,"i_long":106.822649,"transit":false,"station_name":"Sudirman","station_id":"SUD"},{"station_name":"Sudirman Baru","i_lat":-6.201433,"distance":280,"station_id":"SUDB","time":1,"i_long":106.819881,"transit":false,"line":1,"is_transit":false},{"line":1,"time":1,"distance":471,"station_id":"KAT","i_lat":-6.20132,"station_name":"Karet","is_transit":false,"transit":false,"i_long":106.816351},{"station_name":"Tanah Abang","distance":2029,"station_id":"THB","is_transit":true,"line":1,"i_long":106.811091,"time":5,"i_lat":-6.185545,"transit":true},{"distance":3191,"is_transit":false,"line":6,"i_lat":-6.207404,"time":6,"station_id":"PLM","i_long":106.79689,"station_name":"Palmerah","transit":false},{"station_id":"KBY","time":7,"line":6,"transit":false,"distance":3737,"station_name":"Kebayoran","i_lat":-6.237242,"is_transit":false,"i_long":106.780334},{"time":8,"line":6,"station_id":"PDJ","transit":false,"station_name":"Pondokranji","is_transit":false,"distance":6218,"i_long":106.74273,"i_lat":-6.276362},{"station_id":"JMU","time":3,"distance":2179,"i_long":106.728916,"line":6,"transit":false,"is_transit":false,"i_lat":-6.288927,"station_name":"Jurangmangu"},{"station_id":"SDM","time":4,"transit":false,"i_long":106.712277,"is_transit":false,"distance":1994,"line":6,"station_name":"Sudimara","i_lat":-6.296963},{"station_name":"Rawa Buntu","i_lat":-6.314823,"line":6,"station_id":"RU","transit":false,"is_transit":false,"distance":4566,"i_long":106.675475,"time":6},{"i_lat":-6.319871,"i_long":106.66566,"station_name":"Serpong","time":4,"is_transit":false,"distance":2413,"transit":false,"line":6,"station_id":"SRP"},{"is_transit":false,"distance":1784,"i_long":106.640411,"i_lat":-6.32484,"transit":false,"station_id":"CSK","line":3,"station_name":"Cisauk","time":4},{"distance":2519,"i_lat":-6.329547,"i_long":106.617853,"transit":false,"station_name":"Cicayur","time":4,"line":3,"is_transit":false,"station_id":"CC"},{"is_transit":false,"i_long":106.568863,"line":6,"time":8,"station_id":"PRP","station_name":"Parung Panjang","transit":false,"distance":5968,"i_lat":-6.3441410000000005},{"transit":false,"station_name":"Cilejit","station_id":"CJT","i_lat":-6.354349,"is_transit":false,"time":9,"line":3,"distance":7025,"i_long":106.508482},{"line":0,"station_id":"DAR","transit":false,"station_name":"Daru","time":6,"is_transit":false,"i_lat":-6.338021,"distance":2675,"i_long":106.491338},{"distance":3902,"i_long":106.460812,"transit":false,"station_name":"Tenjo","is_transit":false,"station_id":"TEJ","line":6,"time":5,"i_lat":-6.327251},{"is_transit":false,"station_id":"TGS","i_lat":-6.328533,"distance":2974,"i_long":106.425991,"line":6,"time":5,"transit":false,"station_name":"Tigaraksa"},{"is_transit":false,"distance":2651,"time":3,"station_name":"Cikoya","transit":false,"i_lat":-6.33561,"station_id":"CKY","i_long":106.411216,"line":3},{"i_long":106.394373,"distance":1853,"line":6,"transit":false,"i_lat":-6.332307,"station_name":"Maja","station_id":"MJ","is_transit":false,"time":4},{"station_id":"CTR","distance":7293,"line":3,"i_lat":-6.334892,"transit":false,"is_transit":false,"station_name":"Citeras","i_long":106.332092,"time":10}]]}