{"data":[[{"station_name":"Pesing","station_id":"PSG","transit":false,"i_lat":-6.161433,"distance":0,"time":0,"is_transit":false,"line":5,"i_long":106.771379},{"transit":false,"i_long":106.788277,"distance":2036,"i_lat":-6.162021,"line":5,"time":2,"station_id":"GGL","is_transit":false,"station_name":"Grogol"},{"transit":true,"time":3,"line":1,"station_id":"DU","is_transit":true,"station_name":"Duri","distance":1700,"i_lat":-6.155215,"i_long":106.800832},{"transit":true,"time":8,"station_id":"THB","i_long":106.811091,"i_lat":-6.185545,"distance":3632,"is_transit":true,"station_name":"Tanah Abang","line":1},{"transit":false,"line":6,"station_name":"Palmerah","time":6,"distance":3191,"i_lat":-6.207404,"i_long":106.79689,"is_transit":false,"station_id":"PLM"},{"time":7,"i_lat":-6.237242,"is_transit":false,"distance":3737,"station_id":"KBY","station_name":"Kebayoran","transit":false,"i_long":106.780334,"line":6},{"distance":6218,"station_id":"PDJ","i_lat":-6.276362,"line":6,"time":8,"transit":false,"is_transit":false,"station_name":"Pondokranji","i_long":106.74273},{"station_id":"JMU","station_name":"Jurangmangu","line":6,"transit":false,"is_transit":false,"time":3,"distance":2179,"i_lat":-6.288927,"i_long":106.728916},{"i_long":106.712277,"is_transit":false,"station_name":"Sudimara","distance":1994,"i_lat":-6.296963,"line":6,"transit":false,"time":4,"station_id":"SDM"},{"station_name":"Rawa Buntu","distance":4566,"is_transit":false,"station_id":"RU","i_lat":-6.314823,"transit":false,"time":6,"i_long":106.675475,"line":6},{"i_long":106.66566,"station_name":"Serpong","line":6,"is_transit":false,"transit":false,"i_lat":-6.319871,"time":4,"station_id":"SRP","distance":2413},{"transit":false,"line":0,"is_transit":false,"distance":1784,"station_id":"CSK","time":4,"i_lat":-6.32484,"station_name":"Cisauk","i_long":106.640411},{"i_long":106.617853,"transit":false,"time":4,"station_id":"CC","i_lat":-6.329547,"is_transit":false,"distance":2519,"station_name":"Cicayur","line":0},{"i_lat":-6.3441410000000005,"time":8,"line":6,"is_transit":false,"station_id":"PRP","distance":5968,"station_name":"Parung Panjang","transit":false,"i_long":106.568863}],[{"station_name":"Pesing","i_lat":-6.161433,"transit":false,"station_id":"PSG","i_long":106.771379,"line":5,"is_transit":false,"distance":0,"time":0},{"distance":2036,"is_transit":false,"transit":false,"station_id":"GGL","i_long":106.788277,"i_lat":-6.162021,"station_name":"Grogol","line":5,"time":2},{"distance":1700,"line":1,"station_id":"DU","is_transit":true,"transit":true,"station_name":"Duri","time":3,"i_lat":-6.155215,"i_long":106.800832},{"i_lat":-6.144674,"line":0,"time":4,"station_id":"AK","is_transit":false,"i_long":106.79867,"distance":1230,"transit":false,"station_name":"Angke"},{"i_long":106.826365,"is_transit":true,"line":0,"station_id":"KPB","i_lat":-6.132549,"distance":4102,"time":9,"station_name":"Kampung Bandan","transit":false},{"i_long":106.812439,"transit":true,"station_id":"JAKK","time":3,"i_lat":-6.137569,"line":0,"station_name":"Jakarta Kota","distance":1364,"is_transit":true},{"i_lat":-6.141205,"distance":1264,"is_transit":false,"station_name":"Jayakarta","transit":false,"station_id":"JAY","time":4,"i_long":106.820901,"line":7},{"station_name":"Manggabesar","transit":false,"time":2,"i_long":106.82482,"i_lat":-6.149769,"station_id":"MGB","line":2,"distance":1080,"is_transit":false},{"station_id":"SW","line":2,"time":2,"distance":906,"i_long":106.827103,"station_name":"Sawah Besar","is_transit":false,"transit":false,"i_lat":-6.160725},{"time":2,"is_transit":false,"transit":false,"line":2,"station_id":"JUA","i_lat":-6.166716,"i_long":106.828284,"station_name":"Juanda","distance":1149},{"station_name":"Gondangdia","time":4,"i_lat":-6.186295,"is_transit":false,"i_long":106.832183,"distance":2015,"station_id":"GDD","transit":false,"line":2},{"station_name":"Cikini","i_lat":-6.198556,"station_id":"CKI","time":3,"i_long":106.840169,"is_transit":false,"line":0,"transit":false,"distance":1750},{"line":0,"transit":true,"station_name":"Manggarai","i_long":106.84912,"time":4,"is_transit":true,"station_id":"MRI","i_lat":-6.209883,"distance":1590},{"is_transit":false,"station_name":"Sudirman","time":4,"transit":false,"line":1,"distance":3186,"station_id":"SUD","i_long":106.822649,"i_lat":-6.202263},{"distance":280,"time":1,"station_id":"SUDB","is_transit":false,"station_name":"Sudirman Baru","i_lat":-6.201433,"i_long":106.819881,"line":1,"transit":false},{"station_name":"Karet","transit":false,"i_long":106.816351,"is_transit":false,"station_id":"KAT","i_lat":-6.20132,"line":1,"distance":471,"time":1},{"time":5,"station_name":"Tanah Abang","station_id":"THB","distance":2029,"transit":true,"i_lat":-6.185545,"i_long":106.811091,"is_transit":true,"line":1},{"station_id":"PLM","transit":false,"distance":3191,"station_name":"Palmerah","i_long":106.79689,"line":6,"time":6,"is_transit":false,"i_lat":-6.207404},{"station_name":"Kebayoran","distance":3737,"is_transit":false,"i_lat":-6.237242,"transit":false,"line":6,"time":7,"i_long":106.780334,"station_id":"KBY"},{"time":8,"i_long":106.74273,"is_transit":false,"distance":6218,"station_id":"PDJ","line":6,"transit":false,"i_lat":-6.276362,"station_name":"Pondokranji"},{"station_id":"JMU","transit":false,"time":3,"i_lat":-6.288927,"line":6,"i_long":106.728916,"distance":2179,"is_transit":false,"station_name":"Jurangmangu"},{"i_lat":-6.296963,"transit":false,"station_id":"SDM","time":4,"station_name":"Sudimara","distance":1994,"i_long":106.712277,"is_transit":false,"line":6},{"is_transit":false,"transit":false,"station_id":"RU","i_lat":-6.314823,"line":6,"i_long":106.675475,"time":6,"distance":4566,"station_name":"Rawa Buntu"},{"time":4,"i_long":106.66566,"line":6,"is_transit":false,"transit":false,"distance":2413,"station_id":"SRP","station_name":"Serpong","i_lat":-6.319871},{"time":4,"transit":false,"station_name":"Cisauk","line":0,"station_id":"CSK","is_transit":false,"distance":1784,"i_lat":-6.32484,"i_long":106.640411},{"i_long":106.617853,"station_id":"CC","station_name":"Cicayur","line":0,"time":4,"i_lat":-6.329547,"transit":false,"is_transit":false,"distance":2519},{"i_lat":-6.3441410000000005,"distance":5968,"is_transit":false,"station_name":"Parung Panjang","time":8,"line":6,"station_id":"PRP","i_long":106.568863,"transit":false}],[{"time":0,"is_transit":false,"station_id":"PSG","i_long":106.771379,"station_name":"Pesing","transit":false,"i_lat":-6.161433,"distance":0,"line":5},{"station_id":"GGL","station_name":"Grogol","is_transit":false,"distance":2036,"transit":false,"i_long":106.788277,"line":5,"i_lat":-6.162021,"time":2},{"station_name":"Duri","line":1,"transit":true,"i_long":106.800832,"is_transit":true,"i_lat":-6.155215,"time":3,"station_id":"DU","distance":1700},{"distance":1230,"station_id":"AK","i_long":106.79867,"is_transit":false,"station_name":"Angke","i_lat":-6.144674,"transit":false,"time":4,"line":0},{"distance":4102,"transit":true,"station_id":"KPB","station_name":"Kampung Bandan","i_lat":-6.132549,"is_transit":true,"line":0,"time":9,"i_long":106.826365},{"station_id":"RJW","distance":1444,"time":3,"i_lat":-6.14505,"i_long":106.836569,"station_name":"Rajawali","transit":false,"line":11,"is_transit":false},{"station_id":"KMO","station_name":"Kemayoran","i_long":106.839204,"is_transit":false,"line":11,"i_lat":-6.161728,"transit":false,"distance":1901,"time":5},{"i_lat":-6.174784,"i_long":106.84368,"is_transit":false,"line":11,"station_name":"Pasar Senen","distance":1436,"station_id":"PSE","transit":false,"time":4},{"i_lat":-6.185975,"is_transit":false,"station_name":"Gang Sentiong","transit":false,"line":11,"station_id":"GST","time":8,"distance":1567,"i_long":106.850107},{"line":11,"transit":false,"time":1,"i_long":106.855437,"distance":973,"is_transit":false,"i_lat":-6.193792,"station_id":"KMT","station_name":"Kramat"},{"time":2,"is_transit":false,"i_lat":-6.209188,"i_long":106.861737,"distance":1829,"line":11,"station_name":"Pondok Jati","station_id":"POK","transit":false},{"i_lat":-6.215091,"station_id":"JNG","transit":true,"distance":1236,"is_transit":true,"time":9,"i_long":106.86807400000001,"line":0,"station_name":"Jatinegara"},{"distance":1377,"time":2,"station_name":"Matraman","i_long":106.858896,"line":1,"is_transit":false,"station_id":"MTR","transit":false,"i_lat":-6.212485},{"station_id":"MRI","transit":false,"i_lat":-6.209883,"distance":1275,"is_transit":true,"time":2,"line":0,"station_name":"Manggarai","i_long":106.84912},{"is_transit":false,"i_lat":-6.202263,"i_long":106.822649,"station_id":"SUD","time":4,"transit":false,"line":1,"distance":3186,"station_name":"Sudirman"},{"time":1,"distance":280,"transit":false,"station_id":"SUDB","i_lat":-6.201433,"i_long":106.819881,"station_name":"Sudirman Baru","is_transit":false,"line":1},{"i_lat":-6.20132,"is_transit":false,"transit":false,"line":1,"station_name":"Karet","distance":471,"i_long":106.816351,"time":1,"station_id":"KAT"},{"transit":true,"i_lat":-6.185545,"is_transit":true,"i_long":106.811091,"line":1,"distance":2029,"station_name":"Tanah Abang","station_id":"THB","time":5},{"line":6,"i_long":106.79689,"transit":false,"is_transit":false,"station_id":"PLM","time":6,"station_name":"Palmerah","distance":3191,"i_lat":-6.207404},{"transit":false,"line":6,"i_lat":-6.237242,"time":7,"i_long":106.780334,"station_id":"KBY","distance":3737,"is_transit":false,"station_name":"Kebayoran"},{"distance":6218,"time":8,"is_transit":false,"i_lat":-6.276362,"i_long":106.74273,"line":6,"station_name":"Pondokranji","station_id":"PDJ","transit":false},{"distance":2179,"is_transit":false,"station_id":"JMU","transit":false,"i_lat":-6.288927,"time":3,"station_name":"Jurangmangu","i_long":106.728916,"line":6},{"transit":false,"time":4,"is_transit":false,"distance":1994,"i_lat":-6.296963,"station_id":"SDM","line":6,"station_name":"Sudimara","i_long":106.712277},{"is_transit":false,"line":6,"station_id":"RU","distance":4566,"transit":false,"i_long":106.675475,"station_name":"Rawa Buntu","time":6,"i_lat":-6.314823},{"i_lat":-6.319871,"i_long":106.66566,"station_name":"Serpong","distance":2413,"time":4,"station_id":"SRP","line":6,"is_transit":false,"transit":false},{"i_long":106.640411,"transit":false,"distance":1784,"station_id":"CSK","time":4,"is_transit":false,"i_lat":-6.32484,"line":0,"station_name":"Cisauk"},{"i_long":106.617853,"line":0,"station_name":"Cicayur","station_id":"CC","distance":2519,"is_transit":false,"transit":false,"i_lat":-6.329547,"time":4},{"distance":5968,"time":8,"station_id":"PRP","transit":false,"is_transit":false,"i_lat":-6.3441410000000005,"line":6,"i_long":106.568863,"station_name":"Parung Panjang"}]]}