{"data":[[{"distance":0,"line":5,"time":0,"station_id":"PSG","station_name":"Pesing","transit":false,"i_lat":-6.161433,"i_long":106.771379,"is_transit":false},{"i_lat":-6.162021,"station_id":"GGL","is_transit":false,"line":5,"i_long":106.788277,"time":2,"distance":2036,"station_name":"Grogol","transit":false},{"i_lat":-6.155215,"line":1,"station_id":"DU","station_name":"Duri","i_long":106.800832,"transit":true,"time":3,"distance":1700,"is_transit":true},{"line":1,"time":8,"station_id":"THB","station_name":"Tanah Abang","i_lat":-6.185545,"transit":true,"distance":3632,"is_transit":true,"i_long":106.811091},{"i_long":106.79689,"distance":3191,"station_name":"Palmerah","is_transit":false,"transit":false,"station_id":"PLM","time":6,"line":6,"i_lat":-6.207404},{"i_lat":-6.237242,"station_name":"Kebayoran","transit":false,"is_transit":false,"time":7,"station_id":"KBY","i_long":106.780334,"distance":3737,"line":6},{"i_long":106.74273,"station_name":"Pondokranji","transit":false,"time":8,"station_id":"PDJ","i_lat":-6.276362,"line":6,"distance":6218,"is_transit":false},{"distance":2179,"time":3,"station_name":"Jurangmangu","i_long":106.728916,"line":6,"station_id":"JMU","is_transit":false,"i_lat":-6.288927,"transit":false}],[{"station_id":"PSG","distance":0,"station_name":"Pesing","is_transit":false,"i_lat":-6.161433,"time":0,"i_long":106.771379,"transit":false,"line":5},{"station_name":"Grogol","is_transit":false,"i_lat":-6.162021,"line":5,"i_long":106.788277,"transit":false,"time":2,"distance":2036,"station_id":"GGL"},{"line":1,"time":3,"distance":1700,"i_long":106.800832,"station_id":"DU","i_lat":-6.155215,"station_name":"Duri","is_transit":true,"transit":true},{"is_transit":false,"time":4,"station_name":"Angke","line":1,"station_id":"AK","distance":1230,"transit":false,"i_lat":-6.144674,"i_long":106.79867},{"distance":4102,"transit":true,"i_long":106.826365,"line":4,"i_lat":-6.132549,"time":9,"is_transit":true,"station_name":"Kampung Bandan","station_id":"KPB"},{"station_id":"JAKK","station_name":"Jakarta Kota","i_lat":-6.137569,"i_long":106.812439,"time":3,"distance":1364,"transit":true,"is_transit":true,"line":2},{"station_id":"JAY","is_transit":false,"line":2,"distance":1264,"i_lat":-6.141205,"i_long":106.820901,"station_name":"Jayakarta","time":4,"transit":false},{"is_transit":false,"station_name":"Manggabesar","time":2,"i_lat":-6.149769,"i_long":106.82482,"line":2,"transit":false,"distance":1080,"station_id":"MGB"},{"station_name":"Sawah Besar","transit":false,"i_lat":-6.160725,"is_transit":false,"line":2,"time":2,"distance":906,"station_id":"SW","i_long":106.827103},{"is_transit":false,"time":2,"line":2,"station_id":"JUA","transit":false,"distance":1149,"i_long":106.828284,"station_name":"Juanda","i_lat":-6.166716},{"is_transit":false,"i_long":106.832183,"time":4,"distance":2015,"transit":false,"line":2,"i_lat":-6.186295,"station_id":"GDD","station_name":"Gondangdia"},{"distance":1750,"i_lat":-6.198556,"i_long":106.840169,"is_transit":false,"station_id":"CKI","transit":false,"station_name":"Cikini","line":2,"time":3},{"distance":1590,"is_transit":true,"station_name":"Manggarai","station_id":"MRI","transit":true,"i_lat":-6.209883,"time":4,"i_long":106.84912,"line":2},{"time":4,"station_name":"Sudirman","station_id":"SUD","is_transit":false,"i_long":106.822649,"line":1,"transit":false,"distance":3186,"i_lat":-6.202263},{"is_transit":false,"time":1,"station_name":"Sudirman Baru","line":1,"transit":false,"i_lat":-6.201433,"i_long":106.819881,"distance":280,"station_id":"SUDB"},{"i_long":106.816351,"line":1,"station_id":"KAT","station_name":"Karet","i_lat":-6.20132,"transit":false,"distance":471,"time":1,"is_transit":false},{"transit":true,"time":5,"i_lat":-6.185545,"line":1,"station_name":"Tanah Abang","distance":2029,"station_id":"THB","i_long":106.811091,"is_transit":true},{"station_name":"Palmerah","line":6,"transit":false,"distance":3191,"time":6,"is_transit":false,"station_id":"PLM","i_lat":-6.207404,"i_long":106.79689},{"distance":3737,"station_id":"KBY","i_lat":-6.237242,"transit":false,"time":7,"i_long":106.780334,"is_transit":false,"station_name":"Kebayoran","line":6},{"station_name":"Pondokranji","station_id":"PDJ","transit":false,"i_lat":-6.276362,"i_long":106.74273,"is_transit":false,"distance":6218,"line":6,"time":8},{"station_id":"JMU","line":6,"is_transit":false,"i_long":106.728916,"station_name":"Jurangmangu","transit":false,"i_lat":-6.288927,"distance":2179,"time":3}],[{"is_transit":false,"station_name":"Pesing","station_id":"PSG","transit":false,"line":5,"i_long":106.771379,"i_lat":-6.161433,"distance":0,"time":0},{"transit":false,"line":5,"time":2,"i_long":106.788277,"is_transit":false,"distance":2036,"station_id":"GGL","station_name":"Grogol","i_lat":-6.162021},{"distance":1700,"station_name":"Duri","time":3,"i_lat":-6.155215,"i_long":106.800832,"station_id":"DU","transit":true,"is_transit":true,"line":1},{"station_id":"AK","transit":false,"i_long":106.79867,"line":1,"distance":1230,"is_transit":false,"i_lat":-6.144674,"station_name":"Angke","time":4},{"i_long":106.826365,"time":9,"is_transit":true,"transit":true,"line":4,"i_lat":-6.132549,"station_name":"Kampung Bandan","distance":4102,"station_id":"KPB"},{"time":3,"transit":false,"distance":1444,"is_transit":false,"station_name":"Rajawali","i_long":106.836569,"station_id":"RJW","line":11,"i_lat":-6.14505},{"station_name":"Kemayoran","i_long":106.839204,"is_transit":false,"station_id":"KMO","time":5,"distance":1901,"transit":false,"i_lat":-6.161728,"line":11},{"i_long":106.84368,"time":4,"station_id":"PSE","line":11,"is_transit":false,"station_name":"Pasar Senen","distance":1436,"transit":false,"i_lat":-6.174784},{"transit":false,"i_lat":-6.185975,"is_transit":false,"line":11,"i_long":106.850107,"station_name":"Gang Sentiong","time":8,"station_id":"GST","distance":1567},{"transit":false,"line":11,"i_long":106.855437,"is_transit":false,"station_name":"Kramat","i_lat":-6.193792,"station_id":"KMT","time":1,"distance":973},{"line":11,"time":2,"distance":1829,"transit":false,"station_id":"POK","i_long":106.861737,"i_lat":-6.209188,"is_transit":false,"station_name":"Pondok Jati"},{"station_name":"Jatinegara","time":9,"i_lat":-6.215091,"line":1,"distance":1236,"station_id":"JNG","i_long":106.86807400000001,"is_transit":true,"transit":true},{"transit":false,"distance":1377,"is_transit":false,"station_name":"Matraman","station_id":"MTR","i_long":106.858896,"line":1,"time":2,"i_lat":-6.212485},{"station_name":"Manggarai","i_long":106.84912,"transit":false,"time":2,"distance":1275,"i_lat":-6.209883,"line":2,"is_transit":false,"station_id":"MRI"},{"station_name":"Sudirman","station_id":"SUD","i_long":106.822649,"time":4,"distance":3186,"is_transit":false,"transit":false,"i_lat":-6.202263,"line":1},{"time":1,"i_long":106.819881,"line":1,"station_id":"SUDB","station_name":"Sudirman Baru","is_transit":false,"i_lat":-6.201433,"distance":280,"transit":false},{"station_id":"KAT","line":1,"distance":471,"i_long":106.816351,"station_name":"Karet","transit":false,"i_lat":-6.20132,"is_transit":false,"time":1},{"distance":2029,"station_name":"Tanah Abang","i_long":106.811091,"is_transit":true,"i_lat":-6.185545,"time":5,"transit":true,"line":1,"station_id":"THB"},{"distance":3191,"is_transit":false,"i_long":106.79689,"line":6,"transit":false,"time":6,"station_id":"PLM","station_name":"Palmerah","i_lat":-6.207404},{"i_lat":-6.237242,"line":6,"station_name":"Kebayoran","is_transit":false,"i_long":106.780334,"transit":false,"station_id":"KBY","distance":3737,"time":7},{"distance":6218,"transit":false,"time":8,"i_lat":-6.276362,"i_long":106.74273,"line":6,"is_transit":false,"station_id":"PDJ","station_name":"Pondokranji"},{"station_id":"JMU","is_transit":false,"i_long":106.728916,"time":3,"distance":2179,"transit":false,"station_name":"Jurangmangu","i_lat":-6.288927,"line":6}]]}