{"data":[[{"i_long":106.771379,"station_name":"Pesing","is_transit":false,"i_lat":-6.161433,"station_id":"PSG","line":5,"time":0,"transit":false,"distance":0},{"i_long":106.788277,"station_id":"GGL","i_lat":-6.162021,"line":5,"transit":false,"time":2,"distance":2036,"is_transit":false,"station_name":"Grogol"},{"distance":1700,"transit":true,"time":3,"station_id":"DU","i_long":106.800832,"station_name":"Duri","i_lat":-6.155215,"is_transit":true,"line":1},{"is_transit":false,"i_lat":-6.185545,"time":8,"i_long":106.811091,"distance":3632,"line":1,"transit":false,"station_id":"THB","station_name":"Tanah Abang"},{"i_lat":-6.20132,"i_long":106.816351,"time":5,"transit":false,"station_name":"Karet","station_id":"KAT","line":1,"is_transit":false,"distance":2029},{"i_lat":-6.201433,"time":1,"transit":false,"station_id":"SUDB","line":1,"station_name":"Sudirman Baru","is_transit":false,"i_long":106.819881,"distance":471},{"transit":false,"is_transit":false,"time":1,"distance":280,"station_id":"SUD","i_long":106.822649,"station_name":"Sudirman","line":1,"i_lat":-6.202263},{"station_name":"Manggarai","transit":true,"line":2,"station_id":"MRI","is_transit":true,"i_long":106.84912,"distance":3186,"time":4,"i_lat":-6.209883},{"station_name":"Tebet","transit":false,"line":2,"i_lat":-6.226659,"i_long":106.857948,"station_id":"TEB","time":4,"distance":2610,"is_transit":false},{"time":2,"station_name":"Cawang","i_lat":-6.242512,"i_long":106.856607,"line":2,"transit":false,"is_transit":false,"station_id":"CW","distance":1230},{"line":2,"transit":false,"time":3,"i_long":106.85449,"distance":1546,"i_lat":-6.255332,"is_transit":false,"station_id":"DRN","station_name":"Duren Kalibata"},{"i_long":106.851577,"station_name":"Pasar Minggu Baru","distance":824,"is_transit":false,"line":2,"station_id":"PSMB","transit":false,"i_lat":-6.263214,"time":2},{"transit":false,"distance":2380,"i_long":106.843999,"i_lat":-6.2842400000000005,"station_name":"Pasar Minggu","is_transit":false,"time":2,"line":2,"station_id":"PSM"},{"station_name":"Tanjung Barat","i_lat":-6.3080680000000005,"line":2,"transit":false,"time":4,"is_transit":false,"i_long":106.838896,"distance":2820,"station_id":"TNT"},{"transit":false,"station_id":"LNA","i_lat":-6.330363,"distance":2671,"station_name":"Lenteng Agung","time":3,"line":2,"is_transit":false,"i_long":106.832616},{"distance":1029,"station_name":"Univ. Pancasila","i_long":106.834175,"line":2,"station_id":"UP","transit":false,"time":2,"i_lat":-6.339291,"is_transit":false},{"distance":2264,"is_transit":false,"i_lat":-6.360749,"time":3,"transit":false,"station_name":"Univ. Indonesia","line":2,"i_long":106.831474,"station_id":"UI"},{"i_long":106.831114,"i_lat":-6.369073,"station_name":"Pondok Cina","station_id":"POC","transit":false,"distance":1109,"time":2,"is_transit":false,"line":2},{"station_name":"Depokbaru","transit":false,"is_transit":false,"i_long":106.819451,"i_lat":-6.391065,"line":2,"distance":2727,"time":4,"station_id":"DPB"},{"i_lat":-6.405256,"transit":false,"line":2,"distance":1584,"station_id":"DP","is_transit":false,"i_long":106.816926,"time":3,"station_name":"Depok"},{"station_id":"CTA","i_lat":-6.448811,"is_transit":false,"time":6,"distance":5084,"station_name":"Citayam","transit":false,"i_long":106.800298,"line":2},{"line":2,"i_long":106.792719,"i_lat":-6.493243,"time":5,"transit":false,"station_id":"BJD","station_name":"Bojonggede","distance":5197,"is_transit":false},{"distance":4331,"station_id":"CLT","is_transit":false,"line":2,"station_name":"Cilebut","i_long":106.800016,"transit":false,"time":5,"i_lat":-6.530544},{"i_lat":-6.594596,"i_long":106.790574,"line":2,"distance":7514,"time":9,"station_id":"BOO","station_name":"Bogor","transit":false,"is_transit":false}],[{"i_long":106.771379,"transit":false,"line":5,"station_id":"PSG","station_name":"Pesing","is_transit":false,"i_lat":-6.161433,"time":0,"distance":0},{"is_transit":false,"i_lat":-6.162021,"i_long":106.788277,"transit":false,"station_name":"Grogol","line":5,"time":2,"station_id":"GGL","distance":2036},{"is_transit":true,"station_name":"Duri","station_id":"DU","i_long":106.800832,"distance":1700,"time":3,"i_lat":-6.155215,"transit":true,"line":1},{"time":4,"is_transit":false,"line":1,"i_lat":-6.144674,"distance":1230,"transit":false,"station_id":"AK","station_name":"Angke","i_long":106.79867},{"line":4,"transit":true,"distance":4102,"i_lat":-6.132549,"time":9,"station_id":"KPB","station_name":"Kampung Bandan","i_long":106.826365,"is_transit":true},{"time":3,"i_lat":-6.137569,"i_long":106.812439,"station_name":"Jakarta Kota","station_id":"JAKK","is_transit":true,"line":2,"transit":true,"distance":1364},{"station_id":"JAY","station_name":"Jayakarta","time":4,"i_long":106.820901,"is_transit":false,"transit":false,"distance":1264,"i_lat":-6.141205,"line":2},{"is_transit":false,"station_name":"Manggabesar","i_long":106.82482,"line":2,"i_lat":-6.149769,"transit":false,"station_id":"MGB","time":2,"distance":1080},{"station_name":"Sawah Besar","line":2,"transit":false,"time":2,"distance":906,"station_id":"SW","is_transit":false,"i_lat":-6.160725,"i_long":106.827103},{"station_id":"JUA","transit":false,"line":2,"time":2,"i_lat":-6.166716,"distance":1149,"i_long":106.828284,"is_transit":false,"station_name":"Juanda"},{"transit":false,"distance":2015,"station_name":"Gondangdia","i_long":106.832183,"time":4,"station_id":"GDD","is_transit":false,"i_lat":-6.186295,"line":2},{"transit":false,"i_lat":-6.198556,"line":2,"i_long":106.840169,"distance":1750,"time":3,"station_id":"CKI","station_name":"Cikini","is_transit":false},{"station_id":"MRI","i_lat":-6.209883,"i_long":106.84912,"is_transit":false,"transit":false,"line":2,"station_name":"Manggarai","distance":1590,"time":4},{"transit":false,"station_id":"TEB","i_lat":-6.226659,"line":2,"is_transit":false,"station_name":"Tebet","i_long":106.857948,"time":4,"distance":2610},{"i_lat":-6.242512,"station_name":"Cawang","transit":false,"line":2,"i_long":106.856607,"station_id":"CW","is_transit":false,"time":2,"distance":1230},{"line":2,"is_transit":false,"i_lat":-6.255332,"transit":false,"distance":1546,"station_id":"DRN","station_name":"Duren Kalibata","i_long":106.85449,"time":3},{"distance":824,"i_lat":-6.263214,"line":2,"transit":false,"is_transit":false,"station_name":"Pasar Minggu Baru","i_long":106.851577,"station_id":"PSMB","time":2},{"i_long":106.843999,"line":2,"station_name":"Pasar Minggu","transit":false,"time":2,"station_id":"PSM","distance":2380,"is_transit":false,"i_lat":-6.2842400000000005},{"distance":2820,"station_name":"Tanjung Barat","line":2,"station_id":"TNT","is_transit":false,"i_long":106.838896,"i_lat":-6.3080680000000005,"time":4,"transit":false},{"i_long":106.832616,"line":2,"is_transit":false,"transit":false,"time":3,"distance":2671,"station_id":"LNA","station_name":"Lenteng Agung","i_lat":-6.330363},{"distance":1029,"transit":false,"station_id":"UP","i_long":106.834175,"i_lat":-6.339291,"line":2,"station_name":"Univ. Pancasila","is_transit":false,"time":2},{"is_transit":false,"distance":2264,"i_lat":-6.360749,"time":3,"station_id":"UI","station_name":"Univ. Indonesia","i_long":106.831474,"transit":false,"line":2},{"line":2,"station_id":"POC","time":2,"station_name":"Pondok Cina","transit":false,"i_lat":-6.369073,"i_long":106.831114,"distance":1109,"is_transit":false},{"distance":2727,"line":2,"i_long":106.819451,"station_id":"DPB","time":4,"is_transit":false,"i_lat":-6.391065,"station_name":"Depokbaru","transit":false},{"line":2,"distance":1584,"station_id":"DP","transit":false,"time":3,"is_transit":false,"station_name":"Depok","i_lat":-6.405256,"i_long":106.816926},{"transit":false,"station_id":"CTA","is_transit":false,"i_long":106.800298,"time":6,"distance":5084,"station_name":"Citayam","i_lat":-6.448811,"line":2},{"i_long":106.792719,"line":2,"is_transit":false,"station_name":"Bojonggede","time":5,"station_id":"BJD","transit":false,"i_lat":-6.493243,"distance":5197},{"line":2,"distance":4331,"station_id":"CLT","i_long":106.800016,"transit":false,"is_transit":false,"station_name":"Cilebut","i_lat":-6.530544,"time":5},{"station_id":"BOO","i_long":106.790574,"time":9,"distance":7514,"transit":false,"station_name":"Bogor","line":2,"i_lat":-6.594596,"is_transit":false}],[{"distance":0,"station_name":"Pesing","station_id":"PSG","transit":false,"i_lat":-6.161433,"is_transit":false,"i_long":106.771379,"line":5,"time":0},{"transit":false,"station_name":"Grogol","is_transit":false,"i_long":106.788277,"station_id":"GGL","i_lat":-6.162021,"line":5,"time":2,"distance":2036},{"transit":true,"i_lat":-6.155215,"distance":1700,"time":3,"station_id":"DU","is_transit":true,"station_name":"Duri","i_long":106.800832,"line":1},{"is_transit":false,"transit":false,"line":1,"time":4,"station_name":"Angke","station_id":"AK","distance":1230,"i_lat":-6.144674,"i_long":106.79867},{"line":4,"station_name":"Kampung Bandan","station_id":"KPB","transit":true,"i_lat":-6.132549,"distance":4102,"time":9,"i_long":106.826365,"is_transit":true},{"i_lat":-6.14505,"station_name":"Rajawali","is_transit":false,"line":11,"station_id":"RJW","transit":false,"time":3,"distance":1444,"i_long":106.836569},{"station_id":"KMO","distance":1901,"i_lat":-6.161728,"transit":false,"i_long":106.839204,"is_transit":false,"time":5,"station_name":"Kemayoran","line":11},{"transit":false,"is_transit":false,"distance":1436,"i_lat":-6.174784,"i_long":106.84368,"station_id":"PSE","station_name":"Pasar Senen","line":11,"time":4},{"line":11,"i_lat":-6.185975,"station_name":"Gang Sentiong","transit":false,"station_id":"GST","time":8,"i_long":106.850107,"distance":1567,"is_transit":false},{"station_id":"KMT","distance":973,"i_long":106.855437,"is_transit":false,"i_lat":-6.193792,"station_name":"Kramat","line":11,"time":1,"transit":false},{"distance":1829,"line":11,"i_lat":-6.209188,"transit":false,"station_id":"POK","is_transit":false,"i_long":106.861737,"time":2,"station_name":"Pondok Jati"},{"station_id":"JNG","time":9,"transit":true,"line":1,"distance":1236,"station_name":"Jatinegara","i_long":106.86807400000001,"is_transit":true,"i_lat":-6.215091},{"i_long":106.858896,"line":1,"station_id":"MTR","distance":1377,"time":2,"is_transit":false,"transit":false,"station_name":"Matraman","i_lat":-6.212485},{"is_transit":true,"transit":true,"time":2,"i_long":106.84912,"station_name":"Manggarai","distance":1275,"i_lat":-6.209883,"line":2,"station_id":"MRI"},{"time":4,"distance":2610,"transit":false,"is_transit":false,"station_name":"Tebet","i_lat":-6.226659,"station_id":"TEB","i_long":106.857948,"line":2},{"is_transit":false,"transit":false,"distance":1230,"i_lat":-6.242512,"i_long":106.856607,"line":2,"time":2,"station_name":"Cawang","station_id":"CW"},{"station_id":"DRN","time":3,"i_long":106.85449,"transit":false,"line":2,"is_transit":false,"distance":1546,"i_lat":-6.255332,"station_name":"Duren Kalibata"},{"i_lat":-6.263214,"distance":824,"is_transit":false,"time":2,"station_id":"PSMB","transit":false,"i_long":106.851577,"line":2,"station_name":"Pasar Minggu Baru"},{"line":2,"station_name":"Pasar Minggu","station_id":"PSM","distance":2380,"is_transit":false,"time":2,"i_long":106.843999,"i_lat":-6.2842400000000005,"transit":false},{"transit":false,"station_id":"TNT","is_transit":false,"station_name":"Tanjung Barat","i_lat":-6.3080680000000005,"time":4,"i_long":106.838896,"line":2,"distance":2820},{"i_long":106.832616,"station_id":"LNA","line":2,"time":3,"transit":false,"is_transit":false,"station_name":"Lenteng Agung","distance":2671,"i_lat":-6.330363},{"i_lat":-6.339291,"time":2,"distance":1029,"is_transit":false,"station_name":"Univ. Pancasila","transit":false,"station_id":"UP","i_long":106.834175,"line":2},{"line":2,"station_id":"UI","is_transit":false,"station_name":"Univ. Indonesia","i_lat":-6.360749,"distance":2264,"i_long":106.831474,"time":3,"transit":false},{"time":2,"station_name":"Pondok Cina","is_transit":false,"i_lat":-6.369073,"distance":1109,"station_id":"POC","i_long":106.831114,"transit":false,"line":2},{"distance":2727,"time":4,"transit":false,"i_long":106.819451,"station_name":"Depokbaru","i_lat":-6.391065,"is_transit":false,"station_id":"DPB","line":2},{"station_name":"Depok","i_lat":-6.405256,"transit":false,"time":3,"station_id":"DP","line":2,"is_transit":false,"i_long":106.816926,"distance":1584},{"transit":false,"station_id":"CTA","is_transit":false,"time":6,"i_lat":-6.448811,"i_long":106.800298,"distance":5084,"station_name":"Citayam","line":2},{"distance":5197,"time":5,"transit":false,"i_lat":-6.493243,"is_transit":false,"station_name":"Bojonggede","i_long":106.792719,"line":2,"station_id":"BJD"},{"transit":false,"i_long":106.800016,"time":5,"line":2,"station_id":"CLT","station_name":"Cilebut","i_lat":-6.530544,"distance":4331,"is_transit":false},{"line":2,"distance":7514,"i_lat":-6.594596,"station_name":"Bogor","transit":false,"time":9,"is_transit":false,"station_id":"BOO","i_long":106.790574}]]}