{"data":[[{"time":0,"station_name":"Pesing","transit":false,"is_transit":false,"i_lat":-6.161433,"line":5,"station_id":"PSG","i_long":106.771379,"distance":0},{"i_lat":-6.1587309999999995,"line":5,"i_long":106.756522,"is_transit":false,"station_id":"TKO","time":2,"station_name":"Taman Kota","distance":1614,"transit":false},{"transit":false,"is_transit":false,"distance":2334,"station_name":"Bojongindah","time":2,"i_lat":-6.159876,"i_long":106.737035,"station_id":"BOI","line":5},{"station_id":"RW","time":4,"station_name":"Rawa Buaya","i_long":106.723064,"is_transit":false,"line":5,"transit":false,"i_lat":-6.162758,"distance":1152},{"distance":2504,"time":3,"i_lat":-6.166068,"is_transit":false,"station_name":"Kalideres","line":5,"i_long":106.701612,"station_id":"KDS","transit":false},{"i_long":106.679458,"is_transit":false,"station_id":"PI","station_name":"Poris","transit":false,"line":5,"time":3,"i_lat":-6.169933,"distance":2548},{"i_lat":-6.171811,"i_long":106.665036,"distance":1834,"station_id":"BPR","line":5,"is_transit":false,"transit":false,"station_name":"Batuceper","time":3},{"is_transit":false,"transit":false,"i_lat":-6.17331,"station_name":"Tanah Tinggi","time":3,"line":5,"i_long":106.64657,"distance":2028,"station_id":"TTI"},{"station_id":"TNG","transit":false,"is_transit":false,"distance":1547,"i_lat":-6.176583,"i_long":106.632761,"time":3,"station_name":"Tangerang","line":5}]]}