{"data":[[{"i_long":106.771379,"i_lat":-6.161433,"station_id":"PSG","transit":false,"distance":0,"line":5,"station_name":"Pesing","is_transit":false,"time":0},{"time":2,"i_long":106.788277,"transit":false,"station_name":"Grogol","distance":2036,"station_id":"GGL","i_lat":-6.162021,"is_transit":false,"line":5},{"i_lat":-6.155215,"is_transit":true,"transit":true,"station_name":"Duri","station_id":"DU","time":3,"distance":1700,"i_long":106.800832,"line":1},{"i_lat":-6.185545,"distance":3632,"is_transit":false,"time":8,"station_name":"Tanah Abang","i_long":106.811091,"transit":false,"station_id":"THB","line":1},{"is_transit":false,"i_lat":-6.20132,"line":1,"station_name":"Karet","distance":2029,"i_long":106.816351,"transit":false,"time":5,"station_id":"KAT"},{"station_name":"Sudirman Baru","time":1,"distance":471,"line":1,"station_id":"SUDB","is_transit":false,"i_lat":-6.201433,"i_long":106.819881,"transit":false},{"line":1,"station_name":"Sudirman","station_id":"SUD","is_transit":false,"time":1,"transit":false,"i_long":106.822649,"distance":280,"i_lat":-6.202263},{"i_long":106.84912,"i_lat":-6.209883,"transit":true,"line":2,"time":4,"is_transit":true,"distance":3186,"station_name":"Manggarai","station_id":"MRI"},{"i_long":106.857948,"transit":false,"time":4,"distance":2610,"i_lat":-6.226659,"line":2,"station_name":"Tebet","station_id":"TEB","is_transit":false},{"station_name":"Cawang","i_lat":-6.242512,"distance":1230,"line":2,"station_id":"CW","transit":false,"is_transit":false,"time":2,"i_long":106.856607},{"transit":false,"station_id":"DRN","station_name":"Duren Kalibata","is_transit":false,"i_lat":-6.255332,"line":2,"distance":1546,"i_long":106.85449,"time":3},{"station_id":"PSMB","time":2,"distance":824,"i_lat":-6.263214,"i_long":106.851577,"station_name":"Pasar Minggu Baru","transit":false,"is_transit":false,"line":2},{"station_name":"Pasar Minggu","i_long":106.843999,"i_lat":-6.2842400000000005,"time":2,"station_id":"PSM","is_transit":false,"line":2,"distance":2380,"transit":false},{"station_id":"TNT","transit":false,"station_name":"Tanjung Barat","is_transit":false,"time":4,"distance":2820,"i_lat":-6.3080680000000005,"i_long":106.838896,"line":2},{"line":2,"is_transit":false,"station_id":"LNA","station_name":"Lenteng Agung","i_lat":-6.330363,"distance":2671,"transit":false,"time":3,"i_long":106.832616},{"distance":1029,"time":2,"transit":false,"station_id":"UP","i_lat":-6.339291,"station_name":"Univ. Pancasila","line":2,"is_transit":false,"i_long":106.834175},{"time":3,"line":2,"distance":2264,"i_long":106.831474,"is_transit":false,"i_lat":-6.360749,"station_id":"UI","transit":false,"station_name":"Univ. Indonesia"},{"station_name":"Pondok Cina","is_transit":false,"distance":1109,"i_lat":-6.369073,"i_long":106.831114,"station_id":"POC","line":2,"transit":false,"time":2},{"station_id":"DPB","transit":false,"station_name":"Depokbaru","is_transit":false,"distance":2727,"i_long":106.819451,"line":2,"time":4,"i_lat":-6.391065},{"i_lat":-6.405256,"time":3,"i_long":106.816926,"line":2,"is_transit":false,"station_name":"Depok","transit":false,"distance":1584,"station_id":"DP"},{"time":6,"transit":true,"is_transit":true,"station_id":"CTA","station_name":"Citayam","distance":5084,"i_lat":-6.448811,"line":2,"i_long":106.800298},{"i_long":106.824374,"line":21,"station_name":"Pondok Rajeg","station_id":"PDRG","time":0,"transit":false,"distance":0,"is_transit":false,"i_lat":-6.460735},{"is_transit":false,"i_lat":-6.46424,"transit":false,"station_id":"CBN","time":0,"station_name":"Cibinong","distance":0,"i_long":106.851978,"line":21}],[{"is_transit":false,"i_lat":-6.161433,"time":0,"line":5,"transit":false,"distance":0,"i_long":106.771379,"station_name":"Pesing","station_id":"PSG"},{"line":5,"station_name":"Grogol","i_lat":-6.162021,"time":2,"i_long":106.788277,"transit":false,"is_transit":false,"distance":2036,"station_id":"GGL"},{"is_transit":true,"transit":true,"station_id":"DU","time":3,"i_long":106.800832,"station_name":"Duri","distance":1700,"i_lat":-6.155215,"line":1},{"time":4,"i_lat":-6.144674,"distance":1230,"station_id":"AK","transit":false,"i_long":106.79867,"line":1,"is_transit":false,"station_name":"Angke"},{"i_long":106.826365,"station_id":"KPB","transit":true,"distance":4102,"i_lat":-6.132549,"time":9,"line":4,"station_name":"Kampung Bandan","is_transit":true},{"distance":1364,"station_id":"JAKK","time":3,"line":2,"transit":true,"i_long":106.812439,"station_name":"Jakarta Kota","i_lat":-6.137569,"is_transit":true},{"i_long":106.820901,"i_lat":-6.141205,"time":4,"station_name":"Jayakarta","station_id":"JAY","distance":1264,"transit":false,"is_transit":false,"line":2},{"transit":false,"station_name":"Manggabesar","time":2,"station_id":"MGB","distance":1080,"i_lat":-6.149769,"line":2,"is_transit":false,"i_long":106.82482},{"distance":906,"i_lat":-6.160725,"station_name":"Sawah Besar","time":2,"transit":false,"line":2,"is_transit":false,"i_long":106.827103,"station_id":"SW"},{"line":2,"i_lat":-6.166716,"i_long":106.828284,"station_id":"JUA","transit":false,"time":2,"station_name":"Juanda","is_transit":false,"distance":1149},{"line":2,"time":4,"distance":2015,"is_transit":false,"station_name":"Gondangdia","station_id":"GDD","i_lat":-6.186295,"transit":false,"i_long":106.832183},{"time":3,"distance":1750,"is_transit":false,"line":2,"station_name":"Cikini","transit":false,"i_lat":-6.198556,"station_id":"CKI","i_long":106.840169},{"station_id":"MRI","i_lat":-6.209883,"is_transit":false,"distance":1590,"time":4,"i_long":106.84912,"line":2,"station_name":"Manggarai","transit":false},{"i_lat":-6.226659,"line":2,"i_long":106.857948,"transit":false,"station_id":"TEB","is_transit":false,"station_name":"Tebet","time":4,"distance":2610},{"station_id":"CW","i_long":106.856607,"is_transit":false,"distance":1230,"transit":false,"i_lat":-6.242512,"line":2,"station_name":"Cawang","time":2},{"station_id":"DRN","i_long":106.85449,"station_name":"Duren Kalibata","time":3,"line":2,"distance":1546,"transit":false,"is_transit":false,"i_lat":-6.255332},{"distance":824,"transit":false,"station_name":"Pasar Minggu Baru","is_transit":false,"time":2,"i_long":106.851577,"i_lat":-6.263214,"line":2,"station_id":"PSMB"},{"is_transit":false,"i_long":106.843999,"station_id":"PSM","time":2,"transit":false,"i_lat":-6.2842400000000005,"station_name":"Pasar Minggu","line":2,"distance":2380},{"time":4,"i_lat":-6.3080680000000005,"station_id":"TNT","i_long":106.838896,"station_name":"Tanjung Barat","is_transit":false,"distance":2820,"transit":false,"line":2},{"i_long":106.832616,"time":3,"line":2,"i_lat":-6.330363,"transit":false,"is_transit":false,"station_name":"Lenteng Agung","distance":2671,"station_id":"LNA"},{"station_name":"Univ. Pancasila","line":2,"station_id":"UP","i_lat":-6.339291,"transit":false,"time":2,"i_long":106.834175,"is_transit":false,"distance":1029},{"time":3,"line":2,"i_lat":-6.360749,"distance":2264,"station_name":"Univ. Indonesia","is_transit":false,"i_long":106.831474,"transit":false,"station_id":"UI"},{"station_id":"POC","line":2,"is_transit":false,"station_name":"Pondok Cina","distance":1109,"transit":false,"i_long":106.831114,"i_lat":-6.369073,"time":2},{"station_id":"DPB","distance":2727,"i_long":106.819451,"time":4,"i_lat":-6.391065,"is_transit":false,"station_name":"Depokbaru","transit":false,"line":2},{"station_id":"DP","station_name":"Depok","i_lat":-6.405256,"time":3,"distance":1584,"i_long":106.816926,"line":2,"is_transit":false,"transit":false},{"i_long":106.800298,"transit":true,"station_id":"CTA","time":6,"station_name":"Citayam","is_transit":true,"distance":5084,"i_lat":-6.448811,"line":2},{"time":0,"is_transit":false,"i_lat":-6.460735,"station_id":"PDRG","line":21,"distance":0,"i_long":106.824374,"transit":false,"station_name":"Pondok Rajeg"},{"i_long":106.851978,"station_id":"CBN","is_transit":false,"line":21,"time":0,"i_lat":-6.46424,"transit":false,"distance":0,"station_name":"Cibinong"}],[{"station_id":"PSG","is_transit":false,"time":0,"distance":0,"station_name":"Pesing","i_long":106.771379,"i_lat":-6.161433,"transit":false,"line":5},{"is_transit":false,"station_name":"Grogol","station_id":"GGL","line":5,"distance":2036,"i_lat":-6.162021,"time":2,"transit":false,"i_long":106.788277},{"transit":true,"station_id":"DU","is_transit":true,"i_lat":-6.155215,"station_name":"Duri","line":1,"time":3,"distance":1700,"i_long":106.800832},{"station_id":"AK","line":1,"transit":false,"station_name":"Angke","distance":1230,"is_transit":false,"i_lat":-6.144674,"time":4,"i_long":106.79867},{"is_transit":true,"i_lat":-6.132549,"distance":4102,"line":4,"transit":true,"i_long":106.826365,"station_id":"KPB","time":9,"station_name":"Kampung Bandan"},{"station_name":"Rajawali","station_id":"RJW","is_transit":false,"i_lat":-6.14505,"distance":1444,"transit":false,"time":3,"i_long":106.836569,"line":11},{"station_name":"Kemayoran","i_long":106.839204,"line":11,"station_id":"KMO","transit":false,"time":5,"is_transit":false,"distance":1901,"i_lat":-6.161728},{"station_name":"Pasar Senen","i_lat":-6.174784,"line":11,"is_transit":false,"station_id":"PSE","time":4,"i_long":106.84368,"distance":1436,"transit":false},{"i_lat":-6.185975,"is_transit":false,"line":11,"i_long":106.850107,"station_name":"Gang Sentiong","time":8,"station_id":"GST","distance":1567,"transit":false},{"is_transit":false,"line":11,"distance":973,"station_name":"Kramat","station_id":"KMT","i_lat":-6.193792,"time":1,"i_long":106.855437,"transit":false},{"is_transit":false,"transit":false,"i_long":106.861737,"time":2,"distance":1829,"i_lat":-6.209188,"line":11,"station_name":"Pondok Jati","station_id":"POK"},{"transit":true,"time":9,"station_name":"Jatinegara","is_transit":true,"station_id":"JNG","distance":1236,"i_long":106.86807400000001,"i_lat":-6.215091,"line":1},{"transit":false,"station_name":"Matraman","distance":1377,"line":1,"is_transit":false,"time":2,"station_id":"MTR","i_long":106.858896,"i_lat":-6.212485},{"station_name":"Manggarai","i_lat":-6.209883,"station_id":"MRI","time":2,"line":2,"transit":true,"i_long":106.84912,"is_transit":true,"distance":1275},{"i_long":106.857948,"transit":false,"time":4,"distance":2610,"is_transit":false,"line":2,"station_id":"TEB","station_name":"Tebet","i_lat":-6.226659},{"i_lat":-6.242512,"line":2,"is_transit":false,"station_name":"Cawang","distance":1230,"i_long":106.856607,"transit":false,"station_id":"CW","time":2},{"station_name":"Duren Kalibata","transit":false,"station_id":"DRN","distance":1546,"i_lat":-6.255332,"line":2,"is_transit":false,"time":3,"i_long":106.85449},{"distance":824,"is_transit":false,"station_id":"PSMB","i_lat":-6.263214,"i_long":106.851577,"time":2,"line":2,"station_name":"Pasar Minggu Baru","transit":false},{"transit":false,"is_transit":false,"station_name":"Pasar Minggu","i_long":106.843999,"line":2,"station_id":"PSM","distance":2380,"time":2,"i_lat":-6.2842400000000005},{"i_lat":-6.3080680000000005,"station_id":"TNT","distance":2820,"i_long":106.838896,"time":4,"station_name":"Tanjung Barat","line":2,"transit":false,"is_transit":false},{"transit":false,"is_transit":false,"station_name":"Lenteng Agung","time":3,"i_lat":-6.330363,"station_id":"LNA","distance":2671,"line":2,"i_long":106.832616},{"time":2,"station_id":"UP","distance":1029,"is_transit":false,"station_name":"Univ. Pancasila","i_lat":-6.339291,"i_long":106.834175,"line":2,"transit":false},{"is_transit":false,"transit":false,"i_long":106.831474,"station_id":"UI","station_name":"Univ. Indonesia","time":3,"i_lat":-6.360749,"distance":2264,"line":2},{"i_lat":-6.369073,"station_id":"POC","transit":false,"is_transit":false,"station_name":"Pondok Cina","i_long":106.831114,"distance":1109,"line":2,"time":2},{"station_id":"DPB","distance":2727,"transit":false,"i_long":106.819451,"is_transit":false,"i_lat":-6.391065,"time":4,"line":2,"station_name":"Depokbaru"},{"is_transit":false,"time":3,"i_lat":-6.405256,"station_name":"Depok","i_long":106.816926,"station_id":"DP","line":2,"distance":1584,"transit":false},{"station_name":"Citayam","i_lat":-6.448811,"is_transit":true,"station_id":"CTA","transit":true,"time":6,"distance":5084,"line":2,"i_long":106.800298},{"time":0,"i_lat":-6.460735,"i_long":106.824374,"distance":0,"line":21,"station_name":"Pondok Rajeg","transit":false,"station_id":"PDRG","is_transit":false},{"transit":false,"is_transit":false,"station_id":"CBN","i_long":106.851978,"time":0,"i_lat":-6.46424,"station_name":"Cibinong","distance":0,"line":21}]]}