{"data":[[{"is_transit":false,"i_long":106.771379,"time":0,"distance":0,"station_name":"Pesing","line":5,"transit":false,"station_id":"PSG","i_lat":-6.161433},{"line":5,"is_transit":false,"station_id":"GGL","time":2,"distance":2036,"i_long":106.788277,"i_lat":-6.162021,"transit":false,"station_name":"Grogol"},{"time":3,"station_name":"Duri","distance":1700,"i_long":106.800832,"transit":true,"is_transit":true,"line":1,"i_lat":-6.155215,"station_id":"DU"},{"i_long":106.811091,"station_name":"Tanah Abang","is_transit":true,"time":8,"station_id":"THB","distance":3632,"transit":true,"i_lat":-6.185545,"line":1},{"i_long":106.79689,"station_id":"PLM","transit":false,"station_name":"Palmerah","time":6,"is_transit":false,"line":6,"distance":3191,"i_lat":-6.207404},{"is_transit":false,"i_long":106.780334,"transit":false,"i_lat":-6.237242,"line":6,"station_id":"KBY","time":7,"station_name":"Kebayoran","distance":3737},{"station_id":"PDJ","i_long":106.74273,"station_name":"Pondokranji","i_lat":-6.276362,"line":6,"is_transit":false,"time":8,"distance":6218,"transit":false},{"station_id":"JMU","distance":2179,"is_transit":false,"i_lat":-6.288927,"transit":false,"time":3,"station_name":"Jurangmangu","i_long":106.728916,"line":6},{"time":4,"line":6,"station_id":"SDM","station_name":"Sudimara","is_transit":false,"i_long":106.712277,"transit":false,"distance":1994,"i_lat":-6.296963},{"i_lat":-6.314823,"line":6,"is_transit":false,"transit":false,"station_name":"Rawa Buntu","station_id":"RU","time":6,"distance":4566,"i_long":106.675475},{"station_name":"Serpong","time":4,"line":6,"i_lat":-6.319871,"is_transit":false,"transit":false,"i_long":106.66566,"station_id":"SRP","distance":2413},{"station_id":"CSK","line":3,"i_lat":-6.32484,"distance":1784,"i_long":106.640411,"time":4,"transit":false,"is_transit":false,"station_name":"Cisauk"},{"i_lat":-6.329547,"time":4,"distance":2519,"transit":false,"station_name":"Cicayur","i_long":106.617853,"is_transit":false,"line":3,"station_id":"CC"},{"is_transit":false,"transit":false,"station_name":"Parung Panjang","i_long":106.568863,"time":8,"distance":5968,"i_lat":-6.3441410000000005,"line":6,"station_id":"PRP"},{"i_long":106.508482,"is_transit":false,"line":3,"station_id":"CJT","station_name":"Cilejit","time":9,"distance":7025,"transit":false,"i_lat":-6.354349},{"distance":2675,"i_lat":-6.338021,"station_name":"Daru","i_long":106.491338,"station_id":"DAR","line":0,"transit":false,"is_transit":false,"time":6}],[{"distance":0,"station_name":"Pesing","station_id":"PSG","transit":false,"line":5,"is_transit":false,"i_lat":-6.161433,"i_long":106.771379,"time":0},{"i_long":106.788277,"station_id":"GGL","station_name":"Grogol","i_lat":-6.162021,"time":2,"line":5,"transit":false,"is_transit":false,"distance":2036},{"transit":true,"is_transit":true,"i_lat":-6.155215,"distance":1700,"time":3,"line":1,"station_id":"DU","i_long":106.800832,"station_name":"Duri"},{"station_id":"AK","distance":1230,"i_lat":-6.144674,"i_long":106.79867,"is_transit":false,"station_name":"Angke","transit":false,"line":1,"time":4},{"line":4,"station_name":"Kampung Bandan","i_lat":-6.132549,"is_transit":true,"transit":true,"station_id":"KPB","i_long":106.826365,"distance":4102,"time":9},{"i_lat":-6.137569,"line":2,"station_name":"Jakarta Kota","distance":1364,"i_long":106.812439,"station_id":"JAKK","time":3,"transit":true,"is_transit":true},{"line":2,"time":4,"distance":1264,"station_id":"JAY","station_name":"Jayakarta","transit":false,"is_transit":false,"i_lat":-6.141205,"i_long":106.820901},{"is_transit":false,"i_long":106.82482,"station_id":"MGB","i_lat":-6.149769,"transit":false,"station_name":"Manggabesar","distance":1080,"time":2,"line":2},{"station_id":"SW","is_transit":false,"line":2,"station_name":"Sawah Besar","i_lat":-6.160725,"time":2,"distance":906,"i_long":106.827103,"transit":false},{"distance":1149,"time":2,"station_name":"Juanda","line":2,"transit":false,"i_long":106.828284,"i_lat":-6.166716,"is_transit":false,"station_id":"JUA"},{"time":4,"line":2,"station_name":"Gondangdia","i_lat":-6.186295,"transit":false,"station_id":"GDD","is_transit":false,"distance":2015,"i_long":106.832183},{"line":2,"i_long":106.840169,"i_lat":-6.198556,"station_name":"Cikini","time":3,"transit":false,"distance":1750,"station_id":"CKI","is_transit":false},{"station_name":"Manggarai","i_long":106.84912,"is_transit":true,"transit":true,"distance":1590,"time":4,"station_id":"MRI","i_lat":-6.209883,"line":2},{"station_id":"SUD","is_transit":false,"station_name":"Sudirman","distance":3186,"i_long":106.822649,"i_lat":-6.202263,"line":1,"transit":false,"time":4},{"i_lat":-6.201433,"time":1,"is_transit":false,"station_name":"Sudirman Baru","station_id":"SUDB","distance":280,"line":1,"i_long":106.819881,"transit":false},{"station_name":"Karet","time":1,"i_long":106.816351,"transit":false,"i_lat":-6.20132,"is_transit":false,"distance":471,"line":1,"station_id":"KAT"},{"transit":true,"station_id":"THB","distance":2029,"i_lat":-6.185545,"i_long":106.811091,"line":1,"time":5,"station_name":"Tanah Abang","is_transit":true},{"i_long":106.79689,"station_name":"Palmerah","line":6,"time":6,"station_id":"PLM","is_transit":false,"transit":false,"distance":3191,"i_lat":-6.207404},{"station_id":"KBY","station_name":"Kebayoran","time":7,"is_transit":false,"i_lat":-6.237242,"i_long":106.780334,"transit":false,"distance":3737,"line":6},{"i_lat":-6.276362,"time":8,"i_long":106.74273,"transit":false,"station_name":"Pondokranji","distance":6218,"line":6,"is_transit":false,"station_id":"PDJ"},{"i_lat":-6.288927,"station_id":"JMU","station_name":"Jurangmangu","is_transit":false,"i_long":106.728916,"distance":2179,"transit":false,"line":6,"time":3},{"transit":false,"i_long":106.712277,"time":4,"line":6,"station_name":"Sudimara","i_lat":-6.296963,"distance":1994,"station_id":"SDM","is_transit":false},{"station_id":"RU","i_long":106.675475,"is_transit":false,"transit":false,"line":6,"station_name":"Rawa Buntu","i_lat":-6.314823,"distance":4566,"time":6},{"distance":2413,"transit":false,"i_long":106.66566,"line":6,"time":4,"i_lat":-6.319871,"station_name":"Serpong","station_id":"SRP","is_transit":false},{"i_long":106.640411,"i_lat":-6.32484,"station_name":"Cisauk","line":3,"distance":1784,"station_id":"CSK","time":4,"transit":false,"is_transit":false},{"i_lat":-6.329547,"transit":false,"line":3,"distance":2519,"time":4,"station_name":"Cicayur","station_id":"CC","is_transit":false,"i_long":106.617853},{"station_name":"Parung Panjang","transit":false,"i_lat":-6.3441410000000005,"i_long":106.568863,"is_transit":false,"time":8,"station_id":"PRP","distance":5968,"line":6},{"station_id":"CJT","time":9,"transit":false,"is_transit":false,"distance":7025,"station_name":"Cilejit","i_lat":-6.354349,"i_long":106.508482,"line":3},{"station_id":"DAR","station_name":"Daru","time":6,"i_lat":-6.338021,"distance":2675,"line":0,"i_long":106.491338,"is_transit":false,"transit":false}],[{"i_long":106.771379,"station_id":"PSG","transit":false,"station_name":"Pesing","is_transit":false,"time":0,"distance":0,"i_lat":-6.161433,"line":5},{"time":2,"transit":false,"station_id":"GGL","i_long":106.788277,"line":5,"station_name":"Grogol","distance":2036,"is_transit":false,"i_lat":-6.162021},{"is_transit":true,"distance":1700,"line":1,"i_long":106.800832,"time":3,"i_lat":-6.155215,"transit":true,"station_name":"Duri","station_id":"DU"},{"time":4,"i_long":106.79867,"transit":false,"distance":1230,"i_lat":-6.144674,"is_transit":false,"station_id":"AK","station_name":"Angke","line":1},{"line":4,"station_name":"Kampung Bandan","is_transit":true,"distance":4102,"transit":true,"i_lat":-6.132549,"i_long":106.826365,"time":9,"station_id":"KPB"},{"is_transit":false,"distance":1444,"station_id":"RJW","time":3,"station_name":"Rajawali","i_lat":-6.14505,"transit":false,"line":11,"i_long":106.836569},{"station_name":"Kemayoran","time":5,"station_id":"KMO","i_long":106.839204,"line":11,"transit":false,"distance":1901,"i_lat":-6.161728,"is_transit":false},{"line":11,"transit":false,"station_name":"Pasar Senen","is_transit":false,"station_id":"PSE","i_lat":-6.174784,"distance":1436,"time":4,"i_long":106.84368},{"station_name":"Gang Sentiong","distance":1567,"is_transit":false,"station_id":"GST","time":8,"i_long":106.850107,"transit":false,"line":11,"i_lat":-6.185975},{"station_id":"KMT","transit":false,"line":11,"i_long":106.855437,"station_name":"Kramat","is_transit":false,"i_lat":-6.193792,"time":1,"distance":973},{"i_lat":-6.209188,"distance":1829,"transit":false,"station_name":"Pondok Jati","time":2,"i_long":106.861737,"line":11,"is_transit":false,"station_id":"POK"},{"line":1,"distance":1236,"i_long":106.86807400000001,"i_lat":-6.215091,"transit":true,"station_id":"JNG","station_name":"Jatinegara","is_transit":true,"time":9},{"station_name":"Matraman","i_lat":-6.212485,"distance":1377,"i_long":106.858896,"line":1,"is_transit":false,"time":2,"transit":false,"station_id":"MTR"},{"i_lat":-6.209883,"line":2,"station_id":"MRI","transit":false,"is_transit":false,"time":2,"distance":1275,"station_name":"Manggarai","i_long":106.84912},{"is_transit":false,"time":4,"transit":false,"distance":3186,"i_lat":-6.202263,"station_name":"Sudirman","line":1,"station_id":"SUD","i_long":106.822649},{"i_lat":-6.201433,"i_long":106.819881,"is_transit":false,"transit":false,"station_name":"Sudirman Baru","distance":280,"line":1,"time":1,"station_id":"SUDB"},{"station_id":"KAT","distance":471,"i_long":106.816351,"line":1,"time":1,"i_lat":-6.20132,"transit":false,"station_name":"Karet","is_transit":false},{"i_long":106.811091,"is_transit":true,"transit":true,"station_id":"THB","line":1,"time":5,"distance":2029,"station_name":"Tanah Abang","i_lat":-6.185545},{"transit":false,"i_lat":-6.207404,"i_long":106.79689,"station_id":"PLM","time":6,"distance":3191,"line":6,"station_name":"Palmerah","is_transit":false},{"i_lat":-6.237242,"is_transit":false,"line":6,"time":7,"station_id":"KBY","transit":false,"distance":3737,"station_name":"Kebayoran","i_long":106.780334},{"transit":false,"i_long":106.74273,"station_name":"Pondokranji","is_transit":false,"time":8,"station_id":"PDJ","i_lat":-6.276362,"distance":6218,"line":6},{"station_name":"Jurangmangu","i_long":106.728916,"is_transit":false,"station_id":"JMU","i_lat":-6.288927,"distance":2179,"time":3,"transit":false,"line":6},{"station_name":"Sudimara","i_long":106.712277,"is_transit":false,"distance":1994,"transit":false,"time":4,"station_id":"SDM","line":6,"i_lat":-6.296963},{"i_lat":-6.314823,"station_id":"RU","distance":4566,"line":6,"i_long":106.675475,"transit":false,"station_name":"Rawa Buntu","is_transit":false,"time":6},{"i_lat":-6.319871,"i_long":106.66566,"time":4,"is_transit":false,"station_id":"SRP","station_name":"Serpong","distance":2413,"transit":false,"line":6},{"i_lat":-6.32484,"time":4,"i_long":106.640411,"transit":false,"line":3,"station_id":"CSK","station_name":"Cisauk","is_transit":false,"distance":1784},{"i_lat":-6.329547,"i_long":106.617853,"station_name":"Cicayur","is_transit":false,"time":4,"transit":false,"distance":2519,"line":3,"station_id":"CC"},{"time":8,"line":6,"i_long":106.568863,"transit":false,"is_transit":false,"station_id":"PRP","i_lat":-6.3441410000000005,"station_name":"Parung Panjang","distance":5968},{"i_long":106.508482,"is_transit":false,"i_lat":-6.354349,"distance":7025,"line":3,"transit":false,"station_id":"CJT","station_name":"Cilejit","time":9},{"station_id":"DAR","i_long":106.491338,"station_name":"Daru","time":6,"distance":2675,"line":0,"i_lat":-6.338021,"transit":false,"is_transit":false}]]}