{"data":[[{"transit":false,"distance":0,"station_id":"PSG","i_lat":-6.161433,"time":0,"i_long":106.771379,"station_name":"Pesing","line":5,"is_transit":false},{"is_transit":false,"station_name":"Grogol","transit":false,"time":2,"i_long":106.788277,"distance":2036,"station_id":"GGL","i_lat":-6.162021,"line":5},{"transit":true,"distance":1700,"is_transit":true,"time":3,"station_name":"Duri","station_id":"DU","i_lat":-6.155215,"i_long":106.800832,"line":1},{"is_transit":true,"station_id":"THB","station_name":"Tanah Abang","transit":false,"i_lat":-6.185545,"i_long":106.811091,"line":1,"distance":3632,"time":8},{"time":5,"distance":2029,"transit":false,"is_transit":false,"station_id":"KAT","station_name":"Karet","i_long":106.816351,"line":1,"i_lat":-6.20132},{"time":1,"station_id":"SUDB","i_lat":-6.201433,"distance":471,"line":1,"is_transit":false,"transit":false,"i_long":106.819881,"station_name":"Sudirman Baru"},{"station_id":"SUD","time":1,"i_lat":-6.202263,"transit":false,"line":1,"i_long":106.822649,"is_transit":false,"station_name":"Sudirman","distance":280},{"distance":3186,"i_long":106.84912,"line":0,"transit":true,"station_id":"MRI","time":4,"station_name":"Manggarai","is_transit":true,"i_lat":-6.209883},{"line":2,"station_name":"Tebet","time":4,"is_transit":false,"i_long":106.857948,"transit":false,"distance":2610,"i_lat":-6.226659,"station_id":"TEB"},{"time":2,"i_long":106.856607,"is_transit":false,"station_id":"CW","line":0,"station_name":"Cawang","i_lat":-6.242512,"distance":1230,"transit":false},{"transit":false,"station_name":"Duren Kalibata","distance":1546,"is_transit":false,"time":3,"i_lat":-6.255332,"i_long":106.85449,"line":0,"station_id":"DRN"},{"distance":824,"transit":false,"time":2,"station_id":"PSMB","station_name":"Pasar Minggu Baru","i_lat":-6.263214,"i_long":106.851577,"line":2,"is_transit":false},{"distance":2380,"transit":false,"line":2,"is_transit":false,"station_id":"PSM","station_name":"Pasar Minggu","i_lat":-6.2842400000000005,"i_long":106.843999,"time":2},{"i_lat":-6.3080680000000005,"distance":2820,"i_long":106.838896,"line":2,"time":4,"transit":false,"is_transit":false,"station_id":"TNT","station_name":"Tanjung Barat"},{"i_lat":-6.330363,"i_long":106.832616,"line":2,"station_id":"LNA","distance":2671,"station_name":"Lenteng Agung","transit":false,"is_transit":false,"time":3},{"time":2,"is_transit":false,"station_id":"UP","distance":1029,"transit":false,"i_long":106.834175,"line":2,"i_lat":-6.339291,"station_name":"Univ. Pancasila"},{"i_long":106.831474,"distance":2264,"station_name":"Univ. Indonesia","is_transit":false,"line":2,"time":3,"station_id":"UI","transit":false,"i_lat":-6.360749}],[{"transit":false,"distance":0,"line":5,"i_long":106.771379,"station_id":"PSG","time":0,"is_transit":false,"station_name":"Pesing","i_lat":-6.161433},{"transit":false,"i_lat":-6.162021,"distance":2036,"is_transit":false,"station_name":"Grogol","line":5,"station_id":"GGL","time":2,"i_long":106.788277},{"i_lat":-6.155215,"transit":true,"station_id":"DU","time":3,"station_name":"Duri","i_long":106.800832,"distance":1700,"is_transit":true,"line":1},{"time":4,"line":0,"i_long":106.79867,"distance":1230,"is_transit":false,"i_lat":-6.144674,"station_id":"AK","transit":false,"station_name":"Angke"},{"station_name":"Kampung Bandan","i_long":106.826365,"time":9,"is_transit":true,"station_id":"KPB","transit":false,"i_lat":-6.132549,"distance":4102,"line":0},{"is_transit":true,"distance":1364,"station_id":"JAKK","station_name":"Jakarta Kota","transit":true,"time":3,"i_lat":-6.137569,"line":0,"i_long":106.812439},{"i_lat":-6.141205,"station_id":"JAY","station_name":"Jayakarta","time":4,"line":7,"distance":1264,"i_long":106.820901,"is_transit":false,"transit":false},{"line":2,"station_id":"MGB","i_lat":-6.149769,"is_transit":false,"transit":false,"distance":1080,"i_long":106.82482,"time":2,"station_name":"Manggabesar"},{"station_name":"Sawah Besar","time":2,"station_id":"SW","i_long":106.827103,"is_transit":false,"transit":false,"distance":906,"i_lat":-6.160725,"line":2},{"line":2,"is_transit":false,"i_lat":-6.166716,"distance":1149,"station_name":"Juanda","i_long":106.828284,"station_id":"JUA","transit":false,"time":2},{"station_name":"Gondangdia","distance":2015,"station_id":"GDD","i_long":106.832183,"line":2,"transit":false,"time":4,"is_transit":false,"i_lat":-6.186295},{"i_lat":-6.198556,"i_long":106.840169,"station_id":"CKI","transit":false,"line":0,"station_name":"Cikini","is_transit":false,"distance":1750,"time":3},{"i_lat":-6.209883,"station_name":"Manggarai","time":4,"is_transit":true,"distance":1590,"transit":true,"station_id":"MRI","i_long":106.84912,"line":0},{"distance":2610,"station_id":"TEB","transit":false,"is_transit":false,"i_long":106.857948,"time":4,"line":2,"station_name":"Tebet","i_lat":-6.226659},{"line":0,"i_lat":-6.242512,"is_transit":false,"distance":1230,"station_name":"Cawang","station_id":"CW","time":2,"i_long":106.856607,"transit":false},{"i_long":106.85449,"distance":1546,"i_lat":-6.255332,"is_transit":false,"station_id":"DRN","station_name":"Duren Kalibata","transit":false,"time":3,"line":0},{"i_long":106.851577,"station_id":"PSMB","transit":false,"time":2,"line":2,"distance":824,"station_name":"Pasar Minggu Baru","is_transit":false,"i_lat":-6.263214},{"station_name":"Pasar Minggu","i_lat":-6.2842400000000005,"is_transit":false,"station_id":"PSM","distance":2380,"transit":false,"line":2,"time":2,"i_long":106.843999},{"transit":false,"line":2,"i_long":106.838896,"is_transit":false,"station_id":"TNT","time":4,"distance":2820,"station_name":"Tanjung Barat","i_lat":-6.3080680000000005},{"station_id":"LNA","distance":2671,"transit":false,"time":3,"is_transit":false,"i_long":106.832616,"i_lat":-6.330363,"line":2,"station_name":"Lenteng Agung"},{"station_name":"Univ. Pancasila","time":2,"i_lat":-6.339291,"station_id":"UP","transit":false,"i_long":106.834175,"line":2,"is_transit":false,"distance":1029},{"line":2,"i_lat":-6.360749,"station_id":"UI","distance":2264,"transit":false,"i_long":106.831474,"is_transit":false,"time":3,"station_name":"Univ. Indonesia"}],[{"station_id":"PSG","i_long":106.771379,"is_transit":false,"distance":0,"transit":false,"time":0,"line":5,"station_name":"Pesing","i_lat":-6.161433},{"transit":false,"is_transit":false,"i_long":106.788277,"i_lat":-6.162021,"station_id":"GGL","line":5,"distance":2036,"station_name":"Grogol","time":2},{"station_id":"DU","i_long":106.800832,"station_name":"Duri","line":1,"is_transit":true,"distance":1700,"transit":true,"i_lat":-6.155215,"time":3},{"station_id":"AK","is_transit":false,"line":0,"distance":1230,"station_name":"Angke","time":4,"transit":false,"i_lat":-6.144674,"i_long":106.79867},{"time":9,"line":0,"i_lat":-6.132549,"is_transit":true,"transit":true,"station_id":"KPB","distance":4102,"station_name":"Kampung Bandan","i_long":106.826365},{"station_name":"Rajawali","time":3,"distance":1444,"transit":false,"i_lat":-6.14505,"is_transit":false,"i_long":106.836569,"station_id":"RJW","line":11},{"i_long":106.839204,"i_lat":-6.161728,"distance":1901,"line":11,"is_transit":false,"time":5,"transit":false,"station_name":"Kemayoran","station_id":"KMO"},{"line":11,"station_id":"PSE","station_name":"Pasar Senen","i_lat":-6.174784,"distance":1436,"time":4,"i_long":106.84368,"transit":false,"is_transit":false},{"time":8,"i_long":106.850107,"station_name":"Gang Sentiong","line":11,"distance":1567,"is_transit":false,"station_id":"GST","transit":false,"i_lat":-6.185975},{"station_name":"Kramat","i_lat":-6.193792,"is_transit":false,"transit":false,"i_long":106.855437,"distance":973,"line":11,"station_id":"KMT","time":1},{"station_id":"POK","i_lat":-6.209188,"is_transit":false,"station_name":"Pondok Jati","transit":false,"line":11,"distance":1829,"time":2,"i_long":106.861737},{"i_lat":-6.215091,"transit":true,"i_long":106.86807400000001,"is_transit":true,"station_id":"JNG","station_name":"Jatinegara","distance":1236,"time":9,"line":0},{"time":2,"line":1,"station_name":"Matraman","station_id":"MTR","i_long":106.858896,"distance":1377,"i_lat":-6.212485,"transit":false,"is_transit":false},{"i_long":106.84912,"station_id":"MRI","is_transit":true,"transit":true,"line":0,"i_lat":-6.209883,"distance":1275,"station_name":"Manggarai","time":2},{"is_transit":false,"time":4,"station_id":"TEB","distance":2610,"station_name":"Tebet","i_lat":-6.226659,"i_long":106.857948,"transit":false,"line":2},{"distance":1230,"station_name":"Cawang","transit":false,"station_id":"CW","time":2,"i_lat":-6.242512,"i_long":106.856607,"is_transit":false,"line":0},{"time":3,"line":0,"i_long":106.85449,"i_lat":-6.255332,"station_id":"DRN","is_transit":false,"distance":1546,"station_name":"Duren Kalibata","transit":false},{"i_lat":-6.263214,"station_name":"Pasar Minggu Baru","is_transit":false,"distance":824,"i_long":106.851577,"transit":false,"line":2,"station_id":"PSMB","time":2},{"time":2,"line":2,"station_id":"PSM","transit":false,"i_long":106.843999,"distance":2380,"is_transit":false,"station_name":"Pasar Minggu","i_lat":-6.2842400000000005},{"distance":2820,"station_name":"Tanjung Barat","station_id":"TNT","transit":false,"i_long":106.838896,"i_lat":-6.3080680000000005,"time":4,"is_transit":false,"line":2},{"station_name":"Lenteng Agung","line":2,"is_transit":false,"station_id":"LNA","i_long":106.832616,"time":3,"distance":2671,"transit":false,"i_lat":-6.330363},{"i_lat":-6.339291,"i_long":106.834175,"distance":1029,"line":2,"is_transit":false,"transit":false,"time":2,"station_id":"UP","station_name":"Univ. Pancasila"},{"line":2,"distance":2264,"transit":false,"station_id":"UI","station_name":"Univ. Indonesia","is_transit":false,"time":3,"i_lat":-6.360749,"i_long":106.831474}]]}