{"data":[[{"i_long":106.771379,"time":0,"station_name":"Pesing","transit":false,"distance":0,"line":5,"is_transit":false,"i_lat":-6.161433,"station_id":"PSG"},{"line":5,"transit":false,"station_id":"TKO","i_lat":-6.1587309999999995,"distance":1614,"time":2,"is_transit":false,"i_long":106.756522,"station_name":"Taman Kota"},{"station_id":"BOI","distance":2334,"transit":false,"line":5,"time":2,"station_name":"Bojongindah","i_long":106.737035,"i_lat":-6.159876,"is_transit":false},{"i_lat":-6.162758,"i_long":106.723064,"distance":1152,"time":4,"station_id":"RW","transit":false,"is_transit":false,"line":5,"station_name":"Rawa Buaya"},{"station_id":"KDS","station_name":"Kalideres","transit":false,"i_long":106.701612,"i_lat":-6.166068,"distance":2504,"time":3,"is_transit":false,"line":5},{"distance":2548,"i_long":106.679458,"i_lat":-6.169933,"line":5,"transit":false,"station_id":"PI","time":3,"station_name":"Poris","is_transit":false}]]}