{"data":[[{"transit":false,"i_lat":-6.161433,"distance":0,"is_transit":false,"station_id":"PSG","i_long":106.771379,"line":5,"station_name":"Pesing","time":0},{"i_lat":-6.162021,"line":5,"station_name":"Grogol","i_long":106.788277,"distance":2036,"is_transit":false,"station_id":"GGL","transit":false,"time":2},{"i_long":106.800832,"distance":1700,"line":1,"is_transit":true,"station_name":"Duri","time":3,"i_lat":-6.155215,"station_id":"DU","transit":true},{"i_lat":-6.185545,"station_id":"THB","distance":3632,"time":8,"station_name":"Tanah Abang","transit":true,"is_transit":true,"i_long":106.811091,"line":1},{"line":6,"station_name":"Palmerah","transit":false,"time":6,"is_transit":false,"i_long":106.79689,"i_lat":-6.207404,"station_id":"PLM","distance":3191},{"i_lat":-6.237242,"i_long":106.780334,"transit":false,"time":7,"line":6,"distance":3737,"station_id":"KBY","is_transit":false,"station_name":"Kebayoran"},{"station_id":"PDJ","time":8,"i_lat":-6.276362,"i_long":106.74273,"line":6,"station_name":"Pondokranji","transit":false,"is_transit":false,"distance":6218},{"i_long":106.728916,"time":3,"station_id":"JMU","i_lat":-6.288927,"is_transit":false,"distance":2179,"transit":false,"line":6,"station_name":"Jurangmangu"},{"i_long":106.712277,"station_name":"Sudimara","i_lat":-6.296963,"distance":1994,"line":6,"is_transit":false,"station_id":"SDM","transit":false,"time":4},{"transit":false,"line":6,"station_name":"Rawa Buntu","is_transit":false,"station_id":"RU","distance":4566,"time":6,"i_lat":-6.314823,"i_long":106.675475},{"distance":2413,"transit":false,"time":4,"i_long":106.66566,"station_id":"SRP","is_transit":false,"station_name":"Serpong","i_lat":-6.319871,"line":6},{"distance":1784,"transit":false,"i_long":106.640411,"i_lat":-6.32484,"station_id":"CSK","time":4,"is_transit":false,"station_name":"Cisauk","line":0},{"line":0,"station_name":"Cicayur","transit":false,"i_lat":-6.329547,"is_transit":false,"station_id":"CC","distance":2519,"i_long":106.617853,"time":4},{"station_id":"PRP","distance":5968,"transit":false,"i_long":106.568863,"station_name":"Parung Panjang","i_lat":-6.3441410000000005,"is_transit":false,"time":8,"line":6},{"distance":7025,"station_name":"Cilejit","i_lat":-6.354349,"transit":false,"line":0,"time":9,"i_long":106.508482,"is_transit":false,"station_id":"CJT"},{"i_long":106.491338,"line":0,"is_transit":false,"distance":2675,"station_id":"DAR","i_lat":-6.338021,"time":6,"station_name":"Daru","transit":false},{"station_name":"Tenjo","time":5,"distance":3902,"station_id":"TEJ","transit":false,"i_long":106.460812,"line":6,"is_transit":false,"i_lat":-6.327251}],[{"distance":0,"station_id":"PSG","is_transit":false,"transit":false,"i_lat":-6.161433,"station_name":"Pesing","time":0,"i_long":106.771379,"line":5},{"i_lat":-6.162021,"distance":2036,"i_long":106.788277,"line":5,"station_name":"Grogol","is_transit":false,"transit":false,"time":2,"station_id":"GGL"},{"station_id":"DU","is_transit":true,"transit":true,"i_long":106.800832,"distance":1700,"time":3,"station_name":"Duri","i_lat":-6.155215,"line":1},{"i_lat":-6.144674,"transit":false,"is_transit":false,"line":0,"station_id":"AK","i_long":106.79867,"station_name":"Angke","distance":1230,"time":4},{"is_transit":true,"transit":false,"i_long":106.826365,"line":0,"station_id":"KPB","i_lat":-6.132549,"distance":4102,"station_name":"Kampung Bandan","time":9},{"is_transit":true,"transit":true,"line":0,"time":3,"i_long":106.812439,"station_id":"JAKK","station_name":"Jakarta Kota","i_lat":-6.137569,"distance":1364},{"i_long":106.820901,"i_lat":-6.141205,"station_id":"JAY","transit":false,"is_transit":false,"time":4,"station_name":"Jayakarta","distance":1264,"line":7},{"time":2,"distance":1080,"is_transit":false,"station_id":"MGB","transit":false,"station_name":"Manggabesar","i_long":106.82482,"i_lat":-6.149769,"line":2},{"i_lat":-6.160725,"station_name":"Sawah Besar","transit":false,"is_transit":false,"distance":906,"line":2,"station_id":"SW","i_long":106.827103,"time":2},{"distance":1149,"time":2,"transit":false,"i_lat":-6.166716,"i_long":106.828284,"station_name":"Juanda","station_id":"JUA","is_transit":false,"line":2},{"station_name":"Gondangdia","is_transit":false,"station_id":"GDD","time":4,"line":2,"transit":false,"i_lat":-6.186295,"distance":2015,"i_long":106.832183},{"distance":1750,"line":0,"i_lat":-6.198556,"is_transit":false,"station_name":"Cikini","i_long":106.840169,"time":3,"station_id":"CKI","transit":false},{"station_name":"Manggarai","i_long":106.84912,"distance":1590,"transit":true,"i_lat":-6.209883,"line":0,"time":4,"station_id":"MRI","is_transit":true},{"distance":3186,"station_name":"Sudirman","transit":false,"time":4,"is_transit":false,"station_id":"SUD","line":1,"i_long":106.822649,"i_lat":-6.202263},{"station_name":"Sudirman Baru","transit":false,"i_long":106.819881,"i_lat":-6.201433,"line":1,"is_transit":false,"distance":280,"station_id":"SUDB","time":1},{"time":1,"transit":false,"i_long":106.816351,"distance":471,"line":1,"i_lat":-6.20132,"is_transit":false,"station_id":"KAT","station_name":"Karet"},{"station_id":"THB","station_name":"Tanah Abang","i_long":106.811091,"line":1,"distance":2029,"is_transit":true,"transit":true,"i_lat":-6.185545,"time":5},{"i_long":106.79689,"line":6,"time":6,"is_transit":false,"station_name":"Palmerah","transit":false,"distance":3191,"station_id":"PLM","i_lat":-6.207404},{"i_lat":-6.237242,"i_long":106.780334,"is_transit":false,"line":6,"station_id":"KBY","transit":false,"distance":3737,"time":7,"station_name":"Kebayoran"},{"line":6,"is_transit":false,"i_lat":-6.276362,"transit":false,"station_name":"Pondokranji","distance":6218,"station_id":"PDJ","time":8,"i_long":106.74273},{"i_lat":-6.288927,"station_id":"JMU","time":3,"line":6,"transit":false,"is_transit":false,"i_long":106.728916,"distance":2179,"station_name":"Jurangmangu"},{"distance":1994,"time":4,"station_id":"SDM","station_name":"Sudimara","line":6,"is_transit":false,"transit":false,"i_long":106.712277,"i_lat":-6.296963},{"i_long":106.675475,"is_transit":false,"distance":4566,"station_id":"RU","station_name":"Rawa Buntu","transit":false,"time":6,"line":6,"i_lat":-6.314823},{"is_transit":false,"time":4,"i_lat":-6.319871,"station_id":"SRP","i_long":106.66566,"line":6,"distance":2413,"transit":false,"station_name":"Serpong"},{"transit":false,"time":4,"distance":1784,"is_transit":false,"i_lat":-6.32484,"i_long":106.640411,"line":0,"station_name":"Cisauk","station_id":"CSK"},{"transit":false,"station_id":"CC","distance":2519,"station_name":"Cicayur","is_transit":false,"time":4,"i_lat":-6.329547,"line":0,"i_long":106.617853},{"time":8,"line":6,"is_transit":false,"transit":false,"i_lat":-6.3441410000000005,"station_name":"Parung Panjang","i_long":106.568863,"station_id":"PRP","distance":5968},{"station_name":"Cilejit","is_transit":false,"i_lat":-6.354349,"i_long":106.508482,"time":9,"distance":7025,"line":0,"transit":false,"station_id":"CJT"},{"i_lat":-6.338021,"station_id":"DAR","time":6,"transit":false,"station_name":"Daru","distance":2675,"is_transit":false,"line":0,"i_long":106.491338},{"distance":3902,"station_id":"TEJ","line":6,"i_lat":-6.327251,"station_name":"Tenjo","time":5,"transit":false,"is_transit":false,"i_long":106.460812}],[{"i_lat":-6.161433,"is_transit":false,"i_long":106.771379,"line":5,"distance":0,"transit":false,"time":0,"station_name":"Pesing","station_id":"PSG"},{"transit":false,"is_transit":false,"i_lat":-6.162021,"i_long":106.788277,"time":2,"station_id":"GGL","line":5,"distance":2036,"station_name":"Grogol"},{"i_long":106.800832,"station_name":"Duri","transit":true,"distance":1700,"is_transit":true,"i_lat":-6.155215,"time":3,"station_id":"DU","line":1},{"transit":false,"i_long":106.79867,"time":4,"is_transit":false,"distance":1230,"station_name":"Angke","line":0,"i_lat":-6.144674,"station_id":"AK"},{"distance":4102,"station_name":"Kampung Bandan","is_transit":true,"i_lat":-6.132549,"i_long":106.826365,"line":0,"time":9,"transit":true,"station_id":"KPB"},{"i_lat":-6.14505,"is_transit":false,"distance":1444,"station_name":"Rajawali","transit":false,"station_id":"RJW","time":3,"i_long":106.836569,"line":11},{"time":5,"station_name":"Kemayoran","is_transit":false,"i_long":106.839204,"station_id":"KMO","transit":false,"line":11,"i_lat":-6.161728,"distance":1901},{"distance":1436,"line":11,"station_name":"Pasar Senen","i_lat":-6.174784,"i_long":106.84368,"transit":false,"time":4,"is_transit":false,"station_id":"PSE"},{"time":8,"line":11,"station_id":"GST","station_name":"Gang Sentiong","i_long":106.850107,"distance":1567,"i_lat":-6.185975,"is_transit":false,"transit":false},{"is_transit":false,"i_lat":-6.193792,"i_long":106.855437,"distance":973,"time":1,"line":11,"transit":false,"station_name":"Kramat","station_id":"KMT"},{"distance":1829,"is_transit":false,"i_lat":-6.209188,"station_id":"POK","i_long":106.861737,"station_name":"Pondok Jati","transit":false,"line":11,"time":2},{"i_lat":-6.215091,"time":9,"is_transit":true,"distance":1236,"station_name":"Jatinegara","transit":true,"line":0,"station_id":"JNG","i_long":106.86807400000001},{"time":2,"is_transit":false,"i_lat":-6.212485,"distance":1377,"i_long":106.858896,"line":1,"station_id":"MTR","transit":false,"station_name":"Matraman"},{"time":2,"distance":1275,"is_transit":true,"i_long":106.84912,"i_lat":-6.209883,"transit":false,"line":0,"station_id":"MRI","station_name":"Manggarai"},{"time":4,"line":1,"i_long":106.822649,"is_transit":false,"station_id":"SUD","station_name":"Sudirman","transit":false,"distance":3186,"i_lat":-6.202263},{"time":1,"station_name":"Sudirman Baru","station_id":"SUDB","i_lat":-6.201433,"i_long":106.819881,"is_transit":false,"line":1,"transit":false,"distance":280},{"transit":false,"i_long":106.816351,"time":1,"is_transit":false,"i_lat":-6.20132,"station_id":"KAT","line":1,"distance":471,"station_name":"Karet"},{"distance":2029,"is_transit":true,"time":5,"i_lat":-6.185545,"i_long":106.811091,"station_id":"THB","transit":true,"station_name":"Tanah Abang","line":1},{"distance":3191,"is_transit":false,"i_lat":-6.207404,"i_long":106.79689,"transit":false,"time":6,"line":6,"station_name":"Palmerah","station_id":"PLM"},{"i_lat":-6.237242,"station_id":"KBY","time":7,"distance":3737,"transit":false,"i_long":106.780334,"line":6,"is_transit":false,"station_name":"Kebayoran"},{"time":8,"line":6,"distance":6218,"station_name":"Pondokranji","transit":false,"i_long":106.74273,"i_lat":-6.276362,"is_transit":false,"station_id":"PDJ"},{"line":6,"is_transit":false,"i_long":106.728916,"distance":2179,"station_id":"JMU","transit":false,"station_name":"Jurangmangu","time":3,"i_lat":-6.288927},{"station_id":"SDM","distance":1994,"i_lat":-6.296963,"i_long":106.712277,"time":4,"is_transit":false,"transit":false,"station_name":"Sudimara","line":6},{"transit":false,"station_id":"RU","time":6,"i_lat":-6.314823,"i_long":106.675475,"is_transit":false,"station_name":"Rawa Buntu","line":6,"distance":4566},{"is_transit":false,"station_name":"Serpong","station_id":"SRP","i_lat":-6.319871,"i_long":106.66566,"time":4,"transit":false,"line":6,"distance":2413},{"is_transit":false,"station_id":"CSK","time":4,"transit":false,"line":0,"i_lat":-6.32484,"i_long":106.640411,"station_name":"Cisauk","distance":1784},{"distance":2519,"is_transit":false,"i_long":106.617853,"i_lat":-6.329547,"transit":false,"station_id":"CC","time":4,"line":0,"station_name":"Cicayur"},{"station_id":"PRP","i_lat":-6.3441410000000005,"is_transit":false,"station_name":"Parung Panjang","distance":5968,"transit":false,"i_long":106.568863,"time":8,"line":6},{"distance":7025,"i_lat":-6.354349,"station_id":"CJT","is_transit":false,"time":9,"i_long":106.508482,"transit":false,"station_name":"Cilejit","line":0},{"time":6,"transit":false,"i_lat":-6.338021,"i_long":106.491338,"station_name":"Daru","line":0,"is_transit":false,"station_id":"DAR","distance":2675},{"line":6,"i_lat":-6.327251,"is_transit":false,"time":5,"station_id":"TEJ","station_name":"Tenjo","transit":false,"i_long":106.460812,"distance":3902}]]}