{"data":[[{"distance":0,"transit":false,"station_name":"Pesing","i_long":106.771379,"time":0,"is_transit":false,"i_lat":-6.161433,"line":5,"station_id":"PSG"},{"i_long":106.788277,"line":5,"distance":2036,"station_id":"GGL","is_transit":false,"transit":false,"station_name":"Grogol","i_lat":-6.162021,"time":2},{"station_name":"Duri","transit":true,"station_id":"DU","i_long":106.800832,"is_transit":true,"time":3,"distance":1700,"i_lat":-6.155215,"line":1},{"is_transit":false,"i_long":106.811091,"transit":false,"station_name":"Tanah Abang","i_lat":-6.185545,"station_id":"THB","line":1,"distance":3632,"time":8},{"station_id":"KAT","is_transit":false,"transit":false,"station_name":"Karet","time":5,"distance":2029,"i_long":106.816351,"i_lat":-6.20132,"line":1},{"i_lat":-6.201433,"line":1,"i_long":106.819881,"distance":471,"time":1,"station_id":"SUDB","is_transit":false,"transit":false,"station_name":"Sudirman Baru"},{"distance":280,"station_name":"Sudirman","line":1,"time":1,"station_id":"SUD","i_long":106.822649,"transit":false,"i_lat":-6.202263,"is_transit":false},{"is_transit":true,"station_name":"Manggarai","distance":3186,"time":4,"station_id":"MRI","transit":true,"line":2,"i_lat":-6.209883,"i_long":106.84912},{"time":4,"station_id":"TEB","distance":2610,"transit":false,"i_lat":-6.226659,"i_long":106.857948,"line":2,"station_name":"Tebet","is_transit":false},{"i_long":106.856607,"station_id":"CW","time":2,"i_lat":-6.242512,"station_name":"Cawang","line":2,"distance":1230,"is_transit":false,"transit":false},{"station_id":"DRN","distance":1546,"is_transit":false,"station_name":"Duren Kalibata","transit":false,"time":3,"i_lat":-6.255332,"line":2,"i_long":106.85449},{"is_transit":false,"i_lat":-6.263214,"line":2,"distance":824,"time":2,"i_long":106.851577,"station_id":"PSMB","transit":false,"station_name":"Pasar Minggu Baru"},{"station_name":"Pasar Minggu","transit":false,"i_lat":-6.2842400000000005,"is_transit":false,"distance":2380,"station_id":"PSM","i_long":106.843999,"line":2,"time":2},{"station_id":"TNT","transit":false,"line":2,"is_transit":false,"i_long":106.838896,"time":4,"i_lat":-6.3080680000000005,"station_name":"Tanjung Barat","distance":2820},{"is_transit":false,"line":2,"time":3,"distance":2671,"station_id":"LNA","transit":false,"station_name":"Lenteng Agung","i_lat":-6.330363,"i_long":106.832616},{"i_long":106.834175,"time":2,"distance":1029,"line":2,"station_id":"UP","is_transit":false,"i_lat":-6.339291,"station_name":"Univ. Pancasila","transit":false}],[{"distance":0,"i_long":106.771379,"line":5,"is_transit":false,"station_id":"PSG","transit":false,"station_name":"Pesing","i_lat":-6.161433,"time":0},{"distance":2036,"station_id":"GGL","is_transit":false,"line":5,"transit":false,"i_long":106.788277,"station_name":"Grogol","time":2,"i_lat":-6.162021},{"station_name":"Duri","i_lat":-6.155215,"i_long":106.800832,"line":1,"distance":1700,"transit":true,"station_id":"DU","is_transit":true,"time":3},{"station_name":"Angke","is_transit":false,"distance":1230,"time":4,"i_lat":-6.144674,"station_id":"AK","transit":false,"line":1,"i_long":106.79867},{"i_long":106.826365,"transit":true,"i_lat":-6.132549,"is_transit":true,"line":4,"time":9,"station_id":"KPB","station_name":"Kampung Bandan","distance":4102},{"i_lat":-6.137569,"i_long":106.812439,"station_id":"JAKK","transit":true,"is_transit":true,"line":2,"distance":1364,"station_name":"Jakarta Kota","time":3},{"station_id":"JAY","time":4,"i_lat":-6.141205,"i_long":106.820901,"distance":1264,"is_transit":false,"transit":false,"line":2,"station_name":"Jayakarta"},{"line":2,"time":2,"transit":false,"i_long":106.82482,"is_transit":false,"distance":1080,"station_id":"MGB","station_name":"Manggabesar","i_lat":-6.149769},{"is_transit":false,"time":2,"distance":906,"i_long":106.827103,"i_lat":-6.160725,"station_id":"SW","station_name":"Sawah Besar","line":2,"transit":false},{"station_id":"JUA","distance":1149,"is_transit":false,"station_name":"Juanda","i_long":106.828284,"transit":false,"time":2,"i_lat":-6.166716,"line":2},{"time":4,"station_id":"GDD","is_transit":false,"transit":false,"station_name":"Gondangdia","i_lat":-6.186295,"i_long":106.832183,"distance":2015,"line":2},{"station_id":"CKI","is_transit":false,"transit":false,"station_name":"Cikini","i_lat":-6.198556,"line":2,"time":3,"i_long":106.840169,"distance":1750},{"distance":1590,"line":2,"time":4,"station_id":"MRI","is_transit":false,"transit":false,"station_name":"Manggarai","i_lat":-6.209883,"i_long":106.84912},{"time":4,"line":2,"is_transit":false,"station_name":"Tebet","distance":2610,"transit":false,"i_lat":-6.226659,"station_id":"TEB","i_long":106.857948},{"time":2,"transit":false,"station_id":"CW","line":2,"distance":1230,"i_long":106.856607,"is_transit":false,"i_lat":-6.242512,"station_name":"Cawang"},{"i_long":106.85449,"time":3,"station_id":"DRN","line":2,"station_name":"Duren Kalibata","is_transit":false,"i_lat":-6.255332,"distance":1546,"transit":false},{"station_name":"Pasar Minggu Baru","transit":false,"i_long":106.851577,"station_id":"PSMB","is_transit":false,"distance":824,"time":2,"i_lat":-6.263214,"line":2},{"i_lat":-6.2842400000000005,"transit":false,"time":2,"distance":2380,"is_transit":false,"station_id":"PSM","station_name":"Pasar Minggu","i_long":106.843999,"line":2},{"line":2,"station_name":"Tanjung Barat","time":4,"i_lat":-6.3080680000000005,"station_id":"TNT","transit":false,"i_long":106.838896,"is_transit":false,"distance":2820},{"line":2,"i_lat":-6.330363,"transit":false,"is_transit":false,"distance":2671,"station_id":"LNA","time":3,"station_name":"Lenteng Agung","i_long":106.832616},{"i_lat":-6.339291,"transit":false,"station_id":"UP","station_name":"Univ. Pancasila","i_long":106.834175,"line":2,"distance":1029,"time":2,"is_transit":false}],[{"i_lat":-6.161433,"is_transit":false,"transit":false,"distance":0,"line":5,"i_long":106.771379,"time":0,"station_id":"PSG","station_name":"Pesing"},{"i_lat":-6.162021,"i_long":106.788277,"line":5,"time":2,"station_id":"GGL","transit":false,"is_transit":false,"station_name":"Grogol","distance":2036},{"distance":1700,"line":1,"i_long":106.800832,"is_transit":true,"time":3,"transit":true,"station_id":"DU","i_lat":-6.155215,"station_name":"Duri"},{"station_name":"Angke","distance":1230,"is_transit":false,"i_lat":-6.144674,"line":1,"i_long":106.79867,"transit":false,"time":4,"station_id":"AK"},{"line":4,"station_name":"Kampung Bandan","i_long":106.826365,"transit":true,"is_transit":true,"i_lat":-6.132549,"distance":4102,"station_id":"KPB","time":9},{"time":3,"i_long":106.836569,"station_name":"Rajawali","line":11,"distance":1444,"transit":false,"is_transit":false,"station_id":"RJW","i_lat":-6.14505},{"line":11,"distance":1901,"station_id":"KMO","i_long":106.839204,"station_name":"Kemayoran","transit":false,"time":5,"is_transit":false,"i_lat":-6.161728},{"distance":1436,"i_lat":-6.174784,"station_id":"PSE","is_transit":false,"i_long":106.84368,"transit":false,"station_name":"Pasar Senen","time":4,"line":11},{"transit":false,"distance":1567,"i_long":106.850107,"station_name":"Gang Sentiong","time":8,"i_lat":-6.185975,"line":11,"is_transit":false,"station_id":"GST"},{"line":11,"distance":973,"station_name":"Kramat","i_long":106.855437,"i_lat":-6.193792,"station_id":"KMT","transit":false,"is_transit":false,"time":1},{"time":2,"station_name":"Pondok Jati","i_long":106.861737,"is_transit":false,"transit":false,"station_id":"POK","distance":1829,"line":11,"i_lat":-6.209188},{"is_transit":true,"i_long":106.86807400000001,"time":9,"station_name":"Jatinegara","line":1,"i_lat":-6.215091,"distance":1236,"station_id":"JNG","transit":true},{"i_long":106.858896,"transit":false,"station_name":"Matraman","distance":1377,"station_id":"MTR","i_lat":-6.212485,"time":2,"is_transit":false,"line":1},{"time":2,"distance":1275,"is_transit":true,"i_long":106.84912,"station_id":"MRI","station_name":"Manggarai","i_lat":-6.209883,"line":2,"transit":true},{"distance":2610,"time":4,"i_long":106.857948,"is_transit":false,"station_id":"TEB","transit":false,"i_lat":-6.226659,"station_name":"Tebet","line":2},{"i_lat":-6.242512,"i_long":106.856607,"line":2,"distance":1230,"station_id":"CW","is_transit":false,"station_name":"Cawang","time":2,"transit":false},{"station_name":"Duren Kalibata","time":3,"is_transit":false,"transit":false,"distance":1546,"i_lat":-6.255332,"i_long":106.85449,"station_id":"DRN","line":2},{"station_id":"PSMB","time":2,"distance":824,"is_transit":false,"line":2,"i_lat":-6.263214,"station_name":"Pasar Minggu Baru","transit":false,"i_long":106.851577},{"station_id":"PSM","line":2,"i_long":106.843999,"i_lat":-6.2842400000000005,"transit":false,"time":2,"station_name":"Pasar Minggu","distance":2380,"is_transit":false},{"transit":false,"station_name":"Tanjung Barat","station_id":"TNT","i_long":106.838896,"distance":2820,"is_transit":false,"line":2,"time":4,"i_lat":-6.3080680000000005},{"station_name":"Lenteng Agung","transit":false,"time":3,"station_id":"LNA","is_transit":false,"i_long":106.832616,"line":2,"distance":2671,"i_lat":-6.330363},{"station_id":"UP","distance":1029,"is_transit":false,"i_lat":-6.339291,"i_long":106.834175,"transit":false,"line":2,"station_name":"Univ. Pancasila","time":2}]]}