{"data":[[{"i_lat":-6.161433,"time":0,"is_transit":false,"i_long":106.771379,"distance":0,"transit":false,"line":5,"station_name":"Pesing","station_id":"PSG"},{"station_id":"GRG","line":5,"transit":false,"is_transit":false,"i_lat":-6.162021,"station_name":"Grogol","i_long":106.788277,"distance":2036,"time":2},{"line":1,"time":3,"distance":1700,"station_id":"DU","i_lat":-6.155215,"station_name":"Duri","transit":true,"i_long":106.800832,"is_transit":true},{"i_long":106.811091,"time":8,"transit":true,"station_name":"Tanah Abang","distance":3632,"is_transit":true,"line":1,"station_id":"THB","i_lat":-6.185545},{"time":6,"transit":false,"station_id":"PLM","is_transit":false,"i_long":106.79689,"station_name":"Palmerah","distance":3191,"line":6,"i_lat":-6.207404},{"time":7,"station_id":"KBY","station_name":"Kebayoran","line":6,"transit":false,"distance":3737,"i_long":106.780334,"is_transit":false,"i_lat":-6.237242},{"i_lat":-6.276362,"i_long":106.74273,"is_transit":false,"distance":6218,"transit":false,"line":6,"station_name":"Pondokranji","station_id":"PDJ","time":8},{"station_id":"JMU","line":6,"time":3,"is_transit":false,"transit":false,"i_long":106.728916,"i_lat":-6.288927,"station_name":"Jurangmangu","distance":2179},{"station_name":"Sudimara","distance":1994,"line":6,"transit":false,"is_transit":false,"i_lat":-6.296963,"i_long":106.712277,"station_id":"SDM","time":4},{"i_lat":-6.314823,"distance":4566,"line":6,"time":6,"is_transit":false,"station_id":"RU","transit":false,"station_name":"Rawa Buntu","i_long":106.675475},{"i_lat":-6.319871,"transit":false,"station_name":"Serpong","is_transit":false,"distance":2413,"time":4,"line":6,"station_id":"SRP","i_long":106.66566},{"distance":1784,"transit":false,"time":4,"station_id":"CSK","station_name":"Cisauk","is_transit":false,"i_long":106.640411,"i_lat":-6.32484,"line":3},{"time":4,"i_long":106.617853,"station_id":"CC","distance":2519,"transit":false,"station_name":"Cicayur","is_transit":false,"line":3,"i_lat":-6.329547},{"line":6,"i_long":106.568863,"i_lat":-6.3441410000000005,"distance":5968,"is_transit":false,"station_id":"PRP","station_name":"Parung Panjang","transit":false,"time":8},{"line":3,"transit":false,"station_id":"CJT","is_transit":false,"distance":7025,"time":9,"i_long":106.508482,"station_name":"Cilejit","i_lat":-6.354349},{"distance":2675,"station_id":"DAR","is_transit":false,"transit":false,"time":6,"i_lat":-6.338021,"station_name":"Daru","i_long":106.491338,"line":0},{"station_name":"Tenjo","transit":false,"i_lat":-6.327251,"station_id":"TEJ","is_transit":false,"line":6,"distance":3902,"time":5,"i_long":106.460812}],[{"transit":false,"station_name":"Pesing","station_id":"PSG","i_long":106.771379,"line":5,"time":0,"i_lat":-6.161433,"is_transit":false,"distance":0},{"distance":2036,"station_name":"Grogol","transit":false,"i_lat":-6.162021,"is_transit":false,"i_long":106.788277,"time":2,"line":5,"station_id":"GRG"},{"station_name":"Duri","is_transit":true,"time":3,"station_id":"DU","line":1,"transit":true,"i_long":106.800832,"i_lat":-6.155215,"distance":1700},{"time":4,"distance":1230,"is_transit":false,"i_long":106.79867,"station_id":"AK","line":1,"i_lat":-6.144674,"station_name":"Angke","transit":false},{"time":9,"i_lat":-6.132549,"station_name":"Kampung Bandan","transit":true,"is_transit":true,"i_long":106.826365,"line":4,"distance":4102,"station_id":"KPB"},{"line":2,"distance":1364,"station_id":"JAKK","is_transit":true,"transit":true,"i_lat":-6.137569,"time":3,"i_long":106.812439,"station_name":"Jakarta Kota"},{"is_transit":false,"station_name":"Jayakarta","station_id":"JAY","distance":1264,"i_lat":-6.141205,"i_long":106.820901,"transit":false,"line":2,"time":4},{"station_name":"Manggabesar","line":2,"station_id":"MGB","distance":1080,"transit":false,"is_transit":false,"i_long":106.82482,"i_lat":-6.149769,"time":2},{"distance":906,"line":2,"station_id":"SW","time":2,"is_transit":false,"station_name":"Sawah Besar","transit":false,"i_long":106.827103,"i_lat":-6.160725},{"distance":1149,"i_long":106.828284,"line":2,"is_transit":false,"i_lat":-6.166716,"transit":false,"station_name":"Juanda","station_id":"JUA","time":2},{"i_lat":-6.186295,"station_id":"GDD","is_transit":false,"station_name":"Gondangdia","time":4,"line":2,"i_long":106.832183,"distance":2015,"transit":false},{"distance":1750,"i_lat":-6.198556,"station_name":"Cikini","station_id":"CKI","is_transit":false,"line":2,"i_long":106.840169,"time":3,"transit":false},{"station_name":"Manggarai","i_lat":-6.209883,"i_long":106.84912,"is_transit":true,"line":2,"transit":true,"station_id":"MRI","distance":1590,"time":4},{"distance":3186,"is_transit":false,"transit":false,"station_name":"Sudirman","i_lat":-6.202263,"i_long":106.822649,"time":4,"station_id":"SUD","line":1},{"line":1,"transit":false,"time":1,"is_transit":false,"station_id":"SUDB","i_lat":-6.201433,"i_long":106.819881,"station_name":"Sudirman Baru","distance":280},{"distance":471,"transit":false,"i_lat":-6.20132,"i_long":106.816351,"station_name":"Karet","time":1,"station_id":"KAT","line":1,"is_transit":false},{"station_name":"Tanah Abang","station_id":"THB","time":5,"is_transit":true,"i_lat":-6.185545,"distance":2029,"transit":true,"i_long":106.811091,"line":1},{"station_name":"Palmerah","i_lat":-6.207404,"i_long":106.79689,"transit":false,"distance":3191,"time":6,"line":6,"station_id":"PLM","is_transit":false},{"time":7,"line":6,"distance":3737,"is_transit":false,"station_id":"KBY","transit":false,"station_name":"Kebayoran","i_lat":-6.237242,"i_long":106.780334},{"transit":false,"time":8,"i_long":106.74273,"distance":6218,"is_transit":false,"station_id":"PDJ","i_lat":-6.276362,"station_name":"Pondokranji","line":6},{"station_id":"JMU","i_lat":-6.288927,"is_transit":false,"time":3,"i_long":106.728916,"distance":2179,"station_name":"Jurangmangu","line":6,"transit":false},{"transit":false,"is_transit":false,"i_lat":-6.296963,"distance":1994,"station_name":"Sudimara","station_id":"SDM","line":6,"time":4,"i_long":106.712277},{"station_id":"RU","line":6,"transit":false,"distance":4566,"time":6,"i_long":106.675475,"station_name":"Rawa Buntu","is_transit":false,"i_lat":-6.314823},{"station_id":"SRP","transit":false,"distance":2413,"i_long":106.66566,"line":6,"station_name":"Serpong","i_lat":-6.319871,"is_transit":false,"time":4},{"i_lat":-6.32484,"transit":false,"i_long":106.640411,"distance":1784,"time":4,"line":3,"station_name":"Cisauk","station_id":"CSK","is_transit":false},{"i_long":106.617853,"station_name":"Cicayur","line":3,"distance":2519,"transit":false,"i_lat":-6.329547,"time":4,"station_id":"CC","is_transit":false},{"i_long":106.568863,"transit":false,"line":6,"time":8,"i_lat":-6.3441410000000005,"station_id":"PRP","distance":5968,"station_name":"Parung Panjang","is_transit":false},{"distance":7025,"transit":false,"is_transit":false,"i_lat":-6.354349,"i_long":106.508482,"time":9,"station_name":"Cilejit","station_id":"CJT","line":3},{"is_transit":false,"station_id":"DAR","line":0,"transit":false,"distance":2675,"i_long":106.491338,"time":6,"i_lat":-6.338021,"station_name":"Daru"},{"time":5,"is_transit":false,"line":6,"distance":3902,"station_name":"Tenjo","transit":false,"i_lat":-6.327251,"station_id":"TEJ","i_long":106.460812}],[{"distance":0,"station_name":"Pesing","line":5,"i_long":106.771379,"station_id":"PSG","time":0,"transit":false,"is_transit":false,"i_lat":-6.161433},{"i_long":106.788277,"transit":false,"is_transit":false,"distance":2036,"time":2,"station_name":"Grogol","station_id":"GRG","i_lat":-6.162021,"line":5},{"station_name":"Duri","line":1,"i_lat":-6.155215,"is_transit":true,"distance":1700,"i_long":106.800832,"transit":true,"station_id":"DU","time":3},{"station_name":"Angke","transit":false,"distance":1230,"i_lat":-6.144674,"line":1,"i_long":106.79867,"station_id":"AK","time":4,"is_transit":false},{"is_transit":true,"distance":4102,"time":9,"station_id":"KPB","station_name":"Kampung Bandan","i_long":106.826365,"i_lat":-6.132549,"line":4,"transit":true},{"is_transit":false,"transit":false,"i_long":106.836569,"distance":1444,"i_lat":-6.14505,"time":3,"line":11,"station_name":"Rajawali","station_id":"RJW"},{"station_name":"Kemayoran","is_transit":false,"time":5,"station_id":"KMO","i_lat":-6.161728,"line":11,"i_long":106.839204,"transit":false,"distance":1901},{"is_transit":false,"transit":false,"station_id":"PSE","i_lat":-6.174784,"i_long":106.84368,"line":11,"distance":1436,"station_name":"Pasar Senen","time":4},{"station_name":"Gang Sentiong","distance":1567,"is_transit":false,"i_long":106.850107,"station_id":"GST","line":11,"time":8,"transit":false,"i_lat":-6.185975},{"station_id":"KMT","is_transit":false,"station_name":"Kramat","time":1,"i_lat":-6.193792,"line":11,"distance":973,"i_long":106.855437,"transit":false},{"i_long":106.861737,"distance":1829,"station_id":"POK","transit":false,"is_transit":false,"i_lat":-6.209188,"line":11,"station_name":"Pondok Jati","time":2},{"distance":1236,"station_id":"JNG","is_transit":true,"station_name":"Jatinegara","i_long":106.86807400000001,"line":1,"i_lat":-6.215091,"transit":true,"time":9},{"transit":false,"is_transit":false,"i_lat":-6.212485,"i_long":106.858896,"station_name":"Matraman","distance":1377,"station_id":"MTR","time":2,"line":1},{"station_name":"Manggarai","distance":1275,"station_id":"MRI","time":2,"i_lat":-6.209883,"line":2,"is_transit":false,"transit":false,"i_long":106.84912},{"distance":3186,"station_name":"Sudirman","transit":false,"station_id":"SUD","i_lat":-6.202263,"line":1,"is_transit":false,"time":4,"i_long":106.822649},{"distance":280,"i_long":106.819881,"i_lat":-6.201433,"station_id":"SUDB","is_transit":false,"transit":false,"line":1,"time":1,"station_name":"Sudirman Baru"},{"distance":471,"station_name":"Karet","station_id":"KAT","i_long":106.816351,"time":1,"is_transit":false,"line":1,"transit":false,"i_lat":-6.20132},{"station_name":"Tanah Abang","time":5,"is_transit":true,"station_id":"THB","i_long":106.811091,"line":1,"distance":2029,"transit":true,"i_lat":-6.185545},{"line":6,"transit":false,"is_transit":false,"time":6,"station_id":"PLM","i_lat":-6.207404,"distance":3191,"station_name":"Palmerah","i_long":106.79689},{"distance":3737,"is_transit":false,"time":7,"line":6,"i_long":106.780334,"i_lat":-6.237242,"station_id":"KBY","transit":false,"station_name":"Kebayoran"},{"transit":false,"distance":6218,"time":8,"station_id":"PDJ","i_long":106.74273,"i_lat":-6.276362,"station_name":"Pondokranji","line":6,"is_transit":false},{"distance":2179,"station_name":"Jurangmangu","time":3,"station_id":"JMU","i_lat":-6.288927,"i_long":106.728916,"transit":false,"is_transit":false,"line":6},{"station_name":"Sudimara","line":6,"is_transit":false,"station_id":"SDM","i_long":106.712277,"distance":1994,"transit":false,"time":4,"i_lat":-6.296963},{"station_id":"RU","i_long":106.675475,"distance":4566,"i_lat":-6.314823,"is_transit":false,"line":6,"time":6,"station_name":"Rawa Buntu","transit":false},{"line":6,"distance":2413,"i_lat":-6.319871,"time":4,"transit":false,"station_id":"SRP","is_transit":false,"i_long":106.66566,"station_name":"Serpong"},{"i_lat":-6.32484,"i_long":106.640411,"time":4,"distance":1784,"transit":false,"station_id":"CSK","station_name":"Cisauk","is_transit":false,"line":3},{"is_transit":false,"line":3,"distance":2519,"transit":false,"station_id":"CC","station_name":"Cicayur","time":4,"i_long":106.617853,"i_lat":-6.329547},{"time":8,"transit":false,"line":6,"distance":5968,"station_id":"PRP","station_name":"Parung Panjang","is_transit":false,"i_lat":-6.3441410000000005,"i_long":106.568863},{"distance":7025,"station_id":"CJT","i_long":106.508482,"line":3,"station_name":"Cilejit","transit":false,"i_lat":-6.354349,"is_transit":false,"time":9},{"transit":false,"station_id":"DAR","station_name":"Daru","distance":2675,"line":0,"i_long":106.491338,"is_transit":false,"time":6,"i_lat":-6.338021},{"transit":false,"i_long":106.460812,"station_id":"TEJ","distance":3902,"station_name":"Tenjo","time":5,"is_transit":false,"line":6,"i_lat":-6.327251}]]}