{"data":[[{"time":0,"station_id":"PSG","station_name":"Pesing","distance":0,"i_lat":-6.161433,"line":5,"transit":false,"is_transit":false,"i_long":106.771379},{"i_long":106.788277,"station_id":"GRG","distance":2036,"line":5,"time":2,"i_lat":-6.162021,"transit":false,"is_transit":false,"station_name":"Grogol"},{"is_transit":true,"time":3,"transit":true,"station_name":"Duri","station_id":"DU","line":1,"i_long":106.800832,"distance":1700,"i_lat":-6.155215},{"station_id":"THB","i_long":106.811091,"i_lat":-6.185545,"distance":3632,"station_name":"Tanah Abang","line":1,"time":8,"is_transit":true,"transit":true},{"distance":3191,"station_name":"Palmerah","transit":false,"is_transit":false,"station_id":"PLM","i_lat":-6.207404,"i_long":106.79689,"line":6,"time":6},{"line":6,"i_long":106.780334,"station_name":"Kebayoran","is_transit":false,"distance":3737,"i_lat":-6.237242,"transit":false,"time":7,"station_id":"KBY"},{"station_id":"PDJ","time":8,"station_name":"Pondokranji","transit":false,"i_lat":-6.276362,"distance":6218,"i_long":106.74273,"is_transit":false,"line":6},{"station_name":"Jurangmangu","line":6,"i_long":106.728916,"station_id":"JMU","time":3,"distance":2179,"is_transit":false,"i_lat":-6.288927,"transit":false},{"station_id":"SDM","station_name":"Sudimara","i_long":106.712277,"distance":1994,"line":6,"time":4,"is_transit":false,"transit":false,"i_lat":-6.296963},{"station_name":"Rawa Buntu","transit":false,"i_lat":-6.314823,"i_long":106.675475,"time":6,"station_id":"RU","is_transit":false,"line":6,"distance":4566},{"transit":false,"line":6,"i_long":106.66566,"station_id":"SRP","station_name":"Serpong","is_transit":false,"i_lat":-6.319871,"distance":2413,"time":4},{"transit":false,"is_transit":false,"distance":1784,"i_lat":-6.32484,"line":3,"station_name":"Cisauk","i_long":106.640411,"time":4,"station_id":"CSK"},{"station_id":"CC","is_transit":false,"station_name":"Cicayur","line":3,"time":4,"i_lat":-6.329547,"distance":2519,"transit":false,"i_long":106.617853},{"i_long":106.568863,"i_lat":-6.3441410000000005,"station_name":"Parung Panjang","transit":false,"time":8,"line":6,"distance":5968,"is_transit":false,"station_id":"PRP"},{"time":9,"i_long":106.508482,"distance":7025,"transit":false,"i_lat":-6.354349,"station_id":"CJT","station_name":"Cilejit","is_transit":false,"line":3},{"i_long":106.491338,"distance":2675,"station_name":"Daru","transit":false,"time":6,"is_transit":false,"line":0,"station_id":"DAR","i_lat":-6.338021},{"is_transit":false,"station_id":"TEJ","distance":3902,"transit":false,"time":5,"i_lat":-6.327251,"station_name":"Tenjo","line":6,"i_long":106.460812},{"transit":false,"time":5,"line":6,"station_name":"Tigaraksa","station_id":"TGS","is_transit":false,"distance":2974,"i_long":106.425991,"i_lat":-6.328533},{"station_id":"CKY","transit":false,"line":3,"i_long":106.411216,"is_transit":false,"time":3,"distance":2651,"station_name":"Cikoya","i_lat":-6.33561},{"distance":1853,"line":6,"i_long":106.394373,"station_id":"MJ","i_lat":-6.332307,"transit":false,"time":4,"is_transit":false,"station_name":"Maja"},{"transit":false,"station_name":"Citeras","i_long":106.332092,"station_id":"CTR","time":10,"i_lat":-6.334892,"distance":7293,"is_transit":false,"line":3}],[{"time":0,"is_transit":false,"transit":false,"i_long":106.771379,"distance":0,"station_id":"PSG","station_name":"Pesing","i_lat":-6.161433,"line":5},{"transit":false,"time":2,"station_name":"Grogol","i_long":106.788277,"station_id":"GRG","i_lat":-6.162021,"is_transit":false,"line":5,"distance":2036},{"line":1,"i_lat":-6.155215,"transit":true,"distance":1700,"is_transit":true,"station_name":"Duri","time":3,"station_id":"DU","i_long":106.800832},{"station_id":"AK","i_long":106.79867,"line":1,"is_transit":false,"station_name":"Angke","time":4,"transit":false,"distance":1230,"i_lat":-6.144674},{"is_transit":true,"line":4,"station_id":"KPB","i_long":106.826365,"transit":true,"i_lat":-6.132549,"time":9,"distance":4102,"station_name":"Kampung Bandan"},{"transit":true,"distance":1364,"time":3,"is_transit":true,"i_long":106.812439,"station_id":"JAKK","station_name":"Jakarta Kota","line":2,"i_lat":-6.137569},{"time":4,"distance":1264,"is_transit":false,"station_name":"Jayakarta","transit":false,"station_id":"JAY","i_long":106.820901,"i_lat":-6.141205,"line":2},{"time":2,"station_name":"Manggabesar","station_id":"MGB","is_transit":false,"distance":1080,"i_lat":-6.149769,"i_long":106.82482,"line":2,"transit":false},{"i_lat":-6.160725,"transit":false,"time":2,"distance":906,"is_transit":false,"station_id":"SW","i_long":106.827103,"line":2,"station_name":"Sawah Besar"},{"line":2,"is_transit":false,"i_long":106.828284,"station_name":"Juanda","transit":false,"time":2,"distance":1149,"station_id":"JUA","i_lat":-6.166716},{"transit":false,"distance":2015,"is_transit":false,"station_name":"Gondangdia","time":4,"station_id":"GDD","i_lat":-6.186295,"i_long":106.832183,"line":2},{"i_long":106.840169,"station_name":"Cikini","transit":false,"distance":1750,"i_lat":-6.198556,"line":2,"station_id":"CKI","time":3,"is_transit":false},{"i_long":106.84912,"is_transit":true,"i_lat":-6.209883,"station_id":"MRI","line":2,"time":4,"station_name":"Manggarai","distance":1590,"transit":true},{"is_transit":false,"station_name":"Sudirman","transit":false,"distance":3186,"i_lat":-6.202263,"line":1,"station_id":"SUD","i_long":106.822649,"time":4},{"transit":false,"time":1,"station_id":"SUDB","i_long":106.819881,"is_transit":false,"distance":280,"i_lat":-6.201433,"station_name":"Sudirman Baru","line":1},{"line":1,"time":1,"is_transit":false,"station_name":"Karet","station_id":"KAT","distance":471,"transit":false,"i_lat":-6.20132,"i_long":106.816351},{"line":1,"distance":2029,"station_name":"Tanah Abang","time":5,"station_id":"THB","i_lat":-6.185545,"i_long":106.811091,"is_transit":true,"transit":true},{"is_transit":false,"line":6,"transit":false,"station_id":"PLM","i_long":106.79689,"time":6,"station_name":"Palmerah","distance":3191,"i_lat":-6.207404},{"line":6,"transit":false,"time":7,"i_long":106.780334,"station_name":"Kebayoran","is_transit":false,"i_lat":-6.237242,"distance":3737,"station_id":"KBY"},{"line":6,"station_name":"Pondokranji","i_lat":-6.276362,"i_long":106.74273,"station_id":"PDJ","transit":false,"is_transit":false,"time":8,"distance":6218},{"distance":2179,"is_transit":false,"i_lat":-6.288927,"station_name":"Jurangmangu","i_long":106.728916,"station_id":"JMU","transit":false,"line":6,"time":3},{"time":4,"transit":false,"station_name":"Sudimara","is_transit":false,"i_long":106.712277,"line":6,"station_id":"SDM","distance":1994,"i_lat":-6.296963},{"station_id":"RU","station_name":"Rawa Buntu","time":6,"i_lat":-6.314823,"transit":false,"line":6,"is_transit":false,"distance":4566,"i_long":106.675475},{"i_long":106.66566,"station_id":"SRP","i_lat":-6.319871,"transit":false,"line":6,"is_transit":false,"time":4,"distance":2413,"station_name":"Serpong"},{"distance":1784,"is_transit":false,"station_name":"Cisauk","i_long":106.640411,"transit":false,"time":4,"station_id":"CSK","line":3,"i_lat":-6.32484},{"station_id":"CC","station_name":"Cicayur","is_transit":false,"distance":2519,"transit":false,"time":4,"i_lat":-6.329547,"i_long":106.617853,"line":3},{"transit":false,"station_id":"PRP","is_transit":false,"distance":5968,"station_name":"Parung Panjang","i_long":106.568863,"i_lat":-6.3441410000000005,"line":6,"time":8},{"is_transit":false,"i_lat":-6.354349,"transit":false,"time":9,"distance":7025,"station_id":"CJT","station_name":"Cilejit","line":3,"i_long":106.508482},{"i_long":106.491338,"is_transit":false,"time":6,"i_lat":-6.338021,"station_name":"Daru","distance":2675,"station_id":"DAR","transit":false,"line":0},{"i_lat":-6.327251,"i_long":106.460812,"is_transit":false,"time":5,"transit":false,"station_id":"TEJ","station_name":"Tenjo","line":6,"distance":3902},{"i_lat":-6.328533,"transit":false,"time":5,"station_name":"Tigaraksa","i_long":106.425991,"line":6,"distance":2974,"station_id":"TGS","is_transit":false},{"is_transit":false,"distance":2651,"transit":false,"i_long":106.411216,"line":3,"station_name":"Cikoya","station_id":"CKY","i_lat":-6.33561,"time":3},{"distance":1853,"time":4,"is_transit":false,"station_id":"MJ","station_name":"Maja","transit":false,"line":6,"i_lat":-6.332307,"i_long":106.394373},{"station_name":"Citeras","is_transit":false,"transit":false,"time":10,"i_lat":-6.334892,"line":3,"i_long":106.332092,"distance":7293,"station_id":"CTR"}],[{"i_long":106.771379,"station_name":"Pesing","time":0,"station_id":"PSG","is_transit":false,"distance":0,"i_lat":-6.161433,"line":5,"transit":false},{"time":2,"distance":2036,"i_lat":-6.162021,"is_transit":false,"transit":false,"i_long":106.788277,"station_id":"GRG","line":5,"station_name":"Grogol"},{"is_transit":true,"i_long":106.800832,"time":3,"station_name":"Duri","transit":true,"i_lat":-6.155215,"distance":1700,"line":1,"station_id":"DU"},{"is_transit":false,"station_id":"AK","distance":1230,"transit":false,"line":1,"station_name":"Angke","time":4,"i_lat":-6.144674,"i_long":106.79867},{"transit":true,"is_transit":true,"station_id":"KPB","distance":4102,"station_name":"Kampung Bandan","time":9,"i_lat":-6.132549,"i_long":106.826365,"line":4},{"i_long":106.836569,"line":11,"time":3,"station_name":"Rajawali","station_id":"RJW","distance":1444,"transit":false,"i_lat":-6.14505,"is_transit":false},{"i_lat":-6.161728,"transit":false,"line":11,"station_id":"KMO","station_name":"Kemayoran","is_transit":false,"distance":1901,"i_long":106.839204,"time":5},{"station_id":"PSE","is_transit":false,"i_long":106.84368,"time":4,"transit":false,"distance":1436,"line":11,"station_name":"Pasar Senen","i_lat":-6.174784},{"line":11,"distance":1567,"transit":false,"station_name":"Gang Sentiong","time":8,"i_lat":-6.185975,"station_id":"GST","is_transit":false,"i_long":106.850107},{"i_lat":-6.193792,"station_id":"KMT","i_long":106.855437,"transit":false,"station_name":"Kramat","distance":973,"is_transit":false,"time":1,"line":11},{"station_name":"Pondok Jati","distance":1829,"i_long":106.861737,"is_transit":false,"i_lat":-6.209188,"time":2,"transit":false,"line":11,"station_id":"POK"},{"distance":1236,"is_transit":true,"i_long":106.86807400000001,"line":1,"transit":true,"station_id":"JNG","station_name":"Jatinegara","time":9,"i_lat":-6.215091},{"i_lat":-6.212485,"line":1,"station_name":"Matraman","is_transit":false,"i_long":106.858896,"transit":false,"station_id":"MTR","time":2,"distance":1377},{"transit":false,"distance":1275,"time":2,"i_lat":-6.209883,"i_long":106.84912,"line":2,"is_transit":false,"station_id":"MRI","station_name":"Manggarai"},{"station_id":"SUD","is_transit":false,"i_long":106.822649,"time":4,"transit":false,"distance":3186,"station_name":"Sudirman","i_lat":-6.202263,"line":1},{"line":1,"i_lat":-6.201433,"transit":false,"station_id":"SUDB","distance":280,"is_transit":false,"time":1,"i_long":106.819881,"station_name":"Sudirman Baru"},{"distance":471,"i_lat":-6.20132,"station_id":"KAT","time":1,"i_long":106.816351,"transit":false,"line":1,"station_name":"Karet","is_transit":false},{"i_lat":-6.185545,"i_long":106.811091,"station_name":"Tanah Abang","transit":true,"distance":2029,"line":1,"station_id":"THB","is_transit":true,"time":5},{"station_id":"PLM","station_name":"Palmerah","line":6,"is_transit":false,"i_long":106.79689,"transit":false,"time":6,"i_lat":-6.207404,"distance":3191},{"i_long":106.780334,"i_lat":-6.237242,"line":6,"time":7,"transit":false,"station_id":"KBY","is_transit":false,"distance":3737,"station_name":"Kebayoran"},{"transit":false,"distance":6218,"station_id":"PDJ","station_name":"Pondokranji","i_lat":-6.276362,"i_long":106.74273,"is_transit":false,"time":8,"line":6},{"distance":2179,"time":3,"i_lat":-6.288927,"station_id":"JMU","is_transit":false,"i_long":106.728916,"transit":false,"line":6,"station_name":"Jurangmangu"},{"distance":1994,"line":6,"is_transit":false,"i_long":106.712277,"station_id":"SDM","station_name":"Sudimara","time":4,"i_lat":-6.296963,"transit":false},{"is_transit":false,"i_lat":-6.314823,"distance":4566,"time":6,"station_id":"RU","transit":false,"i_long":106.675475,"line":6,"station_name":"Rawa Buntu"},{"station_id":"SRP","i_long":106.66566,"line":6,"time":4,"i_lat":-6.319871,"is_transit":false,"distance":2413,"station_name":"Serpong","transit":false},{"station_name":"Cisauk","i_long":106.640411,"distance":1784,"transit":false,"station_id":"CSK","is_transit":false,"i_lat":-6.32484,"time":4,"line":3},{"i_lat":-6.329547,"time":4,"is_transit":false,"station_id":"CC","transit":false,"station_name":"Cicayur","distance":2519,"line":3,"i_long":106.617853},{"line":6,"time":8,"i_long":106.568863,"i_lat":-6.3441410000000005,"is_transit":false,"distance":5968,"station_name":"Parung Panjang","transit":false,"station_id":"PRP"},{"station_name":"Cilejit","time":9,"transit":false,"distance":7025,"station_id":"CJT","is_transit":false,"line":3,"i_lat":-6.354349,"i_long":106.508482},{"time":6,"line":0,"is_transit":false,"transit":false,"i_lat":-6.338021,"i_long":106.491338,"station_name":"Daru","station_id":"DAR","distance":2675},{"i_long":106.460812,"line":6,"is_transit":false,"time":5,"i_lat":-6.327251,"station_name":"Tenjo","station_id":"TEJ","transit":false,"distance":3902},{"station_name":"Tigaraksa","is_transit":false,"time":5,"transit":false,"line":6,"distance":2974,"i_long":106.425991,"station_id":"TGS","i_lat":-6.328533},{"i_long":106.411216,"line":3,"is_transit":false,"i_lat":-6.33561,"time":3,"transit":false,"distance":2651,"station_id":"CKY","station_name":"Cikoya"},{"is_transit":false,"distance":1853,"time":4,"line":6,"i_lat":-6.332307,"transit":false,"station_id":"MJ","station_name":"Maja","i_long":106.394373},{"transit":false,"distance":7293,"i_long":106.332092,"station_name":"Citeras","is_transit":false,"time":10,"line":3,"i_lat":-6.334892,"station_id":"CTR"}]]}