{"data":[[{"is_transit":false,"time":0,"i_lat":-6.161433,"i_long":106.771379,"distance":0,"line":5,"station_name":"Pesing","station_id":"PSG","transit":false},{"is_transit":false,"line":5,"station_id":"GGL","time":2,"i_long":106.788277,"i_lat":-6.162021,"station_name":"Grogol","distance":2036,"transit":false},{"distance":1700,"time":3,"is_transit":true,"i_lat":-6.155215,"i_long":106.800832,"line":1,"station_name":"Duri","transit":true,"station_id":"DU"},{"i_lat":-6.144674,"i_long":106.79867,"line":0,"distance":1230,"station_id":"AK","time":4,"transit":false,"is_transit":false,"station_name":"Angke"},{"is_transit":true,"station_name":"Kampung Bandan","transit":false,"i_lat":-6.132549,"line":0,"time":9,"i_long":106.826365,"distance":4102,"station_id":"KPB"},{"station_name":"Ancol","time":4,"transit":false,"distance":2185,"is_transit":false,"station_id":"AC","i_lat":-6.128023,"i_long":106.84464,"line":0}],[{"i_long":106.771379,"transit":false,"i_lat":-6.161433,"time":0,"distance":0,"line":5,"is_transit":false,"station_id":"PSG","station_name":"Pesing"},{"line":5,"time":2,"i_lat":-6.162021,"i_long":106.788277,"station_id":"GGL","transit":false,"station_name":"Grogol","is_transit":false,"distance":2036},{"line":1,"i_long":106.800832,"i_lat":-6.155215,"station_name":"Duri","station_id":"DU","distance":1700,"transit":true,"is_transit":true,"time":3},{"time":8,"i_long":106.811091,"i_lat":-6.185545,"distance":3632,"line":1,"transit":false,"station_name":"Tanah Abang","station_id":"THB","is_transit":true},{"station_id":"KAT","is_transit":false,"line":1,"station_name":"Karet","i_long":106.816351,"time":5,"distance":2029,"transit":false,"i_lat":-6.20132},{"i_long":106.819881,"is_transit":false,"station_id":"SUDB","transit":false,"i_lat":-6.201433,"line":1,"station_name":"Sudirman Baru","distance":471,"time":1},{"is_transit":false,"i_lat":-6.202263,"line":1,"distance":280,"station_name":"Sudirman","time":1,"station_id":"SUD","transit":false,"i_long":106.822649},{"i_lat":-6.209883,"line":0,"time":4,"station_id":"MRI","transit":true,"station_name":"Manggarai","is_transit":true,"distance":3186,"i_long":106.84912},{"is_transit":false,"transit":false,"time":4,"line":0,"i_lat":-6.198556,"station_id":"CKI","i_long":106.840169,"station_name":"Cikini","distance":1590},{"i_long":106.832183,"distance":1750,"i_lat":-6.186295,"is_transit":false,"line":2,"station_name":"Gondangdia","station_id":"GDD","transit":false,"time":3},{"is_transit":false,"i_lat":-6.166716,"i_long":106.828284,"time":4,"station_id":"JUA","station_name":"Juanda","line":2,"transit":false,"distance":2015},{"is_transit":false,"distance":1149,"station_name":"Sawah Besar","transit":false,"time":2,"line":2,"i_long":106.827103,"station_id":"SW","i_lat":-6.160725},{"station_id":"MGB","transit":false,"time":2,"i_lat":-6.149769,"i_long":106.82482,"distance":906,"is_transit":false,"station_name":"Manggabesar","line":2},{"line":7,"i_long":106.820901,"time":2,"is_transit":false,"transit":false,"i_lat":-6.141205,"distance":1080,"station_id":"JAY","station_name":"Jayakarta"},{"transit":true,"time":4,"i_lat":-6.137569,"distance":1264,"station_id":"JAKK","line":0,"station_name":"Jakarta Kota","i_long":106.812439,"is_transit":true},{"distance":1364,"i_long":106.826365,"is_transit":true,"transit":false,"line":0,"station_id":"KPB","i_lat":-6.132549,"station_name":"Kampung Bandan","time":3},{"i_long":106.84464,"station_name":"Ancol","line":0,"station_id":"AC","i_lat":-6.128023,"is_transit":false,"distance":2185,"time":4,"transit":false}],[{"distance":0,"line":5,"station_name":"Pesing","transit":false,"i_long":106.771379,"station_id":"PSG","is_transit":false,"time":0,"i_lat":-6.161433},{"is_transit":false,"time":2,"i_long":106.788277,"line":5,"station_name":"Grogol","i_lat":-6.162021,"transit":false,"station_id":"GGL","distance":2036},{"station_name":"Duri","station_id":"DU","distance":1700,"time":3,"i_long":106.800832,"transit":true,"i_lat":-6.155215,"line":1,"is_transit":true},{"distance":3632,"time":8,"is_transit":true,"station_id":"THB","i_lat":-6.185545,"station_name":"Tanah Abang","transit":false,"i_long":106.811091,"line":1},{"distance":2029,"station_id":"KAT","i_lat":-6.20132,"time":5,"line":1,"i_long":106.816351,"station_name":"Karet","transit":false,"is_transit":false},{"station_id":"SUDB","transit":false,"distance":471,"time":1,"i_long":106.819881,"i_lat":-6.201433,"station_name":"Sudirman Baru","is_transit":false,"line":1},{"is_transit":false,"transit":false,"distance":280,"time":1,"i_long":106.822649,"line":1,"i_lat":-6.202263,"station_id":"SUD","station_name":"Sudirman"},{"i_lat":-6.209883,"is_transit":true,"distance":3186,"station_name":"Manggarai","i_long":106.84912,"time":4,"line":0,"station_id":"MRI","transit":false},{"time":2,"i_lat":-6.212485,"transit":false,"station_id":"MTR","distance":1275,"station_name":"Matraman","i_long":106.858896,"line":1,"is_transit":false},{"transit":true,"station_id":"JNG","i_lat":-6.215091,"station_name":"Jatinegara","line":0,"i_long":106.86807400000001,"distance":1377,"is_transit":true,"time":8},{"i_lat":-6.209188,"line":11,"station_name":"Pondok Jati","time":2,"is_transit":false,"i_long":106.861737,"station_id":"POK","transit":false,"distance":1236},{"i_long":106.855437,"station_id":"KMT","i_lat":-6.193792,"distance":1829,"line":11,"station_name":"Kramat","is_transit":false,"time":2,"transit":false},{"transit":false,"line":11,"station_id":"GST","is_transit":false,"distance":973,"station_name":"Gang Sentiong","time":1,"i_lat":-6.185975,"i_long":106.850107},{"i_long":106.84368,"transit":false,"is_transit":false,"line":11,"distance":1567,"station_id":"PSE","station_name":"Pasar Senen","time":8,"i_lat":-6.174784},{"transit":false,"i_lat":-6.161728,"distance":1436,"i_long":106.839204,"time":4,"line":11,"station_name":"Kemayoran","is_transit":false,"station_id":"KMO"},{"station_name":"Rajawali","transit":false,"i_long":106.836569,"i_lat":-6.14505,"line":11,"time":5,"is_transit":false,"distance":1901,"station_id":"RJW"},{"i_lat":-6.132549,"is_transit":true,"transit":true,"station_id":"KPB","distance":1444,"time":3,"station_name":"Kampung Bandan","i_long":106.826365,"line":0},{"station_id":"AC","station_name":"Ancol","i_lat":-6.128023,"i_long":106.84464,"line":0,"transit":false,"is_transit":false,"distance":2185,"time":4}]]}