{"data":[[{"is_transit":false,"i_lat":-6.161433,"transit":false,"i_long":106.771379,"distance":0,"station_id":"PSG","station_name":"Pesing","time":0,"line":5},{"i_lat":-6.162021,"distance":2036,"time":2,"station_name":"Grogol","station_id":"GGL","is_transit":false,"i_long":106.788277,"line":5,"transit":false},{"i_lat":-6.155215,"i_long":106.800832,"station_name":"Duri","line":1,"time":3,"station_id":"DU","distance":1700,"transit":true,"is_transit":true},{"station_id":"THB","time":8,"is_transit":false,"distance":3632,"i_lat":-6.185545,"station_name":"Tanah Abang","i_long":106.811091,"line":1,"transit":false},{"station_id":"KAT","i_lat":-6.20132,"station_name":"Karet","transit":false,"i_long":106.816351,"distance":2029,"time":5,"line":1,"is_transit":false},{"line":1,"i_lat":-6.201433,"is_transit":false,"station_name":"Sudirman Baru","i_long":106.819881,"distance":471,"time":1,"station_id":"SUDB","transit":false},{"is_transit":false,"station_id":"SUD","line":1,"time":1,"station_name":"Sudirman","i_lat":-6.202263,"i_long":106.822649,"distance":280,"transit":false},{"transit":false,"station_id":"MRI","distance":3186,"is_transit":false,"line":2,"time":4,"station_name":"Manggarai","i_lat":-6.209883,"i_long":106.84912},{"distance":1275,"time":2,"i_long":106.858896,"transit":false,"i_lat":-6.212485,"line":1,"station_id":"MTR","is_transit":false,"station_name":"Matraman"},{"time":8,"distance":1377,"line":1,"i_long":106.86807400000001,"station_name":"Jatinegara","is_transit":false,"transit":false,"i_lat":-6.215091,"station_id":"JNG"},{"distance":3395,"time":3,"transit":false,"station_id":"KLD","line":1,"is_transit":false,"station_name":"Klender","i_lat":-6.2135,"i_long":106.899548},{"line":1,"i_long":106.922662,"time":2,"station_name":"Buaran","i_lat":-6.215568,"transit":false,"is_transit":false,"station_id":"BUA","distance":3100},{"line":1,"is_transit":false,"station_id":"KLDB","time":1,"station_name":"Klenderbaru","distance":1305,"transit":false,"i_long":106.939679,"i_lat":-6.217455},{"is_transit":false,"i_lat":-6.219053,"i_long":106.951283,"station_name":"Cakung","transit":false,"line":1,"time":8,"distance":1385,"station_id":"CUK"}],[{"distance":0,"station_id":"PSG","transit":false,"time":0,"is_transit":false,"i_lat":-6.161433,"i_long":106.771379,"line":5,"station_name":"Pesing"},{"is_transit":false,"i_long":106.788277,"distance":2036,"transit":false,"station_id":"GGL","station_name":"Grogol","time":2,"i_lat":-6.162021,"line":5},{"time":3,"i_long":106.800832,"station_id":"DU","line":1,"station_name":"Duri","distance":1700,"is_transit":true,"i_lat":-6.155215,"transit":true},{"i_lat":-6.144674,"station_name":"Angke","is_transit":false,"i_long":106.79867,"line":1,"transit":false,"distance":1230,"station_id":"AK","time":4},{"station_id":"KPB","transit":true,"line":4,"is_transit":true,"time":9,"i_long":106.826365,"distance":4102,"station_name":"Kampung Bandan","i_lat":-6.132549},{"distance":1444,"is_transit":false,"time":3,"transit":false,"station_name":"Rajawali","line":11,"i_long":106.836569,"station_id":"RJW","i_lat":-6.14505},{"transit":false,"time":5,"distance":1901,"i_lat":-6.161728,"station_id":"KMO","i_long":106.839204,"station_name":"Kemayoran","line":11,"is_transit":false},{"i_lat":-6.174784,"line":11,"i_long":106.84368,"is_transit":false,"time":4,"distance":1436,"station_id":"PSE","transit":false,"station_name":"Pasar Senen"},{"station_id":"GST","transit":false,"is_transit":false,"i_lat":-6.185975,"distance":1567,"i_long":106.850107,"line":11,"station_name":"Gang Sentiong","time":8},{"time":1,"line":11,"station_id":"KMT","station_name":"Kramat","distance":973,"transit":false,"i_lat":-6.193792,"i_long":106.855437,"is_transit":false},{"transit":false,"distance":1829,"station_id":"POK","is_transit":false,"station_name":"Pondok Jati","line":11,"i_long":106.861737,"i_lat":-6.209188,"time":2},{"station_name":"Jatinegara","i_long":106.86807400000001,"transit":true,"time":9,"station_id":"JNG","distance":1236,"is_transit":true,"i_lat":-6.215091,"line":1},{"i_long":106.899548,"transit":false,"distance":3395,"i_lat":-6.2135,"station_id":"KLD","time":3,"station_name":"Klender","is_transit":false,"line":1},{"i_long":106.922662,"i_lat":-6.215568,"line":1,"station_id":"BUA","is_transit":false,"distance":3100,"time":2,"station_name":"Buaran","transit":false},{"i_long":106.939679,"line":1,"i_lat":-6.217455,"transit":false,"time":1,"distance":1305,"station_id":"KLDB","station_name":"Klenderbaru","is_transit":false},{"i_lat":-6.219053,"i_long":106.951283,"is_transit":false,"station_id":"CUK","line":1,"station_name":"Cakung","distance":1385,"time":8,"transit":false}],[{"line":5,"time":0,"distance":0,"station_id":"PSG","station_name":"Pesing","transit":false,"is_transit":false,"i_long":106.771379,"i_lat":-6.161433},{"transit":false,"time":2,"i_long":106.788277,"line":5,"is_transit":false,"distance":2036,"i_lat":-6.162021,"station_id":"GGL","station_name":"Grogol"},{"station_id":"DU","i_long":106.800832,"transit":true,"is_transit":true,"time":3,"station_name":"Duri","distance":1700,"i_lat":-6.155215,"line":1},{"line":1,"is_transit":false,"i_lat":-6.144674,"station_id":"AK","distance":1230,"station_name":"Angke","i_long":106.79867,"transit":false,"time":4},{"i_long":106.826365,"transit":true,"station_name":"Kampung Bandan","line":4,"is_transit":true,"i_lat":-6.132549,"station_id":"KPB","distance":4102,"time":9},{"line":2,"station_name":"Jakarta Kota","i_lat":-6.137569,"i_long":106.812439,"distance":1364,"is_transit":true,"station_id":"JAKK","transit":true,"time":3},{"i_long":106.820901,"time":4,"distance":1264,"is_transit":false,"transit":false,"station_name":"Jayakarta","i_lat":-6.141205,"line":2,"station_id":"JAY"},{"station_id":"MGB","time":2,"station_name":"Manggabesar","is_transit":false,"i_lat":-6.149769,"line":2,"distance":1080,"transit":false,"i_long":106.82482},{"station_name":"Sawah Besar","transit":false,"i_long":106.827103,"line":2,"station_id":"SW","is_transit":false,"distance":906,"i_lat":-6.160725,"time":2},{"transit":false,"distance":1149,"station_id":"JUA","station_name":"Juanda","i_lat":-6.166716,"is_transit":false,"line":2,"time":2,"i_long":106.828284},{"time":4,"i_lat":-6.186295,"transit":false,"i_long":106.832183,"distance":2015,"station_id":"GDD","station_name":"Gondangdia","line":2,"is_transit":false},{"i_lat":-6.198556,"station_id":"CKI","transit":false,"line":2,"distance":1750,"time":3,"station_name":"Cikini","i_long":106.840169,"is_transit":false},{"line":2,"time":4,"distance":1590,"i_long":106.84912,"transit":true,"is_transit":true,"station_id":"MRI","station_name":"Manggarai","i_lat":-6.209883},{"transit":false,"line":1,"station_id":"MTR","i_long":106.858896,"is_transit":false,"station_name":"Matraman","time":2,"distance":1275,"i_lat":-6.212485},{"i_long":106.86807400000001,"station_name":"Jatinegara","distance":1377,"is_transit":false,"time":8,"transit":false,"i_lat":-6.215091,"station_id":"JNG","line":1},{"station_id":"KLD","transit":false,"i_long":106.899548,"station_name":"Klender","i_lat":-6.2135,"time":3,"distance":3395,"is_transit":false,"line":1},{"i_long":106.922662,"transit":false,"is_transit":false,"time":2,"distance":3100,"station_name":"Buaran","station_id":"BUA","i_lat":-6.215568,"line":1},{"is_transit":false,"i_lat":-6.217455,"time":1,"i_long":106.939679,"line":1,"station_name":"Klenderbaru","distance":1305,"transit":false,"station_id":"KLDB"},{"line":1,"time":8,"i_lat":-6.219053,"station_name":"Cakung","transit":false,"station_id":"CUK","distance":1385,"is_transit":false,"i_long":106.951283}],[{"station_name":"Pesing","time":0,"transit":false,"i_lat":-6.161433,"line":5,"i_long":106.771379,"is_transit":false,"station_id":"PSG","distance":0},{"distance":2036,"station_id":"GGL","station_name":"Grogol","i_long":106.788277,"is_transit":false,"line":5,"transit":false,"time":2,"i_lat":-6.162021},{"line":1,"station_name":"Duri","time":3,"station_id":"DU","transit":true,"i_long":106.800832,"i_lat":-6.155215,"distance":1700,"is_transit":true},{"i_long":106.811091,"station_id":"THB","i_lat":-6.185545,"time":8,"distance":3632,"is_transit":false,"transit":false,"line":1,"station_name":"Tanah Abang"},{"distance":2029,"time":5,"is_transit":false,"transit":false,"line":1,"station_id":"KAT","i_long":106.816351,"station_name":"Karet","i_lat":-6.20132},{"line":1,"transit":false,"time":1,"distance":471,"is_transit":false,"i_lat":-6.201433,"station_name":"Sudirman Baru","station_id":"SUDB","i_long":106.819881},{"transit":false,"station_id":"SUD","line":1,"i_long":106.822649,"station_name":"Sudirman","is_transit":false,"time":1,"distance":280,"i_lat":-6.202263},{"distance":3186,"station_id":"MRI","i_lat":-6.209883,"transit":true,"station_name":"Manggarai","line":2,"time":4,"is_transit":true,"i_long":106.84912},{"is_transit":false,"distance":1590,"station_id":"CKI","station_name":"Cikini","time":4,"i_long":106.840169,"line":2,"transit":false,"i_lat":-6.198556},{"transit":false,"i_long":106.832183,"time":3,"distance":1750,"station_id":"GDD","i_lat":-6.186295,"station_name":"Gondangdia","is_transit":false,"line":2},{"is_transit":false,"time":4,"transit":false,"i_lat":-6.166716,"station_name":"Juanda","station_id":"JUA","line":2,"distance":2015,"i_long":106.828284},{"i_long":106.827103,"line":2,"transit":false,"time":2,"i_lat":-6.160725,"is_transit":false,"station_name":"Sawah Besar","station_id":"SW","distance":1149},{"is_transit":false,"time":2,"transit":false,"i_long":106.82482,"line":2,"station_name":"Manggabesar","station_id":"MGB","distance":906,"i_lat":-6.149769},{"transit":false,"station_id":"JAY","is_transit":false,"station_name":"Jayakarta","i_long":106.820901,"line":2,"i_lat":-6.141205,"time":2,"distance":1080},{"station_name":"Jakarta Kota","station_id":"JAKK","transit":true,"i_lat":-6.137569,"time":4,"distance":1264,"i_long":106.812439,"is_transit":true,"line":2},{"time":3,"i_long":106.826365,"is_transit":true,"station_name":"Kampung Bandan","line":4,"transit":true,"station_id":"KPB","distance":1364,"i_lat":-6.132549},{"distance":1444,"is_transit":false,"i_lat":-6.14505,"transit":false,"station_name":"Rajawali","station_id":"RJW","i_long":106.836569,"time":3,"line":11},{"i_lat":-6.161728,"time":5,"i_long":106.839204,"is_transit":false,"transit":false,"line":11,"station_id":"KMO","station_name":"Kemayoran","distance":1901},{"station_id":"PSE","station_name":"Pasar Senen","time":4,"i_lat":-6.174784,"is_transit":false,"line":11,"distance":1436,"i_long":106.84368,"transit":false},{"distance":1567,"transit":false,"station_name":"Gang Sentiong","station_id":"GST","time":8,"is_transit":false,"i_long":106.850107,"line":11,"i_lat":-6.185975},{"is_transit":false,"distance":973,"i_long":106.855437,"line":11,"transit":false,"station_id":"KMT","station_name":"Kramat","time":1,"i_lat":-6.193792},{"station_id":"POK","transit":false,"distance":1829,"station_name":"Pondok Jati","is_transit":false,"i_long":106.861737,"line":11,"time":2,"i_lat":-6.209188},{"station_name":"Jatinegara","transit":true,"i_long":106.86807400000001,"line":1,"time":9,"is_transit":true,"station_id":"JNG","i_lat":-6.215091,"distance":1236},{"line":1,"time":3,"station_name":"Klender","transit":false,"distance":3395,"is_transit":false,"i_lat":-6.2135,"station_id":"KLD","i_long":106.899548},{"line":1,"station_id":"BUA","transit":false,"station_name":"Buaran","distance":3100,"time":2,"i_lat":-6.215568,"i_long":106.922662,"is_transit":false},{"i_lat":-6.217455,"line":1,"transit":false,"distance":1305,"station_id":"KLDB","is_transit":false,"time":1,"station_name":"Klenderbaru","i_long":106.939679},{"station_id":"CUK","distance":1385,"is_transit":false,"station_name":"Cakung","i_long":106.951283,"time":8,"transit":false,"line":1,"i_lat":-6.219053}]]}