{"data":[[{"i_long":106.771379,"i_lat":-6.161433,"transit":false,"time":0,"station_id":"PSG","station_name":"Pesing","distance":0,"line":5,"is_transit":false},{"transit":false,"i_lat":-6.162021,"station_id":"GGL","i_long":106.788277,"station_name":"Grogol","time":2,"line":5,"is_transit":false,"distance":2036},{"station_id":"DU","i_long":106.800832,"transit":true,"i_lat":-6.155215,"distance":1700,"is_transit":true,"time":3,"station_name":"Duri","line":1},{"station_id":"THB","line":1,"i_lat":-6.185545,"time":8,"station_name":"Tanah Abang","is_transit":false,"transit":false,"distance":3632,"i_long":106.811091},{"is_transit":false,"i_long":106.816351,"line":1,"i_lat":-6.20132,"station_id":"KAT","station_name":"Karet","distance":2029,"time":5,"transit":false},{"line":1,"time":1,"station_name":"Sudirman Baru","distance":471,"is_transit":false,"transit":false,"station_id":"SUDB","i_lat":-6.201433,"i_long":106.819881},{"station_name":"Sudirman","i_long":106.822649,"time":1,"station_id":"SUD","is_transit":false,"transit":false,"i_lat":-6.202263,"line":1,"distance":280},{"is_transit":true,"i_long":106.84912,"line":2,"transit":true,"time":4,"distance":3186,"station_id":"MRI","i_lat":-6.209883,"station_name":"Manggarai"},{"i_long":106.857948,"station_name":"Tebet","is_transit":false,"i_lat":-6.226659,"transit":false,"line":2,"time":4,"distance":2610,"station_id":"TEB"},{"time":2,"station_id":"CW","transit":false,"i_lat":-6.242512,"line":2,"is_transit":false,"station_name":"Cawang","i_long":106.856607,"distance":1230}],[{"transit":false,"station_name":"Pesing","station_id":"PSG","time":0,"i_long":106.771379,"i_lat":-6.161433,"distance":0,"is_transit":false,"line":5},{"i_long":106.788277,"distance":2036,"station_name":"Grogol","is_transit":false,"line":5,"transit":false,"i_lat":-6.162021,"time":2,"station_id":"GGL"},{"i_lat":-6.155215,"distance":1700,"station_id":"DU","is_transit":true,"time":3,"line":1,"station_name":"Duri","transit":true,"i_long":106.800832},{"transit":false,"i_lat":-6.144674,"time":4,"station_name":"Angke","i_long":106.79867,"distance":1230,"is_transit":false,"line":1,"station_id":"AK"},{"time":9,"transit":true,"i_long":106.826365,"line":4,"station_name":"Kampung Bandan","i_lat":-6.132549,"distance":4102,"is_transit":true,"station_id":"KPB"},{"is_transit":true,"line":2,"station_id":"JAKK","time":3,"distance":1364,"station_name":"Jakarta Kota","i_long":106.812439,"i_lat":-6.137569,"transit":true},{"line":2,"time":4,"is_transit":false,"i_lat":-6.141205,"transit":false,"i_long":106.820901,"distance":1264,"station_name":"Jayakarta","station_id":"JAY"},{"line":2,"distance":1080,"is_transit":false,"station_id":"MGB","i_long":106.82482,"i_lat":-6.149769,"transit":false,"station_name":"Manggabesar","time":2},{"i_long":106.827103,"time":2,"line":2,"is_transit":false,"transit":false,"i_lat":-6.160725,"distance":906,"station_name":"Sawah Besar","station_id":"SW"},{"is_transit":false,"transit":false,"distance":1149,"line":2,"station_name":"Juanda","i_long":106.828284,"time":2,"station_id":"JUA","i_lat":-6.166716},{"i_lat":-6.186295,"distance":2015,"station_id":"GDD","i_long":106.832183,"station_name":"Gondangdia","line":2,"time":4,"is_transit":false,"transit":false},{"i_lat":-6.198556,"line":2,"time":3,"is_transit":false,"station_id":"CKI","transit":false,"station_name":"Cikini","distance":1750,"i_long":106.840169},{"is_transit":false,"time":4,"station_name":"Manggarai","transit":false,"line":2,"i_lat":-6.209883,"i_long":106.84912,"station_id":"MRI","distance":1590},{"time":4,"distance":2610,"station_id":"TEB","is_transit":false,"transit":false,"i_long":106.857948,"line":2,"i_lat":-6.226659,"station_name":"Tebet"},{"i_long":106.856607,"time":2,"station_name":"Cawang","line":2,"distance":1230,"is_transit":false,"transit":false,"i_lat":-6.242512,"station_id":"CW"}],[{"i_long":106.771379,"i_lat":-6.161433,"line":5,"station_name":"Pesing","time":0,"distance":0,"station_id":"PSG","transit":false,"is_transit":false},{"i_lat":-6.162021,"i_long":106.788277,"transit":false,"time":2,"distance":2036,"line":5,"is_transit":false,"station_name":"Grogol","station_id":"GGL"},{"station_name":"Duri","i_lat":-6.155215,"station_id":"DU","time":3,"i_long":106.800832,"line":1,"distance":1700,"transit":true,"is_transit":true},{"transit":false,"i_lat":-6.144674,"line":1,"station_name":"Angke","time":4,"station_id":"AK","i_long":106.79867,"distance":1230,"is_transit":false},{"station_id":"KPB","line":4,"transit":true,"distance":4102,"is_transit":true,"time":9,"station_name":"Kampung Bandan","i_lat":-6.132549,"i_long":106.826365},{"is_transit":false,"i_long":106.836569,"distance":1444,"i_lat":-6.14505,"station_id":"RJW","station_name":"Rajawali","line":11,"time":3,"transit":false},{"i_long":106.839204,"distance":1901,"transit":false,"line":11,"is_transit":false,"time":5,"i_lat":-6.161728,"station_name":"Kemayoran","station_id":"KMO"},{"i_lat":-6.174784,"is_transit":false,"distance":1436,"station_name":"Pasar Senen","line":11,"transit":false,"i_long":106.84368,"time":4,"station_id":"PSE"},{"transit":false,"line":11,"i_long":106.850107,"station_id":"GST","station_name":"Gang Sentiong","time":8,"is_transit":false,"i_lat":-6.185975,"distance":1567},{"station_id":"KMT","time":1,"station_name":"Kramat","is_transit":false,"transit":false,"i_lat":-6.193792,"distance":973,"line":11,"i_long":106.855437},{"transit":false,"line":11,"distance":1829,"station_id":"POK","time":2,"station_name":"Pondok Jati","i_long":106.861737,"is_transit":false,"i_lat":-6.209188},{"time":9,"station_id":"JNG","transit":true,"line":1,"distance":1236,"station_name":"Jatinegara","i_lat":-6.215091,"i_long":106.86807400000001,"is_transit":true},{"i_lat":-6.212485,"time":2,"station_name":"Matraman","i_long":106.858896,"is_transit":false,"transit":false,"line":1,"distance":1377,"station_id":"MTR"},{"i_long":106.84912,"line":2,"distance":1275,"is_transit":true,"i_lat":-6.209883,"transit":true,"station_id":"MRI","time":2,"station_name":"Manggarai"},{"is_transit":false,"transit":false,"station_id":"TEB","i_lat":-6.226659,"i_long":106.857948,"time":4,"line":2,"station_name":"Tebet","distance":2610},{"time":2,"is_transit":false,"station_name":"Cawang","i_lat":-6.242512,"line":2,"station_id":"CW","transit":false,"i_long":106.856607,"distance":1230}]]}