{"data":[[{"is_transit":false,"station_id":"PSG","transit":false,"distance":0,"station_name":"Pesing","line":5,"time":0,"i_lat":-6.161433,"i_long":106.771379},{"time":2,"line":5,"i_lat":-6.162021,"distance":2036,"transit":false,"i_long":106.788277,"station_id":"GGL","is_transit":false,"station_name":"Grogol"},{"station_name":"Duri","i_long":106.800832,"distance":1700,"transit":true,"station_id":"DU","time":3,"is_transit":true,"i_lat":-6.155215,"line":1},{"i_lat":-6.185545,"is_transit":true,"transit":true,"station_name":"Tanah Abang","station_id":"THB","time":8,"distance":3632,"i_long":106.811091,"line":1},{"transit":false,"i_long":106.79689,"station_name":"Palmerah","station_id":"PLM","time":6,"distance":3191,"is_transit":false,"i_lat":-6.207404,"line":6},{"time":7,"i_lat":-6.237242,"line":6,"station_name":"Kebayoran","station_id":"KBY","i_long":106.780334,"distance":3737,"transit":false,"is_transit":false},{"distance":6218,"transit":false,"i_lat":-6.276362,"i_long":106.74273,"station_name":"Pondokranji","is_transit":false,"time":8,"station_id":"PDJ","line":6},{"i_long":106.728916,"line":6,"transit":false,"station_name":"Jurangmangu","time":3,"distance":2179,"i_lat":-6.288927,"is_transit":false,"station_id":"JMU"},{"transit":false,"station_id":"SDM","i_long":106.712277,"distance":1994,"line":6,"is_transit":false,"time":4,"i_lat":-6.296963,"station_name":"Sudimara"},{"station_name":"Rawa Buntu","is_transit":false,"line":6,"distance":4566,"station_id":"RU","i_long":106.675475,"i_lat":-6.314823,"time":6,"transit":false},{"time":4,"transit":false,"line":6,"is_transit":false,"station_name":"Serpong","station_id":"SRP","i_long":106.66566,"distance":2413,"i_lat":-6.319871},{"distance":1784,"transit":false,"i_lat":-6.32484,"is_transit":false,"station_name":"Cisauk","i_long":106.640411,"station_id":"CSK","time":4,"line":3},{"distance":2519,"i_long":106.617853,"is_transit":false,"transit":false,"station_name":"Cicayur","line":3,"time":4,"i_lat":-6.329547,"station_id":"CC"},{"station_name":"Parung Panjang","distance":5968,"line":6,"is_transit":false,"i_lat":-6.3441410000000005,"time":8,"i_long":106.568863,"station_id":"PRP","transit":false},{"distance":7025,"station_id":"CJT","i_lat":-6.354349,"time":9,"station_name":"Cilejit","i_long":106.508482,"line":3,"transit":false,"is_transit":false},{"distance":2675,"is_transit":false,"line":0,"transit":false,"i_long":106.491338,"time":6,"station_name":"Daru","station_id":"DAR","i_lat":-6.338021},{"distance":3902,"is_transit":false,"station_name":"Tenjo","i_long":106.460812,"transit":false,"i_lat":-6.327251,"line":6,"station_id":"TEJ","time":5},{"i_lat":-6.328533,"station_id":"TGS","is_transit":false,"station_name":"Tigaraksa","transit":false,"i_long":106.425991,"line":6,"distance":2974,"time":5}],[{"distance":0,"station_name":"Pesing","i_long":106.771379,"line":5,"station_id":"PSG","transit":false,"is_transit":false,"i_lat":-6.161433,"time":0},{"distance":2036,"station_name":"Grogol","is_transit":false,"transit":false,"time":2,"i_long":106.788277,"station_id":"GGL","i_lat":-6.162021,"line":5},{"transit":true,"is_transit":true,"distance":1700,"time":3,"station_name":"Duri","i_lat":-6.155215,"i_long":106.800832,"line":1,"station_id":"DU"},{"distance":1230,"transit":false,"is_transit":false,"i_lat":-6.144674,"station_name":"Angke","station_id":"AK","i_long":106.79867,"line":1,"time":4},{"line":4,"i_long":106.826365,"is_transit":true,"distance":4102,"transit":true,"time":9,"i_lat":-6.132549,"station_name":"Kampung Bandan","station_id":"KPB"},{"transit":true,"distance":1364,"station_name":"Jakarta Kota","line":2,"i_lat":-6.137569,"is_transit":true,"station_id":"JAKK","time":3,"i_long":106.812439},{"i_lat":-6.141205,"i_long":106.820901,"transit":false,"station_name":"Jayakarta","is_transit":false,"distance":1264,"station_id":"JAY","line":2,"time":4},{"station_name":"Manggabesar","transit":false,"distance":1080,"i_lat":-6.149769,"i_long":106.82482,"is_transit":false,"time":2,"line":2,"station_id":"MGB"},{"is_transit":false,"i_lat":-6.160725,"transit":false,"station_id":"SW","line":2,"time":2,"i_long":106.827103,"station_name":"Sawah Besar","distance":906},{"is_transit":false,"distance":1149,"time":2,"transit":false,"station_name":"Juanda","station_id":"JUA","i_long":106.828284,"line":2,"i_lat":-6.166716},{"time":4,"distance":2015,"transit":false,"i_lat":-6.186295,"station_id":"GDD","station_name":"Gondangdia","line":2,"is_transit":false,"i_long":106.832183},{"transit":false,"station_id":"CKI","i_long":106.840169,"time":3,"line":2,"distance":1750,"i_lat":-6.198556,"is_transit":false,"station_name":"Cikini"},{"station_name":"Manggarai","distance":1590,"station_id":"MRI","transit":true,"is_transit":true,"i_lat":-6.209883,"time":4,"line":2,"i_long":106.84912},{"i_long":106.822649,"station_name":"Sudirman","line":1,"i_lat":-6.202263,"distance":3186,"station_id":"SUD","time":4,"is_transit":false,"transit":false},{"i_long":106.819881,"transit":false,"is_transit":false,"station_id":"SUDB","distance":280,"station_name":"Sudirman Baru","i_lat":-6.201433,"line":1,"time":1},{"station_name":"Karet","i_long":106.816351,"transit":false,"time":1,"distance":471,"is_transit":false,"i_lat":-6.20132,"line":1,"station_id":"KAT"},{"is_transit":true,"time":5,"i_lat":-6.185545,"transit":true,"station_id":"THB","line":1,"station_name":"Tanah Abang","i_long":106.811091,"distance":2029},{"transit":false,"distance":3191,"i_long":106.79689,"station_id":"PLM","is_transit":false,"time":6,"station_name":"Palmerah","line":6,"i_lat":-6.207404},{"station_name":"Kebayoran","is_transit":false,"distance":3737,"line":6,"i_lat":-6.237242,"i_long":106.780334,"time":7,"transit":false,"station_id":"KBY"},{"is_transit":false,"time":8,"station_name":"Pondokranji","distance":6218,"line":6,"transit":false,"station_id":"PDJ","i_lat":-6.276362,"i_long":106.74273},{"transit":false,"is_transit":false,"i_long":106.728916,"distance":2179,"i_lat":-6.288927,"line":6,"station_id":"JMU","time":3,"station_name":"Jurangmangu"},{"distance":1994,"is_transit":false,"line":6,"i_lat":-6.296963,"time":4,"station_name":"Sudimara","i_long":106.712277,"station_id":"SDM","transit":false},{"i_lat":-6.314823,"i_long":106.675475,"station_id":"RU","is_transit":false,"line":6,"station_name":"Rawa Buntu","transit":false,"distance":4566,"time":6},{"time":4,"station_name":"Serpong","transit":false,"i_lat":-6.319871,"line":6,"station_id":"SRP","is_transit":false,"i_long":106.66566,"distance":2413},{"distance":1784,"time":4,"is_transit":false,"station_name":"Cisauk","i_lat":-6.32484,"i_long":106.640411,"line":3,"transit":false,"station_id":"CSK"},{"transit":false,"i_lat":-6.329547,"station_name":"Cicayur","time":4,"is_transit":false,"station_id":"CC","distance":2519,"i_long":106.617853,"line":3},{"i_long":106.568863,"is_transit":false,"line":6,"i_lat":-6.3441410000000005,"distance":5968,"transit":false,"station_name":"Parung Panjang","station_id":"PRP","time":8},{"time":9,"i_lat":-6.354349,"station_name":"Cilejit","distance":7025,"transit":false,"is_transit":false,"station_id":"CJT","i_long":106.508482,"line":3},{"is_transit":false,"station_id":"DAR","line":0,"transit":false,"i_long":106.491338,"station_name":"Daru","time":6,"distance":2675,"i_lat":-6.338021},{"station_name":"Tenjo","station_id":"TEJ","is_transit":false,"distance":3902,"i_long":106.460812,"i_lat":-6.327251,"time":5,"transit":false,"line":6},{"station_name":"Tigaraksa","station_id":"TGS","distance":2974,"transit":false,"time":5,"i_lat":-6.328533,"i_long":106.425991,"line":6,"is_transit":false}],[{"distance":0,"i_lat":-6.161433,"station_id":"PSG","line":5,"transit":false,"is_transit":false,"i_long":106.771379,"time":0,"station_name":"Pesing"},{"transit":false,"station_id":"GGL","is_transit":false,"time":2,"station_name":"Grogol","i_lat":-6.162021,"i_long":106.788277,"line":5,"distance":2036},{"transit":true,"distance":1700,"i_lat":-6.155215,"time":3,"i_long":106.800832,"is_transit":true,"line":1,"station_id":"DU","station_name":"Duri"},{"line":1,"distance":1230,"station_name":"Angke","station_id":"AK","time":4,"i_long":106.79867,"is_transit":false,"i_lat":-6.144674,"transit":false},{"is_transit":true,"i_long":106.826365,"line":4,"time":9,"station_id":"KPB","station_name":"Kampung Bandan","transit":true,"distance":4102,"i_lat":-6.132549},{"distance":1444,"station_id":"RJW","is_transit":false,"line":11,"transit":false,"i_long":106.836569,"i_lat":-6.14505,"time":3,"station_name":"Rajawali"},{"transit":false,"station_id":"KMO","time":5,"i_lat":-6.161728,"station_name":"Kemayoran","is_transit":false,"distance":1901,"i_long":106.839204,"line":11},{"time":4,"line":11,"station_name":"Pasar Senen","is_transit":false,"distance":1436,"transit":false,"station_id":"PSE","i_lat":-6.174784,"i_long":106.84368},{"line":11,"station_id":"GST","transit":false,"is_transit":false,"i_long":106.850107,"i_lat":-6.185975,"station_name":"Gang Sentiong","time":8,"distance":1567},{"time":1,"station_name":"Kramat","is_transit":false,"i_long":106.855437,"line":11,"i_lat":-6.193792,"transit":false,"distance":973,"station_id":"KMT"},{"station_name":"Pondok Jati","distance":1829,"is_transit":false,"time":2,"station_id":"POK","i_lat":-6.209188,"i_long":106.861737,"line":11,"transit":false},{"i_long":106.86807400000001,"line":1,"station_name":"Jatinegara","time":9,"is_transit":true,"distance":1236,"i_lat":-6.215091,"station_id":"JNG","transit":true},{"station_name":"Matraman","transit":false,"time":2,"station_id":"MTR","distance":1377,"i_lat":-6.212485,"line":1,"is_transit":false,"i_long":106.858896},{"time":2,"transit":false,"station_name":"Manggarai","is_transit":false,"distance":1275,"i_lat":-6.209883,"i_long":106.84912,"line":2,"station_id":"MRI"},{"station_name":"Sudirman","i_lat":-6.202263,"station_id":"SUD","is_transit":false,"distance":3186,"time":4,"i_long":106.822649,"line":1,"transit":false},{"distance":280,"i_lat":-6.201433,"transit":false,"line":1,"is_transit":false,"station_name":"Sudirman Baru","station_id":"SUDB","time":1,"i_long":106.819881},{"i_long":106.816351,"station_name":"Karet","transit":false,"station_id":"KAT","is_transit":false,"time":1,"i_lat":-6.20132,"line":1,"distance":471},{"transit":true,"station_name":"Tanah Abang","station_id":"THB","is_transit":true,"time":5,"distance":2029,"i_long":106.811091,"line":1,"i_lat":-6.185545},{"i_lat":-6.207404,"transit":false,"distance":3191,"time":6,"station_id":"PLM","is_transit":false,"line":6,"i_long":106.79689,"station_name":"Palmerah"},{"line":6,"i_long":106.780334,"station_name":"Kebayoran","station_id":"KBY","time":7,"distance":3737,"transit":false,"i_lat":-6.237242,"is_transit":false},{"i_long":106.74273,"time":8,"line":6,"i_lat":-6.276362,"station_name":"Pondokranji","distance":6218,"is_transit":false,"station_id":"PDJ","transit":false},{"distance":2179,"station_name":"Jurangmangu","transit":false,"station_id":"JMU","time":3,"i_lat":-6.288927,"is_transit":false,"i_long":106.728916,"line":6},{"distance":1994,"line":6,"i_long":106.712277,"station_name":"Sudimara","time":4,"station_id":"SDM","is_transit":false,"i_lat":-6.296963,"transit":false},{"time":6,"distance":4566,"station_id":"RU","i_long":106.675475,"line":6,"i_lat":-6.314823,"transit":false,"is_transit":false,"station_name":"Rawa Buntu"},{"is_transit":false,"time":4,"station_name":"Serpong","i_long":106.66566,"distance":2413,"line":6,"i_lat":-6.319871,"transit":false,"station_id":"SRP"},{"is_transit":false,"station_id":"CSK","transit":false,"time":4,"line":3,"i_lat":-6.32484,"station_name":"Cisauk","i_long":106.640411,"distance":1784},{"is_transit":false,"line":3,"station_name":"Cicayur","distance":2519,"i_lat":-6.329547,"time":4,"i_long":106.617853,"station_id":"CC","transit":false},{"station_name":"Parung Panjang","i_lat":-6.3441410000000005,"transit":false,"is_transit":false,"station_id":"PRP","time":8,"distance":5968,"i_long":106.568863,"line":6},{"station_name":"Cilejit","station_id":"CJT","is_transit":false,"transit":false,"line":3,"time":9,"i_lat":-6.354349,"i_long":106.508482,"distance":7025},{"i_long":106.491338,"station_name":"Daru","transit":false,"station_id":"DAR","is_transit":false,"time":6,"distance":2675,"i_lat":-6.338021,"line":0},{"distance":3902,"station_name":"Tenjo","station_id":"TEJ","is_transit":false,"time":5,"transit":false,"i_lat":-6.327251,"i_long":106.460812,"line":6},{"is_transit":false,"line":6,"station_name":"Tigaraksa","distance":2974,"time":5,"transit":false,"station_id":"TGS","i_lat":-6.328533,"i_long":106.425991}]]}