{"data":[[{"station_id":"PSG","i_long":106.771379,"distance":0,"is_transit":false,"line":5,"station_name":"Pesing","time":0,"transit":false,"i_lat":-6.161433},{"transit":false,"distance":2036,"i_lat":-6.162021,"station_id":"GGL","is_transit":false,"i_long":106.788277,"time":2,"station_name":"Grogol","line":5},{"time":3,"station_name":"Duri","distance":1700,"i_long":106.800832,"line":1,"is_transit":true,"station_id":"DU","transit":true,"i_lat":-6.155215},{"station_name":"Tanah Abang","distance":3632,"i_lat":-6.185545,"line":1,"transit":false,"is_transit":false,"station_id":"THB","time":8,"i_long":106.811091},{"is_transit":false,"distance":2029,"i_lat":-6.20132,"station_name":"Karet","transit":false,"time":5,"i_long":106.816351,"line":1,"station_id":"KAT"},{"station_name":"Sudirman Baru","transit":false,"is_transit":false,"i_long":106.819881,"station_id":"SUDB","time":1,"line":1,"i_lat":-6.201433,"distance":471},{"line":1,"time":1,"distance":280,"station_id":"SUD","i_long":106.822649,"station_name":"Sudirman","is_transit":false,"i_lat":-6.202263,"transit":false},{"station_id":"MRI","is_transit":true,"i_lat":-6.209883,"i_long":106.84912,"line":2,"transit":true,"time":4,"station_name":"Manggarai","distance":3186},{"i_lat":-6.226659,"transit":false,"is_transit":false,"i_long":106.857948,"line":2,"distance":2610,"time":4,"station_name":"Tebet","station_id":"TEB"},{"i_lat":-6.242512,"is_transit":false,"line":2,"station_id":"CW","station_name":"Cawang","time":2,"i_long":106.856607,"transit":false,"distance":1230},{"i_long":106.85449,"time":3,"distance":1546,"transit":false,"station_name":"Duren Kalibata","station_id":"DRN","line":2,"is_transit":false,"i_lat":-6.255332},{"i_long":106.851577,"transit":false,"distance":824,"is_transit":false,"i_lat":-6.263214,"line":2,"station_name":"Pasar Minggu Baru","station_id":"PSMB","time":2},{"i_long":106.843999,"distance":2380,"transit":false,"line":2,"is_transit":false,"station_id":"PSM","time":2,"i_lat":-6.2842400000000005,"station_name":"Pasar Minggu"},{"is_transit":false,"transit":false,"time":4,"station_id":"TNT","distance":2820,"i_lat":-6.3080680000000005,"line":2,"i_long":106.838896,"station_name":"Tanjung Barat"},{"transit":false,"station_name":"Lenteng Agung","is_transit":false,"distance":2671,"station_id":"LNA","time":3,"i_long":106.832616,"i_lat":-6.330363,"line":2},{"i_lat":-6.339291,"time":2,"is_transit":false,"station_id":"UP","station_name":"Univ. Pancasila","line":2,"i_long":106.834175,"transit":false,"distance":1029},{"line":2,"transit":false,"station_id":"UI","time":3,"distance":2264,"i_long":106.831474,"i_lat":-6.360749,"station_name":"Univ. Indonesia","is_transit":false}],[{"is_transit":false,"station_name":"Pesing","transit":false,"i_long":106.771379,"station_id":"PSG","i_lat":-6.161433,"line":5,"time":0,"distance":0},{"time":2,"i_lat":-6.162021,"distance":2036,"i_long":106.788277,"station_id":"GGL","transit":false,"line":5,"is_transit":false,"station_name":"Grogol"},{"station_id":"DU","is_transit":true,"station_name":"Duri","i_lat":-6.155215,"transit":true,"i_long":106.800832,"time":3,"distance":1700,"line":1},{"i_lat":-6.144674,"i_long":106.79867,"station_id":"AK","station_name":"Angke","time":4,"line":1,"distance":1230,"is_transit":false,"transit":false},{"transit":true,"is_transit":true,"station_name":"Kampung Bandan","time":9,"line":4,"i_long":106.826365,"distance":4102,"i_lat":-6.132549,"station_id":"KPB"},{"distance":1364,"is_transit":true,"i_long":106.812439,"station_name":"Jakarta Kota","station_id":"JAKK","i_lat":-6.137569,"line":2,"time":3,"transit":true},{"distance":1264,"i_lat":-6.141205,"station_name":"Jayakarta","station_id":"JAY","time":4,"is_transit":false,"transit":false,"i_long":106.820901,"line":2},{"i_lat":-6.149769,"i_long":106.82482,"station_id":"MGB","transit":false,"distance":1080,"is_transit":false,"station_name":"Manggabesar","time":2,"line":2},{"station_id":"SW","i_lat":-6.160725,"i_long":106.827103,"time":2,"distance":906,"transit":false,"station_name":"Sawah Besar","is_transit":false,"line":2},{"i_long":106.828284,"station_name":"Juanda","line":2,"station_id":"JUA","distance":1149,"is_transit":false,"time":2,"i_lat":-6.166716,"transit":false},{"line":2,"time":4,"transit":false,"station_id":"GDD","station_name":"Gondangdia","is_transit":false,"i_lat":-6.186295,"i_long":106.832183,"distance":2015},{"station_name":"Cikini","transit":false,"time":3,"station_id":"CKI","i_lat":-6.198556,"is_transit":false,"i_long":106.840169,"distance":1750,"line":2},{"time":4,"transit":false,"line":2,"station_name":"Manggarai","i_lat":-6.209883,"distance":1590,"i_long":106.84912,"station_id":"MRI","is_transit":false},{"transit":false,"distance":2610,"i_lat":-6.226659,"i_long":106.857948,"line":2,"is_transit":false,"station_name":"Tebet","station_id":"TEB","time":4},{"i_long":106.856607,"station_id":"CW","i_lat":-6.242512,"time":2,"station_name":"Cawang","distance":1230,"line":2,"transit":false,"is_transit":false},{"station_id":"DRN","distance":1546,"transit":false,"i_lat":-6.255332,"line":2,"i_long":106.85449,"time":3,"station_name":"Duren Kalibata","is_transit":false},{"is_transit":false,"station_id":"PSMB","transit":false,"time":2,"station_name":"Pasar Minggu Baru","distance":824,"line":2,"i_lat":-6.263214,"i_long":106.851577},{"station_id":"PSM","distance":2380,"is_transit":false,"time":2,"station_name":"Pasar Minggu","i_lat":-6.2842400000000005,"line":2,"i_long":106.843999,"transit":false},{"station_name":"Tanjung Barat","line":2,"station_id":"TNT","distance":2820,"i_lat":-6.3080680000000005,"transit":false,"time":4,"i_long":106.838896,"is_transit":false},{"is_transit":false,"line":2,"station_name":"Lenteng Agung","station_id":"LNA","transit":false,"i_lat":-6.330363,"time":3,"i_long":106.832616,"distance":2671},{"distance":1029,"transit":false,"is_transit":false,"line":2,"i_long":106.834175,"i_lat":-6.339291,"time":2,"station_name":"Univ. Pancasila","station_id":"UP"},{"i_long":106.831474,"distance":2264,"is_transit":false,"station_name":"Univ. Indonesia","station_id":"UI","time":3,"i_lat":-6.360749,"transit":false,"line":2}],[{"station_name":"Pesing","time":0,"i_long":106.771379,"i_lat":-6.161433,"transit":false,"station_id":"PSG","line":5,"distance":0,"is_transit":false},{"station_name":"Grogol","i_lat":-6.162021,"distance":2036,"is_transit":false,"i_long":106.788277,"line":5,"station_id":"GGL","transit":false,"time":2},{"station_id":"DU","station_name":"Duri","i_lat":-6.155215,"distance":1700,"time":3,"i_long":106.800832,"transit":true,"is_transit":true,"line":1},{"station_name":"Angke","is_transit":false,"i_long":106.79867,"line":1,"time":4,"distance":1230,"station_id":"AK","transit":false,"i_lat":-6.144674},{"i_lat":-6.132549,"station_name":"Kampung Bandan","station_id":"KPB","i_long":106.826365,"line":4,"time":9,"distance":4102,"is_transit":true,"transit":true},{"line":11,"is_transit":false,"i_long":106.836569,"time":3,"transit":false,"station_id":"RJW","distance":1444,"station_name":"Rajawali","i_lat":-6.14505},{"time":5,"line":11,"distance":1901,"i_long":106.839204,"i_lat":-6.161728,"is_transit":false,"transit":false,"station_name":"Kemayoran","station_id":"KMO"},{"is_transit":false,"i_long":106.84368,"i_lat":-6.174784,"transit":false,"station_name":"Pasar Senen","station_id":"PSE","line":11,"time":4,"distance":1436},{"line":11,"is_transit":false,"i_long":106.850107,"i_lat":-6.185975,"station_id":"GST","distance":1567,"transit":false,"station_name":"Gang Sentiong","time":8},{"is_transit":false,"station_name":"Kramat","transit":false,"station_id":"KMT","time":1,"distance":973,"line":11,"i_lat":-6.193792,"i_long":106.855437},{"transit":false,"station_id":"POK","distance":1829,"i_lat":-6.209188,"i_long":106.861737,"is_transit":false,"line":11,"station_name":"Pondok Jati","time":2},{"line":1,"station_name":"Jatinegara","station_id":"JNG","is_transit":true,"transit":true,"time":9,"distance":1236,"i_lat":-6.215091,"i_long":106.86807400000001},{"i_lat":-6.212485,"line":1,"i_long":106.858896,"station_id":"MTR","is_transit":false,"station_name":"Matraman","time":2,"transit":false,"distance":1377},{"line":2,"transit":true,"station_name":"Manggarai","station_id":"MRI","time":2,"i_lat":-6.209883,"i_long":106.84912,"distance":1275,"is_transit":true},{"distance":2610,"transit":false,"station_id":"TEB","station_name":"Tebet","i_lat":-6.226659,"line":2,"time":4,"is_transit":false,"i_long":106.857948},{"station_id":"CW","station_name":"Cawang","distance":1230,"transit":false,"is_transit":false,"time":2,"i_lat":-6.242512,"line":2,"i_long":106.856607},{"transit":false,"time":3,"station_id":"DRN","distance":1546,"i_long":106.85449,"is_transit":false,"station_name":"Duren Kalibata","i_lat":-6.255332,"line":2},{"is_transit":false,"station_name":"Pasar Minggu Baru","line":2,"transit":false,"time":2,"i_lat":-6.263214,"distance":824,"station_id":"PSMB","i_long":106.851577},{"i_long":106.843999,"line":2,"station_name":"Pasar Minggu","distance":2380,"is_transit":false,"time":2,"transit":false,"station_id":"PSM","i_lat":-6.2842400000000005},{"i_lat":-6.3080680000000005,"transit":false,"station_name":"Tanjung Barat","i_long":106.838896,"station_id":"TNT","line":2,"time":4,"distance":2820,"is_transit":false},{"i_long":106.832616,"station_id":"LNA","is_transit":false,"distance":2671,"station_name":"Lenteng Agung","transit":false,"i_lat":-6.330363,"line":2,"time":3},{"transit":false,"i_lat":-6.339291,"i_long":106.834175,"is_transit":false,"time":2,"station_name":"Univ. Pancasila","distance":1029,"station_id":"UP","line":2},{"i_long":106.831474,"line":2,"transit":false,"station_id":"UI","station_name":"Univ. Indonesia","time":3,"distance":2264,"is_transit":false,"i_lat":-6.360749}]]}