{"data":[[{"station_name":"Pesing","i_long":106.771379,"line":5,"transit":false,"i_lat":-6.161433,"time":0,"station_id":"PSG","distance":0,"is_transit":false},{"i_lat":-6.162021,"time":2,"transit":false,"i_long":106.788277,"distance":2036,"station_id":"GRG","line":5,"station_name":"Grogol","is_transit":false},{"transit":true,"is_transit":true,"time":3,"line":1,"distance":1700,"station_name":"Duri","i_long":106.800832,"i_lat":-6.155215,"station_id":"DU"},{"is_transit":true,"station_name":"Tanah Abang","transit":true,"i_lat":-6.185545,"i_long":106.811091,"time":8,"station_id":"THB","line":1,"distance":3632},{"distance":3191,"station_name":"Palmerah","is_transit":false,"i_long":106.79689,"line":6,"station_id":"PLM","transit":false,"i_lat":-6.207404,"time":6},{"station_id":"KBY","i_long":106.780334,"station_name":"Kebayoran","time":7,"is_transit":false,"transit":false,"line":6,"i_lat":-6.237242,"distance":3737},{"station_id":"PDJ","time":8,"i_lat":-6.276362,"station_name":"Pondokranji","i_long":106.74273,"transit":false,"line":6,"is_transit":false,"distance":6218},{"station_name":"Jurangmangu","transit":false,"i_lat":-6.288927,"line":6,"station_id":"JMU","i_long":106.728916,"distance":2179,"is_transit":false,"time":3},{"is_transit":false,"line":6,"distance":1994,"transit":false,"i_long":106.712277,"time":4,"i_lat":-6.296963,"station_name":"Sudimara","station_id":"SDM"},{"is_transit":false,"distance":4566,"i_lat":-6.314823,"i_long":106.675475,"station_name":"Rawa Buntu","time":6,"transit":false,"line":6,"station_id":"RU"},{"i_lat":-6.319871,"station_name":"Serpong","is_transit":false,"i_long":106.66566,"line":6,"time":4,"distance":2413,"station_id":"SRP","transit":false},{"distance":1784,"is_transit":false,"transit":false,"i_lat":-6.32484,"line":3,"i_long":106.640411,"station_name":"Cisauk","time":4,"station_id":"CSK"},{"station_id":"CC","is_transit":false,"transit":false,"i_long":106.617853,"line":3,"time":4,"i_lat":-6.329547,"distance":2519,"station_name":"Cicayur"},{"station_id":"PRP","time":8,"station_name":"Parung Panjang","i_lat":-6.3441410000000005,"distance":5968,"is_transit":false,"i_long":106.568863,"transit":false,"line":6}],[{"is_transit":false,"station_id":"PSG","i_lat":-6.161433,"i_long":106.771379,"time":0,"station_name":"Pesing","transit":false,"distance":0,"line":5},{"is_transit":false,"i_long":106.788277,"station_name":"Grogol","line":5,"transit":false,"station_id":"GRG","i_lat":-6.162021,"distance":2036,"time":2},{"i_lat":-6.155215,"i_long":106.800832,"time":3,"distance":1700,"is_transit":true,"transit":true,"line":1,"station_id":"DU","station_name":"Duri"},{"transit":false,"i_long":106.79867,"time":4,"distance":1230,"is_transit":false,"line":1,"station_id":"AK","i_lat":-6.144674,"station_name":"Angke"},{"station_name":"Kampung Bandan","is_transit":true,"i_long":106.826365,"line":4,"i_lat":-6.132549,"transit":true,"time":9,"distance":4102,"station_id":"KPB"},{"line":2,"distance":1364,"transit":true,"time":3,"i_lat":-6.137569,"station_id":"JAKK","station_name":"Jakarta Kota","is_transit":true,"i_long":106.812439},{"i_lat":-6.141205,"line":2,"time":4,"transit":false,"distance":1264,"station_name":"Jayakarta","is_transit":false,"station_id":"JAY","i_long":106.820901},{"i_long":106.82482,"line":2,"transit":false,"distance":1080,"is_transit":false,"i_lat":-6.149769,"station_name":"Manggabesar","time":2,"station_id":"MGB"},{"line":2,"station_name":"Sawah Besar","station_id":"SW","i_long":106.827103,"i_lat":-6.160725,"transit":false,"time":2,"is_transit":false,"distance":906},{"time":2,"transit":false,"i_long":106.828284,"line":2,"i_lat":-6.166716,"station_id":"JUA","is_transit":false,"distance":1149,"station_name":"Juanda"},{"i_long":106.832183,"transit":false,"distance":2015,"is_transit":false,"i_lat":-6.186295,"time":4,"station_id":"GDD","station_name":"Gondangdia","line":2},{"time":3,"is_transit":false,"i_lat":-6.198556,"station_name":"Cikini","distance":1750,"station_id":"CKI","transit":false,"i_long":106.840169,"line":2},{"station_id":"MRI","is_transit":true,"station_name":"Manggarai","i_lat":-6.209883,"i_long":106.84912,"time":4,"line":2,"transit":true,"distance":1590},{"line":1,"station_id":"SUD","time":4,"station_name":"Sudirman","transit":false,"i_long":106.822649,"is_transit":false,"distance":3186,"i_lat":-6.202263},{"is_transit":false,"time":1,"line":1,"transit":false,"distance":280,"i_long":106.819881,"station_id":"SUDB","station_name":"Sudirman Baru","i_lat":-6.201433},{"station_name":"Karet","time":1,"i_long":106.816351,"is_transit":false,"line":1,"i_lat":-6.20132,"transit":false,"distance":471,"station_id":"KAT"},{"distance":2029,"i_lat":-6.185545,"time":5,"station_id":"THB","is_transit":true,"station_name":"Tanah Abang","transit":true,"i_long":106.811091,"line":1},{"is_transit":false,"station_id":"PLM","i_lat":-6.207404,"station_name":"Palmerah","time":6,"transit":false,"line":6,"i_long":106.79689,"distance":3191},{"is_transit":false,"transit":false,"line":6,"time":7,"i_long":106.780334,"station_id":"KBY","i_lat":-6.237242,"station_name":"Kebayoran","distance":3737},{"distance":6218,"line":6,"transit":false,"station_id":"PDJ","i_lat":-6.276362,"is_transit":false,"station_name":"Pondokranji","i_long":106.74273,"time":8},{"transit":false,"i_lat":-6.288927,"station_id":"JMU","i_long":106.728916,"is_transit":false,"line":6,"time":3,"station_name":"Jurangmangu","distance":2179},{"is_transit":false,"station_name":"Sudimara","transit":false,"i_lat":-6.296963,"station_id":"SDM","line":6,"time":4,"distance":1994,"i_long":106.712277},{"station_id":"RU","transit":false,"distance":4566,"station_name":"Rawa Buntu","i_long":106.675475,"is_transit":false,"i_lat":-6.314823,"line":6,"time":6},{"transit":false,"distance":2413,"time":4,"i_long":106.66566,"station_id":"SRP","is_transit":false,"i_lat":-6.319871,"line":6,"station_name":"Serpong"},{"station_id":"CSK","is_transit":false,"i_lat":-6.32484,"time":4,"distance":1784,"transit":false,"station_name":"Cisauk","i_long":106.640411,"line":3},{"time":4,"is_transit":false,"station_id":"CC","i_lat":-6.329547,"station_name":"Cicayur","distance":2519,"transit":false,"i_long":106.617853,"line":3},{"station_id":"PRP","time":8,"station_name":"Parung Panjang","i_lat":-6.3441410000000005,"i_long":106.568863,"is_transit":false,"line":6,"distance":5968,"transit":false}],[{"station_id":"PSG","line":5,"distance":0,"transit":false,"is_transit":false,"i_long":106.771379,"time":0,"i_lat":-6.161433,"station_name":"Pesing"},{"station_id":"GRG","i_lat":-6.162021,"i_long":106.788277,"time":2,"distance":2036,"line":5,"station_name":"Grogol","transit":false,"is_transit":false},{"station_name":"Duri","line":1,"i_lat":-6.155215,"time":3,"station_id":"DU","distance":1700,"i_long":106.800832,"is_transit":true,"transit":true},{"line":1,"is_transit":false,"distance":1230,"time":4,"i_long":106.79867,"station_name":"Angke","station_id":"AK","transit":false,"i_lat":-6.144674},{"station_name":"Kampung Bandan","line":4,"is_transit":true,"time":9,"transit":true,"distance":4102,"i_lat":-6.132549,"i_long":106.826365,"station_id":"KPB"},{"i_lat":-6.14505,"station_id":"RJW","i_long":106.836569,"is_transit":false,"time":3,"line":11,"distance":1444,"station_name":"Rajawali","transit":false},{"is_transit":false,"i_long":106.839204,"station_id":"KMO","transit":false,"i_lat":-6.161728,"station_name":"Kemayoran","time":5,"line":11,"distance":1901},{"station_name":"Pasar Senen","line":11,"distance":1436,"station_id":"PSE","i_long":106.84368,"transit":false,"is_transit":false,"i_lat":-6.174784,"time":4},{"station_name":"Gang Sentiong","distance":1567,"is_transit":false,"station_id":"GST","time":8,"line":11,"i_lat":-6.185975,"transit":false,"i_long":106.850107},{"distance":973,"is_transit":false,"station_id":"KMT","transit":false,"station_name":"Kramat","i_long":106.855437,"time":1,"line":11,"i_lat":-6.193792},{"i_lat":-6.209188,"transit":false,"station_name":"Pondok Jati","distance":1829,"line":11,"is_transit":false,"station_id":"POK","time":2,"i_long":106.861737},{"i_long":106.86807400000001,"station_id":"JNG","i_lat":-6.215091,"station_name":"Jatinegara","line":1,"time":9,"distance":1236,"transit":true,"is_transit":true},{"is_transit":false,"line":1,"i_lat":-6.212485,"station_name":"Matraman","distance":1377,"i_long":106.858896,"station_id":"MTR","time":2,"transit":false},{"distance":1275,"transit":false,"is_transit":false,"line":2,"i_lat":-6.209883,"station_name":"Manggarai","i_long":106.84912,"station_id":"MRI","time":2},{"station_id":"SUD","i_lat":-6.202263,"transit":false,"time":4,"is_transit":false,"station_name":"Sudirman","i_long":106.822649,"line":1,"distance":3186},{"i_lat":-6.201433,"line":1,"is_transit":false,"i_long":106.819881,"transit":false,"station_id":"SUDB","station_name":"Sudirman Baru","distance":280,"time":1},{"line":1,"distance":471,"time":1,"station_id":"KAT","i_lat":-6.20132,"i_long":106.816351,"is_transit":false,"station_name":"Karet","transit":false},{"time":5,"distance":2029,"station_name":"Tanah Abang","line":1,"i_lat":-6.185545,"transit":true,"i_long":106.811091,"is_transit":true,"station_id":"THB"},{"transit":false,"time":6,"is_transit":false,"station_id":"PLM","station_name":"Palmerah","i_lat":-6.207404,"i_long":106.79689,"distance":3191,"line":6},{"is_transit":false,"i_lat":-6.237242,"distance":3737,"i_long":106.780334,"time":7,"station_id":"KBY","line":6,"transit":false,"station_name":"Kebayoran"},{"i_lat":-6.276362,"line":6,"is_transit":false,"i_long":106.74273,"station_id":"PDJ","time":8,"transit":false,"distance":6218,"station_name":"Pondokranji"},{"distance":2179,"is_transit":false,"time":3,"station_id":"JMU","i_long":106.728916,"transit":false,"i_lat":-6.288927,"station_name":"Jurangmangu","line":6},{"is_transit":false,"transit":false,"i_lat":-6.296963,"i_long":106.712277,"station_name":"Sudimara","line":6,"time":4,"distance":1994,"station_id":"SDM"},{"line":6,"i_lat":-6.314823,"station_id":"RU","distance":4566,"station_name":"Rawa Buntu","i_long":106.675475,"transit":false,"time":6,"is_transit":false},{"time":4,"i_lat":-6.319871,"distance":2413,"is_transit":false,"transit":false,"line":6,"station_id":"SRP","station_name":"Serpong","i_long":106.66566},{"i_long":106.640411,"is_transit":false,"distance":1784,"time":4,"station_name":"Cisauk","station_id":"CSK","i_lat":-6.32484,"line":3,"transit":false},{"i_lat":-6.329547,"time":4,"transit":false,"is_transit":false,"station_name":"Cicayur","i_long":106.617853,"distance":2519,"line":3,"station_id":"CC"},{"distance":5968,"station_id":"PRP","i_long":106.568863,"i_lat":-6.3441410000000005,"station_name":"Parung Panjang","time":8,"line":6,"transit":false,"is_transit":false}]]}