{"data":[[{"station_id":"PSG","transit":false,"line":5,"station_name":"Pesing","is_transit":false,"i_long":106.771379,"distance":0,"time":0,"i_lat":-6.161433},{"time":2,"distance":1614,"station_name":"Taman Kota","i_lat":-6.1587309999999995,"i_long":106.756522,"line":5,"transit":false,"station_id":"TKO","is_transit":false},{"station_id":"BOI","station_name":"Bojongindah","is_transit":false,"time":2,"transit":false,"i_lat":-6.159876,"line":5,"distance":2334,"i_long":106.737035},{"station_name":"Rawa Buaya","is_transit":false,"time":4,"station_id":"RW","distance":1152,"transit":false,"i_lat":-6.162758,"i_long":106.723064,"line":5},{"i_long":106.701612,"station_id":"KDS","station_name":"Kalideres","i_lat":-6.166068,"line":5,"distance":2504,"time":3,"is_transit":false,"transit":false}]]}