{"data":[[{"is_transit":false,"i_long":106.771379,"line":5,"distance":0,"i_lat":-6.161433,"transit":false,"station_name":"Pesing","station_id":"PSG","time":0},{"time":2,"i_lat":-6.162021,"line":5,"distance":2036,"station_id":"GGL","station_name":"Grogol","transit":false,"is_transit":false,"i_long":106.788277},{"is_transit":true,"station_id":"DU","distance":1700,"transit":true,"time":3,"line":1,"i_lat":-6.155215,"station_name":"Duri","i_long":106.800832},{"transit":false,"i_lat":-6.185545,"line":1,"i_long":106.811091,"time":8,"distance":3632,"station_name":"Tanah Abang","station_id":"THB","is_transit":false},{"station_name":"Karet","line":1,"i_lat":-6.20132,"is_transit":false,"i_long":106.816351,"station_id":"KAT","distance":2029,"transit":false,"time":5},{"is_transit":false,"time":1,"station_name":"Sudirman Baru","station_id":"SUDB","i_long":106.819881,"line":1,"i_lat":-6.201433,"transit":false,"distance":471},{"distance":280,"time":1,"i_lat":-6.202263,"transit":false,"is_transit":false,"i_long":106.822649,"line":1,"station_name":"Sudirman","station_id":"SUD"},{"station_id":"MRI","station_name":"Manggarai","is_transit":true,"i_lat":-6.209883,"transit":true,"time":4,"distance":3186,"i_long":106.84912,"line":2},{"station_name":"Tebet","station_id":"TEB","transit":false,"time":4,"line":2,"i_lat":-6.226659,"i_long":106.857948,"is_transit":false,"distance":2610},{"time":2,"is_transit":false,"station_name":"Cawang","i_long":106.856607,"station_id":"CW","i_lat":-6.242512,"distance":1230,"transit":false,"line":2},{"line":2,"distance":1546,"is_transit":false,"station_id":"DRN","i_long":106.85449,"station_name":"Duren Kalibata","i_lat":-6.255332,"time":3,"transit":false},{"i_long":106.851577,"time":2,"station_name":"Pasar Minggu Baru","line":2,"is_transit":false,"i_lat":-6.263214,"transit":false,"station_id":"PSMB","distance":824},{"time":2,"station_name":"Pasar Minggu","distance":2380,"station_id":"PSM","transit":false,"is_transit":false,"i_long":106.843999,"line":2,"i_lat":-6.2842400000000005},{"transit":false,"station_name":"Tanjung Barat","station_id":"TNT","i_long":106.838896,"distance":2820,"i_lat":-6.3080680000000005,"time":4,"line":2,"is_transit":false},{"i_long":106.832616,"distance":2671,"i_lat":-6.330363,"transit":false,"station_id":"LNA","is_transit":false,"time":3,"station_name":"Lenteng Agung","line":2},{"line":2,"time":2,"transit":false,"i_long":106.834175,"is_transit":false,"station_id":"UP","station_name":"Univ. Pancasila","distance":1029,"i_lat":-6.339291},{"i_lat":-6.360749,"transit":false,"distance":2264,"station_name":"Univ. Indonesia","station_id":"UI","i_long":106.831474,"is_transit":false,"time":3,"line":2},{"station_id":"POC","i_lat":-6.369073,"is_transit":false,"line":2,"station_name":"Pondok Cina","time":2,"transit":false,"i_long":106.831114,"distance":1109},{"i_lat":-6.391065,"i_long":106.819451,"station_name":"Depokbaru","station_id":"DPB","is_transit":false,"time":4,"transit":false,"distance":2727,"line":2}],[{"is_transit":false,"distance":0,"station_id":"PSG","i_long":106.771379,"transit":false,"i_lat":-6.161433,"station_name":"Pesing","line":5,"time":0},{"i_lat":-6.162021,"distance":2036,"time":2,"line":5,"station_name":"Grogol","is_transit":false,"i_long":106.788277,"transit":false,"station_id":"GGL"},{"station_name":"Duri","transit":true,"i_lat":-6.155215,"i_long":106.800832,"time":3,"station_id":"DU","distance":1700,"line":1,"is_transit":true},{"line":1,"station_id":"AK","i_long":106.79867,"transit":false,"is_transit":false,"i_lat":-6.144674,"time":4,"distance":1230,"station_name":"Angke"},{"transit":true,"distance":4102,"i_long":106.826365,"line":4,"i_lat":-6.132549,"station_name":"Kampung Bandan","time":9,"station_id":"KPB","is_transit":true},{"transit":true,"i_long":106.812439,"time":3,"i_lat":-6.137569,"is_transit":true,"distance":1364,"line":2,"station_id":"JAKK","station_name":"Jakarta Kota"},{"distance":1264,"transit":false,"station_name":"Jayakarta","is_transit":false,"line":2,"i_lat":-6.141205,"station_id":"JAY","i_long":106.820901,"time":4},{"distance":1080,"line":2,"i_lat":-6.149769,"is_transit":false,"time":2,"station_name":"Manggabesar","transit":false,"i_long":106.82482,"station_id":"MGB"},{"station_id":"SW","i_lat":-6.160725,"line":2,"time":2,"distance":906,"transit":false,"i_long":106.827103,"station_name":"Sawah Besar","is_transit":false},{"i_lat":-6.166716,"station_name":"Juanda","i_long":106.828284,"distance":1149,"transit":false,"is_transit":false,"time":2,"line":2,"station_id":"JUA"},{"i_long":106.832183,"time":4,"is_transit":false,"distance":2015,"station_id":"GDD","station_name":"Gondangdia","transit":false,"line":2,"i_lat":-6.186295},{"is_transit":false,"distance":1750,"line":2,"time":3,"i_long":106.840169,"i_lat":-6.198556,"station_name":"Cikini","station_id":"CKI","transit":false},{"line":2,"distance":1590,"station_id":"MRI","i_lat":-6.209883,"station_name":"Manggarai","is_transit":false,"i_long":106.84912,"transit":false,"time":4},{"transit":false,"time":4,"is_transit":false,"i_lat":-6.226659,"distance":2610,"line":2,"station_name":"Tebet","i_long":106.857948,"station_id":"TEB"},{"is_transit":false,"transit":false,"station_id":"CW","station_name":"Cawang","time":2,"i_long":106.856607,"line":2,"i_lat":-6.242512,"distance":1230},{"i_long":106.85449,"is_transit":false,"station_id":"DRN","time":3,"distance":1546,"i_lat":-6.255332,"transit":false,"station_name":"Duren Kalibata","line":2},{"station_name":"Pasar Minggu Baru","i_long":106.851577,"line":2,"i_lat":-6.263214,"time":2,"is_transit":false,"transit":false,"station_id":"PSMB","distance":824},{"is_transit":false,"transit":false,"station_name":"Pasar Minggu","distance":2380,"i_lat":-6.2842400000000005,"i_long":106.843999,"time":2,"station_id":"PSM","line":2},{"station_id":"TNT","time":4,"i_long":106.838896,"distance":2820,"station_name":"Tanjung Barat","is_transit":false,"transit":false,"line":2,"i_lat":-6.3080680000000005},{"i_long":106.832616,"line":2,"is_transit":false,"station_name":"Lenteng Agung","station_id":"LNA","time":3,"distance":2671,"i_lat":-6.330363,"transit":false},{"line":2,"distance":1029,"time":2,"i_long":106.834175,"transit":false,"station_name":"Univ. Pancasila","is_transit":false,"station_id":"UP","i_lat":-6.339291},{"is_transit":false,"i_long":106.831474,"i_lat":-6.360749,"station_name":"Univ. Indonesia","distance":2264,"station_id":"UI","line":2,"transit":false,"time":3},{"time":2,"i_long":106.831114,"line":2,"station_id":"POC","is_transit":false,"distance":1109,"transit":false,"station_name":"Pondok Cina","i_lat":-6.369073},{"time":4,"transit":false,"i_long":106.819451,"line":2,"is_transit":false,"i_lat":-6.391065,"station_id":"DPB","station_name":"Depokbaru","distance":2727}],[{"line":5,"i_lat":-6.161433,"i_long":106.771379,"distance":0,"station_name":"Pesing","station_id":"PSG","transit":false,"is_transit":false,"time":0},{"i_lat":-6.162021,"station_id":"GGL","transit":false,"i_long":106.788277,"time":2,"is_transit":false,"line":5,"distance":2036,"station_name":"Grogol"},{"station_id":"DU","is_transit":true,"transit":true,"i_lat":-6.155215,"line":1,"i_long":106.800832,"time":3,"station_name":"Duri","distance":1700},{"i_long":106.79867,"station_name":"Angke","station_id":"AK","distance":1230,"line":1,"i_lat":-6.144674,"is_transit":false,"time":4,"transit":false},{"i_long":106.826365,"time":9,"distance":4102,"station_id":"KPB","is_transit":true,"i_lat":-6.132549,"line":4,"transit":true,"station_name":"Kampung Bandan"},{"i_long":106.836569,"line":11,"i_lat":-6.14505,"time":3,"is_transit":false,"transit":false,"distance":1444,"station_name":"Rajawali","station_id":"RJW"},{"station_name":"Kemayoran","i_long":106.839204,"is_transit":false,"time":5,"station_id":"KMO","distance":1901,"i_lat":-6.161728,"line":11,"transit":false},{"line":11,"transit":false,"station_name":"Pasar Senen","distance":1436,"station_id":"PSE","is_transit":false,"i_long":106.84368,"time":4,"i_lat":-6.174784},{"transit":false,"distance":1567,"i_long":106.850107,"is_transit":false,"station_name":"Gang Sentiong","time":8,"station_id":"GST","i_lat":-6.185975,"line":11},{"station_id":"KMT","is_transit":false,"time":1,"i_lat":-6.193792,"line":11,"distance":973,"transit":false,"i_long":106.855437,"station_name":"Kramat"},{"i_long":106.861737,"station_name":"Pondok Jati","station_id":"POK","i_lat":-6.209188,"transit":false,"time":2,"distance":1829,"line":11,"is_transit":false},{"time":9,"station_name":"Jatinegara","is_transit":true,"i_lat":-6.215091,"i_long":106.86807400000001,"line":1,"distance":1236,"transit":true,"station_id":"JNG"},{"transit":false,"line":1,"i_long":106.858896,"is_transit":false,"i_lat":-6.212485,"station_name":"Matraman","station_id":"MTR","time":2,"distance":1377},{"distance":1275,"i_long":106.84912,"is_transit":true,"i_lat":-6.209883,"time":2,"transit":true,"station_id":"MRI","line":2,"station_name":"Manggarai"},{"time":4,"i_long":106.857948,"station_id":"TEB","line":2,"is_transit":false,"i_lat":-6.226659,"station_name":"Tebet","distance":2610,"transit":false},{"station_id":"CW","line":2,"transit":false,"time":2,"distance":1230,"i_long":106.856607,"is_transit":false,"i_lat":-6.242512,"station_name":"Cawang"},{"i_lat":-6.255332,"transit":false,"is_transit":false,"time":3,"distance":1546,"i_long":106.85449,"line":2,"station_name":"Duren Kalibata","station_id":"DRN"},{"line":2,"i_long":106.851577,"station_id":"PSMB","transit":false,"is_transit":false,"station_name":"Pasar Minggu Baru","i_lat":-6.263214,"time":2,"distance":824},{"time":2,"distance":2380,"i_lat":-6.2842400000000005,"i_long":106.843999,"station_id":"PSM","line":2,"station_name":"Pasar Minggu","is_transit":false,"transit":false},{"line":2,"transit":false,"station_name":"Tanjung Barat","time":4,"i_long":106.838896,"is_transit":false,"station_id":"TNT","i_lat":-6.3080680000000005,"distance":2820},{"i_lat":-6.330363,"i_long":106.832616,"is_transit":false,"station_name":"Lenteng Agung","transit":false,"distance":2671,"line":2,"station_id":"LNA","time":3},{"time":2,"is_transit":false,"station_name":"Univ. Pancasila","transit":false,"station_id":"UP","distance":1029,"i_lat":-6.339291,"i_long":106.834175,"line":2},{"is_transit":false,"distance":2264,"station_name":"Univ. Indonesia","i_long":106.831474,"station_id":"UI","transit":false,"time":3,"i_lat":-6.360749,"line":2},{"station_name":"Pondok Cina","time":2,"distance":1109,"i_long":106.831114,"transit":false,"line":2,"is_transit":false,"station_id":"POC","i_lat":-6.369073},{"i_lat":-6.391065,"time":4,"transit":false,"station_id":"DPB","i_long":106.819451,"line":2,"is_transit":false,"distance":2727,"station_name":"Depokbaru"}]]}