{"data":[[{"is_transit":false,"station_id":"PSG","time":0,"distance":0,"i_lat":-6.161433,"i_long":106.771379,"transit":false,"line":5,"station_name":"Pesing"},{"station_id":"GGL","i_long":106.788277,"station_name":"Grogol","distance":2036,"time":2,"line":5,"transit":false,"i_lat":-6.162021,"is_transit":false},{"station_id":"DU","transit":true,"line":1,"time":3,"i_lat":-6.155215,"distance":1700,"i_long":106.800832,"station_name":"Duri","is_transit":true},{"is_transit":false,"transit":false,"station_name":"Tanah Abang","i_long":106.811091,"time":8,"i_lat":-6.185545,"line":1,"distance":3632,"station_id":"THB"},{"station_id":"KAT","distance":2029,"time":5,"station_name":"Karet","i_lat":-6.20132,"line":1,"i_long":106.816351,"transit":false,"is_transit":false},{"transit":false,"i_lat":-6.201433,"station_id":"SUDB","station_name":"Sudirman Baru","line":1,"distance":471,"i_long":106.819881,"time":1,"is_transit":false},{"i_long":106.822649,"line":1,"station_name":"Sudirman","distance":280,"is_transit":false,"i_lat":-6.202263,"time":1,"transit":false,"station_id":"SUD"},{"is_transit":true,"time":4,"station_id":"MRI","i_lat":-6.209883,"line":2,"distance":3186,"station_name":"Manggarai","transit":true,"i_long":106.84912},{"transit":false,"i_long":106.857948,"i_lat":-6.226659,"station_name":"Tebet","distance":2610,"time":4,"is_transit":false,"line":2,"station_id":"TEB"}],[{"time":0,"station_id":"PSG","i_long":106.771379,"line":5,"i_lat":-6.161433,"distance":0,"transit":false,"is_transit":false,"station_name":"Pesing"},{"time":2,"is_transit":false,"station_id":"GGL","transit":false,"line":5,"i_long":106.788277,"distance":2036,"station_name":"Grogol","i_lat":-6.162021},{"is_transit":true,"time":3,"transit":true,"line":1,"station_id":"DU","distance":1700,"station_name":"Duri","i_lat":-6.155215,"i_long":106.800832},{"is_transit":false,"i_lat":-6.144674,"i_long":106.79867,"distance":1230,"time":4,"station_id":"AK","line":1,"station_name":"Angke","transit":false},{"station_name":"Kampung Bandan","station_id":"KPB","i_lat":-6.132549,"is_transit":true,"i_long":106.826365,"line":4,"transit":true,"distance":4102,"time":9},{"i_long":106.812439,"i_lat":-6.137569,"station_name":"Jakarta Kota","distance":1364,"time":3,"station_id":"JAKK","transit":true,"is_transit":true,"line":2},{"i_long":106.820901,"distance":1264,"station_id":"JAY","i_lat":-6.141205,"line":2,"station_name":"Jayakarta","time":4,"is_transit":false,"transit":false},{"line":2,"time":2,"i_lat":-6.149769,"is_transit":false,"transit":false,"distance":1080,"station_id":"MGB","station_name":"Manggabesar","i_long":106.82482},{"i_long":106.827103,"distance":906,"transit":false,"is_transit":false,"station_name":"Sawah Besar","i_lat":-6.160725,"station_id":"SW","time":2,"line":2},{"line":2,"is_transit":false,"transit":false,"i_lat":-6.166716,"i_long":106.828284,"station_name":"Juanda","time":2,"distance":1149,"station_id":"JUA"},{"i_long":106.832183,"distance":2015,"station_id":"GDD","station_name":"Gondangdia","i_lat":-6.186295,"is_transit":false,"transit":false,"time":4,"line":2},{"time":3,"i_lat":-6.198556,"station_name":"Cikini","distance":1750,"line":2,"is_transit":false,"transit":false,"i_long":106.840169,"station_id":"CKI"},{"transit":false,"station_name":"Manggarai","i_long":106.84912,"line":2,"distance":1590,"i_lat":-6.209883,"time":4,"station_id":"MRI","is_transit":false},{"i_long":106.857948,"distance":2610,"i_lat":-6.226659,"is_transit":false,"station_name":"Tebet","time":4,"station_id":"TEB","line":2,"transit":false}],[{"distance":0,"station_id":"PSG","is_transit":false,"i_long":106.771379,"i_lat":-6.161433,"time":0,"line":5,"transit":false,"station_name":"Pesing"},{"i_lat":-6.162021,"distance":2036,"is_transit":false,"station_name":"Grogol","station_id":"GGL","i_long":106.788277,"time":2,"transit":false,"line":5},{"station_name":"Duri","time":3,"distance":1700,"i_long":106.800832,"i_lat":-6.155215,"is_transit":true,"transit":true,"station_id":"DU","line":1},{"line":1,"is_transit":false,"transit":false,"time":4,"station_id":"AK","station_name":"Angke","i_long":106.79867,"i_lat":-6.144674,"distance":1230},{"time":9,"distance":4102,"station_id":"KPB","is_transit":true,"transit":true,"line":4,"station_name":"Kampung Bandan","i_lat":-6.132549,"i_long":106.826365},{"station_id":"RJW","i_lat":-6.14505,"time":3,"is_transit":false,"distance":1444,"transit":false,"i_long":106.836569,"station_name":"Rajawali","line":11},{"station_id":"KMO","is_transit":false,"distance":1901,"transit":false,"i_long":106.839204,"time":5,"station_name":"Kemayoran","i_lat":-6.161728,"line":11},{"station_name":"Pasar Senen","i_lat":-6.174784,"line":11,"transit":false,"time":4,"is_transit":false,"i_long":106.84368,"distance":1436,"station_id":"PSE"},{"i_long":106.850107,"distance":1567,"is_transit":false,"station_id":"GST","station_name":"Gang Sentiong","transit":false,"i_lat":-6.185975,"line":11,"time":8},{"time":1,"is_transit":false,"i_lat":-6.193792,"line":11,"distance":973,"station_name":"Kramat","transit":false,"i_long":106.855437,"station_id":"KMT"},{"station_name":"Pondok Jati","line":11,"distance":1829,"time":2,"transit":false,"i_lat":-6.209188,"is_transit":false,"i_long":106.861737,"station_id":"POK"},{"time":9,"i_long":106.86807400000001,"distance":1236,"station_name":"Jatinegara","transit":true,"is_transit":true,"station_id":"JNG","i_lat":-6.215091,"line":1},{"i_lat":-6.212485,"line":1,"station_name":"Matraman","i_long":106.858896,"transit":false,"station_id":"MTR","distance":1377,"is_transit":false,"time":2},{"time":2,"distance":1275,"transit":true,"is_transit":true,"i_long":106.84912,"line":2,"station_id":"MRI","station_name":"Manggarai","i_lat":-6.209883},{"i_long":106.857948,"station_id":"TEB","distance":2610,"is_transit":false,"time":4,"transit":false,"line":2,"i_lat":-6.226659,"station_name":"Tebet"}]]}