{"data":[[{"line":5,"time":0,"distance":0,"is_transit":false,"i_lat":-6.161433,"station_name":"Pesing","i_long":106.771379,"transit":false,"station_id":"PSG"},{"is_transit":false,"station_name":"Grogol","transit":false,"i_lat":-6.162021,"i_long":106.788277,"line":5,"station_id":"GGL","distance":2036,"time":2},{"is_transit":true,"time":3,"line":1,"station_id":"DU","transit":true,"i_long":106.800832,"station_name":"Duri","distance":1700,"i_lat":-6.155215},{"i_long":106.811091,"time":8,"station_id":"THB","distance":3632,"station_name":"Tanah Abang","line":1,"i_lat":-6.185545,"is_transit":false,"transit":false},{"time":5,"is_transit":false,"transit":false,"i_long":106.816351,"i_lat":-6.20132,"station_name":"Karet","line":1,"distance":2029,"station_id":"KAT"},{"transit":false,"station_name":"Sudirman Baru","line":1,"distance":471,"time":1,"is_transit":false,"i_lat":-6.201433,"station_id":"SUDB","i_long":106.819881},{"distance":280,"i_long":106.822649,"line":1,"i_lat":-6.202263,"station_name":"Sudirman","station_id":"SUD","is_transit":false,"time":1,"transit":false},{"distance":3186,"line":2,"time":4,"is_transit":true,"transit":true,"i_lat":-6.209883,"station_id":"MRI","i_long":106.84912,"station_name":"Manggarai"},{"i_lat":-6.226659,"time":4,"station_name":"Tebet","line":2,"is_transit":false,"station_id":"TEB","transit":false,"i_long":106.857948,"distance":2610},{"transit":false,"station_id":"CW","i_long":106.856607,"line":2,"i_lat":-6.242512,"distance":1230,"station_name":"Cawang","is_transit":false,"time":2},{"i_long":106.85449,"line":2,"station_name":"Duren Kalibata","station_id":"DRN","distance":1546,"is_transit":false,"time":3,"i_lat":-6.255332,"transit":false},{"i_lat":-6.263214,"distance":824,"i_long":106.851577,"transit":false,"line":2,"station_name":"Pasar Minggu Baru","station_id":"PSMB","time":2,"is_transit":false},{"transit":false,"distance":2380,"i_long":106.843999,"is_transit":false,"station_id":"PSM","i_lat":-6.2842400000000005,"time":2,"station_name":"Pasar Minggu","line":2},{"station_id":"TNT","i_long":106.838896,"station_name":"Tanjung Barat","i_lat":-6.3080680000000005,"time":4,"line":2,"distance":2820,"is_transit":false,"transit":false},{"station_name":"Lenteng Agung","line":2,"transit":false,"time":3,"station_id":"LNA","i_lat":-6.330363,"is_transit":false,"i_long":106.832616,"distance":2671},{"is_transit":false,"station_id":"UP","line":2,"i_lat":-6.339291,"time":2,"transit":false,"i_long":106.834175,"distance":1029,"station_name":"Univ. Pancasila"},{"i_long":106.831474,"is_transit":false,"time":3,"station_id":"UI","station_name":"Univ. Indonesia","i_lat":-6.360749,"distance":2264,"line":2,"transit":false},{"station_name":"Pondok Cina","line":2,"distance":1109,"time":2,"transit":false,"i_lat":-6.369073,"station_id":"POC","i_long":106.831114,"is_transit":false},{"transit":false,"line":2,"station_id":"DPB","distance":2727,"station_name":"Depokbaru","is_transit":false,"i_lat":-6.391065,"time":4,"i_long":106.819451},{"is_transit":false,"transit":false,"time":3,"i_long":106.816926,"i_lat":-6.405256,"line":2,"station_id":"DP","distance":1584,"station_name":"Depok"},{"distance":5084,"time":6,"station_name":"Citayam","transit":true,"line":2,"i_long":106.800298,"station_id":"CTA","i_lat":-6.448811,"is_transit":true},{"station_name":"Pondok Rajeg","line":21,"is_transit":false,"time":0,"transit":false,"station_id":"PDRG","distance":0,"i_lat":-6.460735,"i_long":106.824374},{"distance":0,"is_transit":false,"station_id":"CBN","line":21,"time":0,"i_lat":-6.46424,"i_long":106.851978,"station_name":"Cibinong","transit":false},{"is_transit":false,"i_lat":-6.466285,"station_name":"Nambo","station_id":"NMO","transit":false,"line":21,"distance":6527,"time":10,"i_long":106.905196}],[{"i_lat":-6.161433,"i_long":106.771379,"is_transit":false,"station_name":"Pesing","station_id":"PSG","transit":false,"time":0,"line":5,"distance":0},{"line":5,"transit":false,"station_name":"Grogol","station_id":"GGL","i_long":106.788277,"time":2,"distance":2036,"is_transit":false,"i_lat":-6.162021},{"transit":true,"i_lat":-6.155215,"distance":1700,"line":1,"time":3,"is_transit":true,"station_id":"DU","i_long":106.800832,"station_name":"Duri"},{"station_name":"Angke","distance":1230,"station_id":"AK","transit":false,"is_transit":false,"i_lat":-6.144674,"i_long":106.79867,"time":4,"line":1},{"i_long":106.826365,"is_transit":true,"i_lat":-6.132549,"station_id":"KPB","station_name":"Kampung Bandan","time":9,"transit":true,"line":4,"distance":4102},{"is_transit":true,"i_long":106.812439,"line":2,"station_name":"Jakarta Kota","distance":1364,"transit":true,"i_lat":-6.137569,"time":3,"station_id":"JAKK"},{"is_transit":false,"transit":false,"distance":1264,"station_name":"Jayakarta","i_lat":-6.141205,"time":4,"station_id":"JAY","line":2,"i_long":106.820901},{"distance":1080,"line":2,"station_id":"MGB","i_lat":-6.149769,"transit":false,"is_transit":false,"station_name":"Manggabesar","i_long":106.82482,"time":2},{"i_lat":-6.160725,"distance":906,"time":2,"station_id":"SW","transit":false,"i_long":106.827103,"station_name":"Sawah Besar","line":2,"is_transit":false},{"is_transit":false,"station_id":"JUA","i_lat":-6.166716,"i_long":106.828284,"station_name":"Juanda","line":2,"transit":false,"time":2,"distance":1149},{"line":2,"i_long":106.832183,"distance":2015,"is_transit":false,"transit":false,"station_name":"Gondangdia","i_lat":-6.186295,"station_id":"GDD","time":4},{"i_long":106.840169,"time":3,"station_id":"CKI","i_lat":-6.198556,"transit":false,"is_transit":false,"station_name":"Cikini","line":2,"distance":1750},{"transit":false,"distance":1590,"i_long":106.84912,"line":2,"station_id":"MRI","is_transit":false,"time":4,"i_lat":-6.209883,"station_name":"Manggarai"},{"transit":false,"time":4,"station_id":"TEB","i_lat":-6.226659,"is_transit":false,"station_name":"Tebet","i_long":106.857948,"line":2,"distance":2610},{"i_lat":-6.242512,"distance":1230,"station_name":"Cawang","station_id":"CW","i_long":106.856607,"transit":false,"is_transit":false,"line":2,"time":2},{"line":2,"station_id":"DRN","is_transit":false,"i_lat":-6.255332,"i_long":106.85449,"station_name":"Duren Kalibata","transit":false,"time":3,"distance":1546},{"station_name":"Pasar Minggu Baru","distance":824,"station_id":"PSMB","transit":false,"i_lat":-6.263214,"line":2,"i_long":106.851577,"is_transit":false,"time":2},{"station_name":"Pasar Minggu","i_lat":-6.2842400000000005,"i_long":106.843999,"line":2,"distance":2380,"transit":false,"station_id":"PSM","is_transit":false,"time":2},{"station_name":"Tanjung Barat","is_transit":false,"time":4,"distance":2820,"i_lat":-6.3080680000000005,"station_id":"TNT","transit":false,"line":2,"i_long":106.838896},{"i_long":106.832616,"transit":false,"i_lat":-6.330363,"is_transit":false,"line":2,"time":3,"station_name":"Lenteng Agung","station_id":"LNA","distance":2671},{"i_lat":-6.339291,"i_long":106.834175,"station_id":"UP","transit":false,"is_transit":false,"line":2,"station_name":"Univ. Pancasila","distance":1029,"time":2},{"station_id":"UI","time":3,"i_lat":-6.360749,"i_long":106.831474,"distance":2264,"transit":false,"is_transit":false,"line":2,"station_name":"Univ. Indonesia"},{"line":2,"time":2,"transit":false,"i_long":106.831114,"is_transit":false,"distance":1109,"station_id":"POC","station_name":"Pondok Cina","i_lat":-6.369073},{"is_transit":false,"time":4,"distance":2727,"i_long":106.819451,"i_lat":-6.391065,"station_id":"DPB","station_name":"Depokbaru","line":2,"transit":false},{"station_id":"DP","distance":1584,"station_name":"Depok","is_transit":false,"i_long":106.816926,"transit":false,"time":3,"i_lat":-6.405256,"line":2},{"time":6,"station_id":"CTA","transit":true,"station_name":"Citayam","is_transit":true,"i_lat":-6.448811,"i_long":106.800298,"distance":5084,"line":2},{"station_id":"PDRG","station_name":"Pondok Rajeg","transit":false,"is_transit":false,"i_lat":-6.460735,"line":21,"time":0,"i_long":106.824374,"distance":0},{"distance":0,"line":21,"time":0,"station_id":"CBN","station_name":"Cibinong","transit":false,"is_transit":false,"i_lat":-6.46424,"i_long":106.851978},{"time":10,"line":21,"station_name":"Nambo","is_transit":false,"distance":6527,"transit":false,"i_lat":-6.466285,"station_id":"NMO","i_long":106.905196}],[{"time":0,"transit":false,"station_id":"PSG","line":5,"distance":0,"i_long":106.771379,"is_transit":false,"i_lat":-6.161433,"station_name":"Pesing"},{"i_long":106.788277,"time":2,"station_id":"GGL","line":5,"station_name":"Grogol","is_transit":false,"i_lat":-6.162021,"distance":2036,"transit":false},{"station_name":"Duri","transit":true,"i_long":106.800832,"station_id":"DU","is_transit":true,"time":3,"distance":1700,"i_lat":-6.155215,"line":1},{"transit":false,"time":4,"distance":1230,"i_long":106.79867,"station_id":"AK","station_name":"Angke","i_lat":-6.144674,"line":1,"is_transit":false},{"transit":true,"is_transit":true,"distance":4102,"station_id":"KPB","line":4,"i_lat":-6.132549,"station_name":"Kampung Bandan","time":9,"i_long":106.826365},{"distance":1444,"station_id":"RJW","i_lat":-6.14505,"line":11,"i_long":106.836569,"is_transit":false,"station_name":"Rajawali","time":3,"transit":false},{"distance":1901,"is_transit":false,"station_id":"KMO","time":5,"station_name":"Kemayoran","i_lat":-6.161728,"line":11,"transit":false,"i_long":106.839204},{"is_transit":false,"i_lat":-6.174784,"line":11,"distance":1436,"transit":false,"time":4,"station_name":"Pasar Senen","station_id":"PSE","i_long":106.84368},{"distance":1567,"i_long":106.850107,"station_name":"Gang Sentiong","station_id":"GST","i_lat":-6.185975,"is_transit":false,"line":11,"time":8,"transit":false},{"line":11,"station_name":"Kramat","transit":false,"time":1,"is_transit":false,"i_long":106.855437,"i_lat":-6.193792,"distance":973,"station_id":"KMT"},{"line":11,"is_transit":false,"distance":1829,"i_lat":-6.209188,"time":2,"station_id":"POK","station_name":"Pondok Jati","transit":false,"i_long":106.861737},{"transit":true,"i_lat":-6.215091,"i_long":106.86807400000001,"station_name":"Jatinegara","distance":1236,"is_transit":true,"station_id":"JNG","time":9,"line":1},{"i_lat":-6.212485,"transit":false,"i_long":106.858896,"time":2,"distance":1377,"station_id":"MTR","is_transit":false,"station_name":"Matraman","line":1},{"station_name":"Manggarai","distance":1275,"station_id":"MRI","i_lat":-6.209883,"line":2,"time":2,"i_long":106.84912,"transit":true,"is_transit":true},{"i_long":106.857948,"station_name":"Tebet","station_id":"TEB","transit":false,"line":2,"time":4,"distance":2610,"i_lat":-6.226659,"is_transit":false},{"station_name":"Cawang","is_transit":false,"station_id":"CW","i_long":106.856607,"i_lat":-6.242512,"time":2,"transit":false,"line":2,"distance":1230},{"is_transit":false,"distance":1546,"i_long":106.85449,"station_name":"Duren Kalibata","time":3,"i_lat":-6.255332,"line":2,"transit":false,"station_id":"DRN"},{"i_long":106.851577,"station_id":"PSMB","i_lat":-6.263214,"time":2,"distance":824,"transit":false,"line":2,"station_name":"Pasar Minggu Baru","is_transit":false},{"is_transit":false,"transit":false,"distance":2380,"time":2,"station_name":"Pasar Minggu","i_lat":-6.2842400000000005,"line":2,"station_id":"PSM","i_long":106.843999},{"station_name":"Tanjung Barat","i_lat":-6.3080680000000005,"is_transit":false,"time":4,"i_long":106.838896,"station_id":"TNT","distance":2820,"transit":false,"line":2},{"transit":false,"i_lat":-6.330363,"line":2,"station_name":"Lenteng Agung","time":3,"distance":2671,"station_id":"LNA","i_long":106.832616,"is_transit":false},{"is_transit":false,"i_lat":-6.339291,"time":2,"i_long":106.834175,"distance":1029,"station_id":"UP","line":2,"station_name":"Univ. Pancasila","transit":false},{"transit":false,"i_long":106.831474,"station_id":"UI","line":2,"station_name":"Univ. Indonesia","time":3,"distance":2264,"is_transit":false,"i_lat":-6.360749},{"distance":1109,"i_long":106.831114,"i_lat":-6.369073,"station_id":"POC","transit":false,"station_name":"Pondok Cina","line":2,"is_transit":false,"time":2},{"station_id":"DPB","i_long":106.819451,"transit":false,"station_name":"Depokbaru","time":4,"distance":2727,"line":2,"is_transit":false,"i_lat":-6.391065},{"station_id":"DP","distance":1584,"time":3,"is_transit":false,"i_lat":-6.405256,"line":2,"station_name":"Depok","transit":false,"i_long":106.816926},{"distance":5084,"i_lat":-6.448811,"line":2,"time":6,"station_id":"CTA","i_long":106.800298,"station_name":"Citayam","transit":true,"is_transit":true},{"distance":0,"transit":false,"is_transit":false,"time":0,"i_lat":-6.460735,"line":21,"i_long":106.824374,"station_name":"Pondok Rajeg","station_id":"PDRG"},{"is_transit":false,"transit":false,"distance":0,"station_name":"Cibinong","line":21,"i_long":106.851978,"time":0,"i_lat":-6.46424,"station_id":"CBN"},{"i_long":106.905196,"station_name":"Nambo","distance":6527,"is_transit":false,"station_id":"NMO","time":10,"i_lat":-6.466285,"transit":false,"line":21}]]}