{"data":[[{"i_long":106.771379,"transit":false,"station_name":"Pesing","i_lat":-6.161433,"distance":0,"station_id":"PSG","line":5,"time":0,"is_transit":false},{"time":2,"i_long":106.788277,"distance":2036,"station_name":"Grogol","line":5,"transit":false,"i_lat":-6.162021,"is_transit":false,"station_id":"GGL"},{"is_transit":true,"time":3,"i_long":106.800832,"station_id":"DU","station_name":"Duri","transit":true,"line":1,"i_lat":-6.155215,"distance":1700},{"station_name":"Tanah Abang","time":8,"i_long":106.811091,"station_id":"THB","i_lat":-6.185545,"line":1,"is_transit":true,"transit":false,"distance":3632},{"i_long":106.816351,"transit":false,"station_id":"KAT","distance":2029,"is_transit":false,"time":5,"station_name":"Karet","line":1,"i_lat":-6.20132},{"station_id":"SUDB","transit":false,"i_lat":-6.201433,"i_long":106.819881,"time":1,"station_name":"Sudirman Baru","line":1,"is_transit":false,"distance":471},{"station_name":"Sudirman","time":1,"station_id":"SUD","i_lat":-6.202263,"i_long":106.822649,"is_transit":false,"transit":false,"distance":280,"line":1},{"transit":false,"time":4,"line":0,"distance":3186,"station_id":"MRI","i_long":106.84912,"is_transit":true,"station_name":"Manggarai","i_lat":-6.209883},{"line":1,"distance":1275,"time":2,"station_name":"Matraman","i_long":106.858896,"station_id":"MTR","i_lat":-6.212485,"transit":false,"is_transit":false},{"line":0,"station_id":"JNG","station_name":"Jatinegara","time":8,"i_lat":-6.215091,"i_long":106.86807400000001,"transit":false,"distance":1377,"is_transit":true},{"distance":3395,"i_lat":-6.2135,"station_id":"KLD","transit":false,"line":1,"is_transit":false,"time":3,"station_name":"Klender","i_long":106.899548},{"transit":false,"station_id":"BUA","time":2,"i_lat":-6.215568,"line":0,"is_transit":false,"station_name":"Buaran","distance":3100,"i_long":106.922662}],[{"time":0,"is_transit":false,"distance":0,"i_lat":-6.161433,"station_name":"Pesing","line":5,"station_id":"PSG","i_long":106.771379,"transit":false},{"i_lat":-6.162021,"distance":2036,"line":5,"station_name":"Grogol","time":2,"is_transit":false,"station_id":"GGL","transit":false,"i_long":106.788277},{"transit":true,"line":1,"i_long":106.800832,"distance":1700,"i_lat":-6.155215,"time":3,"is_transit":true,"station_id":"DU","station_name":"Duri"},{"station_id":"AK","station_name":"Angke","i_lat":-6.144674,"i_long":106.79867,"time":4,"line":0,"is_transit":false,"distance":1230,"transit":false},{"i_lat":-6.132549,"station_id":"KPB","is_transit":true,"i_long":106.826365,"station_name":"Kampung Bandan","distance":4102,"transit":true,"line":0,"time":9},{"time":3,"is_transit":false,"station_id":"RJW","transit":false,"i_long":106.836569,"line":11,"distance":1444,"station_name":"Rajawali","i_lat":-6.14505},{"line":11,"station_name":"Kemayoran","i_lat":-6.161728,"distance":1901,"i_long":106.839204,"time":5,"station_id":"KMO","is_transit":false,"transit":false},{"time":4,"i_lat":-6.174784,"i_long":106.84368,"line":11,"distance":1436,"is_transit":false,"station_id":"PSE","transit":false,"station_name":"Pasar Senen"},{"is_transit":false,"time":8,"i_lat":-6.185975,"i_long":106.850107,"line":11,"station_name":"Gang Sentiong","transit":false,"station_id":"GST","distance":1567},{"station_id":"KMT","is_transit":false,"time":1,"transit":false,"i_long":106.855437,"distance":973,"line":11,"station_name":"Kramat","i_lat":-6.193792},{"time":2,"station_id":"POK","distance":1829,"transit":false,"line":11,"i_long":106.861737,"is_transit":false,"i_lat":-6.209188,"station_name":"Pondok Jati"},{"station_id":"JNG","i_long":106.86807400000001,"time":9,"i_lat":-6.215091,"line":0,"distance":1236,"station_name":"Jatinegara","is_transit":true,"transit":true},{"i_long":106.899548,"transit":false,"distance":3395,"station_name":"Klender","i_lat":-6.2135,"station_id":"KLD","line":1,"is_transit":false,"time":3},{"station_name":"Buaran","i_long":106.922662,"station_id":"BUA","line":0,"transit":false,"is_transit":false,"time":2,"i_lat":-6.215568,"distance":3100}],[{"is_transit":false,"transit":false,"time":0,"station_name":"Pesing","station_id":"PSG","i_lat":-6.161433,"line":5,"i_long":106.771379,"distance":0},{"i_long":106.788277,"i_lat":-6.162021,"distance":2036,"transit":false,"line":5,"station_name":"Grogol","station_id":"GGL","time":2,"is_transit":false},{"time":3,"i_lat":-6.155215,"is_transit":true,"station_id":"DU","station_name":"Duri","transit":true,"line":1,"i_long":106.800832,"distance":1700},{"distance":1230,"station_name":"Angke","line":0,"i_long":106.79867,"station_id":"AK","i_lat":-6.144674,"is_transit":false,"time":4,"transit":false},{"is_transit":true,"i_long":106.826365,"station_name":"Kampung Bandan","time":9,"distance":4102,"line":0,"transit":false,"i_lat":-6.132549,"station_id":"KPB"},{"transit":true,"is_transit":true,"i_long":106.812439,"line":0,"i_lat":-6.137569,"time":3,"station_id":"JAKK","distance":1364,"station_name":"Jakarta Kota"},{"station_id":"JAY","is_transit":false,"station_name":"Jayakarta","transit":false,"distance":1264,"i_lat":-6.141205,"time":4,"i_long":106.820901,"line":7},{"transit":false,"i_long":106.82482,"station_name":"Manggabesar","time":2,"distance":1080,"is_transit":false,"i_lat":-6.149769,"line":2,"station_id":"MGB"},{"transit":false,"line":2,"distance":906,"is_transit":false,"i_long":106.827103,"station_name":"Sawah Besar","time":2,"i_lat":-6.160725,"station_id":"SW"},{"i_lat":-6.166716,"time":2,"station_id":"JUA","i_long":106.828284,"transit":false,"distance":1149,"is_transit":false,"line":2,"station_name":"Juanda"},{"station_name":"Gondangdia","distance":2015,"line":2,"time":4,"station_id":"GDD","i_long":106.832183,"is_transit":false,"transit":false,"i_lat":-6.186295},{"station_id":"CKI","i_lat":-6.198556,"is_transit":false,"transit":false,"i_long":106.840169,"station_name":"Cikini","distance":1750,"time":3,"line":0},{"i_long":106.84912,"station_id":"MRI","is_transit":true,"station_name":"Manggarai","transit":true,"time":4,"i_lat":-6.209883,"distance":1590,"line":0},{"is_transit":false,"station_name":"Matraman","i_long":106.858896,"station_id":"MTR","time":2,"distance":1275,"line":1,"i_lat":-6.212485,"transit":false},{"line":0,"station_name":"Jatinegara","station_id":"JNG","distance":1377,"i_lat":-6.215091,"is_transit":true,"i_long":106.86807400000001,"transit":false,"time":8},{"transit":false,"i_long":106.899548,"line":1,"i_lat":-6.2135,"station_id":"KLD","is_transit":false,"station_name":"Klender","time":3,"distance":3395},{"station_name":"Buaran","i_long":106.922662,"transit":false,"is_transit":false,"station_id":"BUA","distance":3100,"i_lat":-6.215568,"line":0,"time":2}],[{"transit":false,"station_id":"PSG","time":0,"station_name":"Pesing","distance":0,"i_long":106.771379,"is_transit":false,"i_lat":-6.161433,"line":5},{"time":2,"line":5,"station_id":"GGL","distance":2036,"i_lat":-6.162021,"transit":false,"is_transit":false,"station_name":"Grogol","i_long":106.788277},{"line":1,"transit":true,"distance":1700,"is_transit":true,"station_id":"DU","i_lat":-6.155215,"i_long":106.800832,"station_name":"Duri","time":3},{"i_lat":-6.185545,"is_transit":true,"transit":false,"i_long":106.811091,"line":1,"station_id":"THB","time":8,"station_name":"Tanah Abang","distance":3632},{"i_lat":-6.20132,"transit":false,"time":5,"station_name":"Karet","i_long":106.816351,"is_transit":false,"station_id":"KAT","line":1,"distance":2029},{"i_long":106.819881,"station_name":"Sudirman Baru","transit":false,"line":1,"time":1,"distance":471,"station_id":"SUDB","is_transit":false,"i_lat":-6.201433},{"is_transit":false,"i_lat":-6.202263,"distance":280,"i_long":106.822649,"station_id":"SUD","station_name":"Sudirman","transit":false,"time":1,"line":1},{"line":0,"time":4,"i_long":106.84912,"station_id":"MRI","i_lat":-6.209883,"station_name":"Manggarai","transit":true,"distance":3186,"is_transit":true},{"transit":false,"i_long":106.840169,"station_name":"Cikini","is_transit":false,"distance":1590,"i_lat":-6.198556,"line":0,"station_id":"CKI","time":4},{"transit":false,"station_id":"GDD","distance":1750,"time":3,"station_name":"Gondangdia","line":2,"i_long":106.832183,"i_lat":-6.186295,"is_transit":false},{"i_lat":-6.166716,"distance":2015,"line":2,"i_long":106.828284,"station_id":"JUA","transit":false,"time":4,"station_name":"Juanda","is_transit":false},{"transit":false,"line":2,"time":2,"distance":1149,"station_id":"SW","i_long":106.827103,"is_transit":false,"station_name":"Sawah Besar","i_lat":-6.160725},{"i_lat":-6.149769,"line":2,"distance":906,"transit":false,"i_long":106.82482,"time":2,"is_transit":false,"station_id":"MGB","station_name":"Manggabesar"},{"distance":1080,"i_lat":-6.141205,"is_transit":false,"transit":false,"i_long":106.820901,"time":2,"station_id":"JAY","station_name":"Jayakarta","line":7},{"line":0,"is_transit":true,"station_name":"Jakarta Kota","time":4,"station_id":"JAKK","distance":1264,"i_lat":-6.137569,"i_long":106.812439,"transit":true},{"station_name":"Kampung Bandan","is_transit":true,"i_long":106.826365,"i_lat":-6.132549,"station_id":"KPB","line":0,"distance":1364,"transit":true,"time":3},{"i_lat":-6.14505,"distance":1444,"station_id":"RJW","station_name":"Rajawali","line":11,"i_long":106.836569,"transit":false,"is_transit":false,"time":3},{"is_transit":false,"station_id":"KMO","i_lat":-6.161728,"distance":1901,"station_name":"Kemayoran","transit":false,"line":11,"time":5,"i_long":106.839204},{"station_id":"PSE","is_transit":false,"i_long":106.84368,"line":11,"time":4,"station_name":"Pasar Senen","distance":1436,"transit":false,"i_lat":-6.174784},{"i_long":106.850107,"distance":1567,"station_id":"GST","station_name":"Gang Sentiong","line":11,"i_lat":-6.185975,"is_transit":false,"time":8,"transit":false},{"time":1,"transit":false,"line":11,"i_lat":-6.193792,"i_long":106.855437,"distance":973,"is_transit":false,"station_id":"KMT","station_name":"Kramat"},{"transit":false,"time":2,"station_name":"Pondok Jati","i_long":106.861737,"station_id":"POK","is_transit":false,"i_lat":-6.209188,"line":11,"distance":1829},{"is_transit":true,"transit":true,"i_long":106.86807400000001,"i_lat":-6.215091,"distance":1236,"time":9,"line":0,"station_id":"JNG","station_name":"Jatinegara"},{"i_long":106.899548,"station_name":"Klender","line":1,"transit":false,"distance":3395,"is_transit":false,"time":3,"station_id":"KLD","i_lat":-6.2135},{"distance":3100,"station_name":"Buaran","is_transit":false,"transit":false,"i_long":106.922662,"line":0,"time":2,"station_id":"BUA","i_lat":-6.215568}]]}