{"data":[[{"line":5,"i_lat":-6.161433,"distance":0,"station_id":"PSG","i_long":106.771379,"station_name":"Pesing","transit":false,"time":0,"is_transit":false},{"line":5,"is_transit":false,"i_lat":-6.162021,"time":2,"transit":false,"distance":2036,"station_name":"Grogol","i_long":106.788277,"station_id":"GGL"},{"is_transit":true,"line":1,"time":3,"distance":1700,"station_id":"DU","station_name":"Duri","transit":true,"i_long":106.800832,"i_lat":-6.155215},{"distance":1230,"i_long":106.79867,"is_transit":false,"time":4,"station_id":"AK","line":1,"station_name":"Angke","i_lat":-6.144674,"transit":false},{"is_transit":true,"i_lat":-6.132549,"time":9,"station_name":"Kampung Bandan","distance":4102,"transit":true,"i_long":106.826365,"station_id":"KPB","line":4},{"i_lat":-6.137569,"i_long":106.812439,"line":2,"distance":1364,"is_transit":true,"time":3,"station_id":"JAKK","station_name":"Jakarta Kota","transit":true},{"i_lat":-6.141205,"i_long":106.820901,"time":4,"is_transit":false,"transit":false,"line":2,"distance":1264,"station_id":"JAY","station_name":"Jayakarta"},{"distance":1080,"is_transit":false,"i_lat":-6.149769,"line":2,"i_long":106.82482,"time":2,"station_name":"Manggabesar","transit":false,"station_id":"MGB"},{"transit":false,"station_id":"SW","station_name":"Sawah Besar","i_long":106.827103,"i_lat":-6.160725,"line":2,"time":2,"distance":906,"is_transit":false},{"is_transit":false,"i_long":106.828284,"distance":1149,"i_lat":-6.166716,"station_name":"Juanda","transit":false,"line":2,"time":2,"station_id":"JUA"}],[{"i_long":106.771379,"distance":0,"station_id":"PSG","time":0,"is_transit":false,"transit":false,"i_lat":-6.161433,"station_name":"Pesing","line":5},{"i_lat":-6.162021,"transit":false,"i_long":106.788277,"station_id":"GGL","station_name":"Grogol","distance":2036,"line":5,"is_transit":false,"time":2},{"is_transit":true,"distance":1700,"line":1,"i_long":106.800832,"station_name":"Duri","i_lat":-6.155215,"time":3,"transit":true,"station_id":"DU"},{"line":1,"distance":3632,"station_id":"THB","is_transit":false,"station_name":"Tanah Abang","time":8,"i_long":106.811091,"transit":false,"i_lat":-6.185545},{"i_long":106.816351,"station_id":"KAT","is_transit":false,"station_name":"Karet","i_lat":-6.20132,"line":1,"transit":false,"time":5,"distance":2029},{"transit":false,"i_lat":-6.201433,"i_long":106.819881,"is_transit":false,"station_id":"SUDB","station_name":"Sudirman Baru","distance":471,"time":1,"line":1},{"time":1,"is_transit":false,"transit":false,"station_id":"SUD","distance":280,"station_name":"Sudirman","i_long":106.822649,"i_lat":-6.202263,"line":1},{"time":4,"is_transit":true,"line":2,"station_name":"Manggarai","station_id":"MRI","transit":true,"i_lat":-6.209883,"distance":3186,"i_long":106.84912},{"station_name":"Cikini","i_lat":-6.198556,"is_transit":false,"transit":false,"i_long":106.840169,"station_id":"CKI","time":4,"distance":1590,"line":2},{"distance":1750,"station_name":"Gondangdia","i_lat":-6.186295,"line":2,"station_id":"GDD","i_long":106.832183,"is_transit":false,"transit":false,"time":3},{"time":4,"is_transit":false,"i_lat":-6.166716,"station_id":"JUA","station_name":"Juanda","transit":false,"line":2,"distance":2015,"i_long":106.828284}],[{"line":5,"is_transit":false,"distance":0,"station_name":"Pesing","time":0,"i_lat":-6.161433,"station_id":"PSG","transit":false,"i_long":106.771379},{"distance":2036,"station_name":"Grogol","is_transit":false,"line":5,"time":2,"station_id":"GGL","i_lat":-6.162021,"transit":false,"i_long":106.788277},{"time":3,"is_transit":true,"distance":1700,"transit":true,"i_long":106.800832,"i_lat":-6.155215,"station_name":"Duri","station_id":"DU","line":1},{"i_long":106.79867,"transit":false,"station_id":"AK","is_transit":false,"line":1,"station_name":"Angke","distance":1230,"time":4,"i_lat":-6.144674},{"transit":true,"line":4,"i_long":106.826365,"time":9,"is_transit":true,"i_lat":-6.132549,"station_name":"Kampung Bandan","station_id":"KPB","distance":4102},{"i_long":106.836569,"station_id":"RJW","station_name":"Rajawali","time":3,"i_lat":-6.14505,"line":11,"is_transit":false,"distance":1444,"transit":false},{"transit":false,"time":5,"i_long":106.839204,"station_name":"Kemayoran","is_transit":false,"line":11,"distance":1901,"station_id":"KMO","i_lat":-6.161728},{"line":11,"station_name":"Pasar Senen","is_transit":false,"station_id":"PSE","transit":false,"i_lat":-6.174784,"i_long":106.84368,"distance":1436,"time":4},{"i_lat":-6.185975,"time":8,"is_transit":false,"i_long":106.850107,"transit":false,"station_name":"Gang Sentiong","distance":1567,"station_id":"GST","line":11},{"i_lat":-6.193792,"station_id":"KMT","transit":false,"distance":973,"is_transit":false,"i_long":106.855437,"line":11,"station_name":"Kramat","time":1},{"transit":false,"line":11,"distance":1829,"time":2,"station_id":"POK","is_transit":false,"i_lat":-6.209188,"station_name":"Pondok Jati","i_long":106.861737},{"i_lat":-6.215091,"is_transit":true,"distance":1236,"station_id":"JNG","i_long":106.86807400000001,"station_name":"Jatinegara","line":1,"time":9,"transit":true},{"station_name":"Matraman","distance":1377,"time":2,"line":1,"is_transit":false,"station_id":"MTR","i_lat":-6.212485,"transit":false,"i_long":106.858896},{"transit":true,"time":2,"distance":1275,"is_transit":true,"i_lat":-6.209883,"i_long":106.84912,"station_name":"Manggarai","line":2,"station_id":"MRI"},{"station_id":"CKI","distance":1590,"time":4,"transit":false,"i_lat":-6.198556,"station_name":"Cikini","is_transit":false,"i_long":106.840169,"line":2},{"is_transit":false,"station_name":"Gondangdia","line":2,"time":3,"station_id":"GDD","distance":1750,"i_long":106.832183,"i_lat":-6.186295,"transit":false},{"time":4,"station_id":"JUA","distance":2015,"is_transit":false,"i_lat":-6.166716,"i_long":106.828284,"transit":false,"line":2,"station_name":"Juanda"}],[{"transit":false,"station_id":"PSG","station_name":"Pesing","distance":0,"time":0,"i_lat":-6.161433,"i_long":106.771379,"line":5,"is_transit":false},{"station_name":"Grogol","i_lat":-6.162021,"i_long":106.788277,"station_id":"GGL","line":5,"is_transit":false,"transit":false,"time":2,"distance":2036},{"line":1,"time":3,"distance":1700,"station_name":"Duri","i_lat":-6.155215,"transit":true,"station_id":"DU","is_transit":true,"i_long":106.800832},{"transit":false,"is_transit":false,"line":1,"station_name":"Tanah Abang","station_id":"THB","time":8,"distance":3632,"i_long":106.811091,"i_lat":-6.185545},{"is_transit":false,"i_long":106.816351,"transit":false,"line":1,"distance":2029,"time":5,"station_name":"Karet","station_id":"KAT","i_lat":-6.20132},{"time":1,"station_name":"Sudirman Baru","transit":false,"station_id":"SUDB","i_long":106.819881,"line":1,"i_lat":-6.201433,"distance":471,"is_transit":false},{"time":1,"distance":280,"transit":false,"station_name":"Sudirman","station_id":"SUD","i_lat":-6.202263,"i_long":106.822649,"is_transit":false,"line":1},{"i_lat":-6.209883,"transit":false,"station_name":"Manggarai","distance":3186,"is_transit":false,"line":2,"time":4,"i_long":106.84912,"station_id":"MRI"},{"transit":false,"distance":1275,"is_transit":false,"i_long":106.858896,"station_id":"MTR","line":1,"time":2,"station_name":"Matraman","i_lat":-6.212485},{"distance":1377,"station_name":"Jatinegara","line":1,"time":8,"is_transit":true,"station_id":"JNG","transit":true,"i_long":106.86807400000001,"i_lat":-6.215091},{"i_lat":-6.209188,"distance":1236,"line":11,"station_id":"POK","time":2,"station_name":"Pondok Jati","i_long":106.861737,"transit":false,"is_transit":false},{"i_long":106.855437,"is_transit":false,"distance":1829,"transit":false,"station_id":"KMT","i_lat":-6.193792,"time":2,"line":11,"station_name":"Kramat"},{"line":11,"distance":973,"station_id":"GST","i_lat":-6.185975,"i_long":106.850107,"station_name":"Gang Sentiong","is_transit":false,"time":1,"transit":false},{"station_name":"Pasar Senen","time":8,"line":11,"is_transit":false,"distance":1567,"i_long":106.84368,"station_id":"PSE","i_lat":-6.174784,"transit":false},{"is_transit":false,"i_long":106.839204,"time":4,"station_name":"Kemayoran","distance":1436,"station_id":"KMO","i_lat":-6.161728,"line":11,"transit":false},{"i_lat":-6.14505,"line":11,"distance":1901,"transit":false,"i_long":106.836569,"is_transit":false,"station_id":"RJW","station_name":"Rajawali","time":5},{"i_long":106.826365,"station_name":"Kampung Bandan","transit":true,"line":4,"distance":1444,"i_lat":-6.132549,"time":3,"station_id":"KPB","is_transit":true},{"time":3,"transit":true,"i_long":106.812439,"line":2,"i_lat":-6.137569,"station_id":"JAKK","is_transit":true,"distance":1364,"station_name":"Jakarta Kota"},{"i_long":106.820901,"transit":false,"distance":1264,"is_transit":false,"i_lat":-6.141205,"time":4,"station_id":"JAY","station_name":"Jayakarta","line":2},{"time":2,"is_transit":false,"i_lat":-6.149769,"transit":false,"station_id":"MGB","distance":1080,"station_name":"Manggabesar","i_long":106.82482,"line":2},{"station_id":"SW","is_transit":false,"station_name":"Sawah Besar","i_lat":-6.160725,"i_long":106.827103,"time":2,"line":2,"transit":false,"distance":906},{"line":2,"station_id":"JUA","station_name":"Juanda","transit":false,"time":2,"i_long":106.828284,"is_transit":false,"distance":1149,"i_lat":-6.166716}]]}