{"data":[[{"line":5,"transit":false,"is_transit":false,"time":0,"distance":0,"i_long":106.771379,"station_id":"PSG","station_name":"Pesing","i_lat":-6.161433},{"i_lat":-6.162021,"station_id":"GGL","time":2,"transit":false,"station_name":"Grogol","distance":2036,"i_long":106.788277,"line":5,"is_transit":false},{"distance":1700,"transit":true,"i_long":106.800832,"i_lat":-6.155215,"station_name":"Duri","line":1,"is_transit":true,"time":3,"station_id":"DU"},{"time":4,"i_long":106.79867,"line":1,"i_lat":-6.144674,"distance":1230,"is_transit":false,"station_name":"Angke","transit":false,"station_id":"AK"},{"station_id":"KPB","is_transit":true,"transit":true,"i_lat":-6.132549,"time":9,"i_long":106.826365,"station_name":"Kampung Bandan","line":4,"distance":4102},{"line":11,"transit":false,"is_transit":false,"station_name":"Rajawali","station_id":"RJW","distance":1444,"time":3,"i_long":106.836569,"i_lat":-6.14505},{"station_name":"Kemayoran","distance":1901,"is_transit":false,"i_lat":-6.161728,"time":5,"i_long":106.839204,"transit":false,"station_id":"KMO","line":11}],[{"transit":false,"i_long":106.771379,"i_lat":-6.161433,"station_name":"Pesing","is_transit":false,"distance":0,"line":5,"station_id":"PSG","time":0},{"line":5,"transit":false,"time":2,"i_lat":-6.162021,"distance":2036,"station_id":"GGL","is_transit":false,"i_long":106.788277,"station_name":"Grogol"},{"i_long":106.800832,"distance":1700,"transit":true,"station_id":"DU","is_transit":true,"i_lat":-6.155215,"line":1,"station_name":"Duri","time":3},{"is_transit":false,"station_id":"THB","line":1,"i_lat":-6.185545,"transit":false,"station_name":"Tanah Abang","distance":3632,"time":8,"i_long":106.811091},{"time":5,"line":1,"i_long":106.816351,"station_name":"Karet","station_id":"KAT","transit":false,"is_transit":false,"i_lat":-6.20132,"distance":2029},{"transit":false,"station_id":"SUDB","time":1,"station_name":"Sudirman Baru","is_transit":false,"distance":471,"i_lat":-6.201433,"i_long":106.819881,"line":1},{"station_name":"Sudirman","transit":false,"i_lat":-6.202263,"time":1,"distance":280,"i_long":106.822649,"station_id":"SUD","line":1,"is_transit":false},{"distance":3186,"i_long":106.84912,"station_id":"MRI","time":4,"transit":false,"i_lat":-6.209883,"station_name":"Manggarai","line":2,"is_transit":false},{"time":2,"transit":false,"station_name":"Matraman","is_transit":false,"i_long":106.858896,"i_lat":-6.212485,"station_id":"MTR","line":1,"distance":1275},{"station_name":"Jatinegara","i_long":106.86807400000001,"line":1,"i_lat":-6.215091,"time":8,"station_id":"JNG","is_transit":true,"distance":1377,"transit":true},{"station_name":"Pondok Jati","i_lat":-6.209188,"is_transit":false,"time":2,"i_long":106.861737,"station_id":"POK","line":11,"distance":1236,"transit":false},{"station_id":"KMT","transit":false,"station_name":"Kramat","is_transit":false,"time":2,"i_lat":-6.193792,"i_long":106.855437,"line":11,"distance":1829},{"time":1,"station_name":"Gang Sentiong","line":11,"is_transit":false,"station_id":"GST","distance":973,"i_lat":-6.185975,"transit":false,"i_long":106.850107},{"is_transit":false,"station_name":"Pasar Senen","distance":1567,"time":8,"transit":false,"i_lat":-6.174784,"i_long":106.84368,"station_id":"PSE","line":11},{"station_name":"Kemayoran","i_long":106.839204,"line":11,"is_transit":false,"time":4,"station_id":"KMO","i_lat":-6.161728,"transit":false,"distance":1436}],[{"is_transit":false,"station_name":"Pesing","i_lat":-6.161433,"station_id":"PSG","time":0,"i_long":106.771379,"transit":false,"line":5,"distance":0},{"i_lat":-6.162021,"station_name":"Grogol","is_transit":false,"distance":2036,"line":5,"station_id":"GGL","transit":false,"i_long":106.788277,"time":2},{"station_name":"Duri","time":3,"i_lat":-6.155215,"is_transit":true,"line":1,"i_long":106.800832,"station_id":"DU","distance":1700,"transit":true},{"station_id":"THB","transit":false,"is_transit":false,"time":8,"line":1,"i_long":106.811091,"distance":3632,"i_lat":-6.185545,"station_name":"Tanah Abang"},{"i_long":106.816351,"is_transit":false,"transit":false,"station_id":"KAT","distance":2029,"line":1,"time":5,"station_name":"Karet","i_lat":-6.20132},{"distance":471,"i_lat":-6.201433,"line":1,"station_name":"Sudirman Baru","time":1,"i_long":106.819881,"transit":false,"station_id":"SUDB","is_transit":false},{"i_long":106.822649,"i_lat":-6.202263,"transit":false,"is_transit":false,"distance":280,"station_id":"SUD","line":1,"station_name":"Sudirman","time":1},{"is_transit":true,"distance":3186,"station_name":"Manggarai","station_id":"MRI","line":2,"i_lat":-6.209883,"time":4,"i_long":106.84912,"transit":true},{"line":2,"transit":false,"station_name":"Cikini","station_id":"CKI","distance":1590,"is_transit":false,"i_lat":-6.198556,"i_long":106.840169,"time":4},{"i_lat":-6.186295,"station_id":"GDD","line":2,"i_long":106.832183,"transit":false,"time":3,"distance":1750,"is_transit":false,"station_name":"Gondangdia"},{"distance":2015,"i_long":106.828284,"transit":false,"station_name":"Juanda","is_transit":false,"time":4,"i_lat":-6.166716,"station_id":"JUA","line":2},{"i_long":106.827103,"line":2,"transit":false,"station_name":"Sawah Besar","time":2,"station_id":"SW","is_transit":false,"distance":1149,"i_lat":-6.160725},{"is_transit":false,"time":2,"i_long":106.82482,"distance":906,"line":2,"i_lat":-6.149769,"station_name":"Manggabesar","station_id":"MGB","transit":false},{"distance":1080,"line":2,"station_name":"Jayakarta","transit":false,"i_long":106.820901,"is_transit":false,"time":2,"station_id":"JAY","i_lat":-6.141205},{"station_id":"JAKK","time":4,"distance":1264,"i_lat":-6.137569,"i_long":106.812439,"station_name":"Jakarta Kota","line":2,"transit":true,"is_transit":true},{"i_long":106.826365,"station_name":"Kampung Bandan","station_id":"KPB","time":3,"i_lat":-6.132549,"transit":true,"distance":1364,"line":4,"is_transit":true},{"time":3,"transit":false,"distance":1444,"i_lat":-6.14505,"line":11,"station_id":"RJW","is_transit":false,"i_long":106.836569,"station_name":"Rajawali"},{"is_transit":false,"station_id":"KMO","distance":1901,"station_name":"Kemayoran","time":5,"i_lat":-6.161728,"i_long":106.839204,"line":11,"transit":false}],[{"distance":0,"i_lat":-6.161433,"station_name":"Pesing","line":5,"i_long":106.771379,"is_transit":false,"station_id":"PSG","time":0,"transit":false},{"station_id":"GGL","i_lat":-6.162021,"line":5,"is_transit":false,"i_long":106.788277,"distance":2036,"transit":false,"station_name":"Grogol","time":2},{"transit":true,"station_id":"DU","time":3,"line":1,"station_name":"Duri","i_lat":-6.155215,"i_long":106.800832,"is_transit":true,"distance":1700},{"distance":1230,"i_lat":-6.144674,"time":4,"station_id":"AK","line":1,"transit":false,"station_name":"Angke","is_transit":false,"i_long":106.79867},{"is_transit":true,"station_name":"Kampung Bandan","station_id":"KPB","i_lat":-6.132549,"line":4,"time":9,"transit":true,"distance":4102,"i_long":106.826365},{"is_transit":true,"station_id":"JAKK","line":2,"distance":1364,"transit":true,"station_name":"Jakarta Kota","time":3,"i_lat":-6.137569,"i_long":106.812439},{"is_transit":false,"transit":false,"station_name":"Jayakarta","station_id":"JAY","time":4,"i_long":106.820901,"distance":1264,"line":2,"i_lat":-6.141205},{"station_id":"MGB","is_transit":false,"transit":false,"i_lat":-6.149769,"station_name":"Manggabesar","time":2,"distance":1080,"i_long":106.82482,"line":2},{"station_name":"Sawah Besar","station_id":"SW","line":2,"time":2,"transit":false,"i_long":106.827103,"is_transit":false,"i_lat":-6.160725,"distance":906},{"transit":false,"i_lat":-6.166716,"station_id":"JUA","is_transit":false,"line":2,"station_name":"Juanda","distance":1149,"i_long":106.828284,"time":2},{"distance":2015,"i_lat":-6.186295,"line":2,"transit":false,"time":4,"station_name":"Gondangdia","station_id":"GDD","is_transit":false,"i_long":106.832183},{"distance":1750,"is_transit":false,"line":2,"station_name":"Cikini","station_id":"CKI","i_lat":-6.198556,"time":3,"i_long":106.840169,"transit":false},{"station_id":"MRI","i_lat":-6.209883,"i_long":106.84912,"is_transit":true,"time":4,"station_name":"Manggarai","distance":1590,"transit":true,"line":2},{"i_lat":-6.212485,"is_transit":false,"line":1,"transit":false,"time":2,"distance":1275,"i_long":106.858896,"station_name":"Matraman","station_id":"MTR"},{"i_long":106.86807400000001,"is_transit":true,"i_lat":-6.215091,"transit":true,"station_name":"Jatinegara","station_id":"JNG","distance":1377,"line":1,"time":8},{"i_lat":-6.209188,"is_transit":false,"transit":false,"time":2,"line":11,"distance":1236,"station_name":"Pondok Jati","i_long":106.861737,"station_id":"POK"},{"station_id":"KMT","distance":1829,"time":2,"is_transit":false,"i_long":106.855437,"line":11,"i_lat":-6.193792,"transit":false,"station_name":"Kramat"},{"distance":973,"station_id":"GST","time":1,"station_name":"Gang Sentiong","i_long":106.850107,"line":11,"transit":false,"is_transit":false,"i_lat":-6.185975},{"time":8,"transit":false,"is_transit":false,"station_id":"PSE","i_lat":-6.174784,"i_long":106.84368,"line":11,"distance":1567,"station_name":"Pasar Senen"},{"station_name":"Kemayoran","i_long":106.839204,"i_lat":-6.161728,"time":4,"transit":false,"distance":1436,"is_transit":false,"line":11,"station_id":"KMO"}]]}