{"data":[[{"is_transit":false,"transit":false,"i_lat":-6.161433,"station_name":"Pesing","i_long":106.771379,"line":5,"time":0,"station_id":"PSG","distance":0},{"transit":false,"station_id":"GGL","station_name":"Grogol","is_transit":false,"i_lat":-6.162021,"distance":2036,"time":2,"i_long":106.788277,"line":5},{"station_id":"DU","i_long":106.800832,"transit":true,"distance":1700,"line":1,"i_lat":-6.155215,"time":3,"station_name":"Duri","is_transit":true},{"i_long":106.79867,"distance":1230,"station_name":"Angke","line":1,"is_transit":false,"transit":false,"station_id":"AK","i_lat":-6.144674,"time":4},{"transit":true,"time":9,"station_id":"KPB","i_lat":-6.132549,"line":4,"i_long":106.826365,"is_transit":true,"distance":4102,"station_name":"Kampung Bandan"},{"i_lat":-6.14505,"is_transit":false,"line":11,"transit":false,"distance":1444,"station_id":"RJW","i_long":106.836569,"time":3,"station_name":"Rajawali"},{"is_transit":false,"i_lat":-6.161728,"line":11,"station_name":"Kemayoran","i_long":106.839204,"distance":1901,"time":5,"station_id":"KMO","transit":false}],[{"i_long":106.771379,"is_transit":false,"i_lat":-6.161433,"distance":0,"station_id":"PSG","station_name":"Pesing","time":0,"transit":false,"line":5},{"time":2,"station_id":"GGL","station_name":"Grogol","i_lat":-6.162021,"i_long":106.788277,"line":5,"distance":2036,"transit":false,"is_transit":false},{"transit":true,"station_name":"Duri","line":1,"i_long":106.800832,"i_lat":-6.155215,"station_id":"DU","time":3,"distance":1700,"is_transit":true},{"station_name":"Tanah Abang","distance":3632,"i_lat":-6.185545,"transit":false,"line":1,"is_transit":false,"time":8,"station_id":"THB","i_long":106.811091},{"station_name":"Karet","i_lat":-6.20132,"line":1,"i_long":106.816351,"distance":2029,"time":5,"is_transit":false,"station_id":"KAT","transit":false},{"i_long":106.819881,"line":1,"is_transit":false,"distance":471,"transit":false,"time":1,"station_id":"SUDB","station_name":"Sudirman Baru","i_lat":-6.201433},{"line":1,"is_transit":false,"i_lat":-6.202263,"transit":false,"station_id":"SUD","time":1,"distance":280,"i_long":106.822649,"station_name":"Sudirman"},{"is_transit":false,"station_id":"MRI","transit":false,"time":4,"station_name":"Manggarai","i_lat":-6.209883,"i_long":106.84912,"distance":3186,"line":2},{"i_lat":-6.212485,"i_long":106.858896,"station_name":"Matraman","distance":1275,"is_transit":false,"transit":false,"time":2,"line":1,"station_id":"MTR"},{"distance":1377,"is_transit":true,"i_lat":-6.215091,"transit":true,"i_long":106.86807400000001,"station_id":"JNG","line":1,"station_name":"Jatinegara","time":8},{"distance":1236,"station_name":"Pondok Jati","i_lat":-6.209188,"time":2,"line":11,"transit":false,"is_transit":false,"i_long":106.861737,"station_id":"POK"},{"i_lat":-6.193792,"distance":1829,"i_long":106.855437,"time":2,"is_transit":false,"station_name":"Kramat","station_id":"KMT","transit":false,"line":11},{"transit":false,"is_transit":false,"station_name":"Gang Sentiong","station_id":"GST","i_long":106.850107,"line":11,"i_lat":-6.185975,"time":1,"distance":973},{"i_lat":-6.174784,"transit":false,"station_id":"PSE","line":11,"time":8,"i_long":106.84368,"distance":1567,"is_transit":false,"station_name":"Pasar Senen"},{"station_id":"KMO","line":11,"time":4,"i_long":106.839204,"is_transit":false,"transit":false,"station_name":"Kemayoran","i_lat":-6.161728,"distance":1436}],[{"line":5,"transit":false,"distance":0,"station_name":"Pesing","i_lat":-6.161433,"station_id":"PSG","time":0,"i_long":106.771379,"is_transit":false},{"transit":false,"time":2,"station_id":"GGL","i_lat":-6.162021,"is_transit":false,"distance":2036,"i_long":106.788277,"station_name":"Grogol","line":5},{"station_id":"DU","i_lat":-6.155215,"i_long":106.800832,"line":1,"transit":true,"time":3,"is_transit":true,"distance":1700,"station_name":"Duri"},{"transit":false,"station_name":"Tanah Abang","is_transit":false,"line":1,"distance":3632,"i_lat":-6.185545,"time":8,"station_id":"THB","i_long":106.811091},{"station_id":"KAT","i_lat":-6.20132,"distance":2029,"station_name":"Karet","transit":false,"line":1,"i_long":106.816351,"is_transit":false,"time":5},{"station_name":"Sudirman Baru","line":1,"distance":471,"time":1,"transit":false,"i_lat":-6.201433,"station_id":"SUDB","i_long":106.819881,"is_transit":false},{"transit":false,"line":1,"station_id":"SUD","distance":280,"station_name":"Sudirman","is_transit":false,"i_lat":-6.202263,"time":1,"i_long":106.822649},{"station_name":"Manggarai","transit":true,"time":4,"i_long":106.84912,"i_lat":-6.209883,"line":2,"station_id":"MRI","distance":3186,"is_transit":true},{"distance":1590,"time":4,"transit":false,"station_name":"Cikini","line":2,"i_long":106.840169,"station_id":"CKI","i_lat":-6.198556,"is_transit":false},{"station_name":"Gondangdia","line":2,"is_transit":false,"time":3,"transit":false,"station_id":"GDD","distance":1750,"i_lat":-6.186295,"i_long":106.832183},{"distance":2015,"is_transit":false,"station_id":"JUA","line":2,"time":4,"i_lat":-6.166716,"i_long":106.828284,"station_name":"Juanda","transit":false},{"is_transit":false,"i_lat":-6.160725,"station_id":"SW","transit":false,"station_name":"Sawah Besar","line":2,"distance":1149,"time":2,"i_long":106.827103},{"i_lat":-6.149769,"i_long":106.82482,"is_transit":false,"station_name":"Manggabesar","station_id":"MGB","transit":false,"time":2,"line":2,"distance":906},{"line":2,"transit":false,"station_name":"Jayakarta","station_id":"JAY","i_long":106.820901,"distance":1080,"time":2,"is_transit":false,"i_lat":-6.141205},{"transit":true,"i_lat":-6.137569,"distance":1264,"line":2,"time":4,"is_transit":true,"station_id":"JAKK","i_long":106.812439,"station_name":"Jakarta Kota"},{"distance":1364,"station_id":"KPB","is_transit":true,"transit":true,"station_name":"Kampung Bandan","i_lat":-6.132549,"i_long":106.826365,"time":3,"line":4},{"i_long":106.836569,"is_transit":false,"i_lat":-6.14505,"station_id":"RJW","station_name":"Rajawali","time":3,"transit":false,"line":11,"distance":1444},{"distance":1901,"line":11,"station_name":"Kemayoran","is_transit":false,"i_long":106.839204,"time":5,"transit":false,"station_id":"KMO","i_lat":-6.161728}],[{"is_transit":false,"time":0,"distance":0,"transit":false,"line":5,"station_id":"PSG","station_name":"Pesing","i_lat":-6.161433,"i_long":106.771379},{"time":2,"i_lat":-6.162021,"station_name":"Grogol","is_transit":false,"distance":2036,"i_long":106.788277,"station_id":"GGL","line":5,"transit":false},{"station_name":"Duri","is_transit":true,"line":1,"time":3,"station_id":"DU","transit":true,"distance":1700,"i_lat":-6.155215,"i_long":106.800832},{"station_id":"AK","time":4,"is_transit":false,"distance":1230,"station_name":"Angke","i_long":106.79867,"line":1,"transit":false,"i_lat":-6.144674},{"is_transit":true,"transit":true,"i_lat":-6.132549,"time":9,"i_long":106.826365,"station_id":"KPB","station_name":"Kampung Bandan","line":4,"distance":4102},{"distance":1364,"station_id":"JAKK","time":3,"i_long":106.812439,"is_transit":true,"line":2,"transit":true,"station_name":"Jakarta Kota","i_lat":-6.137569},{"is_transit":false,"line":2,"station_id":"JAY","i_lat":-6.141205,"time":4,"i_long":106.820901,"transit":false,"distance":1264,"station_name":"Jayakarta"},{"time":2,"line":2,"is_transit":false,"transit":false,"distance":1080,"station_id":"MGB","i_long":106.82482,"station_name":"Manggabesar","i_lat":-6.149769},{"is_transit":false,"transit":false,"line":2,"station_id":"SW","i_lat":-6.160725,"station_name":"Sawah Besar","i_long":106.827103,"distance":906,"time":2},{"transit":false,"station_id":"JUA","line":2,"station_name":"Juanda","distance":1149,"is_transit":false,"time":2,"i_lat":-6.166716,"i_long":106.828284},{"line":2,"is_transit":false,"station_id":"GDD","i_lat":-6.186295,"station_name":"Gondangdia","i_long":106.832183,"distance":2015,"time":4,"transit":false},{"station_name":"Cikini","transit":false,"is_transit":false,"i_lat":-6.198556,"time":3,"line":2,"distance":1750,"station_id":"CKI","i_long":106.840169},{"transit":true,"time":4,"station_id":"MRI","i_lat":-6.209883,"line":2,"distance":1590,"i_long":106.84912,"station_name":"Manggarai","is_transit":true},{"transit":false,"station_id":"MTR","line":1,"i_lat":-6.212485,"time":2,"i_long":106.858896,"station_name":"Matraman","distance":1275,"is_transit":false},{"station_id":"JNG","distance":1377,"i_long":106.86807400000001,"is_transit":true,"transit":true,"time":8,"station_name":"Jatinegara","i_lat":-6.215091,"line":1},{"station_id":"POK","transit":false,"i_long":106.861737,"line":11,"distance":1236,"i_lat":-6.209188,"is_transit":false,"station_name":"Pondok Jati","time":2},{"transit":false,"i_long":106.855437,"time":2,"station_id":"KMT","station_name":"Kramat","i_lat":-6.193792,"is_transit":false,"line":11,"distance":1829},{"i_lat":-6.185975,"station_name":"Gang Sentiong","line":11,"station_id":"GST","is_transit":false,"distance":973,"transit":false,"time":1,"i_long":106.850107},{"station_id":"PSE","station_name":"Pasar Senen","time":8,"transit":false,"i_lat":-6.174784,"i_long":106.84368,"is_transit":false,"distance":1567,"line":11},{"station_id":"KMO","time":4,"i_long":106.839204,"station_name":"Kemayoran","i_lat":-6.161728,"distance":1436,"line":11,"is_transit":false,"transit":false}]]}