{"data":[[{"station_id":"PSG","line":5,"distance":0,"transit":false,"is_transit":false,"i_lat":-6.161433,"i_long":106.771379,"time":0,"station_name":"Pesing"},{"i_long":106.788277,"transit":false,"station_id":"GGL","line":5,"distance":2036,"i_lat":-6.162021,"is_transit":false,"time":2,"station_name":"Grogol"},{"i_long":106.800832,"time":3,"station_id":"DU","is_transit":true,"station_name":"Duri","distance":1700,"transit":true,"i_lat":-6.155215,"line":1},{"station_id":"THB","i_long":106.811091,"time":8,"i_lat":-6.185545,"distance":3632,"transit":true,"station_name":"Tanah Abang","is_transit":true,"line":1},{"station_name":"Palmerah","i_long":106.79689,"i_lat":-6.207404,"transit":false,"line":6,"distance":3191,"time":6,"station_id":"PLM","is_transit":false},{"i_long":106.780334,"time":7,"is_transit":false,"transit":false,"distance":3737,"station_id":"KBY","line":6,"station_name":"Kebayoran","i_lat":-6.237242},{"transit":false,"station_id":"PDJ","is_transit":false,"distance":6218,"time":8,"i_lat":-6.276362,"station_name":"Pondokranji","i_long":106.74273,"line":6},{"i_long":106.728916,"i_lat":-6.288927,"transit":false,"is_transit":false,"line":6,"time":3,"station_id":"JMU","distance":2179,"station_name":"Jurangmangu"},{"distance":1994,"time":4,"i_lat":-6.296963,"line":6,"i_long":106.712277,"station_id":"SDM","station_name":"Sudimara","transit":false,"is_transit":false},{"station_name":"Rawa Buntu","time":6,"i_lat":-6.314823,"distance":4566,"station_id":"RU","is_transit":false,"i_long":106.675475,"transit":false,"line":6},{"is_transit":false,"distance":2413,"station_id":"SRP","transit":false,"time":4,"i_lat":-6.319871,"i_long":106.66566,"station_name":"Serpong","line":6},{"station_id":"CSK","is_transit":false,"line":3,"distance":1784,"transit":false,"station_name":"Cisauk","i_long":106.640411,"time":4,"i_lat":-6.32484},{"station_id":"CC","line":3,"distance":2519,"i_lat":-6.329547,"is_transit":false,"transit":false,"station_name":"Cicayur","time":4,"i_long":106.617853},{"line":6,"is_transit":false,"i_long":106.568863,"transit":false,"i_lat":-6.3441410000000005,"distance":5968,"station_name":"Parung Panjang","time":8,"station_id":"PRP"},{"is_transit":false,"station_name":"Cilejit","line":3,"distance":7025,"station_id":"CJT","transit":false,"i_lat":-6.354349,"i_long":106.508482,"time":9}],[{"station_id":"PSG","transit":false,"line":5,"time":0,"i_long":106.771379,"i_lat":-6.161433,"station_name":"Pesing","is_transit":false,"distance":0},{"station_name":"Grogol","i_long":106.788277,"i_lat":-6.162021,"distance":2036,"station_id":"GGL","line":5,"time":2,"transit":false,"is_transit":false},{"station_id":"DU","transit":true,"distance":1700,"i_lat":-6.155215,"is_transit":true,"i_long":106.800832,"station_name":"Duri","line":1,"time":3},{"station_name":"Angke","transit":false,"line":1,"distance":1230,"station_id":"AK","is_transit":false,"i_lat":-6.144674,"time":4,"i_long":106.79867},{"station_id":"KPB","is_transit":true,"line":4,"station_name":"Kampung Bandan","time":9,"distance":4102,"transit":true,"i_lat":-6.132549,"i_long":106.826365},{"is_transit":true,"transit":true,"station_id":"JAKK","time":3,"line":2,"station_name":"Jakarta Kota","i_lat":-6.137569,"distance":1364,"i_long":106.812439},{"time":4,"is_transit":false,"distance":1264,"station_id":"JAY","transit":false,"i_lat":-6.141205,"i_long":106.820901,"station_name":"Jayakarta","line":2},{"station_id":"MGB","station_name":"Manggabesar","is_transit":false,"i_lat":-6.149769,"distance":1080,"transit":false,"time":2,"line":2,"i_long":106.82482},{"transit":false,"i_long":106.827103,"distance":906,"station_name":"Sawah Besar","station_id":"SW","is_transit":false,"line":2,"i_lat":-6.160725,"time":2},{"i_lat":-6.166716,"i_long":106.828284,"station_id":"JUA","is_transit":false,"transit":false,"station_name":"Juanda","distance":1149,"line":2,"time":2},{"time":4,"is_transit":false,"i_lat":-6.186295,"station_id":"GDD","line":2,"transit":false,"distance":2015,"station_name":"Gondangdia","i_long":106.832183},{"transit":false,"station_id":"CKI","time":3,"distance":1750,"station_name":"Cikini","i_lat":-6.198556,"i_long":106.840169,"line":2,"is_transit":false},{"line":2,"station_id":"MRI","transit":true,"distance":1590,"station_name":"Manggarai","i_lat":-6.209883,"is_transit":true,"time":4,"i_long":106.84912},{"distance":3186,"station_id":"SUD","transit":false,"station_name":"Sudirman","time":4,"i_long":106.822649,"is_transit":false,"line":1,"i_lat":-6.202263},{"distance":280,"station_id":"SUDB","transit":false,"time":1,"is_transit":false,"i_lat":-6.201433,"i_long":106.819881,"line":1,"station_name":"Sudirman Baru"},{"transit":false,"station_id":"KAT","distance":471,"i_lat":-6.20132,"station_name":"Karet","time":1,"is_transit":false,"line":1,"i_long":106.816351},{"transit":true,"station_id":"THB","station_name":"Tanah Abang","distance":2029,"line":1,"time":5,"is_transit":true,"i_long":106.811091,"i_lat":-6.185545},{"is_transit":false,"time":6,"i_lat":-6.207404,"station_name":"Palmerah","station_id":"PLM","transit":false,"distance":3191,"line":6,"i_long":106.79689},{"transit":false,"i_long":106.780334,"is_transit":false,"station_id":"KBY","station_name":"Kebayoran","distance":3737,"time":7,"i_lat":-6.237242,"line":6},{"i_lat":-6.276362,"station_name":"Pondokranji","distance":6218,"time":8,"station_id":"PDJ","transit":false,"i_long":106.74273,"is_transit":false,"line":6},{"station_name":"Jurangmangu","time":3,"line":6,"transit":false,"station_id":"JMU","distance":2179,"i_long":106.728916,"is_transit":false,"i_lat":-6.288927},{"station_id":"SDM","i_lat":-6.296963,"transit":false,"distance":1994,"line":6,"station_name":"Sudimara","is_transit":false,"time":4,"i_long":106.712277},{"time":6,"i_long":106.675475,"transit":false,"station_id":"RU","line":6,"is_transit":false,"station_name":"Rawa Buntu","i_lat":-6.314823,"distance":4566},{"i_lat":-6.319871,"line":6,"station_id":"SRP","is_transit":false,"station_name":"Serpong","i_long":106.66566,"distance":2413,"transit":false,"time":4},{"transit":false,"station_id":"CSK","time":4,"line":3,"distance":1784,"station_name":"Cisauk","i_long":106.640411,"i_lat":-6.32484,"is_transit":false},{"station_name":"Cicayur","time":4,"is_transit":false,"i_long":106.617853,"transit":false,"i_lat":-6.329547,"line":3,"distance":2519,"station_id":"CC"},{"station_name":"Parung Panjang","line":6,"is_transit":false,"i_lat":-6.3441410000000005,"distance":5968,"transit":false,"i_long":106.568863,"station_id":"PRP","time":8},{"time":9,"is_transit":false,"transit":false,"station_name":"Cilejit","station_id":"CJT","distance":7025,"i_lat":-6.354349,"i_long":106.508482,"line":3}],[{"is_transit":false,"station_name":"Pesing","transit":false,"station_id":"PSG","time":0,"distance":0,"i_lat":-6.161433,"i_long":106.771379,"line":5},{"time":2,"is_transit":false,"line":5,"station_name":"Grogol","i_long":106.788277,"distance":2036,"i_lat":-6.162021,"transit":false,"station_id":"GGL"},{"i_long":106.800832,"line":1,"i_lat":-6.155215,"station_id":"DU","time":3,"station_name":"Duri","transit":true,"is_transit":true,"distance":1700},{"line":1,"distance":1230,"i_long":106.79867,"i_lat":-6.144674,"transit":false,"time":4,"is_transit":false,"station_id":"AK","station_name":"Angke"},{"station_name":"Kampung Bandan","distance":4102,"station_id":"KPB","is_transit":true,"time":9,"i_long":106.826365,"line":4,"i_lat":-6.132549,"transit":true},{"transit":false,"distance":1444,"station_name":"Rajawali","time":3,"i_long":106.836569,"is_transit":false,"line":11,"station_id":"RJW","i_lat":-6.14505},{"i_long":106.839204,"is_transit":false,"time":5,"station_id":"KMO","distance":1901,"i_lat":-6.161728,"transit":false,"station_name":"Kemayoran","line":11},{"station_name":"Pasar Senen","station_id":"PSE","time":4,"transit":false,"is_transit":false,"distance":1436,"i_lat":-6.174784,"i_long":106.84368,"line":11},{"i_lat":-6.185975,"station_id":"GST","station_name":"Gang Sentiong","time":8,"line":11,"is_transit":false,"transit":false,"distance":1567,"i_long":106.850107},{"station_id":"KMT","line":11,"transit":false,"time":1,"is_transit":false,"distance":973,"station_name":"Kramat","i_lat":-6.193792,"i_long":106.855437},{"station_id":"POK","distance":1829,"time":2,"station_name":"Pondok Jati","is_transit":false,"transit":false,"i_lat":-6.209188,"i_long":106.861737,"line":11},{"transit":true,"i_lat":-6.215091,"distance":1236,"line":1,"is_transit":true,"i_long":106.86807400000001,"time":9,"station_name":"Jatinegara","station_id":"JNG"},{"is_transit":false,"station_id":"MTR","transit":false,"station_name":"Matraman","distance":1377,"i_lat":-6.212485,"time":2,"i_long":106.858896,"line":1},{"station_name":"Manggarai","distance":1275,"i_lat":-6.209883,"transit":false,"i_long":106.84912,"station_id":"MRI","time":2,"line":2,"is_transit":false},{"distance":3186,"time":4,"i_lat":-6.202263,"i_long":106.822649,"line":1,"station_name":"Sudirman","station_id":"SUD","transit":false,"is_transit":false},{"station_id":"SUDB","time":1,"i_lat":-6.201433,"is_transit":false,"i_long":106.819881,"line":1,"transit":false,"distance":280,"station_name":"Sudirman Baru"},{"i_long":106.816351,"line":1,"i_lat":-6.20132,"distance":471,"transit":false,"station_id":"KAT","is_transit":false,"station_name":"Karet","time":1},{"is_transit":true,"time":5,"i_long":106.811091,"line":1,"distance":2029,"i_lat":-6.185545,"station_id":"THB","station_name":"Tanah Abang","transit":true},{"station_id":"PLM","i_long":106.79689,"is_transit":false,"transit":false,"station_name":"Palmerah","distance":3191,"i_lat":-6.207404,"line":6,"time":6},{"station_id":"KBY","transit":false,"line":6,"station_name":"Kebayoran","is_transit":false,"i_long":106.780334,"time":7,"i_lat":-6.237242,"distance":3737},{"transit":false,"time":8,"is_transit":false,"line":6,"station_name":"Pondokranji","station_id":"PDJ","distance":6218,"i_long":106.74273,"i_lat":-6.276362},{"transit":false,"time":3,"station_id":"JMU","line":6,"is_transit":false,"i_long":106.728916,"distance":2179,"station_name":"Jurangmangu","i_lat":-6.288927},{"station_name":"Sudimara","i_long":106.712277,"i_lat":-6.296963,"line":6,"is_transit":false,"transit":false,"time":4,"distance":1994,"station_id":"SDM"},{"i_long":106.675475,"station_name":"Rawa Buntu","transit":false,"time":6,"i_lat":-6.314823,"station_id":"RU","distance":4566,"line":6,"is_transit":false},{"transit":false,"time":4,"distance":2413,"station_id":"SRP","i_long":106.66566,"i_lat":-6.319871,"station_name":"Serpong","is_transit":false,"line":6},{"distance":1784,"i_long":106.640411,"is_transit":false,"transit":false,"line":3,"station_name":"Cisauk","station_id":"CSK","time":4,"i_lat":-6.32484},{"transit":false,"station_id":"CC","line":3,"i_long":106.617853,"station_name":"Cicayur","i_lat":-6.329547,"time":4,"is_transit":false,"distance":2519},{"station_id":"PRP","station_name":"Parung Panjang","distance":5968,"i_long":106.568863,"is_transit":false,"transit":false,"i_lat":-6.3441410000000005,"time":8,"line":6},{"i_lat":-6.354349,"station_id":"CJT","distance":7025,"line":3,"is_transit":false,"station_name":"Cilejit","transit":false,"time":9,"i_long":106.508482}]]}