{"data":[[{"distance":0,"is_transit":false,"time":0,"station_name":"Pesing","transit":false,"i_lat":-6.161433,"i_long":106.771379,"station_id":"PSG","line":5},{"station_id":"GRG","transit":false,"distance":2036,"time":2,"station_name":"Grogol","is_transit":false,"i_long":106.788277,"line":5,"i_lat":-6.162021},{"transit":true,"time":3,"station_id":"DU","i_long":106.800832,"distance":1700,"line":1,"i_lat":-6.155215,"station_name":"Duri","is_transit":true},{"station_name":"Angke","transit":false,"i_lat":-6.144674,"station_id":"AK","i_long":106.79867,"is_transit":false,"distance":1230,"time":4,"line":1},{"time":9,"station_id":"KPB","i_long":106.826365,"transit":true,"distance":4102,"station_name":"Kampung Bandan","i_lat":-6.132549,"is_transit":true,"line":4},{"distance":2185,"is_transit":false,"transit":false,"i_long":106.84464,"station_id":"AC","line":4,"station_name":"Ancol","i_lat":-6.128023,"time":4}],[{"station_id":"PSG","time":0,"distance":0,"transit":false,"i_lat":-6.161433,"i_long":106.771379,"station_name":"Pesing","is_transit":false,"line":5},{"time":2,"station_name":"Grogol","i_long":106.788277,"is_transit":false,"line":5,"transit":false,"distance":2036,"station_id":"GRG","i_lat":-6.162021},{"distance":1700,"station_id":"DU","time":3,"i_long":106.800832,"transit":true,"is_transit":true,"line":1,"station_name":"Duri","i_lat":-6.155215},{"i_lat":-6.185545,"i_long":106.811091,"station_name":"Tanah Abang","is_transit":false,"time":8,"transit":false,"station_id":"THB","line":1,"distance":3632},{"distance":2029,"time":5,"transit":false,"i_lat":-6.20132,"line":1,"station_id":"KAT","is_transit":false,"station_name":"Karet","i_long":106.816351},{"is_transit":false,"i_long":106.819881,"time":1,"station_id":"SUDB","station_name":"Sudirman Baru","line":1,"distance":471,"transit":false,"i_lat":-6.201433},{"station_id":"SUD","station_name":"Sudirman","i_long":106.822649,"transit":false,"distance":280,"is_transit":false,"i_lat":-6.202263,"time":1,"line":1},{"distance":3186,"time":4,"station_id":"MRI","i_long":106.84912,"transit":true,"i_lat":-6.209883,"line":2,"station_name":"Manggarai","is_transit":true},{"station_id":"CKI","is_transit":false,"time":4,"i_lat":-6.198556,"line":2,"station_name":"Cikini","distance":1590,"transit":false,"i_long":106.840169},{"i_long":106.832183,"time":3,"distance":1750,"transit":false,"is_transit":false,"station_id":"GDD","line":2,"station_name":"Gondangdia","i_lat":-6.186295},{"station_name":"Juanda","i_lat":-6.166716,"time":4,"station_id":"JUA","distance":2015,"i_long":106.828284,"transit":false,"line":2,"is_transit":false},{"station_id":"SW","is_transit":false,"transit":false,"station_name":"Sawah Besar","distance":1149,"i_long":106.827103,"time":2,"i_lat":-6.160725,"line":2},{"distance":906,"transit":false,"is_transit":false,"line":2,"time":2,"i_lat":-6.149769,"station_name":"Manggabesar","i_long":106.82482,"station_id":"MGB"},{"i_lat":-6.141205,"distance":1080,"station_id":"JAY","station_name":"Jayakarta","is_transit":false,"transit":false,"i_long":106.820901,"line":2,"time":2},{"station_name":"Jakarta Kota","station_id":"JAKK","i_lat":-6.137569,"transit":true,"i_long":106.812439,"time":4,"distance":1264,"is_transit":true,"line":2},{"time":3,"transit":true,"line":4,"station_name":"Kampung Bandan","i_long":106.826365,"is_transit":true,"distance":1364,"i_lat":-6.132549,"station_id":"KPB"},{"station_name":"Ancol","transit":false,"i_long":106.84464,"is_transit":false,"line":4,"distance":2185,"station_id":"AC","i_lat":-6.128023,"time":4}],[{"station_name":"Pesing","station_id":"PSG","distance":0,"i_long":106.771379,"line":5,"is_transit":false,"time":0,"transit":false,"i_lat":-6.161433},{"station_name":"Grogol","is_transit":false,"station_id":"GRG","time":2,"i_lat":-6.162021,"transit":false,"i_long":106.788277,"line":5,"distance":2036},{"i_lat":-6.155215,"time":3,"i_long":106.800832,"line":1,"distance":1700,"station_name":"Duri","is_transit":true,"transit":true,"station_id":"DU"},{"station_name":"Tanah Abang","line":1,"distance":3632,"station_id":"THB","transit":false,"i_long":106.811091,"i_lat":-6.185545,"time":8,"is_transit":false},{"line":1,"station_id":"KAT","time":5,"distance":2029,"is_transit":false,"transit":false,"station_name":"Karet","i_lat":-6.20132,"i_long":106.816351},{"i_lat":-6.201433,"station_id":"SUDB","transit":false,"is_transit":false,"station_name":"Sudirman Baru","i_long":106.819881,"distance":471,"line":1,"time":1},{"time":1,"station_name":"Sudirman","transit":false,"i_lat":-6.202263,"distance":280,"is_transit":false,"line":1,"station_id":"SUD","i_long":106.822649},{"station_name":"Manggarai","time":4,"i_lat":-6.209883,"i_long":106.84912,"transit":false,"station_id":"MRI","distance":3186,"is_transit":false,"line":2},{"i_lat":-6.212485,"i_long":106.858896,"is_transit":false,"transit":false,"time":2,"distance":1275,"station_id":"MTR","line":1,"station_name":"Matraman"},{"is_transit":true,"station_id":"JNG","i_lat":-6.215091,"i_long":106.86807400000001,"time":8,"line":1,"distance":1377,"transit":true,"station_name":"Jatinegara"},{"transit":false,"is_transit":false,"line":11,"time":2,"i_lat":-6.209188,"distance":1236,"i_long":106.861737,"station_name":"Pondok Jati","station_id":"POK"},{"i_lat":-6.193792,"line":11,"distance":1829,"station_id":"KMT","time":2,"is_transit":false,"transit":false,"station_name":"Kramat","i_long":106.855437},{"line":11,"station_name":"Gang Sentiong","i_long":106.850107,"is_transit":false,"distance":973,"station_id":"GST","transit":false,"time":1,"i_lat":-6.185975},{"station_id":"PSE","distance":1567,"is_transit":false,"i_lat":-6.174784,"transit":false,"time":8,"i_long":106.84368,"station_name":"Pasar Senen","line":11},{"station_id":"KMO","distance":1436,"transit":false,"time":4,"i_lat":-6.161728,"is_transit":false,"i_long":106.839204,"line":11,"station_name":"Kemayoran"},{"i_long":106.836569,"line":11,"station_id":"RJW","time":5,"distance":1901,"is_transit":false,"station_name":"Rajawali","transit":false,"i_lat":-6.14505},{"time":3,"distance":1444,"station_id":"KPB","line":4,"transit":true,"i_long":106.826365,"i_lat":-6.132549,"station_name":"Kampung Bandan","is_transit":true},{"i_long":106.84464,"station_name":"Ancol","is_transit":false,"i_lat":-6.128023,"transit":false,"line":4,"distance":2185,"station_id":"AC","time":4}]]}