{"data":[[{"station_name":"Pesing","transit":false,"distance":0,"is_transit":false,"time":0,"i_long":106.771379,"i_lat":-6.161433,"line":5,"station_id":"PSG"},{"transit":false,"line":5,"i_lat":-6.162021,"station_id":"GGL","time":2,"i_long":106.788277,"distance":2036,"is_transit":false,"station_name":"Grogol"},{"station_id":"DU","station_name":"Duri","i_lat":-6.155215,"is_transit":true,"line":1,"distance":1700,"transit":true,"time":3,"i_long":106.800832},{"station_name":"Angke","station_id":"AK","transit":false,"time":4,"i_long":106.79867,"i_lat":-6.144674,"distance":1230,"line":0,"is_transit":false},{"i_lat":-6.132549,"time":9,"is_transit":true,"line":0,"i_long":106.826365,"distance":4102,"station_name":"Kampung Bandan","transit":false,"station_id":"KPB"},{"station_id":"JAKK","i_long":106.812439,"transit":true,"time":3,"is_transit":true,"i_lat":-6.137569,"line":0,"distance":1364,"station_name":"Jakarta Kota"},{"line":7,"transit":false,"is_transit":false,"i_lat":-6.141205,"station_id":"JAY","station_name":"Jayakarta","distance":1264,"time":4,"i_long":106.820901},{"distance":1080,"transit":false,"time":2,"i_long":106.82482,"i_lat":-6.149769,"station_name":"Manggabesar","station_id":"MGB","line":2,"is_transit":false},{"line":2,"station_name":"Sawah Besar","time":2,"i_long":106.827103,"distance":906,"station_id":"SW","i_lat":-6.160725,"is_transit":false,"transit":false},{"is_transit":false,"station_name":"Juanda","station_id":"JUA","line":2,"distance":1149,"transit":false,"time":2,"i_lat":-6.166716,"i_long":106.828284}],[{"transit":false,"station_id":"PSG","time":0,"station_name":"Pesing","distance":0,"i_long":106.771379,"is_transit":false,"i_lat":-6.161433,"line":5},{"time":2,"line":5,"station_id":"GGL","distance":2036,"i_lat":-6.162021,"transit":false,"is_transit":false,"station_name":"Grogol","i_long":106.788277},{"line":1,"transit":true,"distance":1700,"is_transit":true,"station_id":"DU","i_lat":-6.155215,"i_long":106.800832,"station_name":"Duri","time":3},{"i_lat":-6.185545,"is_transit":true,"transit":false,"i_long":106.811091,"line":1,"station_id":"THB","time":8,"station_name":"Tanah Abang","distance":3632},{"i_lat":-6.20132,"transit":false,"time":5,"station_name":"Karet","i_long":106.816351,"is_transit":false,"station_id":"KAT","line":1,"distance":2029},{"i_long":106.819881,"station_name":"Sudirman Baru","transit":false,"line":1,"time":1,"distance":471,"station_id":"SUDB","is_transit":false,"i_lat":-6.201433},{"is_transit":false,"i_lat":-6.202263,"distance":280,"i_long":106.822649,"station_id":"SUD","station_name":"Sudirman","transit":false,"time":1,"line":1},{"line":0,"time":4,"i_long":106.84912,"station_id":"MRI","i_lat":-6.209883,"station_name":"Manggarai","transit":true,"distance":3186,"is_transit":true},{"transit":false,"i_long":106.840169,"station_name":"Cikini","is_transit":false,"distance":1590,"i_lat":-6.198556,"line":0,"station_id":"CKI","time":4},{"transit":false,"station_id":"GDD","distance":1750,"time":3,"station_name":"Gondangdia","line":2,"i_long":106.832183,"i_lat":-6.186295,"is_transit":false},{"i_lat":-6.166716,"distance":2015,"line":2,"i_long":106.828284,"station_id":"JUA","transit":false,"time":4,"station_name":"Juanda","is_transit":false}],[{"transit":false,"line":5,"time":0,"distance":0,"station_id":"PSG","i_long":106.771379,"is_transit":false,"station_name":"Pesing","i_lat":-6.161433},{"i_lat":-6.162021,"line":5,"distance":2036,"transit":false,"i_long":106.788277,"time":2,"is_transit":false,"station_id":"GGL","station_name":"Grogol"},{"distance":1700,"i_lat":-6.155215,"is_transit":true,"transit":true,"i_long":106.800832,"time":3,"station_id":"DU","station_name":"Duri","line":1},{"line":0,"is_transit":false,"station_name":"Angke","time":4,"station_id":"AK","distance":1230,"i_lat":-6.144674,"i_long":106.79867,"transit":false},{"station_name":"Kampung Bandan","is_transit":true,"i_long":106.826365,"i_lat":-6.132549,"station_id":"KPB","line":0,"distance":4102,"transit":true,"time":9},{"i_lat":-6.14505,"distance":1444,"station_id":"RJW","station_name":"Rajawali","line":11,"i_long":106.836569,"transit":false,"is_transit":false,"time":3},{"is_transit":false,"station_id":"KMO","i_long":106.839204,"i_lat":-6.161728,"station_name":"Kemayoran","distance":1901,"line":11,"transit":false,"time":5},{"is_transit":false,"station_id":"PSE","line":11,"transit":false,"i_long":106.84368,"station_name":"Pasar Senen","time":4,"i_lat":-6.174784,"distance":1436},{"i_long":106.850107,"station_name":"Gang Sentiong","line":11,"distance":1567,"i_lat":-6.185975,"transit":false,"time":8,"is_transit":false,"station_id":"GST"},{"i_long":106.855437,"time":1,"line":11,"distance":973,"station_id":"KMT","is_transit":false,"transit":false,"i_lat":-6.193792,"station_name":"Kramat"},{"i_long":106.861737,"i_lat":-6.209188,"time":2,"transit":false,"distance":1829,"line":11,"station_name":"Pondok Jati","station_id":"POK","is_transit":false},{"time":9,"distance":1236,"is_transit":true,"i_long":106.86807400000001,"line":0,"transit":true,"station_name":"Jatinegara","station_id":"JNG","i_lat":-6.215091},{"transit":false,"i_long":106.858896,"is_transit":false,"time":2,"station_name":"Matraman","distance":1377,"station_id":"MTR","i_lat":-6.212485,"line":1},{"distance":1275,"station_id":"MRI","transit":true,"time":2,"line":0,"i_lat":-6.209883,"is_transit":true,"station_name":"Manggarai","i_long":106.84912},{"is_transit":false,"i_long":106.840169,"transit":false,"time":4,"station_id":"CKI","i_lat":-6.198556,"line":0,"station_name":"Cikini","distance":1590},{"line":2,"i_long":106.832183,"transit":false,"is_transit":false,"time":3,"station_name":"Gondangdia","station_id":"GDD","i_lat":-6.186295,"distance":1750},{"station_id":"JUA","station_name":"Juanda","time":4,"is_transit":false,"distance":2015,"i_lat":-6.166716,"line":2,"i_long":106.828284,"transit":false}],[{"distance":0,"time":0,"i_long":106.771379,"station_id":"PSG","station_name":"Pesing","is_transit":false,"transit":false,"i_lat":-6.161433,"line":5},{"time":2,"line":5,"i_lat":-6.162021,"i_long":106.788277,"station_id":"GGL","distance":2036,"station_name":"Grogol","is_transit":false,"transit":false},{"is_transit":true,"i_lat":-6.155215,"i_long":106.800832,"transit":true,"line":1,"distance":1700,"time":3,"station_id":"DU","station_name":"Duri"},{"line":1,"is_transit":true,"distance":3632,"time":8,"transit":false,"station_id":"THB","i_long":106.811091,"station_name":"Tanah Abang","i_lat":-6.185545},{"is_transit":false,"station_name":"Karet","i_lat":-6.20132,"time":5,"station_id":"KAT","transit":false,"distance":2029,"i_long":106.816351,"line":1},{"time":1,"station_name":"Sudirman Baru","is_transit":false,"i_long":106.819881,"line":1,"station_id":"SUDB","transit":false,"i_lat":-6.201433,"distance":471},{"is_transit":false,"i_lat":-6.202263,"distance":280,"station_name":"Sudirman","station_id":"SUD","transit":false,"i_long":106.822649,"line":1,"time":1},{"distance":3186,"is_transit":true,"line":0,"i_long":106.84912,"i_lat":-6.209883,"transit":false,"station_name":"Manggarai","station_id":"MRI","time":4},{"station_name":"Matraman","transit":false,"i_lat":-6.212485,"distance":1275,"time":2,"line":1,"station_id":"MTR","i_long":106.858896,"is_transit":false},{"transit":true,"station_id":"JNG","station_name":"Jatinegara","distance":1377,"is_transit":true,"i_lat":-6.215091,"i_long":106.86807400000001,"time":8,"line":0},{"line":11,"i_lat":-6.209188,"time":2,"transit":false,"station_id":"POK","station_name":"Pondok Jati","i_long":106.861737,"distance":1236,"is_transit":false},{"is_transit":false,"time":2,"distance":1829,"station_id":"KMT","line":11,"i_lat":-6.193792,"transit":false,"i_long":106.855437,"station_name":"Kramat"},{"transit":false,"distance":973,"is_transit":false,"station_id":"GST","time":1,"i_lat":-6.185975,"line":11,"station_name":"Gang Sentiong","i_long":106.850107},{"time":8,"distance":1567,"transit":false,"station_name":"Pasar Senen","is_transit":false,"i_lat":-6.174784,"line":11,"i_long":106.84368,"station_id":"PSE"},{"station_id":"KMO","i_lat":-6.161728,"i_long":106.839204,"line":11,"transit":false,"distance":1436,"is_transit":false,"time":4,"station_name":"Kemayoran"},{"time":5,"line":11,"is_transit":false,"station_id":"RJW","distance":1901,"station_name":"Rajawali","transit":false,"i_lat":-6.14505,"i_long":106.836569},{"time":3,"is_transit":true,"i_lat":-6.132549,"i_long":106.826365,"line":0,"station_id":"KPB","station_name":"Kampung Bandan","distance":1444,"transit":true},{"station_id":"JAKK","time":3,"is_transit":true,"i_lat":-6.137569,"station_name":"Jakarta Kota","transit":true,"line":0,"i_long":106.812439,"distance":1364},{"transit":false,"is_transit":false,"line":7,"distance":1264,"time":4,"i_lat":-6.141205,"station_id":"JAY","i_long":106.820901,"station_name":"Jayakarta"},{"line":2,"distance":1080,"station_id":"MGB","i_lat":-6.149769,"station_name":"Manggabesar","transit":false,"time":2,"i_long":106.82482,"is_transit":false},{"is_transit":false,"station_id":"SW","station_name":"Sawah Besar","i_long":106.827103,"transit":false,"time":2,"i_lat":-6.160725,"distance":906,"line":2},{"is_transit":false,"i_lat":-6.166716,"transit":false,"distance":1149,"i_long":106.828284,"time":2,"station_id":"JUA","station_name":"Juanda","line":2}]]}