{"data":[[{"is_transit":false,"transit":false,"i_lat":-6.161433,"station_id":"PSG","station_name":"Pesing","line":5,"distance":0,"i_long":106.771379,"time":0},{"time":2,"i_lat":-6.162021,"line":5,"is_transit":false,"transit":false,"i_long":106.788277,"station_id":"GGL","station_name":"Grogol","distance":2036},{"is_transit":true,"transit":true,"i_lat":-6.155215,"i_long":106.800832,"distance":1700,"station_name":"Duri","time":3,"station_id":"DU","line":1},{"i_long":106.811091,"station_id":"THB","transit":false,"distance":3632,"i_lat":-6.185545,"time":8,"station_name":"Tanah Abang","is_transit":true,"line":1},{"i_long":106.816351,"time":5,"station_id":"KAT","line":1,"distance":2029,"is_transit":false,"station_name":"Karet","transit":false,"i_lat":-6.20132},{"i_long":106.819881,"station_name":"Sudirman Baru","station_id":"SUDB","is_transit":false,"time":1,"i_lat":-6.201433,"line":1,"distance":471,"transit":false},{"transit":false,"station_name":"Sudirman","time":1,"line":1,"station_id":"SUD","i_long":106.822649,"is_transit":false,"distance":280,"i_lat":-6.202263},{"station_id":"MRI","i_long":106.84912,"line":0,"is_transit":true,"distance":3186,"station_name":"Manggarai","transit":true,"time":4,"i_lat":-6.209883},{"transit":false,"station_id":"TEB","i_lat":-6.226659,"is_transit":false,"distance":2610,"station_name":"Tebet","i_long":106.857948,"line":2,"time":4},{"station_id":"CW","i_long":106.856607,"transit":false,"time":2,"is_transit":false,"station_name":"Cawang","i_lat":-6.242512,"line":0,"distance":1230}],[{"time":0,"station_id":"PSG","i_lat":-6.161433,"is_transit":false,"station_name":"Pesing","distance":0,"i_long":106.771379,"transit":false,"line":5},{"transit":false,"distance":2036,"station_name":"Grogol","i_lat":-6.162021,"station_id":"GGL","i_long":106.788277,"time":2,"line":5,"is_transit":false},{"i_lat":-6.155215,"station_id":"DU","i_long":106.800832,"time":3,"distance":1700,"line":1,"transit":true,"station_name":"Duri","is_transit":true},{"station_id":"AK","transit":false,"is_transit":false,"station_name":"Angke","i_lat":-6.144674,"line":0,"i_long":106.79867,"distance":1230,"time":4},{"distance":4102,"i_long":106.826365,"time":9,"is_transit":true,"station_name":"Kampung Bandan","i_lat":-6.132549,"station_id":"KPB","line":0,"transit":false},{"line":0,"distance":1364,"station_id":"JAKK","is_transit":true,"i_long":106.812439,"station_name":"Jakarta Kota","i_lat":-6.137569,"transit":true,"time":3},{"line":7,"i_long":106.820901,"i_lat":-6.141205,"distance":1264,"station_id":"JAY","transit":false,"time":4,"is_transit":false,"station_name":"Jayakarta"},{"transit":false,"i_long":106.82482,"i_lat":-6.149769,"station_name":"Manggabesar","distance":1080,"is_transit":false,"line":2,"station_id":"MGB","time":2},{"i_lat":-6.160725,"station_name":"Sawah Besar","is_transit":false,"station_id":"SW","transit":false,"line":2,"distance":906,"time":2,"i_long":106.827103},{"distance":1149,"station_id":"JUA","station_name":"Juanda","i_lat":-6.166716,"i_long":106.828284,"is_transit":false,"transit":false,"time":2,"line":2},{"i_lat":-6.186295,"station_name":"Gondangdia","time":4,"line":2,"station_id":"GDD","i_long":106.832183,"distance":2015,"is_transit":false,"transit":false},{"station_id":"CKI","time":3,"is_transit":false,"i_lat":-6.198556,"i_long":106.840169,"station_name":"Cikini","transit":false,"line":0,"distance":1750},{"is_transit":true,"line":0,"distance":1590,"station_name":"Manggarai","time":4,"station_id":"MRI","transit":true,"i_lat":-6.209883,"i_long":106.84912},{"transit":false,"i_long":106.857948,"is_transit":false,"station_id":"TEB","time":4,"station_name":"Tebet","distance":2610,"i_lat":-6.226659,"line":2},{"station_id":"CW","time":2,"transit":false,"station_name":"Cawang","i_long":106.856607,"distance":1230,"is_transit":false,"line":0,"i_lat":-6.242512}],[{"station_name":"Pesing","time":0,"station_id":"PSG","i_long":106.771379,"i_lat":-6.161433,"line":5,"transit":false,"distance":0,"is_transit":false},{"i_lat":-6.162021,"distance":2036,"line":5,"i_long":106.788277,"is_transit":false,"station_id":"GGL","transit":false,"time":2,"station_name":"Grogol"},{"station_name":"Duri","is_transit":true,"transit":true,"i_lat":-6.155215,"time":3,"line":1,"distance":1700,"station_id":"DU","i_long":106.800832},{"station_id":"AK","station_name":"Angke","transit":false,"i_long":106.79867,"time":4,"i_lat":-6.144674,"distance":1230,"is_transit":false,"line":0},{"station_id":"KPB","is_transit":true,"line":0,"distance":4102,"station_name":"Kampung Bandan","transit":true,"i_long":106.826365,"i_lat":-6.132549,"time":9},{"distance":1444,"time":3,"i_long":106.836569,"station_name":"Rajawali","transit":false,"is_transit":false,"i_lat":-6.14505,"station_id":"RJW","line":11},{"is_transit":false,"i_long":106.839204,"time":5,"distance":1901,"transit":false,"i_lat":-6.161728,"station_name":"Kemayoran","station_id":"KMO","line":11},{"station_name":"Pasar Senen","is_transit":false,"station_id":"PSE","transit":false,"distance":1436,"time":4,"i_lat":-6.174784,"line":11,"i_long":106.84368},{"i_lat":-6.185975,"station_name":"Gang Sentiong","transit":false,"station_id":"GST","distance":1567,"time":8,"i_long":106.850107,"line":11,"is_transit":false},{"i_lat":-6.193792,"i_long":106.855437,"station_id":"KMT","line":11,"station_name":"Kramat","is_transit":false,"distance":973,"transit":false,"time":1},{"line":11,"station_id":"POK","is_transit":false,"station_name":"Pondok Jati","i_lat":-6.209188,"i_long":106.861737,"time":2,"transit":false,"distance":1829},{"i_long":106.86807400000001,"time":9,"line":0,"station_name":"Jatinegara","distance":1236,"station_id":"JNG","is_transit":true,"transit":true,"i_lat":-6.215091},{"i_long":106.858896,"station_name":"Matraman","transit":false,"time":2,"line":1,"station_id":"MTR","is_transit":false,"distance":1377,"i_lat":-6.212485},{"distance":1275,"i_long":106.84912,"station_id":"MRI","i_lat":-6.209883,"is_transit":true,"line":0,"time":2,"transit":true,"station_name":"Manggarai"},{"station_id":"TEB","i_long":106.857948,"station_name":"Tebet","transit":false,"line":2,"distance":2610,"time":4,"i_lat":-6.226659,"is_transit":false},{"station_id":"CW","distance":1230,"i_long":106.856607,"line":0,"i_lat":-6.242512,"is_transit":false,"transit":false,"time":2,"station_name":"Cawang"}]]}