{"data":[[{"station_name":"Pesing","transit":false,"time":0,"distance":0,"i_long":106.771379,"is_transit":false,"i_lat":-6.161433,"station_id":"PSG","line":5},{"is_transit":false,"time":2,"distance":2036,"i_long":106.788277,"line":5,"transit":false,"station_id":"GGL","station_name":"Grogol","i_lat":-6.162021},{"time":3,"is_transit":true,"transit":true,"station_name":"Duri","distance":1700,"i_long":106.800832,"line":1,"station_id":"DU","i_lat":-6.155215},{"time":8,"station_id":"THB","transit":true,"i_lat":-6.185545,"line":1,"station_name":"Tanah Abang","distance":3632,"i_long":106.811091,"is_transit":true},{"line":6,"station_id":"PLM","transit":false,"is_transit":false,"time":6,"distance":3191,"i_lat":-6.207404,"i_long":106.79689,"station_name":"Palmerah"},{"distance":3737,"i_lat":-6.237242,"time":7,"station_name":"Kebayoran","i_long":106.780334,"line":6,"station_id":"KBY","transit":false,"is_transit":false},{"transit":false,"is_transit":false,"time":8,"distance":6218,"station_name":"Pondokranji","i_long":106.74273,"line":6,"station_id":"PDJ","i_lat":-6.276362},{"transit":false,"line":6,"station_name":"Jurangmangu","time":3,"distance":2179,"station_id":"JMU","is_transit":false,"i_lat":-6.288927,"i_long":106.728916},{"time":4,"transit":false,"i_lat":-6.296963,"line":6,"station_name":"Sudimara","distance":1994,"i_long":106.712277,"is_transit":false,"station_id":"SDM"},{"i_lat":-6.314823,"station_id":"RU","station_name":"Rawa Buntu","transit":false,"time":6,"line":6,"is_transit":false,"i_long":106.675475,"distance":4566},{"station_name":"Serpong","is_transit":false,"station_id":"SRP","transit":false,"distance":2413,"i_long":106.66566,"time":4,"i_lat":-6.319871,"line":6},{"time":4,"station_id":"CSK","line":3,"distance":1784,"i_long":106.640411,"transit":false,"station_name":"Cisauk","i_lat":-6.32484,"is_transit":false},{"transit":false,"line":3,"station_id":"CC","i_lat":-6.329547,"distance":2519,"is_transit":false,"station_name":"Cicayur","time":4,"i_long":106.617853},{"station_name":"Parung Panjang","station_id":"PRP","time":8,"distance":5968,"line":6,"is_transit":false,"transit":false,"i_lat":-6.3441410000000005,"i_long":106.568863}],[{"line":5,"station_id":"PSG","i_lat":-6.161433,"i_long":106.771379,"time":0,"station_name":"Pesing","transit":false,"is_transit":false,"distance":0},{"transit":false,"station_id":"GGL","time":2,"i_long":106.788277,"is_transit":false,"distance":2036,"station_name":"Grogol","i_lat":-6.162021,"line":5},{"transit":true,"station_name":"Duri","i_long":106.800832,"line":1,"station_id":"DU","time":3,"is_transit":true,"distance":1700,"i_lat":-6.155215},{"station_name":"Angke","station_id":"AK","i_lat":-6.144674,"is_transit":false,"time":4,"distance":1230,"i_long":106.79867,"line":1,"transit":false},{"is_transit":true,"station_id":"KPB","i_lat":-6.132549,"time":9,"i_long":106.826365,"line":4,"station_name":"Kampung Bandan","transit":true,"distance":4102},{"is_transit":true,"time":3,"i_lat":-6.137569,"i_long":106.812439,"distance":1364,"line":2,"transit":true,"station_name":"Jakarta Kota","station_id":"JAKK"},{"i_long":106.820901,"station_name":"Jayakarta","transit":false,"is_transit":false,"time":4,"distance":1264,"i_lat":-6.141205,"line":2,"station_id":"JAY"},{"is_transit":false,"distance":1080,"transit":false,"station_id":"MGB","time":2,"station_name":"Manggabesar","i_long":106.82482,"line":2,"i_lat":-6.149769},{"distance":906,"i_lat":-6.160725,"i_long":106.827103,"line":2,"station_id":"SW","station_name":"Sawah Besar","is_transit":false,"transit":false,"time":2},{"i_long":106.828284,"line":2,"distance":1149,"time":2,"is_transit":false,"i_lat":-6.166716,"transit":false,"station_name":"Juanda","station_id":"JUA"},{"distance":2015,"transit":false,"i_long":106.832183,"station_id":"GDD","i_lat":-6.186295,"line":2,"station_name":"Gondangdia","is_transit":false,"time":4},{"station_id":"CKI","i_long":106.840169,"transit":false,"i_lat":-6.198556,"is_transit":false,"line":2,"time":3,"station_name":"Cikini","distance":1750},{"station_name":"Manggarai","distance":1590,"station_id":"MRI","line":2,"i_lat":-6.209883,"i_long":106.84912,"time":4,"transit":true,"is_transit":true},{"time":4,"i_long":106.822649,"is_transit":false,"line":1,"i_lat":-6.202263,"distance":3186,"station_name":"Sudirman","transit":false,"station_id":"SUD"},{"station_name":"Sudirman Baru","i_lat":-6.201433,"is_transit":false,"line":1,"distance":280,"transit":false,"time":1,"station_id":"SUDB","i_long":106.819881},{"station_name":"Karet","is_transit":false,"distance":471,"station_id":"KAT","i_lat":-6.20132,"i_long":106.816351,"transit":false,"line":1,"time":1},{"is_transit":true,"transit":true,"station_id":"THB","station_name":"Tanah Abang","time":5,"i_lat":-6.185545,"i_long":106.811091,"distance":2029,"line":1},{"i_long":106.79689,"is_transit":false,"time":6,"distance":3191,"transit":false,"i_lat":-6.207404,"station_name":"Palmerah","station_id":"PLM","line":6},{"i_lat":-6.237242,"transit":false,"line":6,"i_long":106.780334,"time":7,"distance":3737,"station_name":"Kebayoran","station_id":"KBY","is_transit":false},{"line":6,"transit":false,"station_name":"Pondokranji","distance":6218,"i_long":106.74273,"i_lat":-6.276362,"station_id":"PDJ","is_transit":false,"time":8},{"time":3,"station_name":"Jurangmangu","i_lat":-6.288927,"distance":2179,"transit":false,"i_long":106.728916,"is_transit":false,"station_id":"JMU","line":6},{"i_lat":-6.296963,"i_long":106.712277,"station_name":"Sudimara","time":4,"station_id":"SDM","distance":1994,"line":6,"transit":false,"is_transit":false},{"station_id":"RU","i_long":106.675475,"station_name":"Rawa Buntu","distance":4566,"time":6,"i_lat":-6.314823,"is_transit":false,"line":6,"transit":false},{"time":4,"transit":false,"i_lat":-6.319871,"line":6,"station_name":"Serpong","distance":2413,"i_long":106.66566,"is_transit":false,"station_id":"SRP"},{"i_lat":-6.32484,"transit":false,"station_id":"CSK","i_long":106.640411,"line":3,"station_name":"Cisauk","distance":1784,"is_transit":false,"time":4},{"is_transit":false,"distance":2519,"line":3,"i_long":106.617853,"station_id":"CC","transit":false,"time":4,"i_lat":-6.329547,"station_name":"Cicayur"},{"i_lat":-6.3441410000000005,"transit":false,"station_id":"PRP","is_transit":false,"distance":5968,"line":6,"station_name":"Parung Panjang","i_long":106.568863,"time":8}],[{"station_name":"Pesing","is_transit":false,"i_long":106.771379,"time":0,"i_lat":-6.161433,"station_id":"PSG","transit":false,"line":5,"distance":0},{"i_lat":-6.162021,"is_transit":false,"time":2,"transit":false,"i_long":106.788277,"station_name":"Grogol","station_id":"GGL","distance":2036,"line":5},{"i_long":106.800832,"station_id":"DU","transit":true,"line":1,"time":3,"station_name":"Duri","is_transit":true,"distance":1700,"i_lat":-6.155215},{"transit":false,"is_transit":false,"time":4,"i_long":106.79867,"i_lat":-6.144674,"station_name":"Angke","station_id":"AK","distance":1230,"line":1},{"transit":true,"i_lat":-6.132549,"i_long":106.826365,"station_name":"Kampung Bandan","is_transit":true,"station_id":"KPB","line":4,"distance":4102,"time":9},{"transit":false,"line":11,"station_id":"RJW","distance":1444,"time":3,"station_name":"Rajawali","is_transit":false,"i_long":106.836569,"i_lat":-6.14505},{"is_transit":false,"distance":1901,"i_lat":-6.161728,"station_id":"KMO","transit":false,"station_name":"Kemayoran","line":11,"i_long":106.839204,"time":5},{"i_long":106.84368,"is_transit":false,"distance":1436,"line":11,"transit":false,"i_lat":-6.174784,"station_name":"Pasar Senen","time":4,"station_id":"PSE"},{"i_long":106.850107,"station_id":"GST","time":8,"i_lat":-6.185975,"line":11,"station_name":"Gang Sentiong","is_transit":false,"distance":1567,"transit":false},{"transit":false,"time":1,"distance":973,"i_lat":-6.193792,"station_name":"Kramat","station_id":"KMT","is_transit":false,"i_long":106.855437,"line":11},{"station_name":"Pondok Jati","line":11,"station_id":"POK","i_lat":-6.209188,"i_long":106.861737,"time":2,"distance":1829,"is_transit":false,"transit":false},{"is_transit":true,"station_name":"Jatinegara","i_lat":-6.215091,"i_long":106.86807400000001,"station_id":"JNG","time":9,"distance":1236,"line":1,"transit":true},{"transit":false,"station_id":"MTR","time":2,"i_long":106.858896,"is_transit":false,"i_lat":-6.212485,"line":1,"distance":1377,"station_name":"Matraman"},{"transit":false,"i_lat":-6.209883,"line":2,"distance":1275,"station_name":"Manggarai","station_id":"MRI","time":2,"i_long":106.84912,"is_transit":false},{"transit":false,"is_transit":false,"i_long":106.822649,"time":4,"station_name":"Sudirman","distance":3186,"i_lat":-6.202263,"station_id":"SUD","line":1},{"line":1,"transit":false,"station_id":"SUDB","is_transit":false,"i_long":106.819881,"time":1,"distance":280,"i_lat":-6.201433,"station_name":"Sudirman Baru"},{"station_name":"Karet","is_transit":false,"transit":false,"distance":471,"station_id":"KAT","line":1,"i_lat":-6.20132,"time":1,"i_long":106.816351},{"station_id":"THB","distance":2029,"transit":true,"is_transit":true,"time":5,"line":1,"station_name":"Tanah Abang","i_lat":-6.185545,"i_long":106.811091},{"transit":false,"station_name":"Palmerah","station_id":"PLM","line":6,"time":6,"i_lat":-6.207404,"distance":3191,"i_long":106.79689,"is_transit":false},{"is_transit":false,"line":6,"distance":3737,"i_lat":-6.237242,"station_name":"Kebayoran","transit":false,"time":7,"station_id":"KBY","i_long":106.780334},{"i_long":106.74273,"time":8,"i_lat":-6.276362,"station_name":"Pondokranji","transit":false,"is_transit":false,"line":6,"distance":6218,"station_id":"PDJ"},{"i_lat":-6.288927,"i_long":106.728916,"line":6,"transit":false,"time":3,"distance":2179,"station_name":"Jurangmangu","station_id":"JMU","is_transit":false},{"distance":1994,"station_name":"Sudimara","i_long":106.712277,"is_transit":false,"station_id":"SDM","line":6,"i_lat":-6.296963,"time":4,"transit":false},{"line":6,"time":6,"i_lat":-6.314823,"distance":4566,"i_long":106.675475,"transit":false,"station_name":"Rawa Buntu","is_transit":false,"station_id":"RU"},{"station_id":"SRP","station_name":"Serpong","i_long":106.66566,"distance":2413,"i_lat":-6.319871,"time":4,"line":6,"transit":false,"is_transit":false},{"station_name":"Cisauk","i_long":106.640411,"is_transit":false,"station_id":"CSK","transit":false,"distance":1784,"line":3,"i_lat":-6.32484,"time":4},{"station_name":"Cicayur","i_long":106.617853,"transit":false,"line":3,"distance":2519,"station_id":"CC","is_transit":false,"time":4,"i_lat":-6.329547},{"station_id":"PRP","station_name":"Parung Panjang","i_long":106.568863,"is_transit":false,"time":8,"transit":false,"distance":5968,"i_lat":-6.3441410000000005,"line":6}]]}