{"data":[[{"i_lat":-6.161433,"is_transit":false,"distance":0,"station_name":"Pesing","i_long":106.771379,"station_id":"PSG","line":5,"transit":false,"time":0},{"station_id":"GGL","time":2,"station_name":"Grogol","i_lat":-6.162021,"is_transit":false,"line":5,"i_long":106.788277,"transit":false,"distance":2036},{"i_long":106.800832,"line":1,"station_id":"DU","is_transit":true,"time":3,"distance":1700,"station_name":"Duri","i_lat":-6.155215,"transit":true},{"transit":false,"is_transit":false,"station_name":"Tanah Abang","line":1,"time":8,"i_long":106.811091,"station_id":"THB","distance":3632,"i_lat":-6.185545},{"is_transit":false,"station_id":"KAT","line":1,"transit":false,"i_lat":-6.20132,"station_name":"Karet","distance":2029,"time":5,"i_long":106.816351},{"i_lat":-6.201433,"line":1,"transit":false,"station_id":"SUDB","i_long":106.819881,"is_transit":false,"station_name":"Sudirman Baru","time":1,"distance":471},{"transit":false,"station_name":"Sudirman","is_transit":false,"station_id":"SUD","i_lat":-6.202263,"line":1,"i_long":106.822649,"time":1,"distance":280},{"transit":true,"is_transit":true,"distance":3186,"station_id":"MRI","i_long":106.84912,"station_name":"Manggarai","i_lat":-6.209883,"line":2,"time":4},{"line":2,"distance":2610,"i_lat":-6.226659,"transit":false,"station_id":"TEB","time":4,"i_long":106.857948,"is_transit":false,"station_name":"Tebet"}],[{"time":0,"transit":false,"i_lat":-6.161433,"station_id":"PSG","distance":0,"station_name":"Pesing","i_long":106.771379,"is_transit":false,"line":5},{"line":5,"station_name":"Grogol","time":2,"transit":false,"distance":2036,"station_id":"GGL","i_long":106.788277,"is_transit":false,"i_lat":-6.162021},{"time":3,"i_long":106.800832,"transit":true,"i_lat":-6.155215,"line":1,"station_name":"Duri","is_transit":true,"distance":1700,"station_id":"DU"},{"time":4,"is_transit":false,"transit":false,"distance":1230,"i_lat":-6.144674,"station_name":"Angke","station_id":"AK","i_long":106.79867,"line":1},{"station_name":"Kampung Bandan","i_lat":-6.132549,"transit":true,"i_long":106.826365,"line":4,"station_id":"KPB","distance":4102,"is_transit":true,"time":9},{"is_transit":true,"transit":true,"time":3,"station_id":"JAKK","station_name":"Jakarta Kota","i_lat":-6.137569,"line":2,"i_long":106.812439,"distance":1364},{"is_transit":false,"station_name":"Jayakarta","distance":1264,"station_id":"JAY","i_lat":-6.141205,"transit":false,"line":2,"i_long":106.820901,"time":4},{"station_name":"Manggabesar","time":2,"distance":1080,"i_long":106.82482,"i_lat":-6.149769,"line":2,"station_id":"MGB","is_transit":false,"transit":false},{"station_id":"SW","distance":906,"i_lat":-6.160725,"station_name":"Sawah Besar","is_transit":false,"transit":false,"i_long":106.827103,"line":2,"time":2},{"transit":false,"station_name":"Juanda","station_id":"JUA","is_transit":false,"time":2,"distance":1149,"line":2,"i_lat":-6.166716,"i_long":106.828284},{"transit":false,"i_lat":-6.186295,"station_name":"Gondangdia","time":4,"distance":2015,"i_long":106.832183,"station_id":"GDD","is_transit":false,"line":2},{"transit":false,"i_lat":-6.198556,"line":2,"distance":1750,"i_long":106.840169,"station_name":"Cikini","station_id":"CKI","time":3,"is_transit":false},{"distance":1590,"i_long":106.84912,"station_id":"MRI","i_lat":-6.209883,"station_name":"Manggarai","time":4,"is_transit":false,"line":2,"transit":false},{"i_long":106.857948,"distance":2610,"i_lat":-6.226659,"line":2,"station_name":"Tebet","transit":false,"station_id":"TEB","time":4,"is_transit":false}],[{"distance":0,"station_id":"PSG","time":0,"station_name":"Pesing","is_transit":false,"i_long":106.771379,"i_lat":-6.161433,"transit":false,"line":5},{"station_name":"Grogol","station_id":"GGL","line":5,"i_long":106.788277,"transit":false,"is_transit":false,"distance":2036,"i_lat":-6.162021,"time":2},{"station_name":"Duri","i_lat":-6.155215,"distance":1700,"i_long":106.800832,"station_id":"DU","transit":true,"is_transit":true,"line":1,"time":3},{"transit":false,"station_name":"Angke","distance":1230,"station_id":"AK","time":4,"i_lat":-6.144674,"i_long":106.79867,"is_transit":false,"line":1},{"is_transit":true,"station_name":"Kampung Bandan","time":9,"station_id":"KPB","i_long":106.826365,"distance":4102,"line":4,"transit":true,"i_lat":-6.132549},{"line":11,"station_id":"RJW","station_name":"Rajawali","is_transit":false,"distance":1444,"transit":false,"i_lat":-6.14505,"time":3,"i_long":106.836569},{"distance":1901,"i_long":106.839204,"station_id":"KMO","time":5,"i_lat":-6.161728,"line":11,"transit":false,"station_name":"Kemayoran","is_transit":false},{"station_id":"PSE","i_long":106.84368,"is_transit":false,"i_lat":-6.174784,"transit":false,"time":4,"distance":1436,"station_name":"Pasar Senen","line":11},{"i_lat":-6.185975,"i_long":106.850107,"time":8,"station_name":"Gang Sentiong","line":11,"transit":false,"station_id":"GST","distance":1567,"is_transit":false},{"station_id":"KMT","transit":false,"is_transit":false,"i_long":106.855437,"distance":973,"station_name":"Kramat","i_lat":-6.193792,"time":1,"line":11},{"distance":1829,"transit":false,"is_transit":false,"time":2,"station_id":"POK","i_lat":-6.209188,"i_long":106.861737,"line":11,"station_name":"Pondok Jati"},{"is_transit":true,"station_id":"JNG","distance":1236,"station_name":"Jatinegara","i_long":106.86807400000001,"time":9,"line":1,"transit":true,"i_lat":-6.215091},{"is_transit":false,"i_long":106.858896,"station_id":"MTR","distance":1377,"line":1,"station_name":"Matraman","transit":false,"time":2,"i_lat":-6.212485},{"transit":true,"distance":1275,"line":2,"is_transit":true,"i_lat":-6.209883,"station_id":"MRI","i_long":106.84912,"time":2,"station_name":"Manggarai"},{"station_id":"TEB","i_long":106.857948,"i_lat":-6.226659,"line":2,"station_name":"Tebet","time":4,"transit":false,"is_transit":false,"distance":2610}]]}