{"data":[[{"station_id":"PSG","time":0,"distance":0,"station_name":"Pesing","transit":false,"i_lat":-6.161433,"line":5,"is_transit":false,"i_long":106.771379},{"distance":2036,"time":2,"i_lat":-6.162021,"line":5,"is_transit":false,"station_id":"GGL","transit":false,"i_long":106.788277,"station_name":"Grogol"},{"time":3,"station_id":"DU","i_long":106.800832,"distance":1700,"station_name":"Duri","transit":true,"i_lat":-6.155215,"line":1,"is_transit":true},{"station_name":"Tanah Abang","transit":true,"station_id":"THB","is_transit":true,"line":1,"time":8,"i_lat":-6.185545,"i_long":106.811091,"distance":3632},{"line":6,"station_name":"Palmerah","distance":3191,"i_long":106.79689,"i_lat":-6.207404,"station_id":"PLM","time":6,"is_transit":false,"transit":false},{"station_name":"Kebayoran","station_id":"KBY","time":7,"distance":3737,"transit":false,"i_lat":-6.237242,"line":6,"i_long":106.780334,"is_transit":false}],[{"i_lat":-6.161433,"distance":0,"transit":false,"station_name":"Pesing","is_transit":false,"time":0,"i_long":106.771379,"line":5,"station_id":"PSG"},{"distance":2036,"time":2,"transit":false,"line":5,"station_id":"GGL","is_transit":false,"station_name":"Grogol","i_long":106.788277,"i_lat":-6.162021},{"station_name":"Duri","is_transit":true,"time":3,"line":1,"i_lat":-6.155215,"distance":1700,"i_long":106.800832,"transit":true,"station_id":"DU"},{"transit":false,"i_long":106.79867,"time":4,"i_lat":-6.144674,"line":0,"is_transit":false,"station_name":"Angke","distance":1230,"station_id":"AK"},{"is_transit":true,"i_long":106.826365,"line":0,"time":9,"station_id":"KPB","i_lat":-6.132549,"station_name":"Kampung Bandan","transit":false,"distance":4102},{"time":3,"station_id":"JAKK","line":0,"i_lat":-6.137569,"distance":1364,"i_long":106.812439,"transit":true,"station_name":"Jakarta Kota","is_transit":true},{"i_long":106.820901,"station_name":"Jayakarta","line":7,"time":4,"i_lat":-6.141205,"distance":1264,"station_id":"JAY","transit":false,"is_transit":false},{"i_lat":-6.149769,"station_id":"MGB","is_transit":false,"line":2,"station_name":"Manggabesar","transit":false,"i_long":106.82482,"distance":1080,"time":2},{"i_long":106.827103,"station_id":"SW","time":2,"distance":906,"transit":false,"i_lat":-6.160725,"line":2,"is_transit":false,"station_name":"Sawah Besar"},{"transit":false,"i_lat":-6.166716,"line":2,"station_name":"Juanda","is_transit":false,"station_id":"JUA","time":2,"i_long":106.828284,"distance":1149},{"i_lat":-6.186295,"is_transit":false,"distance":2015,"time":4,"station_id":"GDD","line":2,"i_long":106.832183,"transit":false,"station_name":"Gondangdia"},{"time":3,"station_id":"CKI","line":0,"station_name":"Cikini","distance":1750,"i_lat":-6.198556,"is_transit":false,"i_long":106.840169,"transit":false},{"distance":1590,"is_transit":true,"station_name":"Manggarai","time":4,"transit":true,"i_long":106.84912,"line":0,"station_id":"MRI","i_lat":-6.209883},{"is_transit":false,"station_id":"SUD","transit":false,"time":4,"i_lat":-6.202263,"line":1,"i_long":106.822649,"distance":3186,"station_name":"Sudirman"},{"time":1,"i_lat":-6.201433,"distance":280,"line":1,"station_id":"SUDB","transit":false,"station_name":"Sudirman Baru","is_transit":false,"i_long":106.819881},{"station_name":"Karet","i_lat":-6.20132,"line":1,"distance":471,"time":1,"station_id":"KAT","i_long":106.816351,"is_transit":false,"transit":false},{"i_lat":-6.185545,"station_id":"THB","i_long":106.811091,"time":5,"is_transit":true,"distance":2029,"station_name":"Tanah Abang","line":1,"transit":true},{"distance":3191,"is_transit":false,"time":6,"i_long":106.79689,"station_name":"Palmerah","line":6,"station_id":"PLM","transit":false,"i_lat":-6.207404},{"is_transit":false,"line":6,"distance":3737,"station_name":"Kebayoran","transit":false,"time":7,"station_id":"KBY","i_lat":-6.237242,"i_long":106.780334}],[{"i_long":106.771379,"station_name":"Pesing","line":5,"is_transit":false,"i_lat":-6.161433,"transit":false,"distance":0,"station_id":"PSG","time":0},{"is_transit":false,"i_lat":-6.162021,"transit":false,"distance":2036,"station_name":"Grogol","station_id":"GGL","time":2,"i_long":106.788277,"line":5},{"i_lat":-6.155215,"line":1,"i_long":106.800832,"station_name":"Duri","transit":true,"distance":1700,"station_id":"DU","is_transit":true,"time":3},{"station_id":"AK","line":0,"station_name":"Angke","transit":false,"is_transit":false,"distance":1230,"i_lat":-6.144674,"time":4,"i_long":106.79867},{"time":9,"transit":true,"is_transit":true,"station_id":"KPB","station_name":"Kampung Bandan","line":0,"distance":4102,"i_long":106.826365,"i_lat":-6.132549},{"time":3,"station_id":"RJW","transit":false,"i_lat":-6.14505,"i_long":106.836569,"distance":1444,"line":11,"is_transit":false,"station_name":"Rajawali"},{"distance":1901,"station_id":"KMO","transit":false,"time":5,"line":11,"i_long":106.839204,"i_lat":-6.161728,"station_name":"Kemayoran","is_transit":false},{"transit":false,"distance":1436,"time":4,"is_transit":false,"station_name":"Pasar Senen","i_lat":-6.174784,"i_long":106.84368,"line":11,"station_id":"PSE"},{"time":8,"i_long":106.850107,"transit":false,"i_lat":-6.185975,"station_name":"Gang Sentiong","distance":1567,"line":11,"is_transit":false,"station_id":"GST"},{"distance":973,"station_name":"Kramat","transit":false,"i_lat":-6.193792,"time":1,"station_id":"KMT","is_transit":false,"line":11,"i_long":106.855437},{"distance":1829,"line":11,"station_name":"Pondok Jati","is_transit":false,"station_id":"POK","i_lat":-6.209188,"time":2,"i_long":106.861737,"transit":false},{"i_lat":-6.215091,"station_name":"Jatinegara","i_long":106.86807400000001,"distance":1236,"line":0,"transit":true,"station_id":"JNG","is_transit":true,"time":9},{"station_name":"Matraman","distance":1377,"station_id":"MTR","transit":false,"time":2,"i_long":106.858896,"line":1,"is_transit":false,"i_lat":-6.212485},{"time":2,"line":0,"station_name":"Manggarai","transit":false,"distance":1275,"i_lat":-6.209883,"i_long":106.84912,"is_transit":true,"station_id":"MRI"},{"is_transit":false,"transit":false,"time":4,"i_lat":-6.202263,"i_long":106.822649,"station_name":"Sudirman","station_id":"SUD","distance":3186,"line":1},{"transit":false,"distance":280,"time":1,"i_lat":-6.201433,"station_name":"Sudirman Baru","i_long":106.819881,"station_id":"SUDB","is_transit":false,"line":1},{"line":1,"i_long":106.816351,"transit":false,"station_id":"KAT","distance":471,"is_transit":false,"station_name":"Karet","time":1,"i_lat":-6.20132},{"distance":2029,"time":5,"is_transit":true,"i_lat":-6.185545,"station_name":"Tanah Abang","i_long":106.811091,"transit":true,"station_id":"THB","line":1},{"i_lat":-6.207404,"distance":3191,"is_transit":false,"i_long":106.79689,"station_id":"PLM","station_name":"Palmerah","transit":false,"time":6,"line":6},{"transit":false,"i_lat":-6.237242,"line":6,"time":7,"i_long":106.780334,"station_name":"Kebayoran","is_transit":false,"station_id":"KBY","distance":3737}]]}