{"data":[[{"station_id":"PSG","transit":false,"distance":0,"line":5,"i_lat":-6.161433,"time":0,"i_long":106.771379,"is_transit":false,"station_name":"Pesing"},{"station_name":"Grogol","line":5,"transit":false,"time":2,"i_lat":-6.162021,"distance":2036,"is_transit":false,"i_long":106.788277,"station_id":"GRG"},{"i_long":106.800832,"station_id":"DU","station_name":"Duri","line":1,"transit":true,"is_transit":true,"i_lat":-6.155215,"time":3,"distance":1700},{"station_id":"THB","station_name":"Tanah Abang","is_transit":false,"i_long":106.811091,"time":8,"transit":false,"i_lat":-6.185545,"distance":3632,"line":1},{"transit":false,"station_id":"KAT","station_name":"Karet","is_transit":false,"line":1,"i_lat":-6.20132,"time":5,"i_long":106.816351,"distance":2029},{"time":1,"transit":false,"i_long":106.819881,"i_lat":-6.201433,"station_id":"SUDB","is_transit":false,"line":1,"distance":471,"station_name":"Sudirman Baru"},{"station_id":"SUD","station_name":"Sudirman","is_transit":false,"i_long":106.822649,"line":1,"transit":false,"time":1,"distance":280,"i_lat":-6.202263},{"i_lat":-6.209883,"station_name":"Manggarai","time":4,"station_id":"MRI","transit":false,"is_transit":false,"i_long":106.84912,"distance":3186,"line":2},{"is_transit":false,"station_name":"Matraman","time":2,"i_lat":-6.212485,"i_long":106.858896,"distance":1275,"transit":false,"station_id":"MTR","line":1},{"i_long":106.86807400000001,"station_id":"JNG","transit":false,"time":8,"line":1,"i_lat":-6.215091,"distance":1377,"station_name":"Jatinegara","is_transit":false}],[{"distance":0,"i_lat":-6.161433,"is_transit":false,"station_id":"PSG","time":0,"i_long":106.771379,"station_name":"Pesing","transit":false,"line":5},{"transit":false,"i_long":106.788277,"time":2,"is_transit":false,"station_name":"Grogol","station_id":"GRG","distance":2036,"line":5,"i_lat":-6.162021},{"i_lat":-6.155215,"time":3,"transit":true,"distance":1700,"line":1,"i_long":106.800832,"station_name":"Duri","is_transit":true,"station_id":"DU"},{"station_id":"AK","distance":1230,"i_lat":-6.144674,"i_long":106.79867,"line":1,"time":4,"station_name":"Angke","transit":false,"is_transit":false},{"station_id":"KPB","i_lat":-6.132549,"line":4,"time":9,"distance":4102,"transit":true,"station_name":"Kampung Bandan","is_transit":true,"i_long":106.826365},{"distance":1444,"i_long":106.836569,"is_transit":false,"transit":false,"time":3,"line":11,"i_lat":-6.14505,"station_name":"Rajawali","station_id":"RJW"},{"i_lat":-6.161728,"time":5,"transit":false,"distance":1901,"is_transit":false,"i_long":106.839204,"line":11,"station_id":"KMO","station_name":"Kemayoran"},{"is_transit":false,"line":11,"transit":false,"i_lat":-6.174784,"time":4,"station_name":"Pasar Senen","i_long":106.84368,"station_id":"PSE","distance":1436},{"is_transit":false,"distance":1567,"station_id":"GST","station_name":"Gang Sentiong","i_long":106.850107,"line":11,"transit":false,"time":8,"i_lat":-6.185975},{"i_lat":-6.193792,"transit":false,"i_long":106.855437,"time":1,"station_id":"KMT","distance":973,"station_name":"Kramat","line":11,"is_transit":false},{"station_name":"Pondok Jati","transit":false,"time":2,"distance":1829,"i_lat":-6.209188,"station_id":"POK","line":11,"is_transit":false,"i_long":106.861737},{"line":1,"transit":false,"distance":1236,"time":9,"i_long":106.86807400000001,"i_lat":-6.215091,"station_name":"Jatinegara","station_id":"JNG","is_transit":false}],[{"distance":0,"i_lat":-6.161433,"station_name":"Pesing","line":5,"station_id":"PSG","is_transit":false,"i_long":106.771379,"time":0,"transit":false},{"station_id":"GRG","transit":false,"line":5,"i_long":106.788277,"station_name":"Grogol","i_lat":-6.162021,"distance":2036,"is_transit":false,"time":2},{"line":1,"is_transit":true,"distance":1700,"station_name":"Duri","transit":true,"time":3,"i_lat":-6.155215,"i_long":106.800832,"station_id":"DU"},{"is_transit":false,"distance":1230,"station_id":"AK","time":4,"i_lat":-6.144674,"transit":false,"station_name":"Angke","i_long":106.79867,"line":1},{"is_transit":true,"station_name":"Kampung Bandan","time":9,"distance":4102,"station_id":"KPB","i_lat":-6.132549,"line":4,"transit":true,"i_long":106.826365},{"station_id":"JAKK","transit":true,"station_name":"Jakarta Kota","distance":1364,"time":3,"is_transit":true,"line":2,"i_long":106.812439,"i_lat":-6.137569},{"transit":false,"station_id":"JAY","station_name":"Jayakarta","i_lat":-6.141205,"is_transit":false,"distance":1264,"time":4,"i_long":106.820901,"line":2},{"is_transit":false,"station_name":"Manggabesar","i_long":106.82482,"distance":1080,"i_lat":-6.149769,"transit":false,"station_id":"MGB","line":2,"time":2},{"is_transit":false,"i_lat":-6.160725,"distance":906,"time":2,"station_name":"Sawah Besar","transit":false,"station_id":"SW","line":2,"i_long":106.827103},{"station_id":"JUA","i_lat":-6.166716,"i_long":106.828284,"line":2,"time":2,"transit":false,"station_name":"Juanda","is_transit":false,"distance":1149},{"distance":2015,"station_name":"Gondangdia","i_long":106.832183,"time":4,"is_transit":false,"line":2,"i_lat":-6.186295,"transit":false,"station_id":"GDD"},{"time":3,"line":2,"station_id":"CKI","is_transit":false,"transit":false,"i_lat":-6.198556,"i_long":106.840169,"distance":1750,"station_name":"Cikini"},{"is_transit":true,"transit":true,"time":4,"distance":1590,"station_name":"Manggarai","i_lat":-6.209883,"i_long":106.84912,"line":2,"station_id":"MRI"},{"station_id":"MTR","station_name":"Matraman","is_transit":false,"i_long":106.858896,"line":1,"i_lat":-6.212485,"transit":false,"distance":1275,"time":2},{"line":1,"station_id":"JNG","time":8,"station_name":"Jatinegara","distance":1377,"i_long":106.86807400000001,"transit":false,"is_transit":false,"i_lat":-6.215091}],[{"time":0,"station_name":"Pesing","i_lat":-6.161433,"i_long":106.771379,"line":5,"station_id":"PSG","distance":0,"is_transit":false,"transit":false},{"i_lat":-6.162021,"station_name":"Grogol","line":5,"distance":2036,"i_long":106.788277,"transit":false,"station_id":"GRG","time":2,"is_transit":false},{"transit":true,"station_name":"Duri","is_transit":true,"i_lat":-6.155215,"i_long":106.800832,"line":1,"distance":1700,"station_id":"DU","time":3},{"distance":3632,"i_lat":-6.185545,"i_long":106.811091,"line":1,"station_name":"Tanah Abang","time":8,"is_transit":false,"transit":false,"station_id":"THB"},{"i_lat":-6.20132,"distance":2029,"line":1,"is_transit":false,"transit":false,"station_id":"KAT","time":5,"i_long":106.816351,"station_name":"Karet"},{"time":1,"is_transit":false,"line":1,"transit":false,"station_id":"SUDB","distance":471,"station_name":"Sudirman Baru","i_long":106.819881,"i_lat":-6.201433},{"is_transit":false,"station_id":"SUD","i_long":106.822649,"transit":false,"i_lat":-6.202263,"line":1,"time":1,"station_name":"Sudirman","distance":280},{"station_id":"MRI","transit":true,"line":2,"distance":3186,"i_long":106.84912,"is_transit":true,"station_name":"Manggarai","time":4,"i_lat":-6.209883},{"i_lat":-6.198556,"i_long":106.840169,"line":2,"time":4,"transit":false,"distance":1590,"station_name":"Cikini","station_id":"CKI","is_transit":false},{"time":3,"transit":false,"is_transit":false,"i_long":106.832183,"distance":1750,"station_name":"Gondangdia","line":2,"station_id":"GDD","i_lat":-6.186295},{"i_lat":-6.166716,"station_name":"Juanda","is_transit":false,"line":2,"time":4,"distance":2015,"transit":false,"station_id":"JUA","i_long":106.828284},{"station_id":"SW","i_lat":-6.160725,"i_long":106.827103,"transit":false,"time":2,"is_transit":false,"distance":1149,"line":2,"station_name":"Sawah Besar"},{"time":2,"station_name":"Manggabesar","transit":false,"distance":906,"line":2,"station_id":"MGB","i_lat":-6.149769,"is_transit":false,"i_long":106.82482},{"transit":false,"station_id":"JAY","i_long":106.820901,"is_transit":false,"i_lat":-6.141205,"line":2,"distance":1080,"time":2,"station_name":"Jayakarta"},{"station_name":"Jakarta Kota","time":4,"distance":1264,"station_id":"JAKK","i_lat":-6.137569,"i_long":106.812439,"is_transit":true,"line":2,"transit":true},{"station_id":"KPB","transit":true,"i_lat":-6.132549,"i_long":106.826365,"is_transit":true,"line":4,"distance":1364,"time":3,"station_name":"Kampung Bandan"},{"is_transit":false,"i_lat":-6.14505,"station_name":"Rajawali","station_id":"RJW","distance":1444,"i_long":106.836569,"transit":false,"time":3,"line":11},{"transit":false,"time":5,"i_lat":-6.161728,"station_id":"KMO","line":11,"i_long":106.839204,"station_name":"Kemayoran","distance":1901,"is_transit":false},{"time":4,"station_name":"Pasar Senen","line":11,"i_lat":-6.174784,"is_transit":false,"station_id":"PSE","distance":1436,"transit":false,"i_long":106.84368},{"i_long":106.850107,"transit":false,"station_id":"GST","distance":1567,"time":8,"i_lat":-6.185975,"station_name":"Gang Sentiong","line":11,"is_transit":false},{"i_lat":-6.193792,"station_name":"Kramat","station_id":"KMT","distance":973,"line":11,"transit":false,"is_transit":false,"time":1,"i_long":106.855437},{"station_id":"POK","transit":false,"i_lat":-6.209188,"line":11,"station_name":"Pondok Jati","i_long":106.861737,"time":2,"distance":1829,"is_transit":false},{"transit":false,"time":9,"station_name":"Jatinegara","i_lat":-6.215091,"i_long":106.86807400000001,"line":1,"station_id":"JNG","is_transit":false,"distance":1236}]]}