{"data":[[{"transit":false,"time":0,"station_id":"PSG","line":5,"is_transit":false,"i_long":106.771379,"distance":0,"station_name":"Pesing","i_lat":-6.161433},{"station_name":"Grogol","i_long":106.788277,"i_lat":-6.162021,"line":5,"is_transit":false,"transit":false,"time":2,"distance":2036,"station_id":"GGL"},{"i_long":106.800832,"time":3,"transit":true,"station_name":"Duri","i_lat":-6.155215,"distance":1700,"station_id":"DU","line":1,"is_transit":true},{"transit":true,"time":8,"distance":3632,"station_id":"THB","i_long":106.811091,"i_lat":-6.185545,"station_name":"Tanah Abang","is_transit":true,"line":1},{"distance":3191,"i_long":106.79689,"is_transit":false,"transit":false,"line":6,"time":6,"station_id":"PLM","station_name":"Palmerah","i_lat":-6.207404},{"transit":false,"station_id":"KBY","line":6,"i_long":106.780334,"station_name":"Kebayoran","i_lat":-6.237242,"time":7,"is_transit":false,"distance":3737},{"station_id":"PDJ","station_name":"Pondokranji","distance":6218,"i_long":106.74273,"is_transit":false,"transit":false,"i_lat":-6.276362,"time":8,"line":6},{"i_lat":-6.288927,"distance":2179,"station_id":"JMU","line":6,"is_transit":false,"station_name":"Jurangmangu","transit":false,"time":3,"i_long":106.728916},{"station_id":"SDM","i_lat":-6.296963,"i_long":106.712277,"time":4,"is_transit":false,"transit":false,"station_name":"Sudimara","line":6,"distance":1994},{"time":6,"i_lat":-6.314823,"is_transit":false,"transit":false,"station_name":"Rawa Buntu","i_long":106.675475,"distance":4566,"station_id":"RU","line":6},{"distance":2413,"line":6,"station_name":"Serpong","is_transit":false,"i_long":106.66566,"time":4,"transit":false,"station_id":"SRP","i_lat":-6.319871},{"distance":1784,"time":4,"is_transit":false,"transit":false,"line":3,"station_id":"CSK","station_name":"Cisauk","i_lat":-6.32484,"i_long":106.640411},{"time":4,"i_lat":-6.329547,"station_name":"Cicayur","is_transit":false,"distance":2519,"i_long":106.617853,"station_id":"CC","line":3,"transit":false},{"station_name":"Parung Panjang","is_transit":false,"line":6,"time":8,"station_id":"PRP","transit":false,"distance":5968,"i_lat":-6.3441410000000005,"i_long":106.568863},{"station_id":"CJT","time":9,"is_transit":false,"distance":7025,"station_name":"Cilejit","i_long":106.508482,"line":3,"transit":false,"i_lat":-6.354349},{"is_transit":false,"transit":false,"i_lat":-6.338021,"time":6,"i_long":106.491338,"station_id":"DAR","station_name":"Daru","line":0,"distance":2675},{"distance":3902,"station_id":"TEJ","time":5,"i_long":106.460812,"is_transit":false,"line":6,"transit":false,"station_name":"Tenjo","i_lat":-6.327251},{"line":6,"i_lat":-6.328533,"transit":false,"is_transit":false,"time":5,"distance":2974,"station_id":"TGS","station_name":"Tigaraksa","i_long":106.425991}],[{"line":5,"station_id":"PSG","i_lat":-6.161433,"time":0,"distance":0,"is_transit":false,"i_long":106.771379,"transit":false,"station_name":"Pesing"},{"is_transit":false,"station_id":"GGL","distance":2036,"i_long":106.788277,"line":5,"time":2,"transit":false,"i_lat":-6.162021,"station_name":"Grogol"},{"station_id":"DU","transit":true,"i_lat":-6.155215,"station_name":"Duri","is_transit":true,"time":3,"line":1,"distance":1700,"i_long":106.800832},{"i_lat":-6.144674,"distance":1230,"station_id":"AK","i_long":106.79867,"transit":false,"line":1,"station_name":"Angke","is_transit":false,"time":4},{"distance":4102,"i_lat":-6.132549,"time":9,"station_name":"Kampung Bandan","is_transit":true,"line":4,"station_id":"KPB","transit":true,"i_long":106.826365},{"time":3,"transit":true,"station_id":"JAKK","i_lat":-6.137569,"station_name":"Jakarta Kota","i_long":106.812439,"is_transit":true,"distance":1364,"line":2},{"i_long":106.820901,"line":2,"time":4,"is_transit":false,"transit":false,"i_lat":-6.141205,"station_name":"Jayakarta","distance":1264,"station_id":"JAY"},{"station_name":"Manggabesar","i_long":106.82482,"transit":false,"is_transit":false,"time":2,"i_lat":-6.149769,"distance":1080,"line":2,"station_id":"MGB"},{"station_id":"SW","distance":906,"transit":false,"line":2,"is_transit":false,"i_lat":-6.160725,"station_name":"Sawah Besar","time":2,"i_long":106.827103},{"i_lat":-6.166716,"time":2,"distance":1149,"station_name":"Juanda","i_long":106.828284,"transit":false,"line":2,"is_transit":false,"station_id":"JUA"},{"line":2,"station_id":"GDD","distance":2015,"i_long":106.832183,"time":4,"is_transit":false,"station_name":"Gondangdia","i_lat":-6.186295,"transit":false},{"time":3,"line":2,"is_transit":false,"distance":1750,"i_long":106.840169,"transit":false,"station_id":"CKI","i_lat":-6.198556,"station_name":"Cikini"},{"distance":1590,"line":2,"transit":true,"station_name":"Manggarai","is_transit":true,"station_id":"MRI","i_lat":-6.209883,"i_long":106.84912,"time":4},{"line":1,"distance":3186,"transit":false,"time":4,"i_lat":-6.202263,"i_long":106.822649,"is_transit":false,"station_id":"SUD","station_name":"Sudirman"},{"is_transit":false,"distance":280,"station_id":"SUDB","i_lat":-6.201433,"station_name":"Sudirman Baru","i_long":106.819881,"transit":false,"time":1,"line":1},{"i_lat":-6.20132,"transit":false,"station_name":"Karet","distance":471,"line":1,"station_id":"KAT","is_transit":false,"time":1,"i_long":106.816351},{"i_lat":-6.185545,"distance":2029,"station_id":"THB","transit":true,"is_transit":true,"time":5,"i_long":106.811091,"station_name":"Tanah Abang","line":1},{"station_name":"Palmerah","is_transit":false,"time":6,"station_id":"PLM","i_long":106.79689,"i_lat":-6.207404,"line":6,"transit":false,"distance":3191},{"station_name":"Kebayoran","transit":false,"i_long":106.780334,"line":6,"is_transit":false,"distance":3737,"i_lat":-6.237242,"time":7,"station_id":"KBY"},{"i_lat":-6.276362,"is_transit":false,"time":8,"station_name":"Pondokranji","i_long":106.74273,"transit":false,"station_id":"PDJ","distance":6218,"line":6},{"time":3,"i_long":106.728916,"is_transit":false,"transit":false,"i_lat":-6.288927,"line":6,"station_id":"JMU","station_name":"Jurangmangu","distance":2179},{"i_lat":-6.296963,"transit":false,"is_transit":false,"distance":1994,"i_long":106.712277,"station_name":"Sudimara","line":6,"time":4,"station_id":"SDM"},{"is_transit":false,"i_long":106.675475,"station_name":"Rawa Buntu","transit":false,"line":6,"station_id":"RU","time":6,"distance":4566,"i_lat":-6.314823},{"distance":2413,"is_transit":false,"time":4,"transit":false,"station_id":"SRP","line":6,"station_name":"Serpong","i_lat":-6.319871,"i_long":106.66566},{"station_id":"CSK","line":3,"time":4,"is_transit":false,"transit":false,"i_long":106.640411,"i_lat":-6.32484,"distance":1784,"station_name":"Cisauk"},{"i_lat":-6.329547,"distance":2519,"station_id":"CC","is_transit":false,"time":4,"station_name":"Cicayur","i_long":106.617853,"line":3,"transit":false},{"station_id":"PRP","station_name":"Parung Panjang","is_transit":false,"transit":false,"i_lat":-6.3441410000000005,"line":6,"i_long":106.568863,"time":8,"distance":5968},{"line":3,"i_lat":-6.354349,"is_transit":false,"station_id":"CJT","time":9,"distance":7025,"station_name":"Cilejit","transit":false,"i_long":106.508482},{"transit":false,"i_lat":-6.338021,"line":0,"station_name":"Daru","is_transit":false,"distance":2675,"i_long":106.491338,"time":6,"station_id":"DAR"},{"transit":false,"distance":3902,"station_id":"TEJ","i_lat":-6.327251,"i_long":106.460812,"time":5,"station_name":"Tenjo","line":6,"is_transit":false},{"is_transit":false,"transit":false,"line":6,"distance":2974,"i_long":106.425991,"station_id":"TGS","station_name":"Tigaraksa","i_lat":-6.328533,"time":5}],[{"distance":0,"i_lat":-6.161433,"station_name":"Pesing","station_id":"PSG","is_transit":false,"time":0,"i_long":106.771379,"transit":false,"line":5},{"transit":false,"i_lat":-6.162021,"distance":2036,"station_id":"GGL","station_name":"Grogol","i_long":106.788277,"line":5,"is_transit":false,"time":2},{"i_long":106.800832,"is_transit":true,"transit":true,"time":3,"station_name":"Duri","i_lat":-6.155215,"station_id":"DU","distance":1700,"line":1},{"i_long":106.79867,"is_transit":false,"station_id":"AK","time":4,"transit":false,"i_lat":-6.144674,"distance":1230,"station_name":"Angke","line":1},{"station_name":"Kampung Bandan","time":9,"i_lat":-6.132549,"is_transit":true,"i_long":106.826365,"distance":4102,"transit":true,"line":4,"station_id":"KPB"},{"transit":false,"distance":1444,"station_id":"RJW","station_name":"Rajawali","i_lat":-6.14505,"i_long":106.836569,"line":11,"is_transit":false,"time":3},{"is_transit":false,"distance":1901,"line":11,"transit":false,"i_lat":-6.161728,"time":5,"station_id":"KMO","station_name":"Kemayoran","i_long":106.839204},{"i_lat":-6.174784,"station_name":"Pasar Senen","distance":1436,"station_id":"PSE","time":4,"i_long":106.84368,"line":11,"is_transit":false,"transit":false},{"station_name":"Gang Sentiong","is_transit":false,"time":8,"station_id":"GST","i_lat":-6.185975,"transit":false,"distance":1567,"i_long":106.850107,"line":11},{"time":1,"station_id":"KMT","station_name":"Kramat","is_transit":false,"i_lat":-6.193792,"transit":false,"distance":973,"line":11,"i_long":106.855437},{"station_id":"POK","time":2,"i_long":106.861737,"distance":1829,"line":11,"transit":false,"is_transit":false,"station_name":"Pondok Jati","i_lat":-6.209188},{"distance":1236,"station_name":"Jatinegara","line":1,"station_id":"JNG","is_transit":true,"transit":true,"i_lat":-6.215091,"time":9,"i_long":106.86807400000001},{"distance":1377,"transit":false,"station_name":"Matraman","is_transit":false,"i_lat":-6.212485,"line":1,"station_id":"MTR","time":2,"i_long":106.858896},{"station_name":"Manggarai","i_lat":-6.209883,"station_id":"MRI","transit":false,"distance":1275,"line":2,"i_long":106.84912,"time":2,"is_transit":false},{"station_name":"Sudirman","is_transit":false,"i_lat":-6.202263,"i_long":106.822649,"line":1,"station_id":"SUD","transit":false,"time":4,"distance":3186},{"line":1,"is_transit":false,"distance":280,"time":1,"station_name":"Sudirman Baru","i_lat":-6.201433,"i_long":106.819881,"station_id":"SUDB","transit":false},{"station_name":"Karet","time":1,"transit":false,"i_long":106.816351,"station_id":"KAT","distance":471,"is_transit":false,"i_lat":-6.20132,"line":1},{"i_lat":-6.185545,"time":5,"distance":2029,"transit":true,"station_id":"THB","line":1,"i_long":106.811091,"is_transit":true,"station_name":"Tanah Abang"},{"station_name":"Palmerah","line":6,"time":6,"i_long":106.79689,"transit":false,"station_id":"PLM","i_lat":-6.207404,"is_transit":false,"distance":3191},{"transit":false,"distance":3737,"is_transit":false,"station_id":"KBY","station_name":"Kebayoran","i_lat":-6.237242,"line":6,"time":7,"i_long":106.780334},{"transit":false,"is_transit":false,"line":6,"distance":6218,"station_name":"Pondokranji","i_long":106.74273,"time":8,"station_id":"PDJ","i_lat":-6.276362},{"transit":false,"i_lat":-6.288927,"time":3,"distance":2179,"station_name":"Jurangmangu","i_long":106.728916,"station_id":"JMU","is_transit":false,"line":6},{"is_transit":false,"station_name":"Sudimara","i_long":106.712277,"time":4,"station_id":"SDM","distance":1994,"transit":false,"i_lat":-6.296963,"line":6},{"is_transit":false,"transit":false,"line":6,"station_id":"RU","distance":4566,"station_name":"Rawa Buntu","i_lat":-6.314823,"time":6,"i_long":106.675475},{"i_lat":-6.319871,"i_long":106.66566,"line":6,"station_name":"Serpong","is_transit":false,"transit":false,"time":4,"distance":2413,"station_id":"SRP"},{"station_name":"Cisauk","is_transit":false,"transit":false,"i_long":106.640411,"time":4,"distance":1784,"i_lat":-6.32484,"station_id":"CSK","line":3},{"transit":false,"station_id":"CC","time":4,"station_name":"Cicayur","i_lat":-6.329547,"i_long":106.617853,"line":3,"distance":2519,"is_transit":false},{"time":8,"transit":false,"is_transit":false,"distance":5968,"station_id":"PRP","i_lat":-6.3441410000000005,"line":6,"station_name":"Parung Panjang","i_long":106.568863},{"station_name":"Cilejit","i_long":106.508482,"is_transit":false,"transit":false,"station_id":"CJT","time":9,"distance":7025,"i_lat":-6.354349,"line":3},{"is_transit":false,"distance":2675,"time":6,"station_name":"Daru","station_id":"DAR","transit":false,"i_long":106.491338,"i_lat":-6.338021,"line":0},{"i_long":106.460812,"is_transit":false,"transit":false,"station_id":"TEJ","line":6,"time":5,"i_lat":-6.327251,"distance":3902,"station_name":"Tenjo"},{"line":6,"transit":false,"station_name":"Tigaraksa","is_transit":false,"time":5,"i_long":106.425991,"station_id":"TGS","distance":2974,"i_lat":-6.328533}]]}