{"data":[[{"distance":0,"time":0,"station_id":"PSG","line":5,"transit":false,"is_transit":false,"station_name":"Pesing","i_lat":-6.161433,"i_long":106.771379},{"station_id":"GGL","transit":false,"line":5,"i_long":106.788277,"time":2,"is_transit":false,"i_lat":-6.162021,"distance":2036,"station_name":"Grogol"},{"i_long":106.800832,"station_id":"DU","transit":true,"distance":1700,"is_transit":true,"time":3,"station_name":"Duri","i_lat":-6.155215,"line":1},{"i_long":106.811091,"distance":3632,"transit":false,"station_name":"Tanah Abang","line":1,"is_transit":true,"time":8,"i_lat":-6.185545,"station_id":"THB"},{"station_name":"Karet","time":5,"transit":false,"station_id":"KAT","i_lat":-6.20132,"distance":2029,"i_long":106.816351,"line":1,"is_transit":false},{"distance":471,"station_id":"SUDB","i_long":106.819881,"line":1,"is_transit":false,"station_name":"Sudirman Baru","transit":false,"time":1,"i_lat":-6.201433},{"station_name":"Sudirman","transit":false,"i_lat":-6.202263,"line":1,"distance":280,"time":1,"station_id":"SUD","is_transit":false,"i_long":106.822649},{"distance":3186,"i_lat":-6.209883,"station_id":"MRI","station_name":"Manggarai","transit":false,"time":4,"is_transit":true,"i_long":106.84912,"line":0},{"transit":false,"i_lat":-6.212485,"distance":1275,"station_id":"MTR","station_name":"Matraman","is_transit":false,"i_long":106.858896,"line":1,"time":2},{"distance":1377,"i_lat":-6.215091,"time":8,"station_id":"JNG","transit":false,"station_name":"Jatinegara","line":0,"is_transit":true,"i_long":106.86807400000001},{"line":1,"time":3,"station_name":"Klender","transit":false,"distance":3395,"is_transit":false,"i_lat":-6.2135,"station_id":"KLD","i_long":106.899548},{"transit":false,"station_id":"BUA","distance":3100,"is_transit":false,"line":0,"time":2,"i_lat":-6.215568,"station_name":"Buaran","i_long":106.922662},{"time":1,"line":1,"is_transit":false,"i_long":106.939679,"distance":1305,"transit":false,"station_name":"Klenderbaru","station_id":"KLDB","i_lat":-6.217455},{"line":0,"transit":false,"station_name":"Cakung","i_long":106.951283,"station_id":"CUK","i_lat":-6.219053,"distance":1385,"is_transit":false,"time":8}],[{"transit":false,"i_long":106.771379,"i_lat":-6.161433,"is_transit":false,"time":0,"station_name":"Pesing","distance":0,"station_id":"PSG","line":5},{"is_transit":false,"station_id":"GGL","station_name":"Grogol","distance":2036,"i_lat":-6.162021,"i_long":106.788277,"transit":false,"line":5,"time":2},{"transit":true,"time":3,"station_name":"Duri","line":1,"i_lat":-6.155215,"is_transit":true,"distance":1700,"i_long":106.800832,"station_id":"DU"},{"station_name":"Angke","i_lat":-6.144674,"i_long":106.79867,"distance":1230,"line":0,"time":4,"is_transit":false,"station_id":"AK","transit":false},{"transit":true,"is_transit":true,"station_id":"KPB","station_name":"Kampung Bandan","time":9,"i_lat":-6.132549,"i_long":106.826365,"line":0,"distance":4102},{"transit":false,"distance":1444,"line":11,"time":3,"i_lat":-6.14505,"station_name":"Rajawali","station_id":"RJW","i_long":106.836569,"is_transit":false},{"i_lat":-6.161728,"distance":1901,"line":11,"is_transit":false,"transit":false,"i_long":106.839204,"time":5,"station_id":"KMO","station_name":"Kemayoran"},{"distance":1436,"i_long":106.84368,"i_lat":-6.174784,"time":4,"transit":false,"is_transit":false,"line":11,"station_id":"PSE","station_name":"Pasar Senen"},{"distance":1567,"i_long":106.850107,"station_name":"Gang Sentiong","station_id":"GST","line":11,"i_lat":-6.185975,"transit":false,"is_transit":false,"time":8},{"is_transit":false,"station_name":"Kramat","station_id":"KMT","transit":false,"time":1,"i_long":106.855437,"i_lat":-6.193792,"line":11,"distance":973},{"is_transit":false,"distance":1829,"station_id":"POK","transit":false,"i_lat":-6.209188,"i_long":106.861737,"line":11,"time":2,"station_name":"Pondok Jati"},{"is_transit":true,"i_lat":-6.215091,"transit":true,"station_id":"JNG","i_long":106.86807400000001,"time":9,"station_name":"Jatinegara","distance":1236,"line":0},{"station_name":"Klender","distance":3395,"time":3,"i_long":106.899548,"is_transit":false,"transit":false,"station_id":"KLD","i_lat":-6.2135,"line":1},{"is_transit":false,"i_lat":-6.215568,"line":0,"distance":3100,"i_long":106.922662,"transit":false,"station_id":"BUA","station_name":"Buaran","time":2},{"time":1,"is_transit":false,"station_id":"KLDB","i_lat":-6.217455,"i_long":106.939679,"transit":false,"station_name":"Klenderbaru","distance":1305,"line":1},{"distance":1385,"station_name":"Cakung","transit":false,"time":8,"line":0,"is_transit":false,"station_id":"CUK","i_lat":-6.219053,"i_long":106.951283}],[{"line":5,"station_name":"Pesing","distance":0,"i_lat":-6.161433,"i_long":106.771379,"is_transit":false,"transit":false,"time":0,"station_id":"PSG"},{"is_transit":false,"i_lat":-6.162021,"line":5,"distance":2036,"i_long":106.788277,"transit":false,"station_id":"GGL","station_name":"Grogol","time":2},{"i_long":106.800832,"line":1,"time":3,"distance":1700,"station_id":"DU","i_lat":-6.155215,"is_transit":true,"station_name":"Duri","transit":true},{"line":0,"i_lat":-6.144674,"i_long":106.79867,"transit":false,"is_transit":false,"time":4,"distance":1230,"station_id":"AK","station_name":"Angke"},{"line":0,"distance":4102,"is_transit":true,"station_name":"Kampung Bandan","station_id":"KPB","time":9,"i_lat":-6.132549,"i_long":106.826365,"transit":false},{"distance":1364,"is_transit":true,"i_long":106.812439,"station_id":"JAKK","station_name":"Jakarta Kota","time":3,"transit":true,"i_lat":-6.137569,"line":0},{"i_lat":-6.141205,"is_transit":false,"time":4,"transit":false,"distance":1264,"i_long":106.820901,"station_id":"JAY","station_name":"Jayakarta","line":7},{"is_transit":false,"distance":1080,"time":2,"transit":false,"station_name":"Manggabesar","line":2,"station_id":"MGB","i_lat":-6.149769,"i_long":106.82482},{"is_transit":false,"time":2,"i_long":106.827103,"station_id":"SW","distance":906,"station_name":"Sawah Besar","transit":false,"line":2,"i_lat":-6.160725},{"line":2,"time":2,"station_id":"JUA","i_long":106.828284,"station_name":"Juanda","is_transit":false,"distance":1149,"transit":false,"i_lat":-6.166716},{"station_name":"Gondangdia","is_transit":false,"transit":false,"i_lat":-6.186295,"time":4,"distance":2015,"i_long":106.832183,"line":2,"station_id":"GDD"},{"distance":1750,"station_id":"CKI","time":3,"i_lat":-6.198556,"line":0,"i_long":106.840169,"is_transit":false,"station_name":"Cikini","transit":false},{"transit":true,"station_id":"MRI","station_name":"Manggarai","line":0,"i_lat":-6.209883,"distance":1590,"is_transit":true,"time":4,"i_long":106.84912},{"is_transit":false,"time":2,"station_id":"MTR","i_lat":-6.212485,"transit":false,"i_long":106.858896,"distance":1275,"station_name":"Matraman","line":1},{"distance":1377,"station_name":"Jatinegara","is_transit":true,"station_id":"JNG","transit":false,"i_lat":-6.215091,"i_long":106.86807400000001,"time":8,"line":0},{"station_id":"KLD","station_name":"Klender","i_long":106.899548,"i_lat":-6.2135,"transit":false,"line":1,"distance":3395,"time":3,"is_transit":false},{"station_name":"Buaran","transit":false,"distance":3100,"station_id":"BUA","time":2,"i_long":106.922662,"i_lat":-6.215568,"is_transit":false,"line":0},{"line":1,"is_transit":false,"time":1,"i_long":106.939679,"transit":false,"station_name":"Klenderbaru","station_id":"KLDB","distance":1305,"i_lat":-6.217455},{"transit":false,"i_long":106.951283,"distance":1385,"is_transit":false,"i_lat":-6.219053,"station_name":"Cakung","station_id":"CUK","time":8,"line":0}],[{"station_id":"PSG","i_lat":-6.161433,"time":0,"is_transit":false,"i_long":106.771379,"line":5,"transit":false,"station_name":"Pesing","distance":0},{"transit":false,"line":5,"i_lat":-6.162021,"distance":2036,"time":2,"is_transit":false,"i_long":106.788277,"station_name":"Grogol","station_id":"GGL"},{"transit":true,"time":3,"line":1,"station_id":"DU","station_name":"Duri","i_lat":-6.155215,"distance":1700,"is_transit":true,"i_long":106.800832},{"station_name":"Tanah Abang","i_long":106.811091,"i_lat":-6.185545,"station_id":"THB","is_transit":true,"time":8,"distance":3632,"transit":false,"line":1},{"station_id":"KAT","is_transit":false,"station_name":"Karet","i_lat":-6.20132,"transit":false,"i_long":106.816351,"line":1,"distance":2029,"time":5},{"i_long":106.819881,"station_id":"SUDB","station_name":"Sudirman Baru","time":1,"i_lat":-6.201433,"line":1,"transit":false,"is_transit":false,"distance":471},{"transit":false,"i_long":106.822649,"i_lat":-6.202263,"is_transit":false,"station_id":"SUD","station_name":"Sudirman","distance":280,"line":1,"time":1},{"i_long":106.84912,"i_lat":-6.209883,"transit":true,"station_name":"Manggarai","station_id":"MRI","line":0,"time":4,"is_transit":true,"distance":3186},{"distance":1590,"line":0,"station_id":"CKI","station_name":"Cikini","i_long":106.840169,"time":4,"is_transit":false,"transit":false,"i_lat":-6.198556},{"time":3,"i_lat":-6.186295,"is_transit":false,"distance":1750,"station_id":"GDD","line":2,"transit":false,"i_long":106.832183,"station_name":"Gondangdia"},{"station_name":"Juanda","line":2,"is_transit":false,"station_id":"JUA","time":4,"i_long":106.828284,"distance":2015,"transit":false,"i_lat":-6.166716},{"is_transit":false,"station_name":"Sawah Besar","transit":false,"i_long":106.827103,"line":2,"station_id":"SW","i_lat":-6.160725,"time":2,"distance":1149},{"distance":906,"is_transit":false,"transit":false,"station_id":"MGB","line":2,"station_name":"Manggabesar","i_long":106.82482,"time":2,"i_lat":-6.149769},{"distance":1080,"station_id":"JAY","line":7,"is_transit":false,"time":2,"i_lat":-6.141205,"i_long":106.820901,"station_name":"Jayakarta","transit":false},{"line":0,"transit":true,"is_transit":true,"station_name":"Jakarta Kota","station_id":"JAKK","i_long":106.812439,"time":4,"distance":1264,"i_lat":-6.137569},{"distance":1364,"i_long":106.826365,"station_id":"KPB","station_name":"Kampung Bandan","i_lat":-6.132549,"line":0,"transit":true,"is_transit":true,"time":3},{"distance":1444,"line":11,"i_lat":-6.14505,"transit":false,"station_id":"RJW","station_name":"Rajawali","i_long":106.836569,"is_transit":false,"time":3},{"station_id":"KMO","i_long":106.839204,"is_transit":false,"distance":1901,"i_lat":-6.161728,"station_name":"Kemayoran","time":5,"line":11,"transit":false},{"station_id":"PSE","station_name":"Pasar Senen","is_transit":false,"i_lat":-6.174784,"i_long":106.84368,"line":11,"time":4,"distance":1436,"transit":false},{"i_long":106.850107,"is_transit":false,"i_lat":-6.185975,"distance":1567,"station_id":"GST","line":11,"transit":false,"time":8,"station_name":"Gang Sentiong"},{"line":11,"time":1,"is_transit":false,"station_id":"KMT","i_lat":-6.193792,"transit":false,"station_name":"Kramat","distance":973,"i_long":106.855437},{"station_name":"Pondok Jati","transit":false,"line":11,"station_id":"POK","time":2,"i_lat":-6.209188,"distance":1829,"i_long":106.861737,"is_transit":false},{"station_name":"Jatinegara","time":9,"i_long":106.86807400000001,"transit":true,"station_id":"JNG","i_lat":-6.215091,"distance":1236,"is_transit":true,"line":0},{"line":1,"i_long":106.899548,"station_name":"Klender","is_transit":false,"time":3,"distance":3395,"transit":false,"station_id":"KLD","i_lat":-6.2135},{"time":2,"station_name":"Buaran","i_long":106.922662,"station_id":"BUA","transit":false,"is_transit":false,"i_lat":-6.215568,"line":0,"distance":3100},{"is_transit":false,"time":1,"i_lat":-6.217455,"station_id":"KLDB","station_name":"Klenderbaru","i_long":106.939679,"line":1,"transit":false,"distance":1305},{"time":8,"station_name":"Cakung","i_lat":-6.219053,"i_long":106.951283,"station_id":"CUK","is_transit":false,"distance":1385,"transit":false,"line":0}]]}