{"data":[[{"i_long":106.771379,"station_name":"Pesing","distance":0,"time":0,"line":5,"station_id":"PSG","is_transit":false,"transit":false,"i_lat":-6.161433},{"transit":false,"line":5,"time":2,"station_name":"Grogol","distance":2036,"station_id":"GGL","i_long":106.788277,"i_lat":-6.162021,"is_transit":false},{"transit":true,"line":1,"time":3,"station_id":"DU","station_name":"Duri","is_transit":true,"i_lat":-6.155215,"i_long":106.800832,"distance":1700},{"transit":false,"distance":3632,"is_transit":true,"time":8,"station_name":"Tanah Abang","i_lat":-6.185545,"i_long":106.811091,"line":1,"station_id":"THB"},{"station_id":"KAT","time":5,"i_lat":-6.20132,"distance":2029,"is_transit":false,"station_name":"Karet","line":1,"i_long":106.816351,"transit":false},{"line":1,"station_name":"Sudirman Baru","i_lat":-6.201433,"i_long":106.819881,"is_transit":false,"distance":471,"station_id":"SUDB","transit":false,"time":1},{"time":1,"station_id":"SUD","is_transit":false,"station_name":"Sudirman","i_lat":-6.202263,"distance":280,"transit":false,"i_long":106.822649,"line":1},{"station_id":"MRI","distance":3186,"station_name":"Manggarai","transit":true,"time":4,"i_lat":-6.209883,"i_long":106.84912,"is_transit":true,"line":0},{"distance":2610,"transit":false,"time":4,"station_name":"Tebet","i_lat":-6.226659,"i_long":106.857948,"station_id":"TEB","line":2,"is_transit":false},{"station_id":"CW","station_name":"Cawang","distance":1230,"transit":false,"time":2,"i_long":106.856607,"i_lat":-6.242512,"is_transit":false,"line":0},{"station_name":"Duren Kalibata","time":3,"station_id":"DRN","i_lat":-6.255332,"line":0,"transit":false,"i_long":106.85449,"distance":1546,"is_transit":false},{"station_id":"PSMB","i_lat":-6.263214,"distance":824,"station_name":"Pasar Minggu Baru","line":2,"time":2,"transit":false,"is_transit":false,"i_long":106.851577},{"i_long":106.843999,"distance":2380,"line":2,"transit":false,"station_id":"PSM","time":2,"station_name":"Pasar Minggu","i_lat":-6.2842400000000005,"is_transit":false},{"transit":false,"distance":2820,"i_long":106.838896,"time":4,"line":2,"station_id":"TNT","station_name":"Tanjung Barat","is_transit":false,"i_lat":-6.3080680000000005},{"time":3,"station_id":"LNA","i_lat":-6.330363,"line":2,"transit":false,"i_long":106.832616,"station_name":"Lenteng Agung","is_transit":false,"distance":2671},{"i_long":106.834175,"station_name":"Univ. Pancasila","transit":false,"time":2,"station_id":"UP","is_transit":false,"distance":1029,"i_lat":-6.339291,"line":2},{"station_name":"Univ. Indonesia","i_lat":-6.360749,"line":2,"transit":false,"time":3,"is_transit":false,"station_id":"UI","distance":2264,"i_long":106.831474},{"time":2,"transit":false,"i_lat":-6.369073,"station_id":"POC","is_transit":false,"i_long":106.831114,"station_name":"Pondok Cina","line":2,"distance":1109},{"line":0,"transit":false,"distance":2727,"is_transit":false,"station_id":"DPB","station_name":"Depokbaru","time":4,"i_lat":-6.391065,"i_long":106.819451},{"line":0,"station_id":"DP","i_lat":-6.405256,"distance":1584,"station_name":"Depok","transit":false,"i_long":106.816926,"is_transit":false,"time":3}],[{"i_lat":-6.161433,"transit":false,"station_id":"PSG","time":0,"line":5,"distance":0,"i_long":106.771379,"is_transit":false,"station_name":"Pesing"},{"station_id":"GGL","i_lat":-6.162021,"distance":2036,"i_long":106.788277,"time":2,"is_transit":false,"station_name":"Grogol","line":5,"transit":false},{"distance":1700,"transit":true,"line":1,"i_lat":-6.155215,"station_name":"Duri","time":3,"station_id":"DU","is_transit":true,"i_long":106.800832},{"is_transit":false,"time":4,"i_long":106.79867,"line":0,"station_id":"AK","station_name":"Angke","distance":1230,"transit":false,"i_lat":-6.144674},{"station_id":"KPB","station_name":"Kampung Bandan","transit":false,"i_long":106.826365,"time":9,"line":0,"i_lat":-6.132549,"is_transit":true,"distance":4102},{"transit":true,"station_id":"JAKK","time":3,"i_lat":-6.137569,"line":0,"distance":1364,"i_long":106.812439,"is_transit":true,"station_name":"Jakarta Kota"},{"i_lat":-6.141205,"line":7,"station_id":"JAY","time":4,"station_name":"Jayakarta","distance":1264,"is_transit":false,"i_long":106.820901,"transit":false},{"is_transit":false,"distance":1080,"line":2,"i_long":106.82482,"transit":false,"station_name":"Manggabesar","i_lat":-6.149769,"station_id":"MGB","time":2},{"line":2,"is_transit":false,"station_name":"Sawah Besar","time":2,"transit":false,"i_lat":-6.160725,"station_id":"SW","i_long":106.827103,"distance":906},{"distance":1149,"station_name":"Juanda","transit":false,"line":2,"i_lat":-6.166716,"time":2,"i_long":106.828284,"station_id":"JUA","is_transit":false},{"distance":2015,"i_long":106.832183,"is_transit":false,"transit":false,"station_name":"Gondangdia","station_id":"GDD","time":4,"i_lat":-6.186295,"line":2},{"transit":false,"station_name":"Cikini","i_long":106.840169,"station_id":"CKI","line":0,"distance":1750,"is_transit":false,"i_lat":-6.198556,"time":3},{"distance":1590,"line":0,"is_transit":true,"station_id":"MRI","station_name":"Manggarai","transit":true,"i_lat":-6.209883,"time":4,"i_long":106.84912},{"time":4,"i_long":106.857948,"distance":2610,"i_lat":-6.226659,"transit":false,"station_name":"Tebet","is_transit":false,"line":2,"station_id":"TEB"},{"transit":false,"station_name":"Cawang","i_lat":-6.242512,"line":0,"time":2,"i_long":106.856607,"distance":1230,"is_transit":false,"station_id":"CW"},{"i_lat":-6.255332,"distance":1546,"transit":false,"line":0,"i_long":106.85449,"station_name":"Duren Kalibata","is_transit":false,"station_id":"DRN","time":3},{"is_transit":false,"station_name":"Pasar Minggu Baru","distance":824,"i_long":106.851577,"transit":false,"i_lat":-6.263214,"line":2,"station_id":"PSMB","time":2},{"station_id":"PSM","i_long":106.843999,"i_lat":-6.2842400000000005,"distance":2380,"station_name":"Pasar Minggu","transit":false,"time":2,"line":2,"is_transit":false},{"station_id":"TNT","is_transit":false,"transit":false,"station_name":"Tanjung Barat","time":4,"line":2,"i_long":106.838896,"distance":2820,"i_lat":-6.3080680000000005},{"transit":false,"i_long":106.832616,"time":3,"station_name":"Lenteng Agung","is_transit":false,"station_id":"LNA","distance":2671,"i_lat":-6.330363,"line":2},{"distance":1029,"time":2,"station_name":"Univ. Pancasila","i_long":106.834175,"i_lat":-6.339291,"is_transit":false,"station_id":"UP","line":2,"transit":false},{"transit":false,"i_lat":-6.360749,"station_name":"Univ. Indonesia","time":3,"is_transit":false,"i_long":106.831474,"distance":2264,"line":2,"station_id":"UI"},{"distance":1109,"i_lat":-6.369073,"station_id":"POC","is_transit":false,"station_name":"Pondok Cina","line":2,"i_long":106.831114,"time":2,"transit":false},{"distance":2727,"station_name":"Depokbaru","transit":false,"station_id":"DPB","is_transit":false,"i_long":106.819451,"time":4,"line":0,"i_lat":-6.391065},{"is_transit":false,"distance":1584,"station_id":"DP","line":0,"i_lat":-6.405256,"time":3,"i_long":106.816926,"transit":false,"station_name":"Depok"}],[{"time":0,"line":5,"transit":false,"station_name":"Pesing","is_transit":false,"i_long":106.771379,"distance":0,"i_lat":-6.161433,"station_id":"PSG"},{"is_transit":false,"station_id":"GGL","station_name":"Grogol","time":2,"i_long":106.788277,"line":5,"distance":2036,"transit":false,"i_lat":-6.162021},{"station_id":"DU","line":1,"distance":1700,"is_transit":true,"i_lat":-6.155215,"i_long":106.800832,"transit":true,"station_name":"Duri","time":3},{"station_id":"AK","line":0,"i_lat":-6.144674,"time":4,"distance":1230,"station_name":"Angke","i_long":106.79867,"transit":false,"is_transit":false},{"station_id":"KPB","i_lat":-6.132549,"transit":true,"line":0,"i_long":106.826365,"is_transit":true,"station_name":"Kampung Bandan","distance":4102,"time":9},{"time":3,"i_lat":-6.14505,"transit":false,"line":11,"distance":1444,"station_id":"RJW","station_name":"Rajawali","i_long":106.836569,"is_transit":false},{"transit":false,"is_transit":false,"station_id":"KMO","i_long":106.839204,"line":11,"station_name":"Kemayoran","time":5,"i_lat":-6.161728,"distance":1901},{"station_name":"Pasar Senen","station_id":"PSE","i_lat":-6.174784,"line":11,"transit":false,"i_long":106.84368,"is_transit":false,"time":4,"distance":1436},{"transit":false,"time":8,"i_lat":-6.185975,"is_transit":false,"i_long":106.850107,"station_name":"Gang Sentiong","line":11,"station_id":"GST","distance":1567},{"i_lat":-6.193792,"distance":973,"is_transit":false,"line":11,"station_id":"KMT","station_name":"Kramat","i_long":106.855437,"transit":false,"time":1},{"transit":false,"i_long":106.861737,"station_name":"Pondok Jati","time":2,"line":11,"station_id":"POK","is_transit":false,"i_lat":-6.209188,"distance":1829},{"is_transit":true,"station_id":"JNG","transit":true,"i_lat":-6.215091,"i_long":106.86807400000001,"distance":1236,"station_name":"Jatinegara","time":9,"line":0},{"distance":1377,"transit":false,"station_name":"Matraman","time":2,"i_lat":-6.212485,"is_transit":false,"i_long":106.858896,"line":1,"station_id":"MTR"},{"i_long":106.84912,"station_id":"MRI","station_name":"Manggarai","time":2,"distance":1275,"line":0,"is_transit":true,"i_lat":-6.209883,"transit":true},{"time":4,"is_transit":false,"line":2,"distance":2610,"i_long":106.857948,"i_lat":-6.226659,"station_id":"TEB","station_name":"Tebet","transit":false},{"station_name":"Cawang","line":0,"is_transit":false,"distance":1230,"time":2,"i_lat":-6.242512,"i_long":106.856607,"transit":false,"station_id":"CW"},{"distance":1546,"station_name":"Duren Kalibata","line":0,"station_id":"DRN","i_long":106.85449,"transit":false,"i_lat":-6.255332,"time":3,"is_transit":false},{"line":2,"time":2,"station_id":"PSMB","station_name":"Pasar Minggu Baru","distance":824,"transit":false,"i_lat":-6.263214,"i_long":106.851577,"is_transit":false},{"i_long":106.843999,"is_transit":false,"time":2,"station_name":"Pasar Minggu","distance":2380,"line":2,"station_id":"PSM","transit":false,"i_lat":-6.2842400000000005},{"i_lat":-6.3080680000000005,"station_id":"TNT","is_transit":false,"line":2,"distance":2820,"station_name":"Tanjung Barat","transit":false,"i_long":106.838896,"time":4},{"is_transit":false,"transit":false,"i_long":106.832616,"i_lat":-6.330363,"station_id":"LNA","station_name":"Lenteng Agung","distance":2671,"time":3,"line":2},{"station_name":"Univ. Pancasila","i_long":106.834175,"distance":1029,"is_transit":false,"transit":false,"i_lat":-6.339291,"station_id":"UP","time":2,"line":2},{"time":3,"transit":false,"distance":2264,"station_id":"UI","i_long":106.831474,"i_lat":-6.360749,"line":2,"station_name":"Univ. Indonesia","is_transit":false},{"station_id":"POC","is_transit":false,"time":2,"i_lat":-6.369073,"line":2,"i_long":106.831114,"station_name":"Pondok Cina","distance":1109,"transit":false},{"time":4,"i_long":106.819451,"line":0,"distance":2727,"station_id":"DPB","station_name":"Depokbaru","is_transit":false,"i_lat":-6.391065,"transit":false},{"distance":1584,"time":3,"i_long":106.816926,"station_id":"DP","station_name":"Depok","i_lat":-6.405256,"transit":false,"line":0,"is_transit":false}]]}