{"data":[[{"i_lat":-6.161433,"distance":0,"line":5,"time":0,"station_id":"PSG","i_long":106.771379,"transit":false,"station_name":"Pesing","is_transit":false},{"station_id":"GGL","is_transit":false,"i_lat":-6.162021,"station_name":"Grogol","distance":2036,"line":5,"time":2,"transit":false,"i_long":106.788277},{"station_name":"Duri","i_long":106.800832,"line":1,"transit":true,"is_transit":true,"distance":1700,"time":3,"i_lat":-6.155215,"station_id":"DU"},{"i_lat":-6.185545,"i_long":106.811091,"line":1,"time":8,"station_name":"Tanah Abang","distance":3632,"is_transit":false,"transit":false,"station_id":"THB"},{"i_long":106.816351,"distance":2029,"station_name":"Karet","is_transit":false,"i_lat":-6.20132,"transit":false,"station_id":"KAT","line":1,"time":5},{"distance":471,"station_id":"SUDB","i_long":106.819881,"transit":false,"line":1,"is_transit":false,"station_name":"Sudirman Baru","time":1,"i_lat":-6.201433},{"line":1,"time":1,"station_name":"Sudirman","is_transit":false,"distance":280,"station_id":"SUD","transit":false,"i_lat":-6.202263,"i_long":106.822649},{"station_name":"Manggarai","time":4,"line":2,"station_id":"MRI","i_long":106.84912,"is_transit":true,"distance":3186,"i_lat":-6.209883,"transit":true},{"i_long":106.857948,"time":4,"station_id":"TEB","distance":2610,"i_lat":-6.226659,"line":2,"station_name":"Tebet","is_transit":false,"transit":false},{"i_long":106.856607,"station_name":"Cawang","is_transit":false,"distance":1230,"station_id":"CW","i_lat":-6.242512,"line":2,"transit":false,"time":2},{"i_long":106.85449,"line":2,"i_lat":-6.255332,"distance":1546,"time":3,"is_transit":false,"station_name":"Duren Kalibata","station_id":"DRN","transit":false},{"time":2,"transit":false,"is_transit":false,"i_lat":-6.263214,"station_id":"PSMB","station_name":"Pasar Minggu Baru","distance":824,"i_long":106.851577,"line":2},{"distance":2380,"time":2,"is_transit":false,"line":2,"i_long":106.843999,"station_id":"PSM","transit":false,"station_name":"Pasar Minggu","i_lat":-6.2842400000000005},{"station_name":"Tanjung Barat","time":4,"is_transit":false,"line":2,"i_lat":-6.3080680000000005,"station_id":"TNT","transit":false,"distance":2820,"i_long":106.838896},{"line":2,"time":3,"is_transit":false,"transit":false,"i_long":106.832616,"station_name":"Lenteng Agung","station_id":"LNA","distance":2671,"i_lat":-6.330363},{"transit":false,"i_long":106.834175,"time":2,"distance":1029,"line":2,"i_lat":-6.339291,"station_name":"Univ. Pancasila","station_id":"UP","is_transit":false},{"station_name":"Univ. Indonesia","is_transit":false,"line":2,"station_id":"UI","i_long":106.831474,"time":3,"i_lat":-6.360749,"distance":2264,"transit":false},{"time":2,"station_id":"POC","i_long":106.831114,"transit":false,"distance":1109,"is_transit":false,"i_lat":-6.369073,"station_name":"Pondok Cina","line":2},{"i_long":106.819451,"time":4,"i_lat":-6.391065,"station_id":"DPB","is_transit":false,"transit":false,"station_name":"Depokbaru","line":2,"distance":2727},{"transit":false,"time":3,"distance":1584,"i_lat":-6.405256,"is_transit":false,"i_long":106.816926,"station_name":"Depok","station_id":"DP","line":2},{"station_id":"CTA","is_transit":false,"time":6,"distance":5084,"transit":false,"station_name":"Citayam","i_long":106.800298,"line":2,"i_lat":-6.448811},{"is_transit":false,"line":2,"distance":5197,"transit":false,"time":5,"station_name":"Bojonggede","station_id":"BJD","i_long":106.792719,"i_lat":-6.493243},{"transit":false,"station_id":"CLT","i_long":106.800016,"station_name":"Cilebut","distance":4331,"time":5,"line":2,"is_transit":false,"i_lat":-6.530544},{"station_name":"Bogor","station_id":"BOO","distance":7514,"line":2,"is_transit":false,"transit":false,"i_lat":-6.594596,"i_long":106.790574,"time":9}],[{"transit":false,"i_long":106.771379,"station_id":"PSG","time":0,"distance":0,"is_transit":false,"station_name":"Pesing","i_lat":-6.161433,"line":5},{"station_id":"GGL","i_lat":-6.162021,"station_name":"Grogol","i_long":106.788277,"distance":2036,"line":5,"is_transit":false,"time":2,"transit":false},{"i_lat":-6.155215,"time":3,"distance":1700,"i_long":106.800832,"transit":true,"is_transit":true,"station_name":"Duri","line":1,"station_id":"DU"},{"station_id":"AK","i_lat":-6.144674,"distance":1230,"transit":false,"station_name":"Angke","i_long":106.79867,"line":1,"is_transit":false,"time":4},{"distance":4102,"line":4,"station_id":"KPB","i_lat":-6.132549,"i_long":106.826365,"transit":true,"station_name":"Kampung Bandan","time":9,"is_transit":true},{"transit":true,"i_lat":-6.137569,"line":2,"distance":1364,"station_name":"Jakarta Kota","time":3,"is_transit":true,"station_id":"JAKK","i_long":106.812439},{"i_long":106.820901,"line":2,"time":4,"i_lat":-6.141205,"station_name":"Jayakarta","distance":1264,"station_id":"JAY","is_transit":false,"transit":false},{"i_lat":-6.149769,"station_id":"MGB","line":2,"time":2,"is_transit":false,"distance":1080,"i_long":106.82482,"transit":false,"station_name":"Manggabesar"},{"time":2,"distance":906,"station_name":"Sawah Besar","station_id":"SW","is_transit":false,"i_long":106.827103,"line":2,"transit":false,"i_lat":-6.160725},{"time":2,"line":2,"station_name":"Juanda","is_transit":false,"station_id":"JUA","distance":1149,"transit":false,"i_lat":-6.166716,"i_long":106.828284},{"transit":false,"station_id":"GDD","i_long":106.832183,"distance":2015,"station_name":"Gondangdia","time":4,"line":2,"i_lat":-6.186295,"is_transit":false},{"transit":false,"is_transit":false,"station_name":"Cikini","station_id":"CKI","i_lat":-6.198556,"i_long":106.840169,"line":2,"time":3,"distance":1750},{"station_name":"Manggarai","transit":false,"i_lat":-6.209883,"station_id":"MRI","is_transit":false,"i_long":106.84912,"distance":1590,"line":2,"time":4},{"i_long":106.857948,"transit":false,"distance":2610,"time":4,"i_lat":-6.226659,"line":2,"station_name":"Tebet","station_id":"TEB","is_transit":false},{"line":2,"i_lat":-6.242512,"station_name":"Cawang","distance":1230,"transit":false,"station_id":"CW","time":2,"is_transit":false,"i_long":106.856607},{"is_transit":false,"station_name":"Duren Kalibata","transit":false,"i_long":106.85449,"distance":1546,"station_id":"DRN","i_lat":-6.255332,"time":3,"line":2},{"time":2,"station_id":"PSMB","i_long":106.851577,"is_transit":false,"i_lat":-6.263214,"station_name":"Pasar Minggu Baru","transit":false,"line":2,"distance":824},{"distance":2380,"station_name":"Pasar Minggu","i_long":106.843999,"line":2,"is_transit":false,"time":2,"i_lat":-6.2842400000000005,"transit":false,"station_id":"PSM"},{"is_transit":false,"i_lat":-6.3080680000000005,"distance":2820,"station_id":"TNT","time":4,"transit":false,"i_long":106.838896,"line":2,"station_name":"Tanjung Barat"},{"time":3,"station_id":"LNA","transit":false,"i_lat":-6.330363,"station_name":"Lenteng Agung","i_long":106.832616,"distance":2671,"line":2,"is_transit":false},{"distance":1029,"line":2,"transit":false,"i_long":106.834175,"is_transit":false,"station_id":"UP","station_name":"Univ. Pancasila","time":2,"i_lat":-6.339291},{"is_transit":false,"station_id":"UI","i_lat":-6.360749,"distance":2264,"station_name":"Univ. Indonesia","i_long":106.831474,"time":3,"line":2,"transit":false},{"distance":1109,"station_name":"Pondok Cina","i_long":106.831114,"is_transit":false,"station_id":"POC","transit":false,"line":2,"time":2,"i_lat":-6.369073},{"is_transit":false,"station_id":"DPB","transit":false,"i_lat":-6.391065,"distance":2727,"station_name":"Depokbaru","line":2,"time":4,"i_long":106.819451},{"line":2,"is_transit":false,"i_lat":-6.405256,"transit":false,"station_name":"Depok","i_long":106.816926,"station_id":"DP","distance":1584,"time":3},{"distance":5084,"time":6,"station_id":"CTA","station_name":"Citayam","line":2,"i_lat":-6.448811,"is_transit":false,"i_long":106.800298,"transit":false},{"time":5,"station_name":"Bojonggede","i_long":106.792719,"line":2,"distance":5197,"is_transit":false,"transit":false,"i_lat":-6.493243,"station_id":"BJD"},{"is_transit":false,"distance":4331,"time":5,"line":2,"i_long":106.800016,"station_name":"Cilebut","station_id":"CLT","transit":false,"i_lat":-6.530544},{"is_transit":false,"station_id":"BOO","station_name":"Bogor","i_lat":-6.594596,"i_long":106.790574,"distance":7514,"time":9,"line":2,"transit":false}],[{"distance":0,"i_lat":-6.161433,"time":0,"transit":false,"i_long":106.771379,"line":5,"station_name":"Pesing","station_id":"PSG","is_transit":false},{"time":2,"transit":false,"station_id":"GGL","station_name":"Grogol","i_lat":-6.162021,"i_long":106.788277,"line":5,"is_transit":false,"distance":2036},{"i_long":106.800832,"line":1,"is_transit":true,"transit":true,"time":3,"station_name":"Duri","distance":1700,"station_id":"DU","i_lat":-6.155215},{"i_long":106.79867,"time":4,"transit":false,"station_name":"Angke","is_transit":false,"i_lat":-6.144674,"line":1,"distance":1230,"station_id":"AK"},{"time":9,"line":4,"i_long":106.826365,"is_transit":true,"station_id":"KPB","station_name":"Kampung Bandan","i_lat":-6.132549,"distance":4102,"transit":true},{"is_transit":false,"line":11,"transit":false,"distance":1444,"station_name":"Rajawali","i_long":106.836569,"i_lat":-6.14505,"time":3,"station_id":"RJW"},{"distance":1901,"time":5,"station_id":"KMO","line":11,"is_transit":false,"i_long":106.839204,"i_lat":-6.161728,"station_name":"Kemayoran","transit":false},{"distance":1436,"station_id":"PSE","time":4,"is_transit":false,"i_long":106.84368,"line":11,"station_name":"Pasar Senen","transit":false,"i_lat":-6.174784},{"time":8,"station_name":"Gang Sentiong","station_id":"GST","i_long":106.850107,"is_transit":false,"transit":false,"line":11,"distance":1567,"i_lat":-6.185975},{"station_id":"KMT","station_name":"Kramat","i_lat":-6.193792,"time":1,"is_transit":false,"distance":973,"transit":false,"i_long":106.855437,"line":11},{"i_lat":-6.209188,"transit":false,"i_long":106.861737,"distance":1829,"station_id":"POK","line":11,"is_transit":false,"time":2,"station_name":"Pondok Jati"},{"station_name":"Jatinegara","line":1,"i_lat":-6.215091,"transit":true,"distance":1236,"station_id":"JNG","is_transit":true,"time":9,"i_long":106.86807400000001},{"time":2,"distance":1377,"station_id":"MTR","i_lat":-6.212485,"line":1,"station_name":"Matraman","transit":false,"is_transit":false,"i_long":106.858896},{"station_id":"MRI","i_lat":-6.209883,"line":2,"distance":1275,"is_transit":true,"transit":true,"time":2,"i_long":106.84912,"station_name":"Manggarai"},{"distance":2610,"time":4,"station_id":"TEB","i_long":106.857948,"line":2,"transit":false,"is_transit":false,"station_name":"Tebet","i_lat":-6.226659},{"i_lat":-6.242512,"i_long":106.856607,"line":2,"station_id":"CW","transit":false,"is_transit":false,"distance":1230,"time":2,"station_name":"Cawang"},{"transit":false,"i_lat":-6.255332,"station_name":"Duren Kalibata","distance":1546,"station_id":"DRN","i_long":106.85449,"time":3,"line":2,"is_transit":false},{"time":2,"is_transit":false,"line":2,"transit":false,"i_long":106.851577,"station_id":"PSMB","i_lat":-6.263214,"station_name":"Pasar Minggu Baru","distance":824},{"i_long":106.843999,"line":2,"distance":2380,"station_name":"Pasar Minggu","i_lat":-6.2842400000000005,"transit":false,"is_transit":false,"station_id":"PSM","time":2},{"is_transit":false,"station_id":"TNT","time":4,"station_name":"Tanjung Barat","line":2,"transit":false,"distance":2820,"i_long":106.838896,"i_lat":-6.3080680000000005},{"i_lat":-6.330363,"time":3,"distance":2671,"station_name":"Lenteng Agung","is_transit":false,"transit":false,"i_long":106.832616,"station_id":"LNA","line":2},{"is_transit":false,"i_lat":-6.339291,"time":2,"station_name":"Univ. Pancasila","transit":false,"line":2,"i_long":106.834175,"station_id":"UP","distance":1029},{"station_name":"Univ. Indonesia","is_transit":false,"distance":2264,"i_lat":-6.360749,"time":3,"station_id":"UI","i_long":106.831474,"line":2,"transit":false},{"i_long":106.831114,"i_lat":-6.369073,"line":2,"station_id":"POC","is_transit":false,"distance":1109,"time":2,"transit":false,"station_name":"Pondok Cina"},{"time":4,"i_lat":-6.391065,"is_transit":false,"transit":false,"line":2,"station_name":"Depokbaru","distance":2727,"station_id":"DPB","i_long":106.819451},{"i_long":106.816926,"time":3,"i_lat":-6.405256,"distance":1584,"is_transit":false,"station_name":"Depok","transit":false,"line":2,"station_id":"DP"},{"is_transit":false,"station_id":"CTA","i_lat":-6.448811,"transit":false,"time":6,"station_name":"Citayam","i_long":106.800298,"line":2,"distance":5084},{"is_transit":false,"line":2,"station_id":"BJD","station_name":"Bojonggede","i_long":106.792719,"distance":5197,"time":5,"transit":false,"i_lat":-6.493243},{"transit":false,"time":5,"i_long":106.800016,"station_name":"Cilebut","station_id":"CLT","line":2,"i_lat":-6.530544,"is_transit":false,"distance":4331},{"station_name":"Bogor","i_long":106.790574,"distance":7514,"is_transit":false,"station_id":"BOO","i_lat":-6.594596,"transit":false,"line":2,"time":9}]]}