{"data":[[{"time":0,"line":5,"station_id":"PSG","i_lat":-6.161433,"distance":0,"i_long":106.771379,"is_transit":false,"transit":false,"station_name":"Pesing"},{"time":2,"is_transit":false,"i_lat":-6.162021,"transit":false,"station_name":"Grogol","i_long":106.788277,"station_id":"GGL","distance":2036,"line":5},{"time":3,"station_id":"DU","i_long":106.800832,"distance":1700,"i_lat":-6.155215,"transit":true,"is_transit":true,"station_name":"Duri","line":1},{"time":8,"distance":3632,"is_transit":false,"i_long":106.811091,"line":1,"transit":false,"station_id":"THB","station_name":"Tanah Abang","i_lat":-6.185545},{"i_lat":-6.20132,"line":1,"i_long":106.816351,"distance":2029,"station_id":"KAT","time":5,"transit":false,"station_name":"Karet","is_transit":false},{"line":1,"distance":471,"time":1,"station_id":"SUDB","transit":false,"i_lat":-6.201433,"i_long":106.819881,"is_transit":false,"station_name":"Sudirman Baru"},{"station_name":"Sudirman","i_long":106.822649,"line":1,"time":1,"station_id":"SUD","is_transit":false,"transit":false,"i_lat":-6.202263,"distance":280},{"transit":false,"i_lat":-6.209883,"station_name":"Manggarai","time":4,"station_id":"MRI","is_transit":false,"line":2,"distance":3186,"i_long":106.84912},{"distance":1275,"transit":false,"line":1,"i_lat":-6.212485,"station_id":"MTR","is_transit":false,"station_name":"Matraman","time":2,"i_long":106.858896},{"transit":false,"i_long":106.86807400000001,"distance":1377,"is_transit":false,"station_name":"Jatinegara","station_id":"JNG","i_lat":-6.215091,"line":1,"time":8},{"distance":3395,"transit":false,"station_id":"KLD","time":3,"line":1,"is_transit":false,"station_name":"Klender","i_lat":-6.2135,"i_long":106.899548},{"line":1,"station_id":"BUA","transit":false,"time":2,"distance":3100,"is_transit":false,"station_name":"Buaran","i_lat":-6.215568,"i_long":106.922662},{"i_long":106.939679,"line":1,"station_id":"KLDB","i_lat":-6.217455,"time":1,"transit":false,"station_name":"Klenderbaru","distance":1305,"is_transit":false},{"station_name":"Cakung","transit":false,"time":8,"line":1,"station_id":"CUK","is_transit":false,"i_lat":-6.219053,"i_long":106.951283,"distance":1385}],[{"i_lat":-6.161433,"station_id":"PSG","is_transit":false,"station_name":"Pesing","line":5,"distance":0,"transit":false,"i_long":106.771379,"time":0},{"station_id":"GGL","i_long":106.788277,"time":2,"distance":2036,"transit":false,"is_transit":false,"station_name":"Grogol","i_lat":-6.162021,"line":5},{"is_transit":true,"station_name":"Duri","line":1,"i_long":106.800832,"time":3,"i_lat":-6.155215,"distance":1700,"transit":true,"station_id":"DU"},{"distance":1230,"is_transit":false,"line":1,"transit":false,"i_lat":-6.144674,"time":4,"i_long":106.79867,"station_name":"Angke","station_id":"AK"},{"station_name":"Kampung Bandan","i_lat":-6.132549,"line":4,"station_id":"KPB","transit":true,"i_long":106.826365,"time":9,"is_transit":true,"distance":4102},{"time":3,"distance":1444,"station_id":"RJW","is_transit":false,"station_name":"Rajawali","transit":false,"i_lat":-6.14505,"line":11,"i_long":106.836569},{"station_name":"Kemayoran","station_id":"KMO","distance":1901,"i_lat":-6.161728,"i_long":106.839204,"line":11,"is_transit":false,"transit":false,"time":5},{"station_name":"Pasar Senen","i_long":106.84368,"station_id":"PSE","time":4,"i_lat":-6.174784,"distance":1436,"is_transit":false,"line":11,"transit":false},{"i_lat":-6.185975,"transit":false,"is_transit":false,"station_id":"GST","distance":1567,"line":11,"station_name":"Gang Sentiong","i_long":106.850107,"time":8},{"distance":973,"time":1,"line":11,"i_lat":-6.193792,"i_long":106.855437,"station_id":"KMT","is_transit":false,"station_name":"Kramat","transit":false},{"i_lat":-6.209188,"line":11,"i_long":106.861737,"station_name":"Pondok Jati","station_id":"POK","transit":false,"time":2,"distance":1829,"is_transit":false},{"line":1,"station_id":"JNG","transit":true,"station_name":"Jatinegara","time":9,"distance":1236,"is_transit":true,"i_lat":-6.215091,"i_long":106.86807400000001},{"station_id":"KLD","transit":false,"distance":3395,"line":1,"i_lat":-6.2135,"station_name":"Klender","is_transit":false,"time":3,"i_long":106.899548},{"time":2,"distance":3100,"is_transit":false,"station_id":"BUA","transit":false,"station_name":"Buaran","i_lat":-6.215568,"i_long":106.922662,"line":1},{"transit":false,"i_long":106.939679,"station_name":"Klenderbaru","distance":1305,"i_lat":-6.217455,"line":1,"time":1,"station_id":"KLDB","is_transit":false},{"transit":false,"station_id":"CUK","i_long":106.951283,"line":1,"time":8,"is_transit":false,"distance":1385,"station_name":"Cakung","i_lat":-6.219053}],[{"transit":false,"station_name":"Pesing","line":5,"is_transit":false,"distance":0,"i_lat":-6.161433,"time":0,"station_id":"PSG","i_long":106.771379},{"station_name":"Grogol","time":2,"i_lat":-6.162021,"station_id":"GGL","distance":2036,"is_transit":false,"line":5,"i_long":106.788277,"transit":false},{"station_name":"Duri","time":3,"is_transit":true,"i_lat":-6.155215,"line":1,"i_long":106.800832,"station_id":"DU","distance":1700,"transit":true},{"is_transit":false,"station_name":"Angke","i_long":106.79867,"i_lat":-6.144674,"line":1,"distance":1230,"time":4,"transit":false,"station_id":"AK"},{"distance":4102,"station_id":"KPB","is_transit":true,"i_long":106.826365,"station_name":"Kampung Bandan","i_lat":-6.132549,"transit":true,"time":9,"line":4},{"transit":true,"station_name":"Jakarta Kota","time":3,"station_id":"JAKK","i_lat":-6.137569,"line":2,"i_long":106.812439,"distance":1364,"is_transit":true},{"distance":1264,"time":4,"station_id":"JAY","transit":false,"station_name":"Jayakarta","is_transit":false,"i_long":106.820901,"line":2,"i_lat":-6.141205},{"is_transit":false,"station_name":"Manggabesar","station_id":"MGB","line":2,"i_lat":-6.149769,"time":2,"distance":1080,"transit":false,"i_long":106.82482},{"i_long":106.827103,"is_transit":false,"line":2,"transit":false,"station_id":"SW","i_lat":-6.160725,"distance":906,"time":2,"station_name":"Sawah Besar"},{"time":2,"transit":false,"line":2,"is_transit":false,"station_id":"JUA","i_lat":-6.166716,"station_name":"Juanda","i_long":106.828284,"distance":1149},{"station_id":"GDD","distance":2015,"i_lat":-6.186295,"transit":false,"is_transit":false,"time":4,"station_name":"Gondangdia","line":2,"i_long":106.832183},{"station_name":"Cikini","transit":false,"station_id":"CKI","i_lat":-6.198556,"distance":1750,"time":3,"line":2,"i_long":106.840169,"is_transit":false},{"station_name":"Manggarai","distance":1590,"line":2,"time":4,"station_id":"MRI","transit":true,"i_lat":-6.209883,"is_transit":true,"i_long":106.84912},{"station_name":"Matraman","line":1,"i_lat":-6.212485,"distance":1275,"transit":false,"station_id":"MTR","i_long":106.858896,"is_transit":false,"time":2},{"i_lat":-6.215091,"distance":1377,"station_name":"Jatinegara","is_transit":false,"station_id":"JNG","transit":false,"time":8,"line":1,"i_long":106.86807400000001},{"is_transit":false,"station_name":"Klender","station_id":"KLD","i_lat":-6.2135,"time":3,"distance":3395,"transit":false,"i_long":106.899548,"line":1},{"transit":false,"i_lat":-6.215568,"i_long":106.922662,"distance":3100,"time":2,"station_id":"BUA","is_transit":false,"station_name":"Buaran","line":1},{"station_name":"Klenderbaru","time":1,"station_id":"KLDB","transit":false,"i_long":106.939679,"line":1,"distance":1305,"is_transit":false,"i_lat":-6.217455},{"transit":false,"line":1,"i_long":106.951283,"i_lat":-6.219053,"distance":1385,"is_transit":false,"station_name":"Cakung","time":8,"station_id":"CUK"}],[{"station_name":"Pesing","station_id":"PSG","distance":0,"i_lat":-6.161433,"line":5,"transit":false,"i_long":106.771379,"is_transit":false,"time":0},{"line":5,"i_long":106.788277,"distance":2036,"i_lat":-6.162021,"time":2,"station_id":"GGL","transit":false,"station_name":"Grogol","is_transit":false},{"distance":1700,"i_lat":-6.155215,"time":3,"i_long":106.800832,"is_transit":true,"station_name":"Duri","station_id":"DU","transit":true,"line":1},{"transit":false,"station_name":"Tanah Abang","i_lat":-6.185545,"i_long":106.811091,"line":1,"time":8,"is_transit":false,"station_id":"THB","distance":3632},{"distance":2029,"time":5,"station_id":"KAT","transit":false,"is_transit":false,"line":1,"station_name":"Karet","i_long":106.816351,"i_lat":-6.20132},{"transit":false,"time":1,"i_long":106.819881,"line":1,"i_lat":-6.201433,"is_transit":false,"distance":471,"station_id":"SUDB","station_name":"Sudirman Baru"},{"line":1,"station_id":"SUD","is_transit":false,"time":1,"transit":false,"i_long":106.822649,"distance":280,"i_lat":-6.202263,"station_name":"Sudirman"},{"i_long":106.84912,"i_lat":-6.209883,"station_name":"Manggarai","line":2,"transit":true,"distance":3186,"time":4,"station_id":"MRI","is_transit":true},{"station_name":"Cikini","is_transit":false,"i_long":106.840169,"i_lat":-6.198556,"station_id":"CKI","distance":1590,"transit":false,"time":4,"line":2},{"transit":false,"line":2,"station_name":"Gondangdia","time":3,"distance":1750,"is_transit":false,"i_lat":-6.186295,"station_id":"GDD","i_long":106.832183},{"station_name":"Juanda","transit":false,"i_lat":-6.166716,"line":2,"time":4,"station_id":"JUA","distance":2015,"is_transit":false,"i_long":106.828284},{"station_id":"SW","time":2,"station_name":"Sawah Besar","is_transit":false,"distance":1149,"i_long":106.827103,"transit":false,"i_lat":-6.160725,"line":2},{"is_transit":false,"station_name":"Manggabesar","i_lat":-6.149769,"distance":906,"transit":false,"time":2,"i_long":106.82482,"station_id":"MGB","line":2},{"time":2,"station_id":"JAY","transit":false,"line":2,"distance":1080,"i_lat":-6.141205,"i_long":106.820901,"station_name":"Jayakarta","is_transit":false},{"line":2,"i_long":106.812439,"time":4,"station_id":"JAKK","transit":true,"distance":1264,"i_lat":-6.137569,"station_name":"Jakarta Kota","is_transit":true},{"i_long":106.826365,"i_lat":-6.132549,"station_name":"Kampung Bandan","transit":true,"line":4,"time":3,"station_id":"KPB","is_transit":true,"distance":1364},{"station_name":"Rajawali","transit":false,"station_id":"RJW","time":3,"i_lat":-6.14505,"distance":1444,"is_transit":false,"i_long":106.836569,"line":11},{"time":5,"transit":false,"station_name":"Kemayoran","i_lat":-6.161728,"is_transit":false,"station_id":"KMO","distance":1901,"i_long":106.839204,"line":11},{"line":11,"i_long":106.84368,"time":4,"transit":false,"is_transit":false,"station_name":"Pasar Senen","distance":1436,"i_lat":-6.174784,"station_id":"PSE"},{"transit":false,"station_name":"Gang Sentiong","station_id":"GST","distance":1567,"is_transit":false,"time":8,"line":11,"i_lat":-6.185975,"i_long":106.850107},{"i_lat":-6.193792,"transit":false,"distance":973,"line":11,"station_name":"Kramat","time":1,"station_id":"KMT","i_long":106.855437,"is_transit":false},{"time":2,"i_lat":-6.209188,"distance":1829,"station_name":"Pondok Jati","transit":false,"is_transit":false,"station_id":"POK","line":11,"i_long":106.861737},{"i_lat":-6.215091,"is_transit":true,"station_id":"JNG","transit":true,"time":9,"station_name":"Jatinegara","line":1,"distance":1236,"i_long":106.86807400000001},{"station_name":"Klender","i_long":106.899548,"transit":false,"is_transit":false,"time":3,"distance":3395,"line":1,"station_id":"KLD","i_lat":-6.2135},{"transit":false,"distance":3100,"i_lat":-6.215568,"station_id":"BUA","time":2,"i_long":106.922662,"station_name":"Buaran","is_transit":false,"line":1},{"is_transit":false,"station_name":"Klenderbaru","time":1,"station_id":"KLDB","line":1,"i_long":106.939679,"transit":false,"i_lat":-6.217455,"distance":1305},{"i_lat":-6.219053,"is_transit":false,"station_name":"Cakung","time":8,"station_id":"CUK","i_long":106.951283,"line":1,"distance":1385,"transit":false}]]}