{"data":[[{"station_name":"Pesing","i_long":106.771379,"is_transit":false,"station_id":"PSG","distance":0,"line":5,"i_lat":-6.161433,"transit":false,"time":0},{"i_long":106.788277,"time":2,"line":5,"station_id":"GGL","transit":false,"is_transit":false,"distance":2036,"station_name":"Grogol","i_lat":-6.162021},{"is_transit":true,"distance":1700,"station_id":"DU","line":1,"i_long":106.800832,"time":3,"i_lat":-6.155215,"transit":true,"station_name":"Duri"},{"transit":true,"time":8,"i_long":106.811091,"i_lat":-6.185545,"is_transit":true,"distance":3632,"station_name":"Tanah Abang","station_id":"THB","line":1},{"i_long":106.79689,"i_lat":-6.207404,"time":6,"line":6,"transit":false,"station_name":"Palmerah","is_transit":false,"distance":3191,"station_id":"PLM"},{"station_name":"Kebayoran","i_lat":-6.237242,"is_transit":false,"distance":3737,"transit":false,"station_id":"KBY","line":6,"i_long":106.780334,"time":7},{"station_name":"Pondokranji","station_id":"PDJ","distance":6218,"time":8,"line":6,"i_long":106.74273,"i_lat":-6.276362,"is_transit":false,"transit":false},{"time":3,"distance":2179,"station_id":"JMU","is_transit":false,"i_lat":-6.288927,"i_long":106.728916,"line":6,"transit":false,"station_name":"Jurangmangu"},{"time":4,"is_transit":false,"i_lat":-6.296963,"distance":1994,"station_id":"SDM","i_long":106.712277,"station_name":"Sudimara","line":6,"transit":false},{"i_long":106.675475,"station_name":"Rawa Buntu","line":6,"transit":false,"is_transit":false,"station_id":"RU","distance":4566,"time":6,"i_lat":-6.314823},{"transit":false,"station_id":"SRP","is_transit":false,"time":4,"distance":2413,"i_lat":-6.319871,"i_long":106.66566,"station_name":"Serpong","line":6},{"i_long":106.640411,"transit":false,"station_name":"Cisauk","station_id":"CSK","is_transit":false,"distance":1784,"time":4,"i_lat":-6.32484,"line":3},{"transit":false,"station_id":"CC","station_name":"Cicayur","i_lat":-6.329547,"is_transit":false,"distance":2519,"line":3,"i_long":106.617853,"time":4},{"station_id":"PRP","i_long":106.568863,"is_transit":false,"distance":5968,"transit":false,"i_lat":-6.3441410000000005,"line":6,"station_name":"Parung Panjang","time":8},{"i_long":106.508482,"distance":7025,"line":3,"transit":false,"i_lat":-6.354349,"station_name":"Cilejit","station_id":"CJT","is_transit":false,"time":9},{"station_id":"DAR","distance":2675,"line":0,"i_lat":-6.338021,"transit":false,"is_transit":false,"station_name":"Daru","i_long":106.491338,"time":6},{"i_lat":-6.327251,"i_long":106.460812,"distance":3902,"is_transit":false,"line":6,"station_name":"Tenjo","station_id":"TEJ","transit":false,"time":5}],[{"station_name":"Pesing","time":0,"distance":0,"i_lat":-6.161433,"i_long":106.771379,"line":5,"station_id":"PSG","transit":false,"is_transit":false},{"station_id":"GGL","is_transit":false,"station_name":"Grogol","transit":false,"time":2,"distance":2036,"i_lat":-6.162021,"i_long":106.788277,"line":5},{"i_lat":-6.155215,"station_name":"Duri","i_long":106.800832,"line":1,"distance":1700,"transit":true,"station_id":"DU","is_transit":true,"time":3},{"is_transit":false,"time":4,"i_lat":-6.144674,"station_id":"AK","transit":false,"station_name":"Angke","distance":1230,"i_long":106.79867,"line":1},{"station_id":"KPB","line":4,"time":9,"i_lat":-6.132549,"distance":4102,"station_name":"Kampung Bandan","i_long":106.826365,"transit":true,"is_transit":true},{"time":3,"is_transit":true,"i_long":106.812439,"transit":true,"i_lat":-6.137569,"station_name":"Jakarta Kota","station_id":"JAKK","distance":1364,"line":2},{"distance":1264,"line":2,"station_name":"Jayakarta","i_long":106.820901,"is_transit":false,"time":4,"transit":false,"station_id":"JAY","i_lat":-6.141205},{"line":2,"is_transit":false,"time":2,"station_id":"MGB","distance":1080,"station_name":"Manggabesar","transit":false,"i_lat":-6.149769,"i_long":106.82482},{"line":2,"station_id":"SW","distance":906,"is_transit":false,"i_lat":-6.160725,"i_long":106.827103,"transit":false,"time":2,"station_name":"Sawah Besar"},{"distance":1149,"transit":false,"station_name":"Juanda","station_id":"JUA","is_transit":false,"i_lat":-6.166716,"i_long":106.828284,"line":2,"time":2},{"line":2,"i_lat":-6.186295,"i_long":106.832183,"distance":2015,"station_id":"GDD","transit":false,"station_name":"Gondangdia","is_transit":false,"time":4},{"station_name":"Cikini","time":3,"transit":false,"i_long":106.840169,"distance":1750,"is_transit":false,"i_lat":-6.198556,"station_id":"CKI","line":2},{"line":2,"i_long":106.84912,"station_id":"MRI","time":4,"transit":true,"is_transit":true,"station_name":"Manggarai","distance":1590,"i_lat":-6.209883},{"station_name":"Sudirman","i_long":106.822649,"transit":false,"station_id":"SUD","time":4,"is_transit":false,"line":1,"distance":3186,"i_lat":-6.202263},{"time":1,"transit":false,"i_lat":-6.201433,"line":1,"is_transit":false,"station_name":"Sudirman Baru","distance":280,"station_id":"SUDB","i_long":106.819881},{"station_name":"Karet","transit":false,"time":1,"line":1,"station_id":"KAT","distance":471,"is_transit":false,"i_lat":-6.20132,"i_long":106.816351},{"line":1,"station_name":"Tanah Abang","station_id":"THB","is_transit":true,"distance":2029,"time":5,"i_lat":-6.185545,"transit":true,"i_long":106.811091},{"i_long":106.79689,"line":6,"time":6,"distance":3191,"station_id":"PLM","i_lat":-6.207404,"is_transit":false,"transit":false,"station_name":"Palmerah"},{"station_id":"KBY","transit":false,"is_transit":false,"station_name":"Kebayoran","time":7,"distance":3737,"i_lat":-6.237242,"i_long":106.780334,"line":6},{"i_lat":-6.276362,"i_long":106.74273,"line":6,"distance":6218,"is_transit":false,"transit":false,"station_id":"PDJ","time":8,"station_name":"Pondokranji"},{"station_name":"Jurangmangu","time":3,"distance":2179,"station_id":"JMU","i_long":106.728916,"line":6,"i_lat":-6.288927,"transit":false,"is_transit":false},{"i_long":106.712277,"line":6,"i_lat":-6.296963,"station_id":"SDM","time":4,"is_transit":false,"distance":1994,"station_name":"Sudimara","transit":false},{"i_long":106.675475,"is_transit":false,"station_id":"RU","i_lat":-6.314823,"line":6,"distance":4566,"transit":false,"station_name":"Rawa Buntu","time":6},{"time":4,"station_name":"Serpong","i_long":106.66566,"station_id":"SRP","distance":2413,"is_transit":false,"line":6,"i_lat":-6.319871,"transit":false},{"time":4,"distance":1784,"station_id":"CSK","i_long":106.640411,"station_name":"Cisauk","transit":false,"i_lat":-6.32484,"is_transit":false,"line":3},{"transit":false,"is_transit":false,"station_name":"Cicayur","line":3,"time":4,"i_lat":-6.329547,"station_id":"CC","i_long":106.617853,"distance":2519},{"station_name":"Parung Panjang","i_lat":-6.3441410000000005,"time":8,"i_long":106.568863,"transit":false,"is_transit":false,"distance":5968,"line":6,"station_id":"PRP"},{"time":9,"is_transit":false,"i_long":106.508482,"i_lat":-6.354349,"station_name":"Cilejit","transit":false,"station_id":"CJT","distance":7025,"line":3},{"is_transit":false,"i_lat":-6.338021,"station_name":"Daru","distance":2675,"station_id":"DAR","transit":false,"i_long":106.491338,"line":0,"time":6},{"station_id":"TEJ","transit":false,"is_transit":false,"time":5,"line":6,"station_name":"Tenjo","i_long":106.460812,"distance":3902,"i_lat":-6.327251}],[{"time":0,"distance":0,"i_long":106.771379,"station_name":"Pesing","transit":false,"is_transit":false,"station_id":"PSG","i_lat":-6.161433,"line":5},{"distance":2036,"is_transit":false,"line":5,"station_name":"Grogol","transit":false,"station_id":"GGL","i_lat":-6.162021,"i_long":106.788277,"time":2},{"station_id":"DU","line":1,"i_lat":-6.155215,"distance":1700,"time":3,"station_name":"Duri","transit":true,"is_transit":true,"i_long":106.800832},{"i_long":106.79867,"station_name":"Angke","is_transit":false,"line":1,"station_id":"AK","i_lat":-6.144674,"transit":false,"distance":1230,"time":4},{"distance":4102,"line":4,"transit":true,"is_transit":true,"station_id":"KPB","station_name":"Kampung Bandan","i_lat":-6.132549,"i_long":106.826365,"time":9},{"is_transit":false,"transit":false,"time":3,"i_long":106.836569,"i_lat":-6.14505,"distance":1444,"line":11,"station_id":"RJW","station_name":"Rajawali"},{"i_lat":-6.161728,"line":11,"distance":1901,"is_transit":false,"time":5,"station_name":"Kemayoran","transit":false,"i_long":106.839204,"station_id":"KMO"},{"i_lat":-6.174784,"transit":false,"time":4,"line":11,"i_long":106.84368,"station_name":"Pasar Senen","is_transit":false,"station_id":"PSE","distance":1436},{"i_lat":-6.185975,"distance":1567,"i_long":106.850107,"station_id":"GST","line":11,"station_name":"Gang Sentiong","transit":false,"is_transit":false,"time":8},{"i_lat":-6.193792,"distance":973,"i_long":106.855437,"time":1,"line":11,"transit":false,"is_transit":false,"station_name":"Kramat","station_id":"KMT"},{"transit":false,"distance":1829,"time":2,"station_id":"POK","i_lat":-6.209188,"line":11,"i_long":106.861737,"station_name":"Pondok Jati","is_transit":false},{"line":1,"transit":true,"is_transit":true,"i_lat":-6.215091,"station_name":"Jatinegara","distance":1236,"time":9,"station_id":"JNG","i_long":106.86807400000001},{"i_lat":-6.212485,"distance":1377,"transit":false,"line":1,"station_name":"Matraman","i_long":106.858896,"station_id":"MTR","is_transit":false,"time":2},{"transit":false,"line":2,"time":2,"is_transit":false,"station_name":"Manggarai","station_id":"MRI","distance":1275,"i_long":106.84912,"i_lat":-6.209883},{"station_name":"Sudirman","transit":false,"distance":3186,"is_transit":false,"line":1,"i_lat":-6.202263,"i_long":106.822649,"time":4,"station_id":"SUD"},{"station_name":"Sudirman Baru","is_transit":false,"i_long":106.819881,"distance":280,"line":1,"time":1,"i_lat":-6.201433,"transit":false,"station_id":"SUDB"},{"transit":false,"station_id":"KAT","station_name":"Karet","distance":471,"time":1,"i_lat":-6.20132,"line":1,"i_long":106.816351,"is_transit":false},{"line":1,"i_long":106.811091,"station_name":"Tanah Abang","is_transit":true,"time":5,"transit":true,"i_lat":-6.185545,"distance":2029,"station_id":"THB"},{"i_long":106.79689,"is_transit":false,"line":6,"i_lat":-6.207404,"station_name":"Palmerah","distance":3191,"station_id":"PLM","transit":false,"time":6},{"station_id":"KBY","i_long":106.780334,"transit":false,"station_name":"Kebayoran","line":6,"time":7,"distance":3737,"is_transit":false,"i_lat":-6.237242},{"station_id":"PDJ","i_lat":-6.276362,"time":8,"i_long":106.74273,"transit":false,"station_name":"Pondokranji","is_transit":false,"line":6,"distance":6218},{"time":3,"transit":false,"i_lat":-6.288927,"is_transit":false,"station_id":"JMU","distance":2179,"station_name":"Jurangmangu","line":6,"i_long":106.728916},{"distance":1994,"transit":false,"is_transit":false,"i_long":106.712277,"station_id":"SDM","line":6,"station_name":"Sudimara","i_lat":-6.296963,"time":4},{"i_lat":-6.314823,"station_id":"RU","transit":false,"i_long":106.675475,"time":6,"line":6,"station_name":"Rawa Buntu","is_transit":false,"distance":4566},{"transit":false,"time":4,"distance":2413,"is_transit":false,"i_long":106.66566,"i_lat":-6.319871,"station_name":"Serpong","line":6,"station_id":"SRP"},{"is_transit":false,"transit":false,"time":4,"distance":1784,"station_name":"Cisauk","station_id":"CSK","i_long":106.640411,"i_lat":-6.32484,"line":3},{"distance":2519,"is_transit":false,"i_long":106.617853,"line":3,"i_lat":-6.329547,"time":4,"station_name":"Cicayur","station_id":"CC","transit":false},{"i_long":106.568863,"time":8,"station_id":"PRP","distance":5968,"station_name":"Parung Panjang","is_transit":false,"transit":false,"i_lat":-6.3441410000000005,"line":6},{"station_name":"Cilejit","i_lat":-6.354349,"station_id":"CJT","line":3,"time":9,"is_transit":false,"distance":7025,"transit":false,"i_long":106.508482},{"i_lat":-6.338021,"transit":false,"i_long":106.491338,"time":6,"station_name":"Daru","station_id":"DAR","distance":2675,"line":0,"is_transit":false},{"line":6,"station_name":"Tenjo","distance":3902,"i_lat":-6.327251,"i_long":106.460812,"transit":false,"is_transit":false,"station_id":"TEJ","time":5}]]}