{"data":[[{"i_long":106.771379,"i_lat":-6.161433,"is_transit":false,"time":0,"station_name":"Pesing","distance":0,"line":5,"transit":false,"station_id":"PSG"},{"station_id":"GGL","time":2,"i_lat":-6.162021,"i_long":106.788277,"distance":2036,"transit":false,"station_name":"Grogol","is_transit":false,"line":5},{"line":1,"transit":true,"station_name":"Duri","is_transit":true,"i_lat":-6.155215,"distance":1700,"station_id":"DU","i_long":106.800832,"time":3},{"line":1,"time":8,"distance":3632,"transit":false,"station_name":"Tanah Abang","is_transit":false,"station_id":"THB","i_lat":-6.185545,"i_long":106.811091},{"i_long":106.816351,"station_id":"KAT","transit":false,"i_lat":-6.20132,"line":1,"time":5,"is_transit":false,"distance":2029,"station_name":"Karet"},{"line":1,"distance":471,"transit":false,"i_lat":-6.201433,"is_transit":false,"i_long":106.819881,"station_name":"Sudirman Baru","station_id":"SUDB","time":1},{"is_transit":false,"station_name":"Sudirman","distance":280,"i_long":106.822649,"line":1,"station_id":"SUD","transit":false,"time":1,"i_lat":-6.202263},{"i_lat":-6.209883,"line":2,"is_transit":true,"transit":true,"i_long":106.84912,"time":4,"station_id":"MRI","distance":3186,"station_name":"Manggarai"},{"time":4,"line":2,"i_lat":-6.226659,"station_name":"Tebet","transit":false,"is_transit":false,"station_id":"TEB","distance":2610,"i_long":106.857948},{"i_long":106.856607,"line":2,"time":2,"i_lat":-6.242512,"station_id":"CW","station_name":"Cawang","distance":1230,"transit":false,"is_transit":false},{"station_id":"DRN","is_transit":false,"i_lat":-6.255332,"time":3,"station_name":"Duren Kalibata","transit":false,"i_long":106.85449,"line":2,"distance":1546},{"i_lat":-6.263214,"i_long":106.851577,"station_name":"Pasar Minggu Baru","is_transit":false,"station_id":"PSMB","line":2,"transit":false,"time":2,"distance":824},{"station_name":"Pasar Minggu","station_id":"PSM","is_transit":false,"line":2,"time":2,"i_lat":-6.2842400000000005,"distance":2380,"transit":false,"i_long":106.843999},{"station_id":"TNT","line":2,"time":4,"station_name":"Tanjung Barat","is_transit":false,"i_lat":-6.3080680000000005,"distance":2820,"transit":false,"i_long":106.838896},{"time":3,"i_lat":-6.330363,"line":2,"distance":2671,"station_id":"LNA","i_long":106.832616,"station_name":"Lenteng Agung","is_transit":false,"transit":false},{"distance":1029,"i_long":106.834175,"is_transit":false,"station_name":"Univ. Pancasila","line":2,"time":2,"i_lat":-6.339291,"station_id":"UP","transit":false},{"i_lat":-6.360749,"transit":false,"is_transit":false,"time":3,"station_id":"UI","line":2,"distance":2264,"i_long":106.831474,"station_name":"Univ. Indonesia"},{"time":2,"i_lat":-6.369073,"is_transit":false,"i_long":106.831114,"station_name":"Pondok Cina","line":2,"distance":1109,"transit":false,"station_id":"POC"},{"station_name":"Depokbaru","is_transit":false,"transit":false,"station_id":"DPB","time":4,"i_lat":-6.391065,"i_long":106.819451,"line":2,"distance":2727},{"is_transit":false,"station_name":"Depok","distance":1584,"i_long":106.816926,"i_lat":-6.405256,"transit":false,"station_id":"DP","line":2,"time":3},{"line":2,"station_id":"CTA","is_transit":false,"time":6,"i_lat":-6.448811,"station_name":"Citayam","distance":5084,"transit":false,"i_long":106.800298},{"time":5,"is_transit":false,"distance":5197,"i_long":106.792719,"i_lat":-6.493243,"station_name":"Bojonggede","station_id":"BJD","line":2,"transit":false},{"is_transit":false,"station_id":"CLT","station_name":"Cilebut","distance":4331,"time":5,"i_lat":-6.530544,"line":2,"i_long":106.800016,"transit":false},{"distance":7514,"station_id":"BOO","i_lat":-6.594596,"transit":false,"i_long":106.790574,"line":2,"time":9,"station_name":"Bogor","is_transit":false}],[{"i_long":106.771379,"station_name":"Pesing","distance":0,"station_id":"PSG","time":0,"i_lat":-6.161433,"transit":false,"line":5,"is_transit":false},{"station_name":"Grogol","is_transit":false,"time":2,"distance":2036,"station_id":"GGL","transit":false,"i_lat":-6.162021,"i_long":106.788277,"line":5},{"station_name":"Duri","line":1,"is_transit":true,"distance":1700,"i_long":106.800832,"transit":true,"i_lat":-6.155215,"station_id":"DU","time":3},{"time":4,"i_long":106.79867,"transit":false,"station_name":"Angke","i_lat":-6.144674,"line":1,"station_id":"AK","is_transit":false,"distance":1230},{"station_id":"KPB","station_name":"Kampung Bandan","i_lat":-6.132549,"i_long":106.826365,"line":4,"is_transit":true,"transit":true,"distance":4102,"time":9},{"station_name":"Jakarta Kota","station_id":"JAKK","time":3,"line":2,"i_lat":-6.137569,"transit":true,"distance":1364,"is_transit":true,"i_long":106.812439},{"time":4,"station_id":"JAY","transit":false,"distance":1264,"line":2,"i_long":106.820901,"station_name":"Jayakarta","is_transit":false,"i_lat":-6.141205},{"station_name":"Manggabesar","station_id":"MGB","is_transit":false,"time":2,"line":2,"distance":1080,"i_lat":-6.149769,"i_long":106.82482,"transit":false},{"i_lat":-6.160725,"transit":false,"station_id":"SW","distance":906,"time":2,"is_transit":false,"line":2,"station_name":"Sawah Besar","i_long":106.827103},{"i_lat":-6.166716,"line":2,"transit":false,"time":2,"i_long":106.828284,"is_transit":false,"station_id":"JUA","distance":1149,"station_name":"Juanda"},{"transit":false,"i_long":106.832183,"is_transit":false,"station_name":"Gondangdia","station_id":"GDD","i_lat":-6.186295,"distance":2015,"time":4,"line":2},{"transit":false,"i_lat":-6.198556,"time":3,"i_long":106.840169,"distance":1750,"line":2,"station_name":"Cikini","station_id":"CKI","is_transit":false},{"i_long":106.84912,"time":4,"station_id":"MRI","is_transit":false,"station_name":"Manggarai","distance":1590,"transit":false,"i_lat":-6.209883,"line":2},{"i_lat":-6.226659,"station_id":"TEB","station_name":"Tebet","is_transit":false,"distance":2610,"i_long":106.857948,"time":4,"line":2,"transit":false},{"station_name":"Cawang","distance":1230,"i_long":106.856607,"is_transit":false,"line":2,"time":2,"station_id":"CW","transit":false,"i_lat":-6.242512},{"line":2,"station_name":"Duren Kalibata","i_long":106.85449,"distance":1546,"i_lat":-6.255332,"is_transit":false,"time":3,"transit":false,"station_id":"DRN"},{"station_id":"PSMB","is_transit":false,"transit":false,"i_long":106.851577,"i_lat":-6.263214,"time":2,"station_name":"Pasar Minggu Baru","distance":824,"line":2},{"station_name":"Pasar Minggu","distance":2380,"line":2,"i_long":106.843999,"time":2,"is_transit":false,"i_lat":-6.2842400000000005,"station_id":"PSM","transit":false},{"transit":false,"i_lat":-6.3080680000000005,"distance":2820,"i_long":106.838896,"line":2,"station_name":"Tanjung Barat","is_transit":false,"station_id":"TNT","time":4},{"is_transit":false,"i_lat":-6.330363,"i_long":106.832616,"line":2,"distance":2671,"transit":false,"station_name":"Lenteng Agung","time":3,"station_id":"LNA"},{"time":2,"i_long":106.834175,"i_lat":-6.339291,"is_transit":false,"transit":false,"station_name":"Univ. Pancasila","distance":1029,"line":2,"station_id":"UP"},{"line":2,"time":3,"station_name":"Univ. Indonesia","i_lat":-6.360749,"station_id":"UI","is_transit":false,"distance":2264,"i_long":106.831474,"transit":false},{"line":2,"station_id":"POC","is_transit":false,"i_lat":-6.369073,"i_long":106.831114,"station_name":"Pondok Cina","time":2,"distance":1109,"transit":false},{"transit":false,"is_transit":false,"station_name":"Depokbaru","line":2,"station_id":"DPB","i_long":106.819451,"i_lat":-6.391065,"distance":2727,"time":4},{"station_name":"Depok","station_id":"DP","transit":false,"distance":1584,"line":2,"is_transit":false,"i_long":106.816926,"time":3,"i_lat":-6.405256},{"is_transit":false,"station_name":"Citayam","station_id":"CTA","transit":false,"i_lat":-6.448811,"i_long":106.800298,"distance":5084,"time":6,"line":2},{"line":2,"station_name":"Bojonggede","is_transit":false,"distance":5197,"i_long":106.792719,"time":5,"i_lat":-6.493243,"transit":false,"station_id":"BJD"},{"time":5,"i_lat":-6.530544,"i_long":106.800016,"line":2,"station_id":"CLT","is_transit":false,"transit":false,"station_name":"Cilebut","distance":4331},{"distance":7514,"station_name":"Bogor","i_lat":-6.594596,"station_id":"BOO","is_transit":false,"i_long":106.790574,"transit":false,"time":9,"line":2}],[{"is_transit":false,"station_id":"PSG","time":0,"i_lat":-6.161433,"line":5,"distance":0,"station_name":"Pesing","i_long":106.771379,"transit":false},{"station_id":"GGL","i_long":106.788277,"i_lat":-6.162021,"station_name":"Grogol","line":5,"time":2,"transit":false,"distance":2036,"is_transit":false},{"transit":true,"is_transit":true,"i_long":106.800832,"station_name":"Duri","station_id":"DU","time":3,"distance":1700,"i_lat":-6.155215,"line":1},{"time":4,"i_long":106.79867,"station_id":"AK","station_name":"Angke","distance":1230,"line":1,"i_lat":-6.144674,"is_transit":false,"transit":false},{"is_transit":true,"time":9,"i_long":106.826365,"transit":true,"distance":4102,"line":4,"station_name":"Kampung Bandan","station_id":"KPB","i_lat":-6.132549},{"transit":false,"is_transit":false,"distance":1444,"i_long":106.836569,"station_name":"Rajawali","time":3,"station_id":"RJW","i_lat":-6.14505,"line":11},{"i_lat":-6.161728,"is_transit":false,"distance":1901,"station_name":"Kemayoran","i_long":106.839204,"line":11,"transit":false,"station_id":"KMO","time":5},{"station_id":"PSE","time":4,"is_transit":false,"i_lat":-6.174784,"distance":1436,"station_name":"Pasar Senen","transit":false,"i_long":106.84368,"line":11},{"i_long":106.850107,"i_lat":-6.185975,"line":11,"station_id":"GST","station_name":"Gang Sentiong","time":8,"transit":false,"is_transit":false,"distance":1567},{"station_id":"KMT","i_lat":-6.193792,"transit":false,"is_transit":false,"station_name":"Kramat","time":1,"line":11,"i_long":106.855437,"distance":973},{"station_name":"Pondok Jati","distance":1829,"transit":false,"i_lat":-6.209188,"i_long":106.861737,"line":11,"station_id":"POK","time":2,"is_transit":false},{"station_name":"Jatinegara","is_transit":true,"time":9,"i_long":106.86807400000001,"transit":true,"distance":1236,"station_id":"JNG","line":1,"i_lat":-6.215091},{"is_transit":false,"transit":false,"station_name":"Matraman","time":2,"station_id":"MTR","distance":1377,"i_long":106.858896,"line":1,"i_lat":-6.212485},{"station_name":"Manggarai","time":2,"i_lat":-6.209883,"transit":true,"station_id":"MRI","distance":1275,"line":2,"is_transit":true,"i_long":106.84912},{"station_name":"Tebet","is_transit":false,"distance":2610,"transit":false,"station_id":"TEB","i_long":106.857948,"line":2,"time":4,"i_lat":-6.226659},{"station_name":"Cawang","i_lat":-6.242512,"station_id":"CW","i_long":106.856607,"line":2,"distance":1230,"transit":false,"is_transit":false,"time":2},{"i_long":106.85449,"station_id":"DRN","is_transit":false,"station_name":"Duren Kalibata","distance":1546,"i_lat":-6.255332,"transit":false,"time":3,"line":2},{"time":2,"is_transit":false,"station_id":"PSMB","transit":false,"i_long":106.851577,"i_lat":-6.263214,"station_name":"Pasar Minggu Baru","line":2,"distance":824},{"is_transit":false,"station_name":"Pasar Minggu","distance":2380,"i_lat":-6.2842400000000005,"transit":false,"station_id":"PSM","line":2,"i_long":106.843999,"time":2},{"station_id":"TNT","is_transit":false,"line":2,"station_name":"Tanjung Barat","transit":false,"time":4,"distance":2820,"i_lat":-6.3080680000000005,"i_long":106.838896},{"line":2,"station_name":"Lenteng Agung","distance":2671,"time":3,"station_id":"LNA","i_lat":-6.330363,"i_long":106.832616,"is_transit":false,"transit":false},{"station_name":"Univ. Pancasila","station_id":"UP","time":2,"transit":false,"is_transit":false,"distance":1029,"line":2,"i_lat":-6.339291,"i_long":106.834175},{"station_id":"UI","distance":2264,"is_transit":false,"time":3,"line":2,"i_lat":-6.360749,"i_long":106.831474,"transit":false,"station_name":"Univ. Indonesia"},{"distance":1109,"i_long":106.831114,"is_transit":false,"line":2,"station_name":"Pondok Cina","i_lat":-6.369073,"time":2,"station_id":"POC","transit":false},{"i_lat":-6.391065,"time":4,"station_id":"DPB","transit":false,"station_name":"Depokbaru","is_transit":false,"distance":2727,"i_long":106.819451,"line":2},{"station_name":"Depok","i_lat":-6.405256,"station_id":"DP","time":3,"transit":false,"is_transit":false,"distance":1584,"i_long":106.816926,"line":2},{"transit":false,"station_name":"Citayam","station_id":"CTA","distance":5084,"i_lat":-6.448811,"i_long":106.800298,"line":2,"is_transit":false,"time":6},{"distance":5197,"station_name":"Bojonggede","station_id":"BJD","is_transit":false,"i_long":106.792719,"line":2,"i_lat":-6.493243,"time":5,"transit":false},{"time":5,"distance":4331,"station_id":"CLT","line":2,"i_lat":-6.530544,"transit":false,"station_name":"Cilebut","i_long":106.800016,"is_transit":false},{"station_name":"Bogor","station_id":"BOO","is_transit":false,"distance":7514,"i_long":106.790574,"time":9,"line":2,"transit":false,"i_lat":-6.594596}]]}