{"data":[[{"i_lat":-6.161433,"station_id":"PSG","time":0,"i_long":106.771379,"transit":false,"is_transit":false,"distance":0,"line":5,"station_name":"Pesing"},{"station_id":"GRG","distance":2036,"i_long":106.788277,"line":5,"time":2,"is_transit":false,"i_lat":-6.162021,"transit":false,"station_name":"Grogol"},{"station_name":"Duri","i_long":106.800832,"transit":true,"distance":1700,"i_lat":-6.155215,"time":3,"is_transit":true,"station_id":"DU","line":1},{"line":1,"i_lat":-6.185545,"station_id":"THB","station_name":"Tanah Abang","transit":false,"is_transit":false,"time":8,"distance":3632,"i_long":106.811091},{"transit":false,"time":5,"station_id":"KAT","i_lat":-6.20132,"line":1,"distance":2029,"station_name":"Karet","i_long":106.816351,"is_transit":false},{"distance":471,"station_name":"Sudirman Baru","i_lat":-6.201433,"is_transit":false,"station_id":"SUDB","transit":false,"time":1,"line":1,"i_long":106.819881},{"i_lat":-6.202263,"is_transit":false,"transit":false,"i_long":106.822649,"line":1,"station_id":"SUD","distance":280,"time":1,"station_name":"Sudirman"},{"time":4,"station_name":"Manggarai","transit":true,"i_long":106.84912,"station_id":"MRI","line":2,"distance":3186,"i_lat":-6.209883,"is_transit":true},{"line":2,"time":4,"station_id":"TEB","i_long":106.857948,"i_lat":-6.226659,"transit":false,"distance":2610,"station_name":"Tebet","is_transit":false},{"time":2,"transit":false,"i_lat":-6.242512,"station_name":"Cawang","station_id":"CW","is_transit":false,"i_long":106.856607,"line":2,"distance":1230},{"station_id":"DRN","line":2,"station_name":"Duren Kalibata","time":3,"distance":1546,"transit":false,"is_transit":false,"i_lat":-6.255332,"i_long":106.85449},{"station_id":"PSMB","i_lat":-6.263214,"line":2,"time":2,"distance":824,"station_name":"Pasar Minggu Baru","i_long":106.851577,"is_transit":false,"transit":false},{"line":2,"time":2,"transit":false,"is_transit":false,"station_id":"PSM","station_name":"Pasar Minggu","i_long":106.843999,"i_lat":-6.2842400000000005,"distance":2380},{"transit":false,"station_id":"TNT","station_name":"Tanjung Barat","line":2,"distance":2820,"time":4,"i_lat":-6.3080680000000005,"i_long":106.838896,"is_transit":false},{"distance":2671,"station_name":"Lenteng Agung","is_transit":false,"time":3,"i_long":106.832616,"station_id":"LNA","i_lat":-6.330363,"line":2,"transit":false},{"is_transit":false,"station_id":"UP","station_name":"Univ. Pancasila","time":2,"distance":1029,"transit":false,"i_long":106.834175,"i_lat":-6.339291,"line":2},{"is_transit":false,"i_long":106.831474,"line":2,"transit":false,"time":3,"station_name":"Univ. Indonesia","i_lat":-6.360749,"distance":2264,"station_id":"UI"},{"station_id":"POC","is_transit":false,"line":2,"distance":1109,"i_lat":-6.369073,"i_long":106.831114,"time":2,"transit":false,"station_name":"Pondok Cina"},{"time":4,"i_long":106.819451,"transit":false,"i_lat":-6.391065,"line":2,"distance":2727,"station_name":"Depokbaru","is_transit":false,"station_id":"DPB"},{"i_long":106.816926,"distance":1584,"time":3,"line":2,"i_lat":-6.405256,"transit":false,"station_name":"Depok","is_transit":false,"station_id":"DP"}],[{"station_name":"Pesing","i_long":106.771379,"time":0,"transit":false,"station_id":"PSG","line":5,"distance":0,"i_lat":-6.161433,"is_transit":false},{"station_id":"GRG","i_long":106.788277,"transit":false,"distance":2036,"is_transit":false,"line":5,"i_lat":-6.162021,"time":2,"station_name":"Grogol"},{"distance":1700,"time":3,"transit":true,"station_name":"Duri","i_long":106.800832,"line":1,"station_id":"DU","i_lat":-6.155215,"is_transit":true},{"station_name":"Angke","distance":1230,"station_id":"AK","i_long":106.79867,"line":1,"transit":false,"i_lat":-6.144674,"time":4,"is_transit":false},{"transit":true,"i_long":106.826365,"line":4,"distance":4102,"i_lat":-6.132549,"station_id":"KPB","time":9,"is_transit":true,"station_name":"Kampung Bandan"},{"transit":true,"i_lat":-6.137569,"line":2,"station_name":"Jakarta Kota","time":3,"is_transit":true,"station_id":"JAKK","distance":1364,"i_long":106.812439},{"line":2,"i_long":106.820901,"time":4,"station_id":"JAY","distance":1264,"is_transit":false,"transit":false,"i_lat":-6.141205,"station_name":"Jayakarta"},{"transit":false,"station_name":"Manggabesar","time":2,"is_transit":false,"station_id":"MGB","i_lat":-6.149769,"i_long":106.82482,"line":2,"distance":1080},{"line":2,"distance":906,"i_lat":-6.160725,"transit":false,"i_long":106.827103,"time":2,"station_name":"Sawah Besar","is_transit":false,"station_id":"SW"},{"distance":1149,"i_lat":-6.166716,"time":2,"transit":false,"station_name":"Juanda","station_id":"JUA","i_long":106.828284,"line":2,"is_transit":false},{"distance":2015,"transit":false,"station_id":"GDD","i_lat":-6.186295,"i_long":106.832183,"line":2,"station_name":"Gondangdia","time":4,"is_transit":false},{"i_long":106.840169,"station_name":"Cikini","station_id":"CKI","i_lat":-6.198556,"time":3,"line":2,"is_transit":false,"distance":1750,"transit":false},{"station_id":"MRI","line":2,"i_lat":-6.209883,"transit":false,"station_name":"Manggarai","distance":1590,"i_long":106.84912,"is_transit":false,"time":4},{"time":4,"is_transit":false,"station_name":"Tebet","i_lat":-6.226659,"i_long":106.857948,"transit":false,"distance":2610,"station_id":"TEB","line":2},{"is_transit":false,"transit":false,"line":2,"station_id":"CW","i_lat":-6.242512,"i_long":106.856607,"distance":1230,"station_name":"Cawang","time":2},{"line":2,"time":3,"is_transit":false,"distance":1546,"transit":false,"i_lat":-6.255332,"station_name":"Duren Kalibata","i_long":106.85449,"station_id":"DRN"},{"station_name":"Pasar Minggu Baru","i_long":106.851577,"transit":false,"is_transit":false,"station_id":"PSMB","time":2,"i_lat":-6.263214,"line":2,"distance":824},{"station_id":"PSM","transit":false,"time":2,"station_name":"Pasar Minggu","i_long":106.843999,"line":2,"is_transit":false,"i_lat":-6.2842400000000005,"distance":2380},{"distance":2820,"station_name":"Tanjung Barat","station_id":"TNT","transit":false,"is_transit":false,"i_long":106.838896,"i_lat":-6.3080680000000005,"time":4,"line":2},{"distance":2671,"station_name":"Lenteng Agung","transit":false,"i_lat":-6.330363,"line":2,"time":3,"is_transit":false,"station_id":"LNA","i_long":106.832616},{"transit":false,"time":2,"line":2,"is_transit":false,"distance":1029,"station_name":"Univ. Pancasila","i_long":106.834175,"i_lat":-6.339291,"station_id":"UP"},{"station_name":"Univ. Indonesia","i_long":106.831474,"distance":2264,"station_id":"UI","is_transit":false,"i_lat":-6.360749,"line":2,"time":3,"transit":false},{"line":2,"i_lat":-6.369073,"time":2,"station_name":"Pondok Cina","distance":1109,"station_id":"POC","is_transit":false,"transit":false,"i_long":106.831114},{"station_id":"DPB","is_transit":false,"line":2,"i_lat":-6.391065,"transit":false,"time":4,"i_long":106.819451,"distance":2727,"station_name":"Depokbaru"},{"transit":false,"distance":1584,"time":3,"i_long":106.816926,"is_transit":false,"i_lat":-6.405256,"station_id":"DP","line":2,"station_name":"Depok"}],[{"transit":false,"time":0,"i_lat":-6.161433,"station_id":"PSG","is_transit":false,"i_long":106.771379,"distance":0,"line":5,"station_name":"Pesing"},{"time":2,"station_id":"GRG","i_lat":-6.162021,"distance":2036,"station_name":"Grogol","i_long":106.788277,"line":5,"is_transit":false,"transit":false},{"i_long":106.800832,"transit":true,"line":1,"station_name":"Duri","i_lat":-6.155215,"is_transit":true,"distance":1700,"station_id":"DU","time":3},{"station_id":"AK","distance":1230,"is_transit":false,"line":1,"station_name":"Angke","transit":false,"time":4,"i_long":106.79867,"i_lat":-6.144674},{"station_id":"KPB","station_name":"Kampung Bandan","time":9,"distance":4102,"is_transit":true,"i_lat":-6.132549,"line":4,"i_long":106.826365,"transit":true},{"transit":false,"station_id":"RJW","station_name":"Rajawali","i_lat":-6.14505,"line":11,"is_transit":false,"distance":1444,"time":3,"i_long":106.836569},{"time":5,"line":11,"distance":1901,"station_name":"Kemayoran","transit":false,"i_long":106.839204,"station_id":"KMO","i_lat":-6.161728,"is_transit":false},{"i_lat":-6.174784,"station_id":"PSE","distance":1436,"transit":false,"station_name":"Pasar Senen","i_long":106.84368,"time":4,"line":11,"is_transit":false},{"station_id":"GST","time":8,"distance":1567,"transit":false,"is_transit":false,"line":11,"i_long":106.850107,"i_lat":-6.185975,"station_name":"Gang Sentiong"},{"i_lat":-6.193792,"station_id":"KMT","time":1,"is_transit":false,"station_name":"Kramat","line":11,"transit":false,"distance":973,"i_long":106.855437},{"station_id":"POK","station_name":"Pondok Jati","i_lat":-6.209188,"i_long":106.861737,"line":11,"is_transit":false,"transit":false,"time":2,"distance":1829},{"transit":true,"i_lat":-6.215091,"time":9,"station_id":"JNG","line":1,"distance":1236,"is_transit":true,"i_long":106.86807400000001,"station_name":"Jatinegara"},{"transit":false,"station_name":"Matraman","station_id":"MTR","distance":1377,"is_transit":false,"line":1,"i_lat":-6.212485,"time":2,"i_long":106.858896},{"distance":1275,"i_long":106.84912,"transit":true,"time":2,"i_lat":-6.209883,"line":2,"station_id":"MRI","is_transit":true,"station_name":"Manggarai"},{"line":2,"distance":2610,"time":4,"i_lat":-6.226659,"station_id":"TEB","i_long":106.857948,"transit":false,"is_transit":false,"station_name":"Tebet"},{"line":2,"is_transit":false,"time":2,"i_long":106.856607,"i_lat":-6.242512,"transit":false,"distance":1230,"station_name":"Cawang","station_id":"CW"},{"i_lat":-6.255332,"distance":1546,"time":3,"transit":false,"is_transit":false,"line":2,"station_name":"Duren Kalibata","i_long":106.85449,"station_id":"DRN"},{"time":2,"line":2,"is_transit":false,"i_lat":-6.263214,"station_name":"Pasar Minggu Baru","transit":false,"distance":824,"i_long":106.851577,"station_id":"PSMB"},{"is_transit":false,"i_lat":-6.2842400000000005,"line":2,"distance":2380,"transit":false,"time":2,"station_name":"Pasar Minggu","station_id":"PSM","i_long":106.843999},{"station_name":"Tanjung Barat","i_long":106.838896,"i_lat":-6.3080680000000005,"station_id":"TNT","time":4,"is_transit":false,"distance":2820,"line":2,"transit":false},{"line":2,"i_long":106.832616,"distance":2671,"time":3,"station_id":"LNA","station_name":"Lenteng Agung","transit":false,"is_transit":false,"i_lat":-6.330363},{"line":2,"distance":1029,"transit":false,"i_lat":-6.339291,"station_id":"UP","station_name":"Univ. Pancasila","time":2,"i_long":106.834175,"is_transit":false},{"station_name":"Univ. Indonesia","station_id":"UI","transit":false,"time":3,"i_long":106.831474,"line":2,"is_transit":false,"distance":2264,"i_lat":-6.360749},{"is_transit":false,"transit":false,"i_lat":-6.369073,"time":2,"distance":1109,"i_long":106.831114,"station_name":"Pondok Cina","station_id":"POC","line":2},{"station_id":"DPB","station_name":"Depokbaru","i_lat":-6.391065,"line":2,"i_long":106.819451,"time":4,"transit":false,"is_transit":false,"distance":2727},{"transit":false,"station_id":"DP","i_lat":-6.405256,"line":2,"station_name":"Depok","time":3,"distance":1584,"is_transit":false,"i_long":106.816926}]]}