{"data":[[{"i_lat":-6.161433,"is_transit":false,"station_id":"PSG","line":5,"i_long":106.771379,"station_name":"Pesing","distance":0,"transit":false,"time":0},{"i_lat":-6.162021,"distance":2036,"i_long":106.788277,"time":2,"transit":false,"station_id":"GGL","is_transit":false,"station_name":"Grogol","line":5},{"time":3,"station_name":"Duri","transit":true,"i_lat":-6.155215,"line":1,"is_transit":true,"i_long":106.800832,"distance":1700,"station_id":"DU"},{"station_id":"THB","transit":true,"station_name":"Tanah Abang","i_lat":-6.185545,"is_transit":true,"line":1,"i_long":106.811091,"time":8,"distance":3632},{"transit":false,"i_lat":-6.207404,"station_name":"Palmerah","time":6,"line":6,"station_id":"PLM","distance":3191,"is_transit":false,"i_long":106.79689},{"i_long":106.780334,"station_id":"KBY","time":7,"transit":false,"i_lat":-6.237242,"line":6,"station_name":"Kebayoran","distance":3737,"is_transit":false},{"station_name":"Pondokranji","line":6,"station_id":"PDJ","transit":false,"time":8,"i_long":106.74273,"is_transit":false,"i_lat":-6.276362,"distance":6218},{"time":3,"i_long":106.728916,"station_id":"JMU","line":6,"transit":false,"is_transit":false,"station_name":"Jurangmangu","distance":2179,"i_lat":-6.288927}],[{"distance":0,"i_lat":-6.161433,"station_id":"PSG","transit":false,"station_name":"Pesing","i_long":106.771379,"line":5,"is_transit":false,"time":0},{"station_id":"GGL","transit":false,"station_name":"Grogol","time":2,"i_lat":-6.162021,"line":5,"i_long":106.788277,"distance":2036,"is_transit":false},{"time":3,"station_name":"Duri","is_transit":true,"i_lat":-6.155215,"i_long":106.800832,"distance":1700,"transit":true,"line":1,"station_id":"DU"},{"time":4,"station_name":"Angke","transit":false,"station_id":"AK","i_lat":-6.144674,"distance":1230,"line":1,"i_long":106.79867,"is_transit":false},{"station_id":"KPB","transit":true,"station_name":"Kampung Bandan","distance":4102,"i_lat":-6.132549,"is_transit":true,"time":9,"i_long":106.826365,"line":4},{"time":3,"station_id":"JAKK","is_transit":true,"line":2,"station_name":"Jakarta Kota","distance":1364,"i_lat":-6.137569,"i_long":106.812439,"transit":true},{"i_long":106.820901,"is_transit":false,"transit":false,"line":2,"station_id":"JAY","distance":1264,"station_name":"Jayakarta","time":4,"i_lat":-6.141205},{"time":2,"distance":1080,"is_transit":false,"station_name":"Manggabesar","i_lat":-6.149769,"line":2,"i_long":106.82482,"transit":false,"station_id":"MGB"},{"i_lat":-6.160725,"distance":906,"station_name":"Sawah Besar","time":2,"i_long":106.827103,"is_transit":false,"station_id":"SW","transit":false,"line":2},{"station_id":"JUA","distance":1149,"line":2,"is_transit":false,"transit":false,"station_name":"Juanda","time":2,"i_lat":-6.166716,"i_long":106.828284},{"station_name":"Gondangdia","i_long":106.832183,"i_lat":-6.186295,"is_transit":false,"station_id":"GDD","distance":2015,"time":4,"transit":false,"line":2},{"station_name":"Cikini","i_lat":-6.198556,"i_long":106.840169,"line":2,"transit":false,"distance":1750,"station_id":"CKI","time":3,"is_transit":false},{"distance":1590,"is_transit":true,"transit":true,"i_long":106.84912,"line":2,"station_name":"Manggarai","station_id":"MRI","time":4,"i_lat":-6.209883},{"is_transit":false,"i_lat":-6.202263,"line":1,"transit":false,"station_id":"SUD","distance":3186,"i_long":106.822649,"time":4,"station_name":"Sudirman"},{"time":1,"transit":false,"i_long":106.819881,"station_name":"Sudirman Baru","is_transit":false,"station_id":"SUDB","i_lat":-6.201433,"line":1,"distance":280},{"time":1,"station_id":"KAT","line":1,"station_name":"Karet","i_long":106.816351,"is_transit":false,"transit":false,"distance":471,"i_lat":-6.20132},{"station_id":"THB","time":5,"distance":2029,"i_lat":-6.185545,"transit":true,"line":1,"is_transit":true,"station_name":"Tanah Abang","i_long":106.811091},{"distance":3191,"transit":false,"is_transit":false,"i_long":106.79689,"line":6,"i_lat":-6.207404,"time":6,"station_name":"Palmerah","station_id":"PLM"},{"station_name":"Kebayoran","transit":false,"station_id":"KBY","i_long":106.780334,"line":6,"is_transit":false,"i_lat":-6.237242,"distance":3737,"time":7},{"distance":6218,"is_transit":false,"line":6,"station_id":"PDJ","time":8,"i_lat":-6.276362,"transit":false,"station_name":"Pondokranji","i_long":106.74273},{"transit":false,"i_lat":-6.288927,"i_long":106.728916,"is_transit":false,"time":3,"line":6,"distance":2179,"station_name":"Jurangmangu","station_id":"JMU"}],[{"time":0,"line":5,"distance":0,"station_id":"PSG","i_lat":-6.161433,"is_transit":false,"transit":false,"station_name":"Pesing","i_long":106.771379},{"station_name":"Grogol","is_transit":false,"transit":false,"i_lat":-6.162021,"i_long":106.788277,"line":5,"station_id":"GGL","distance":2036,"time":2},{"station_id":"DU","transit":true,"time":3,"station_name":"Duri","line":1,"distance":1700,"i_lat":-6.155215,"is_transit":true,"i_long":106.800832},{"time":4,"is_transit":false,"station_id":"AK","station_name":"Angke","i_long":106.79867,"distance":1230,"transit":false,"i_lat":-6.144674,"line":1},{"line":4,"time":9,"i_lat":-6.132549,"distance":4102,"station_name":"Kampung Bandan","is_transit":true,"station_id":"KPB","transit":true,"i_long":106.826365},{"time":3,"station_id":"RJW","distance":1444,"station_name":"Rajawali","transit":false,"i_lat":-6.14505,"i_long":106.836569,"line":11,"is_transit":false},{"line":11,"transit":false,"i_long":106.839204,"station_name":"Kemayoran","distance":1901,"is_transit":false,"i_lat":-6.161728,"time":5,"station_id":"KMO"},{"time":4,"i_lat":-6.174784,"i_long":106.84368,"transit":false,"is_transit":false,"distance":1436,"station_name":"Pasar Senen","line":11,"station_id":"PSE"},{"is_transit":false,"transit":false,"distance":1567,"i_lat":-6.185975,"line":11,"time":8,"station_name":"Gang Sentiong","i_long":106.850107,"station_id":"GST"},{"line":11,"transit":false,"time":1,"is_transit":false,"i_lat":-6.193792,"i_long":106.855437,"station_id":"KMT","station_name":"Kramat","distance":973},{"i_lat":-6.209188,"distance":1829,"station_id":"POK","is_transit":false,"i_long":106.861737,"line":11,"station_name":"Pondok Jati","time":2,"transit":false},{"distance":1236,"transit":true,"station_name":"Jatinegara","station_id":"JNG","is_transit":true,"time":9,"i_lat":-6.215091,"i_long":106.86807400000001,"line":1},{"i_lat":-6.212485,"line":1,"transit":false,"distance":1377,"is_transit":false,"i_long":106.858896,"station_id":"MTR","time":2,"station_name":"Matraman"},{"distance":1275,"i_long":106.84912,"transit":false,"i_lat":-6.209883,"line":2,"station_id":"MRI","station_name":"Manggarai","time":2,"is_transit":false},{"station_id":"SUD","time":4,"station_name":"Sudirman","is_transit":false,"transit":false,"i_lat":-6.202263,"i_long":106.822649,"line":1,"distance":3186},{"station_id":"SUDB","distance":280,"i_long":106.819881,"time":1,"line":1,"i_lat":-6.201433,"station_name":"Sudirman Baru","transit":false,"is_transit":false},{"station_id":"KAT","station_name":"Karet","i_long":106.816351,"line":1,"time":1,"i_lat":-6.20132,"transit":false,"is_transit":false,"distance":471},{"i_long":106.811091,"transit":true,"distance":2029,"is_transit":true,"station_name":"Tanah Abang","time":5,"station_id":"THB","i_lat":-6.185545,"line":1},{"is_transit":false,"station_id":"PLM","transit":false,"line":6,"i_long":106.79689,"station_name":"Palmerah","i_lat":-6.207404,"time":6,"distance":3191},{"i_lat":-6.237242,"is_transit":false,"time":7,"line":6,"station_name":"Kebayoran","distance":3737,"transit":false,"i_long":106.780334,"station_id":"KBY"},{"station_id":"PDJ","transit":false,"i_lat":-6.276362,"is_transit":false,"station_name":"Pondokranji","time":8,"i_long":106.74273,"distance":6218,"line":6},{"i_lat":-6.288927,"time":3,"distance":2179,"line":6,"i_long":106.728916,"transit":false,"station_name":"Jurangmangu","station_id":"JMU","is_transit":false}]]}