{"data":[[{"line":5,"is_transit":false,"station_name":"Pesing","i_long":106.771379,"station_id":"PSG","transit":false,"distance":0,"i_lat":-6.161433,"time":0},{"transit":false,"time":2,"i_lat":-6.162021,"is_transit":false,"station_name":"Grogol","station_id":"GGL","line":5,"distance":2036,"i_long":106.788277},{"distance":1700,"transit":true,"is_transit":true,"i_long":106.800832,"line":1,"i_lat":-6.155215,"station_name":"Duri","time":3,"station_id":"DU"},{"transit":false,"is_transit":false,"time":8,"i_lat":-6.185545,"i_long":106.811091,"line":1,"distance":3632,"station_name":"Tanah Abang","station_id":"THB"},{"station_name":"Karet","time":5,"station_id":"KAT","transit":false,"is_transit":false,"i_lat":-6.20132,"i_long":106.816351,"line":1,"distance":2029},{"distance":471,"i_lat":-6.201433,"transit":false,"station_name":"Sudirman Baru","station_id":"SUDB","is_transit":false,"line":1,"time":1,"i_long":106.819881},{"is_transit":false,"i_lat":-6.202263,"i_long":106.822649,"distance":280,"line":1,"time":1,"transit":false,"station_id":"SUD","station_name":"Sudirman"}],[{"distance":0,"i_long":106.771379,"i_lat":-6.161433,"station_id":"PSG","time":0,"line":5,"station_name":"Pesing","is_transit":false,"transit":false},{"distance":2036,"i_lat":-6.162021,"transit":false,"time":2,"station_id":"GGL","is_transit":false,"i_long":106.788277,"station_name":"Grogol","line":5},{"line":1,"station_name":"Duri","i_long":106.800832,"distance":1700,"station_id":"DU","time":3,"i_lat":-6.155215,"is_transit":true,"transit":true},{"station_name":"Angke","time":4,"station_id":"AK","i_long":106.79867,"distance":1230,"transit":false,"is_transit":false,"i_lat":-6.144674,"line":1},{"line":4,"station_id":"KPB","transit":true,"i_long":106.826365,"i_lat":-6.132549,"time":9,"station_name":"Kampung Bandan","distance":4102,"is_transit":true},{"station_id":"JAKK","time":3,"line":2,"i_long":106.812439,"transit":true,"distance":1364,"i_lat":-6.137569,"is_transit":true,"station_name":"Jakarta Kota"},{"i_lat":-6.141205,"transit":false,"time":4,"distance":1264,"station_name":"Jayakarta","is_transit":false,"line":2,"i_long":106.820901,"station_id":"JAY"},{"time":2,"station_id":"MGB","is_transit":false,"station_name":"Manggabesar","i_lat":-6.149769,"distance":1080,"i_long":106.82482,"line":2,"transit":false},{"i_lat":-6.160725,"station_id":"SW","line":2,"time":2,"station_name":"Sawah Besar","i_long":106.827103,"transit":false,"is_transit":false,"distance":906},{"station_name":"Juanda","distance":1149,"is_transit":false,"i_long":106.828284,"transit":false,"i_lat":-6.166716,"time":2,"line":2,"station_id":"JUA"},{"distance":2015,"is_transit":false,"time":4,"station_id":"GDD","i_lat":-6.186295,"i_long":106.832183,"line":2,"station_name":"Gondangdia","transit":false},{"station_id":"CKI","transit":false,"time":3,"is_transit":false,"distance":1750,"i_long":106.840169,"line":2,"station_name":"Cikini","i_lat":-6.198556},{"is_transit":true,"transit":true,"i_long":106.84912,"time":4,"line":2,"station_name":"Manggarai","station_id":"MRI","i_lat":-6.209883,"distance":1590},{"distance":3186,"station_name":"Sudirman","i_lat":-6.202263,"is_transit":false,"transit":false,"time":4,"i_long":106.822649,"line":1,"station_id":"SUD"}],[{"station_name":"Pesing","station_id":"PSG","is_transit":false,"distance":0,"transit":false,"i_lat":-6.161433,"time":0,"i_long":106.771379,"line":5},{"station_name":"Grogol","station_id":"GGL","time":2,"transit":false,"distance":2036,"line":5,"i_long":106.788277,"i_lat":-6.162021,"is_transit":false},{"is_transit":true,"time":3,"transit":true,"i_lat":-6.155215,"i_long":106.800832,"station_name":"Duri","line":1,"station_id":"DU","distance":1700},{"time":4,"transit":false,"station_id":"AK","i_lat":-6.144674,"station_name":"Angke","i_long":106.79867,"line":1,"distance":1230,"is_transit":false},{"i_lat":-6.132549,"transit":true,"station_id":"KPB","is_transit":true,"station_name":"Kampung Bandan","line":4,"i_long":106.826365,"time":9,"distance":4102},{"i_lat":-6.14505,"is_transit":false,"i_long":106.836569,"time":3,"distance":1444,"station_id":"RJW","line":11,"station_name":"Rajawali","transit":false},{"station_name":"Kemayoran","line":11,"distance":1901,"i_lat":-6.161728,"station_id":"KMO","transit":false,"is_transit":false,"i_long":106.839204,"time":5},{"i_lat":-6.174784,"station_name":"Pasar Senen","station_id":"PSE","time":4,"line":11,"distance":1436,"is_transit":false,"i_long":106.84368,"transit":false},{"station_name":"Gang Sentiong","is_transit":false,"time":8,"i_long":106.850107,"line":11,"distance":1567,"station_id":"GST","transit":false,"i_lat":-6.185975},{"time":1,"distance":973,"i_lat":-6.193792,"station_name":"Kramat","i_long":106.855437,"station_id":"KMT","line":11,"transit":false,"is_transit":false},{"distance":1829,"transit":false,"i_long":106.861737,"is_transit":false,"station_id":"POK","i_lat":-6.209188,"line":11,"station_name":"Pondok Jati","time":2},{"line":1,"station_name":"Jatinegara","distance":1236,"i_long":106.86807400000001,"station_id":"JNG","is_transit":true,"transit":true,"time":9,"i_lat":-6.215091},{"is_transit":false,"time":2,"i_lat":-6.212485,"line":1,"station_name":"Matraman","distance":1377,"transit":false,"i_long":106.858896,"station_id":"MTR"},{"station_id":"MRI","transit":false,"station_name":"Manggarai","is_transit":false,"i_long":106.84912,"distance":1275,"time":2,"i_lat":-6.209883,"line":2},{"i_lat":-6.202263,"distance":3186,"transit":false,"is_transit":false,"time":4,"station_id":"SUD","station_name":"Sudirman","line":1,"i_long":106.822649}]]}