{"data":[[{"station_id":"PSG","time":0,"distance":0,"transit":false,"i_lat":-6.161433,"line":5,"i_long":106.771379,"is_transit":false,"station_name":"Pesing"},{"is_transit":false,"distance":2036,"line":5,"station_id":"GRG","transit":false,"time":2,"station_name":"Grogol","i_lat":-6.162021,"i_long":106.788277},{"station_name":"Duri","i_long":106.800832,"transit":true,"time":3,"i_lat":-6.155215,"line":1,"station_id":"DU","distance":1700,"is_transit":true},{"distance":3632,"station_id":"THB","station_name":"Tanah Abang","i_lat":-6.185545,"transit":false,"time":8,"line":1,"i_long":106.811091,"is_transit":false},{"i_lat":-6.20132,"transit":false,"station_id":"KAT","distance":2029,"line":1,"time":5,"station_name":"Karet","is_transit":false,"i_long":106.816351},{"i_lat":-6.201433,"is_transit":false,"line":1,"station_name":"Sudirman Baru","i_long":106.819881,"transit":false,"time":1,"distance":471,"station_id":"SUDB"},{"transit":false,"station_name":"Sudirman","time":1,"station_id":"SUD","is_transit":false,"i_long":106.822649,"distance":280,"i_lat":-6.202263,"line":1},{"time":4,"distance":3186,"station_name":"Manggarai","i_long":106.84912,"transit":false,"station_id":"MRI","is_transit":false,"line":2,"i_lat":-6.209883},{"i_long":106.858896,"station_id":"MTR","is_transit":false,"station_name":"Matraman","i_lat":-6.212485,"distance":1275,"time":2,"line":1,"transit":false},{"i_lat":-6.215091,"station_id":"JNG","i_long":106.86807400000001,"station_name":"Jatinegara","is_transit":false,"distance":1377,"time":8,"transit":false,"line":1},{"time":3,"is_transit":false,"station_id":"KLD","i_lat":-6.2135,"line":1,"transit":false,"distance":3395,"i_long":106.899548,"station_name":"Klender"},{"station_name":"Buaran","is_transit":false,"time":2,"i_lat":-6.215568,"distance":3100,"transit":false,"i_long":106.922662,"line":1,"station_id":"BUA"}],[{"line":5,"distance":0,"station_id":"PSG","transit":false,"i_long":106.771379,"i_lat":-6.161433,"is_transit":false,"station_name":"Pesing","time":0},{"line":5,"time":2,"is_transit":false,"i_long":106.788277,"distance":2036,"station_name":"Grogol","transit":false,"i_lat":-6.162021,"station_id":"GRG"},{"i_lat":-6.155215,"station_name":"Duri","is_transit":true,"i_long":106.800832,"line":1,"station_id":"DU","time":3,"distance":1700,"transit":true},{"line":1,"station_id":"AK","i_long":106.79867,"time":4,"station_name":"Angke","transit":false,"is_transit":false,"i_lat":-6.144674,"distance":1230},{"transit":true,"station_id":"KPB","station_name":"Kampung Bandan","line":4,"time":9,"distance":4102,"is_transit":true,"i_long":106.826365,"i_lat":-6.132549},{"time":3,"distance":1444,"station_id":"RJW","is_transit":false,"i_lat":-6.14505,"i_long":106.836569,"station_name":"Rajawali","line":11,"transit":false},{"distance":1901,"time":5,"transit":false,"i_lat":-6.161728,"line":11,"is_transit":false,"station_name":"Kemayoran","i_long":106.839204,"station_id":"KMO"},{"i_lat":-6.174784,"i_long":106.84368,"time":4,"station_id":"PSE","transit":false,"distance":1436,"station_name":"Pasar Senen","line":11,"is_transit":false},{"transit":false,"station_id":"GST","i_lat":-6.185975,"is_transit":false,"i_long":106.850107,"distance":1567,"time":8,"station_name":"Gang Sentiong","line":11},{"distance":973,"station_id":"KMT","is_transit":false,"time":1,"line":11,"i_lat":-6.193792,"transit":false,"i_long":106.855437,"station_name":"Kramat"},{"distance":1829,"transit":false,"i_lat":-6.209188,"station_id":"POK","station_name":"Pondok Jati","time":2,"is_transit":false,"i_long":106.861737,"line":11},{"is_transit":true,"station_name":"Jatinegara","i_long":106.86807400000001,"time":9,"distance":1236,"i_lat":-6.215091,"line":1,"station_id":"JNG","transit":true},{"time":3,"station_name":"Klender","station_id":"KLD","i_lat":-6.2135,"line":1,"distance":3395,"i_long":106.899548,"is_transit":false,"transit":false},{"i_long":106.922662,"line":1,"time":2,"is_transit":false,"station_id":"BUA","distance":3100,"station_name":"Buaran","transit":false,"i_lat":-6.215568}],[{"i_long":106.771379,"distance":0,"transit":false,"line":5,"time":0,"is_transit":false,"station_id":"PSG","i_lat":-6.161433,"station_name":"Pesing"},{"station_id":"GRG","station_name":"Grogol","transit":false,"i_long":106.788277,"is_transit":false,"time":2,"i_lat":-6.162021,"distance":2036,"line":5},{"i_lat":-6.155215,"station_id":"DU","distance":1700,"station_name":"Duri","is_transit":true,"i_long":106.800832,"line":1,"time":3,"transit":true},{"i_long":106.79867,"line":1,"station_id":"AK","i_lat":-6.144674,"time":4,"is_transit":false,"station_name":"Angke","distance":1230,"transit":false},{"time":9,"station_name":"Kampung Bandan","station_id":"KPB","i_long":106.826365,"transit":true,"is_transit":true,"i_lat":-6.132549,"line":4,"distance":4102},{"station_id":"JAKK","transit":true,"time":3,"station_name":"Jakarta Kota","line":2,"i_lat":-6.137569,"distance":1364,"i_long":106.812439,"is_transit":true},{"transit":false,"station_name":"Jayakarta","distance":1264,"station_id":"JAY","i_lat":-6.141205,"is_transit":false,"i_long":106.820901,"line":2,"time":4},{"time":2,"transit":false,"i_lat":-6.149769,"i_long":106.82482,"is_transit":false,"station_name":"Manggabesar","line":2,"distance":1080,"station_id":"MGB"},{"i_long":106.827103,"distance":906,"station_name":"Sawah Besar","is_transit":false,"i_lat":-6.160725,"time":2,"line":2,"station_id":"SW","transit":false},{"station_id":"JUA","transit":false,"time":2,"i_lat":-6.166716,"line":2,"is_transit":false,"i_long":106.828284,"distance":1149,"station_name":"Juanda"},{"station_id":"GDD","station_name":"Gondangdia","line":2,"distance":2015,"i_lat":-6.186295,"is_transit":false,"i_long":106.832183,"transit":false,"time":4},{"line":2,"station_id":"CKI","i_lat":-6.198556,"distance":1750,"time":3,"is_transit":false,"transit":false,"station_name":"Cikini","i_long":106.840169},{"station_id":"MRI","transit":true,"time":4,"distance":1590,"i_lat":-6.209883,"is_transit":true,"line":2,"i_long":106.84912,"station_name":"Manggarai"},{"is_transit":false,"station_name":"Matraman","transit":false,"i_lat":-6.212485,"station_id":"MTR","line":1,"time":2,"i_long":106.858896,"distance":1275},{"is_transit":false,"i_long":106.86807400000001,"station_name":"Jatinegara","line":1,"transit":false,"time":8,"distance":1377,"i_lat":-6.215091,"station_id":"JNG"},{"line":1,"station_id":"KLD","time":3,"is_transit":false,"distance":3395,"station_name":"Klender","i_long":106.899548,"i_lat":-6.2135,"transit":false},{"distance":3100,"transit":false,"station_id":"BUA","line":1,"i_lat":-6.215568,"i_long":106.922662,"time":2,"is_transit":false,"station_name":"Buaran"}],[{"line":5,"transit":false,"time":0,"is_transit":false,"station_name":"Pesing","distance":0,"station_id":"PSG","i_long":106.771379,"i_lat":-6.161433},{"line":5,"station_name":"Grogol","station_id":"GRG","is_transit":false,"time":2,"transit":false,"i_lat":-6.162021,"distance":2036,"i_long":106.788277},{"is_transit":true,"line":1,"transit":true,"i_lat":-6.155215,"time":3,"station_id":"DU","station_name":"Duri","distance":1700,"i_long":106.800832},{"station_id":"THB","station_name":"Tanah Abang","i_long":106.811091,"line":1,"transit":false,"is_transit":false,"distance":3632,"i_lat":-6.185545,"time":8},{"transit":false,"i_lat":-6.20132,"i_long":106.816351,"is_transit":false,"line":1,"time":5,"distance":2029,"station_name":"Karet","station_id":"KAT"},{"station_name":"Sudirman Baru","is_transit":false,"transit":false,"station_id":"SUDB","i_long":106.819881,"line":1,"i_lat":-6.201433,"time":1,"distance":471},{"i_lat":-6.202263,"station_name":"Sudirman","i_long":106.822649,"line":1,"distance":280,"station_id":"SUD","is_transit":false,"time":1,"transit":false},{"station_name":"Manggarai","is_transit":true,"transit":true,"station_id":"MRI","i_lat":-6.209883,"i_long":106.84912,"line":2,"time":4,"distance":3186},{"line":2,"station_id":"CKI","is_transit":false,"station_name":"Cikini","i_lat":-6.198556,"distance":1590,"transit":false,"time":4,"i_long":106.840169},{"line":2,"i_long":106.832183,"transit":false,"station_name":"Gondangdia","i_lat":-6.186295,"is_transit":false,"station_id":"GDD","distance":1750,"time":3},{"transit":false,"is_transit":false,"station_id":"JUA","i_long":106.828284,"time":4,"distance":2015,"station_name":"Juanda","i_lat":-6.166716,"line":2},{"time":2,"distance":1149,"is_transit":false,"transit":false,"station_name":"Sawah Besar","line":2,"i_lat":-6.160725,"i_long":106.827103,"station_id":"SW"},{"line":2,"distance":906,"is_transit":false,"station_id":"MGB","i_lat":-6.149769,"time":2,"i_long":106.82482,"transit":false,"station_name":"Manggabesar"},{"station_name":"Jayakarta","time":2,"i_long":106.820901,"is_transit":false,"distance":1080,"i_lat":-6.141205,"station_id":"JAY","transit":false,"line":2},{"time":4,"distance":1264,"is_transit":true,"transit":true,"i_long":106.812439,"line":2,"i_lat":-6.137569,"station_id":"JAKK","station_name":"Jakarta Kota"},{"distance":1364,"time":3,"station_id":"KPB","station_name":"Kampung Bandan","line":4,"i_long":106.826365,"is_transit":true,"transit":true,"i_lat":-6.132549},{"station_name":"Rajawali","station_id":"RJW","transit":false,"distance":1444,"is_transit":false,"i_long":106.836569,"i_lat":-6.14505,"line":11,"time":3},{"station_id":"KMO","time":5,"i_long":106.839204,"transit":false,"i_lat":-6.161728,"is_transit":false,"distance":1901,"station_name":"Kemayoran","line":11},{"station_id":"PSE","time":4,"transit":false,"station_name":"Pasar Senen","distance":1436,"line":11,"i_lat":-6.174784,"i_long":106.84368,"is_transit":false},{"i_lat":-6.185975,"line":11,"i_long":106.850107,"station_id":"GST","is_transit":false,"distance":1567,"station_name":"Gang Sentiong","transit":false,"time":8},{"distance":973,"station_id":"KMT","time":1,"i_long":106.855437,"transit":false,"station_name":"Kramat","is_transit":false,"i_lat":-6.193792,"line":11},{"transit":false,"is_transit":false,"time":2,"distance":1829,"i_lat":-6.209188,"station_name":"Pondok Jati","i_long":106.861737,"line":11,"station_id":"POK"},{"time":9,"distance":1236,"station_id":"JNG","is_transit":true,"line":1,"i_lat":-6.215091,"station_name":"Jatinegara","i_long":106.86807400000001,"transit":true},{"is_transit":false,"distance":3395,"line":1,"i_long":106.899548,"station_name":"Klender","station_id":"KLD","i_lat":-6.2135,"time":3,"transit":false},{"time":2,"i_lat":-6.215568,"i_long":106.922662,"line":1,"distance":3100,"is_transit":false,"station_name":"Buaran","transit":false,"station_id":"BUA"}]]}