{"data":[[{"station_name":"Pesing","i_long":106.771379,"line":5,"transit":false,"is_transit":false,"station_id":"PSG","i_lat":-6.161433,"time":0,"distance":0},{"line":5,"i_lat":-6.162021,"distance":2036,"is_transit":false,"i_long":106.788277,"transit":false,"station_name":"Grogol","time":2,"station_id":"GGL"},{"line":1,"transit":true,"time":3,"i_lat":-6.155215,"i_long":106.800832,"station_name":"Duri","is_transit":true,"distance":1700,"station_id":"DU"},{"i_long":106.811091,"station_name":"Tanah Abang","transit":false,"i_lat":-6.185545,"line":1,"time":8,"is_transit":false,"station_id":"THB","distance":3632},{"station_name":"Karet","i_lat":-6.20132,"time":5,"i_long":106.816351,"station_id":"KAT","is_transit":false,"line":1,"distance":2029,"transit":false},{"time":1,"is_transit":false,"i_lat":-6.201433,"transit":false,"station_id":"SUDB","line":1,"i_long":106.819881,"distance":471,"station_name":"Sudirman Baru"},{"transit":false,"i_long":106.822649,"distance":280,"station_name":"Sudirman","is_transit":false,"time":1,"station_id":"SUD","i_lat":-6.202263,"line":1},{"line":2,"is_transit":true,"i_lat":-6.209883,"time":4,"station_id":"MRI","i_long":106.84912,"transit":true,"distance":3186,"station_name":"Manggarai"},{"distance":2610,"station_name":"Tebet","time":4,"station_id":"TEB","i_lat":-6.226659,"i_long":106.857948,"is_transit":false,"transit":false,"line":2},{"station_name":"Cawang","is_transit":false,"i_long":106.856607,"line":2,"distance":1230,"transit":false,"i_lat":-6.242512,"time":2,"station_id":"CW"},{"is_transit":false,"i_lat":-6.255332,"line":2,"station_name":"Duren Kalibata","transit":false,"distance":1546,"time":3,"i_long":106.85449,"station_id":"DRN"},{"station_name":"Pasar Minggu Baru","is_transit":false,"i_lat":-6.263214,"station_id":"PSMB","line":2,"transit":false,"distance":824,"i_long":106.851577,"time":2},{"transit":false,"i_long":106.843999,"station_id":"PSM","i_lat":-6.2842400000000005,"station_name":"Pasar Minggu","is_transit":false,"line":2,"distance":2380,"time":2},{"i_long":106.838896,"i_lat":-6.3080680000000005,"station_id":"TNT","transit":false,"line":2,"is_transit":false,"station_name":"Tanjung Barat","distance":2820,"time":4},{"time":3,"i_long":106.832616,"i_lat":-6.330363,"station_id":"LNA","is_transit":false,"transit":false,"line":2,"distance":2671,"station_name":"Lenteng Agung"},{"is_transit":false,"line":2,"i_long":106.834175,"distance":1029,"i_lat":-6.339291,"station_name":"Univ. Pancasila","transit":false,"station_id":"UP","time":2},{"i_long":106.831474,"transit":false,"station_name":"Univ. Indonesia","distance":2264,"i_lat":-6.360749,"line":2,"station_id":"UI","is_transit":false,"time":3},{"station_id":"POC","i_lat":-6.369073,"line":2,"is_transit":false,"distance":1109,"transit":false,"station_name":"Pondok Cina","i_long":106.831114,"time":2},{"station_id":"DPB","i_long":106.819451,"time":4,"is_transit":false,"station_name":"Depokbaru","i_lat":-6.391065,"line":2,"transit":false,"distance":2727},{"is_transit":false,"station_name":"Depok","distance":1584,"line":2,"station_id":"DP","i_long":106.816926,"i_lat":-6.405256,"transit":false,"time":3},{"i_long":106.800298,"time":6,"station_name":"Citayam","i_lat":-6.448811,"is_transit":true,"transit":true,"line":2,"distance":5084,"station_id":"CTA"},{"time":0,"is_transit":false,"transit":false,"station_name":"Pondok Rajeg","station_id":"PDRG","distance":0,"i_lat":-6.460735,"i_long":106.824374,"line":21},{"distance":0,"time":0,"line":21,"station_name":"Cibinong","i_lat":-6.46424,"i_long":106.851978,"transit":false,"station_id":"CBN","is_transit":false}],[{"station_name":"Pesing","i_lat":-6.161433,"line":5,"i_long":106.771379,"time":0,"distance":0,"is_transit":false,"transit":false,"station_id":"PSG"},{"line":5,"i_long":106.788277,"distance":2036,"is_transit":false,"time":2,"transit":false,"station_name":"Grogol","station_id":"GGL","i_lat":-6.162021},{"i_long":106.800832,"distance":1700,"is_transit":true,"i_lat":-6.155215,"line":1,"time":3,"station_id":"DU","station_name":"Duri","transit":true},{"line":1,"time":4,"station_id":"AK","distance":1230,"station_name":"Angke","is_transit":false,"transit":false,"i_lat":-6.144674,"i_long":106.79867},{"transit":true,"station_id":"KPB","i_long":106.826365,"time":9,"station_name":"Kampung Bandan","i_lat":-6.132549,"line":4,"is_transit":true,"distance":4102},{"is_transit":true,"distance":1364,"time":3,"transit":true,"station_name":"Jakarta Kota","station_id":"JAKK","i_lat":-6.137569,"i_long":106.812439,"line":2},{"station_name":"Jayakarta","is_transit":false,"transit":false,"station_id":"JAY","line":2,"i_long":106.820901,"time":4,"i_lat":-6.141205,"distance":1264},{"i_long":106.82482,"line":2,"time":2,"transit":false,"station_name":"Manggabesar","i_lat":-6.149769,"distance":1080,"station_id":"MGB","is_transit":false},{"time":2,"station_name":"Sawah Besar","i_lat":-6.160725,"is_transit":false,"station_id":"SW","i_long":106.827103,"line":2,"distance":906,"transit":false},{"distance":1149,"is_transit":false,"transit":false,"line":2,"i_long":106.828284,"station_name":"Juanda","station_id":"JUA","i_lat":-6.166716,"time":2},{"time":4,"line":2,"is_transit":false,"distance":2015,"station_id":"GDD","i_long":106.832183,"i_lat":-6.186295,"station_name":"Gondangdia","transit":false},{"station_id":"CKI","i_lat":-6.198556,"time":3,"distance":1750,"transit":false,"is_transit":false,"station_name":"Cikini","i_long":106.840169,"line":2},{"is_transit":false,"transit":false,"station_id":"MRI","line":2,"time":4,"station_name":"Manggarai","i_long":106.84912,"i_lat":-6.209883,"distance":1590},{"transit":false,"station_id":"TEB","distance":2610,"station_name":"Tebet","is_transit":false,"time":4,"i_lat":-6.226659,"i_long":106.857948,"line":2},{"time":2,"distance":1230,"transit":false,"line":2,"i_long":106.856607,"station_id":"CW","is_transit":false,"station_name":"Cawang","i_lat":-6.242512},{"is_transit":false,"station_id":"DRN","line":2,"transit":false,"time":3,"station_name":"Duren Kalibata","i_lat":-6.255332,"i_long":106.85449,"distance":1546},{"station_name":"Pasar Minggu Baru","i_lat":-6.263214,"is_transit":false,"time":2,"i_long":106.851577,"transit":false,"line":2,"station_id":"PSMB","distance":824},{"station_id":"PSM","is_transit":false,"distance":2380,"transit":false,"line":2,"i_long":106.843999,"time":2,"station_name":"Pasar Minggu","i_lat":-6.2842400000000005},{"i_lat":-6.3080680000000005,"time":4,"station_id":"TNT","line":2,"is_transit":false,"distance":2820,"transit":false,"station_name":"Tanjung Barat","i_long":106.838896},{"time":3,"station_id":"LNA","distance":2671,"i_long":106.832616,"station_name":"Lenteng Agung","transit":false,"i_lat":-6.330363,"is_transit":false,"line":2},{"transit":false,"i_long":106.834175,"distance":1029,"station_name":"Univ. Pancasila","is_transit":false,"station_id":"UP","i_lat":-6.339291,"line":2,"time":2},{"i_lat":-6.360749,"i_long":106.831474,"distance":2264,"station_id":"UI","station_name":"Univ. Indonesia","time":3,"is_transit":false,"transit":false,"line":2},{"station_id":"POC","is_transit":false,"time":2,"i_lat":-6.369073,"i_long":106.831114,"line":2,"distance":1109,"station_name":"Pondok Cina","transit":false},{"is_transit":false,"line":2,"transit":false,"i_long":106.819451,"distance":2727,"i_lat":-6.391065,"station_name":"Depokbaru","station_id":"DPB","time":4},{"distance":1584,"i_long":106.816926,"transit":false,"is_transit":false,"line":2,"station_name":"Depok","station_id":"DP","i_lat":-6.405256,"time":3},{"station_id":"CTA","station_name":"Citayam","i_long":106.800298,"line":2,"time":6,"distance":5084,"transit":true,"i_lat":-6.448811,"is_transit":true},{"transit":false,"i_long":106.824374,"station_name":"Pondok Rajeg","line":21,"is_transit":false,"i_lat":-6.460735,"station_id":"PDRG","time":0,"distance":0},{"i_lat":-6.46424,"i_long":106.851978,"station_id":"CBN","station_name":"Cibinong","is_transit":false,"line":21,"time":0,"transit":false,"distance":0}],[{"i_lat":-6.161433,"i_long":106.771379,"station_id":"PSG","transit":false,"time":0,"distance":0,"station_name":"Pesing","is_transit":false,"line":5},{"distance":2036,"station_name":"Grogol","i_long":106.788277,"transit":false,"is_transit":false,"time":2,"i_lat":-6.162021,"line":5,"station_id":"GGL"},{"i_lat":-6.155215,"station_id":"DU","time":3,"i_long":106.800832,"distance":1700,"station_name":"Duri","line":1,"transit":true,"is_transit":true},{"is_transit":false,"i_long":106.79867,"distance":1230,"i_lat":-6.144674,"time":4,"line":1,"station_id":"AK","transit":false,"station_name":"Angke"},{"time":9,"station_name":"Kampung Bandan","i_long":106.826365,"i_lat":-6.132549,"transit":true,"distance":4102,"is_transit":true,"line":4,"station_id":"KPB"},{"i_long":106.836569,"distance":1444,"time":3,"station_id":"RJW","line":11,"is_transit":false,"station_name":"Rajawali","transit":false,"i_lat":-6.14505},{"distance":1901,"i_long":106.839204,"station_name":"Kemayoran","i_lat":-6.161728,"line":11,"station_id":"KMO","transit":false,"is_transit":false,"time":5},{"time":4,"i_long":106.84368,"i_lat":-6.174784,"is_transit":false,"transit":false,"station_name":"Pasar Senen","line":11,"station_id":"PSE","distance":1436},{"i_long":106.850107,"i_lat":-6.185975,"distance":1567,"station_name":"Gang Sentiong","time":8,"transit":false,"is_transit":false,"station_id":"GST","line":11},{"station_name":"Kramat","time":1,"station_id":"KMT","i_lat":-6.193792,"line":11,"i_long":106.855437,"transit":false,"is_transit":false,"distance":973},{"transit":false,"time":2,"i_lat":-6.209188,"i_long":106.861737,"is_transit":false,"station_name":"Pondok Jati","line":11,"distance":1829,"station_id":"POK"},{"station_id":"JNG","i_lat":-6.215091,"is_transit":true,"line":1,"time":9,"i_long":106.86807400000001,"station_name":"Jatinegara","transit":true,"distance":1236},{"transit":false,"distance":1377,"line":1,"i_lat":-6.212485,"station_id":"MTR","is_transit":false,"i_long":106.858896,"time":2,"station_name":"Matraman"},{"station_name":"Manggarai","is_transit":true,"time":2,"station_id":"MRI","line":2,"i_long":106.84912,"transit":true,"i_lat":-6.209883,"distance":1275},{"time":4,"distance":2610,"station_id":"TEB","station_name":"Tebet","transit":false,"is_transit":false,"i_lat":-6.226659,"i_long":106.857948,"line":2},{"distance":1230,"time":2,"i_lat":-6.242512,"i_long":106.856607,"is_transit":false,"station_id":"CW","station_name":"Cawang","transit":false,"line":2},{"i_long":106.85449,"distance":1546,"station_id":"DRN","is_transit":false,"station_name":"Duren Kalibata","line":2,"transit":false,"time":3,"i_lat":-6.255332},{"station_name":"Pasar Minggu Baru","time":2,"transit":false,"is_transit":false,"line":2,"distance":824,"station_id":"PSMB","i_lat":-6.263214,"i_long":106.851577},{"i_lat":-6.2842400000000005,"i_long":106.843999,"time":2,"transit":false,"distance":2380,"is_transit":false,"station_name":"Pasar Minggu","station_id":"PSM","line":2},{"station_name":"Tanjung Barat","distance":2820,"i_lat":-6.3080680000000005,"time":4,"station_id":"TNT","is_transit":false,"line":2,"i_long":106.838896,"transit":false},{"line":2,"time":3,"is_transit":false,"i_lat":-6.330363,"distance":2671,"station_id":"LNA","station_name":"Lenteng Agung","transit":false,"i_long":106.832616},{"station_name":"Univ. Pancasila","transit":false,"line":2,"time":2,"i_lat":-6.339291,"is_transit":false,"station_id":"UP","i_long":106.834175,"distance":1029},{"distance":2264,"station_id":"UI","i_lat":-6.360749,"station_name":"Univ. Indonesia","transit":false,"i_long":106.831474,"is_transit":false,"line":2,"time":3},{"time":2,"line":2,"transit":false,"i_long":106.831114,"distance":1109,"station_name":"Pondok Cina","station_id":"POC","is_transit":false,"i_lat":-6.369073},{"line":2,"distance":2727,"station_name":"Depokbaru","station_id":"DPB","transit":false,"is_transit":false,"i_lat":-6.391065,"i_long":106.819451,"time":4},{"station_name":"Depok","line":2,"i_long":106.816926,"distance":1584,"time":3,"is_transit":false,"station_id":"DP","transit":false,"i_lat":-6.405256},{"station_id":"CTA","line":2,"transit":true,"time":6,"station_name":"Citayam","is_transit":true,"i_lat":-6.448811,"i_long":106.800298,"distance":5084},{"i_long":106.824374,"is_transit":false,"transit":false,"distance":0,"station_id":"PDRG","i_lat":-6.460735,"time":0,"line":21,"station_name":"Pondok Rajeg"},{"station_name":"Cibinong","i_long":106.851978,"transit":false,"station_id":"CBN","is_transit":false,"distance":0,"time":0,"line":21,"i_lat":-6.46424}]]}