{"data":[[{"station_name":"Pesing","i_lat":-6.161433,"transit":false,"i_long":106.771379,"station_id":"PSG","line":5,"time":0,"is_transit":false,"distance":0},{"is_transit":false,"i_long":106.788277,"transit":false,"distance":2036,"station_id":"GGL","i_lat":-6.162021,"time":2,"line":5,"station_name":"Grogol"},{"line":1,"i_lat":-6.155215,"is_transit":true,"transit":true,"distance":1700,"i_long":106.800832,"station_id":"DU","time":3,"station_name":"Duri"},{"i_lat":-6.185545,"distance":3632,"station_name":"Tanah Abang","station_id":"THB","transit":false,"is_transit":false,"time":8,"line":1,"i_long":106.811091},{"distance":2029,"station_id":"KAT","is_transit":false,"station_name":"Karet","time":5,"i_long":106.816351,"i_lat":-6.20132,"line":1,"transit":false},{"i_long":106.819881,"is_transit":false,"line":1,"i_lat":-6.201433,"transit":false,"station_name":"Sudirman Baru","station_id":"SUDB","time":1,"distance":471},{"transit":false,"i_long":106.822649,"station_name":"Sudirman","station_id":"SUD","i_lat":-6.202263,"line":1,"is_transit":false,"time":1,"distance":280},{"i_long":106.84912,"transit":false,"is_transit":false,"time":4,"station_id":"MRI","line":2,"i_lat":-6.209883,"station_name":"Manggarai","distance":3186},{"station_id":"MTR","transit":false,"station_name":"Matraman","is_transit":false,"distance":1275,"i_long":106.858896,"i_lat":-6.212485,"line":1,"time":2},{"station_id":"JNG","i_long":106.86807400000001,"is_transit":false,"time":8,"distance":1377,"station_name":"Jatinegara","i_lat":-6.215091,"line":1,"transit":false},{"transit":false,"distance":3395,"i_long":106.899548,"station_name":"Klender","station_id":"KLD","time":3,"i_lat":-6.2135,"is_transit":false,"line":1},{"station_id":"BUA","transit":false,"time":2,"distance":3100,"i_lat":-6.215568,"i_long":106.922662,"is_transit":false,"station_name":"Buaran","line":1},{"station_name":"Klenderbaru","is_transit":false,"time":1,"distance":1305,"i_lat":-6.217455,"i_long":106.939679,"line":1,"transit":false,"station_id":"KLDB"},{"distance":1385,"i_lat":-6.219053,"time":8,"station_name":"Cakung","transit":false,"line":1,"i_long":106.951283,"is_transit":false,"station_id":"CUK"}],[{"distance":0,"i_long":106.771379,"is_transit":false,"station_name":"Pesing","station_id":"PSG","transit":false,"time":0,"i_lat":-6.161433,"line":5},{"distance":2036,"i_long":106.788277,"transit":false,"is_transit":false,"line":5,"station_id":"GGL","station_name":"Grogol","i_lat":-6.162021,"time":2},{"station_name":"Duri","time":3,"transit":true,"line":1,"distance":1700,"station_id":"DU","i_lat":-6.155215,"is_transit":true,"i_long":106.800832},{"is_transit":false,"line":1,"time":4,"distance":1230,"station_id":"AK","transit":false,"station_name":"Angke","i_lat":-6.144674,"i_long":106.79867},{"distance":4102,"line":4,"time":9,"i_lat":-6.132549,"station_id":"KPB","is_transit":true,"station_name":"Kampung Bandan","i_long":106.826365,"transit":true},{"i_lat":-6.14505,"is_transit":false,"line":11,"time":3,"transit":false,"distance":1444,"station_name":"Rajawali","station_id":"RJW","i_long":106.836569},{"is_transit":false,"distance":1901,"station_name":"Kemayoran","i_long":106.839204,"station_id":"KMO","line":11,"i_lat":-6.161728,"time":5,"transit":false},{"i_lat":-6.174784,"line":11,"time":4,"transit":false,"is_transit":false,"station_name":"Pasar Senen","station_id":"PSE","i_long":106.84368,"distance":1436},{"station_name":"Gang Sentiong","is_transit":false,"distance":1567,"station_id":"GST","i_long":106.850107,"transit":false,"time":8,"i_lat":-6.185975,"line":11},{"line":11,"station_name":"Kramat","is_transit":false,"time":1,"transit":false,"distance":973,"station_id":"KMT","i_lat":-6.193792,"i_long":106.855437},{"i_long":106.861737,"station_name":"Pondok Jati","distance":1829,"time":2,"i_lat":-6.209188,"line":11,"transit":false,"is_transit":false,"station_id":"POK"},{"distance":1236,"is_transit":true,"transit":true,"i_lat":-6.215091,"station_name":"Jatinegara","time":9,"i_long":106.86807400000001,"station_id":"JNG","line":1},{"transit":false,"i_long":106.899548,"station_id":"KLD","is_transit":false,"distance":3395,"line":1,"station_name":"Klender","i_lat":-6.2135,"time":3},{"i_long":106.922662,"station_name":"Buaran","line":1,"i_lat":-6.215568,"distance":3100,"time":2,"is_transit":false,"station_id":"BUA","transit":false},{"time":1,"station_name":"Klenderbaru","distance":1305,"i_lat":-6.217455,"i_long":106.939679,"line":1,"station_id":"KLDB","is_transit":false,"transit":false},{"transit":false,"station_name":"Cakung","station_id":"CUK","distance":1385,"i_long":106.951283,"time":8,"is_transit":false,"line":1,"i_lat":-6.219053}],[{"station_name":"Pesing","transit":false,"time":0,"station_id":"PSG","distance":0,"is_transit":false,"i_lat":-6.161433,"i_long":106.771379,"line":5},{"line":5,"station_name":"Grogol","transit":false,"time":2,"station_id":"GGL","distance":2036,"i_lat":-6.162021,"is_transit":false,"i_long":106.788277},{"time":3,"transit":true,"station_id":"DU","is_transit":true,"distance":1700,"i_lat":-6.155215,"line":1,"station_name":"Duri","i_long":106.800832},{"transit":false,"line":1,"i_long":106.79867,"station_name":"Angke","is_transit":false,"i_lat":-6.144674,"station_id":"AK","time":4,"distance":1230},{"time":9,"line":4,"station_name":"Kampung Bandan","station_id":"KPB","transit":true,"i_lat":-6.132549,"i_long":106.826365,"distance":4102,"is_transit":true},{"i_lat":-6.137569,"i_long":106.812439,"transit":true,"station_name":"Jakarta Kota","time":3,"is_transit":true,"distance":1364,"line":2,"station_id":"JAKK"},{"is_transit":false,"line":2,"time":4,"transit":false,"i_lat":-6.141205,"station_name":"Jayakarta","distance":1264,"i_long":106.820901,"station_id":"JAY"},{"i_lat":-6.149769,"station_name":"Manggabesar","distance":1080,"i_long":106.82482,"station_id":"MGB","is_transit":false,"line":2,"transit":false,"time":2},{"is_transit":false,"time":2,"line":2,"i_long":106.827103,"station_id":"SW","station_name":"Sawah Besar","distance":906,"transit":false,"i_lat":-6.160725},{"distance":1149,"line":2,"station_id":"JUA","time":2,"i_lat":-6.166716,"is_transit":false,"i_long":106.828284,"station_name":"Juanda","transit":false},{"transit":false,"time":4,"station_id":"GDD","i_lat":-6.186295,"distance":2015,"i_long":106.832183,"line":2,"is_transit":false,"station_name":"Gondangdia"},{"station_id":"CKI","is_transit":false,"i_long":106.840169,"distance":1750,"line":2,"time":3,"station_name":"Cikini","i_lat":-6.198556,"transit":false},{"station_id":"MRI","time":4,"transit":true,"is_transit":true,"i_long":106.84912,"station_name":"Manggarai","i_lat":-6.209883,"distance":1590,"line":2},{"transit":false,"is_transit":false,"line":1,"station_id":"MTR","i_lat":-6.212485,"distance":1275,"i_long":106.858896,"time":2,"station_name":"Matraman"},{"line":1,"distance":1377,"station_id":"JNG","i_lat":-6.215091,"transit":false,"i_long":106.86807400000001,"station_name":"Jatinegara","time":8,"is_transit":false},{"transit":false,"line":1,"station_name":"Klender","distance":3395,"station_id":"KLD","is_transit":false,"i_long":106.899548,"i_lat":-6.2135,"time":3},{"is_transit":false,"distance":3100,"i_long":106.922662,"transit":false,"line":1,"time":2,"station_name":"Buaran","i_lat":-6.215568,"station_id":"BUA"},{"i_long":106.939679,"station_id":"KLDB","time":1,"station_name":"Klenderbaru","distance":1305,"is_transit":false,"i_lat":-6.217455,"line":1,"transit":false},{"station_name":"Cakung","distance":1385,"is_transit":false,"i_lat":-6.219053,"time":8,"transit":false,"i_long":106.951283,"line":1,"station_id":"CUK"}],[{"is_transit":false,"transit":false,"station_name":"Pesing","distance":0,"time":0,"i_lat":-6.161433,"line":5,"station_id":"PSG","i_long":106.771379},{"transit":false,"station_id":"GGL","is_transit":false,"i_long":106.788277,"line":5,"i_lat":-6.162021,"station_name":"Grogol","time":2,"distance":2036},{"line":1,"station_id":"DU","distance":1700,"i_long":106.800832,"time":3,"transit":true,"station_name":"Duri","is_transit":true,"i_lat":-6.155215},{"distance":3632,"station_name":"Tanah Abang","is_transit":false,"line":1,"time":8,"i_lat":-6.185545,"transit":false,"i_long":106.811091,"station_id":"THB"},{"station_id":"KAT","distance":2029,"i_lat":-6.20132,"i_long":106.816351,"is_transit":false,"transit":false,"station_name":"Karet","line":1,"time":5},{"i_long":106.819881,"time":1,"i_lat":-6.201433,"line":1,"distance":471,"transit":false,"station_name":"Sudirman Baru","station_id":"SUDB","is_transit":false},{"distance":280,"i_lat":-6.202263,"station_name":"Sudirman","is_transit":false,"station_id":"SUD","time":1,"i_long":106.822649,"line":1,"transit":false},{"is_transit":true,"distance":3186,"station_name":"Manggarai","station_id":"MRI","transit":true,"time":4,"i_lat":-6.209883,"i_long":106.84912,"line":2},{"station_name":"Cikini","time":4,"station_id":"CKI","distance":1590,"i_long":106.840169,"i_lat":-6.198556,"is_transit":false,"transit":false,"line":2},{"is_transit":false,"station_id":"GDD","line":2,"time":3,"i_lat":-6.186295,"station_name":"Gondangdia","transit":false,"distance":1750,"i_long":106.832183},{"line":2,"transit":false,"distance":2015,"station_id":"JUA","i_lat":-6.166716,"station_name":"Juanda","is_transit":false,"time":4,"i_long":106.828284},{"distance":1149,"is_transit":false,"station_name":"Sawah Besar","transit":false,"time":2,"i_lat":-6.160725,"line":2,"station_id":"SW","i_long":106.827103},{"line":2,"distance":906,"i_long":106.82482,"station_id":"MGB","is_transit":false,"time":2,"station_name":"Manggabesar","i_lat":-6.149769,"transit":false},{"line":2,"station_name":"Jayakarta","transit":false,"distance":1080,"time":2,"i_lat":-6.141205,"station_id":"JAY","is_transit":false,"i_long":106.820901},{"time":4,"distance":1264,"i_lat":-6.137569,"station_id":"JAKK","is_transit":true,"line":2,"i_long":106.812439,"station_name":"Jakarta Kota","transit":true},{"station_id":"KPB","is_transit":true,"distance":1364,"i_lat":-6.132549,"i_long":106.826365,"station_name":"Kampung Bandan","time":3,"line":4,"transit":true},{"distance":1444,"i_long":106.836569,"line":11,"station_name":"Rajawali","time":3,"is_transit":false,"transit":false,"station_id":"RJW","i_lat":-6.14505},{"distance":1901,"time":5,"is_transit":false,"station_id":"KMO","line":11,"i_lat":-6.161728,"transit":false,"i_long":106.839204,"station_name":"Kemayoran"},{"station_name":"Pasar Senen","i_lat":-6.174784,"transit":false,"station_id":"PSE","time":4,"distance":1436,"i_long":106.84368,"is_transit":false,"line":11},{"is_transit":false,"station_id":"GST","time":8,"i_lat":-6.185975,"i_long":106.850107,"line":11,"station_name":"Gang Sentiong","distance":1567,"transit":false},{"time":1,"line":11,"station_name":"Kramat","distance":973,"transit":false,"station_id":"KMT","i_lat":-6.193792,"i_long":106.855437,"is_transit":false},{"is_transit":false,"time":2,"station_id":"POK","i_lat":-6.209188,"station_name":"Pondok Jati","i_long":106.861737,"line":11,"transit":false,"distance":1829},{"i_lat":-6.215091,"line":1,"station_name":"Jatinegara","distance":1236,"station_id":"JNG","time":9,"i_long":106.86807400000001,"is_transit":true,"transit":true},{"station_id":"KLD","i_lat":-6.2135,"transit":false,"station_name":"Klender","time":3,"distance":3395,"i_long":106.899548,"is_transit":false,"line":1},{"i_lat":-6.215568,"distance":3100,"transit":false,"i_long":106.922662,"line":1,"station_name":"Buaran","time":2,"station_id":"BUA","is_transit":false},{"line":1,"transit":false,"station_name":"Klenderbaru","time":1,"station_id":"KLDB","is_transit":false,"i_lat":-6.217455,"i_long":106.939679,"distance":1305},{"transit":false,"i_lat":-6.219053,"time":8,"distance":1385,"i_long":106.951283,"line":1,"station_id":"CUK","is_transit":false,"station_name":"Cakung"}]]}