{"data":[[{"i_long":106.771379,"is_transit":false,"transit":false,"distance":0,"time":0,"station_name":"Pesing","i_lat":-6.161433,"station_id":"PSG","line":5},{"is_transit":false,"line":5,"i_long":106.788277,"station_name":"Grogol","i_lat":-6.162021,"transit":false,"distance":2036,"station_id":"GGL","time":2},{"i_lat":-6.155215,"transit":true,"is_transit":true,"i_long":106.800832,"time":3,"line":1,"distance":1700,"station_id":"DU","station_name":"Duri"},{"i_long":106.811091,"is_transit":false,"transit":false,"line":1,"station_name":"Tanah Abang","time":8,"i_lat":-6.185545,"distance":3632,"station_id":"THB"},{"line":1,"distance":2029,"time":5,"is_transit":false,"i_lat":-6.20132,"station_id":"KAT","station_name":"Karet","transit":false,"i_long":106.816351},{"station_name":"Sudirman Baru","is_transit":false,"line":1,"distance":471,"time":1,"station_id":"SUDB","transit":false,"i_lat":-6.201433,"i_long":106.819881},{"station_name":"Sudirman","time":1,"i_lat":-6.202263,"line":1,"distance":280,"station_id":"SUD","is_transit":false,"i_long":106.822649,"transit":false}],[{"distance":0,"station_id":"PSG","station_name":"Pesing","transit":false,"is_transit":false,"i_long":106.771379,"i_lat":-6.161433,"line":5,"time":0},{"station_id":"GGL","is_transit":false,"station_name":"Grogol","i_long":106.788277,"i_lat":-6.162021,"line":5,"time":2,"distance":2036,"transit":false},{"distance":1700,"station_name":"Duri","station_id":"DU","is_transit":true,"time":3,"i_long":106.800832,"line":1,"transit":true,"i_lat":-6.155215},{"i_long":106.79867,"line":1,"station_name":"Angke","time":4,"distance":1230,"i_lat":-6.144674,"transit":false,"station_id":"AK","is_transit":false},{"station_id":"KPB","transit":true,"line":4,"station_name":"Kampung Bandan","i_long":106.826365,"i_lat":-6.132549,"distance":4102,"is_transit":true,"time":9},{"is_transit":true,"distance":1364,"time":3,"station_name":"Jakarta Kota","i_long":106.812439,"line":2,"station_id":"JAKK","transit":true,"i_lat":-6.137569},{"line":2,"station_name":"Jayakarta","is_transit":false,"i_long":106.820901,"time":4,"station_id":"JAY","transit":false,"i_lat":-6.141205,"distance":1264},{"transit":false,"station_name":"Manggabesar","i_long":106.82482,"line":2,"i_lat":-6.149769,"station_id":"MGB","is_transit":false,"distance":1080,"time":2},{"station_name":"Sawah Besar","transit":false,"time":2,"i_long":106.827103,"station_id":"SW","distance":906,"line":2,"i_lat":-6.160725,"is_transit":false},{"i_lat":-6.166716,"distance":1149,"transit":false,"station_name":"Juanda","time":2,"i_long":106.828284,"station_id":"JUA","line":2,"is_transit":false},{"line":2,"station_id":"GDD","time":4,"i_long":106.832183,"distance":2015,"is_transit":false,"transit":false,"station_name":"Gondangdia","i_lat":-6.186295},{"distance":1750,"transit":false,"is_transit":false,"station_id":"CKI","i_long":106.840169,"i_lat":-6.198556,"time":3,"station_name":"Cikini","line":2},{"transit":true,"is_transit":true,"i_long":106.84912,"line":2,"time":4,"distance":1590,"station_name":"Manggarai","station_id":"MRI","i_lat":-6.209883},{"station_id":"SUD","i_long":106.822649,"line":1,"station_name":"Sudirman","i_lat":-6.202263,"time":4,"is_transit":false,"transit":false,"distance":3186}],[{"station_id":"PSG","distance":0,"i_lat":-6.161433,"i_long":106.771379,"transit":false,"time":0,"station_name":"Pesing","is_transit":false,"line":5},{"i_lat":-6.162021,"time":2,"transit":false,"line":5,"is_transit":false,"distance":2036,"station_id":"GGL","station_name":"Grogol","i_long":106.788277},{"is_transit":true,"i_lat":-6.155215,"i_long":106.800832,"time":3,"station_name":"Duri","transit":true,"station_id":"DU","line":1,"distance":1700},{"time":4,"i_lat":-6.144674,"transit":false,"station_id":"AK","station_name":"Angke","i_long":106.79867,"line":1,"distance":1230,"is_transit":false},{"line":4,"i_long":106.826365,"station_name":"Kampung Bandan","distance":4102,"time":9,"station_id":"KPB","is_transit":true,"transit":true,"i_lat":-6.132549},{"distance":1444,"time":3,"i_long":106.836569,"station_name":"Rajawali","line":11,"transit":false,"station_id":"RJW","is_transit":false,"i_lat":-6.14505},{"distance":1901,"i_long":106.839204,"line":11,"time":5,"transit":false,"is_transit":false,"station_name":"Kemayoran","station_id":"KMO","i_lat":-6.161728},{"line":11,"distance":1436,"station_id":"PSE","time":4,"station_name":"Pasar Senen","i_long":106.84368,"i_lat":-6.174784,"transit":false,"is_transit":false},{"transit":false,"distance":1567,"station_name":"Gang Sentiong","i_lat":-6.185975,"station_id":"GST","line":11,"is_transit":false,"time":8,"i_long":106.850107},{"time":1,"station_name":"Kramat","line":11,"i_long":106.855437,"is_transit":false,"station_id":"KMT","transit":false,"distance":973,"i_lat":-6.193792},{"i_long":106.861737,"is_transit":false,"distance":1829,"station_id":"POK","time":2,"line":11,"transit":false,"station_name":"Pondok Jati","i_lat":-6.209188},{"station_name":"Jatinegara","distance":1236,"time":9,"station_id":"JNG","is_transit":true,"transit":true,"i_lat":-6.215091,"i_long":106.86807400000001,"line":1},{"transit":false,"line":1,"time":2,"i_lat":-6.212485,"is_transit":false,"distance":1377,"station_id":"MTR","i_long":106.858896,"station_name":"Matraman"},{"i_lat":-6.209883,"station_name":"Manggarai","line":2,"station_id":"MRI","distance":1275,"is_transit":false,"transit":false,"time":2,"i_long":106.84912},{"station_id":"SUD","station_name":"Sudirman","time":4,"transit":false,"i_lat":-6.202263,"i_long":106.822649,"is_transit":false,"distance":3186,"line":1}]]}