{"data":[[{"i_long":106.771379,"is_transit":false,"distance":0,"station_name":"Pesing","station_id":"PSG","line":5,"i_lat":-6.161433,"time":0,"transit":false},{"i_lat":-6.162021,"is_transit":false,"time":2,"station_id":"GRG","i_long":106.788277,"distance":2036,"line":5,"transit":false,"station_name":"Grogol"},{"time":3,"distance":1700,"station_name":"Duri","station_id":"DU","is_transit":true,"i_long":106.800832,"line":1,"i_lat":-6.155215,"transit":true},{"i_lat":-6.185545,"line":1,"distance":3632,"station_name":"Tanah Abang","time":8,"is_transit":true,"i_long":106.811091,"transit":true,"station_id":"THB"},{"i_long":106.79689,"line":6,"station_name":"Palmerah","transit":false,"distance":3191,"time":6,"is_transit":false,"i_lat":-6.207404,"station_id":"PLM"},{"i_lat":-6.237242,"i_long":106.780334,"time":7,"station_id":"KBY","station_name":"Kebayoran","is_transit":false,"transit":false,"distance":3737,"line":6},{"i_lat":-6.276362,"distance":6218,"transit":false,"is_transit":false,"station_id":"PDJ","station_name":"Pondokranji","i_long":106.74273,"line":6,"time":8},{"time":3,"i_long":106.728916,"i_lat":-6.288927,"line":6,"station_name":"Jurangmangu","transit":false,"is_transit":false,"distance":2179,"station_id":"JMU"},{"line":6,"distance":1994,"station_id":"SDM","i_long":106.712277,"transit":false,"time":4,"i_lat":-6.296963,"station_name":"Sudimara","is_transit":false},{"transit":false,"station_name":"Rawa Buntu","distance":4566,"time":6,"i_lat":-6.314823,"station_id":"RU","is_transit":false,"line":6,"i_long":106.675475},{"station_name":"Serpong","line":6,"is_transit":false,"i_long":106.66566,"transit":false,"i_lat":-6.319871,"station_id":"SRP","distance":2413,"time":4},{"i_long":106.640411,"transit":false,"station_name":"Cisauk","time":4,"i_lat":-6.32484,"line":3,"distance":1784,"station_id":"CSK","is_transit":false},{"line":3,"time":4,"station_id":"CC","distance":2519,"station_name":"Cicayur","i_lat":-6.329547,"i_long":106.617853,"is_transit":false,"transit":false},{"station_id":"PRP","line":6,"distance":5968,"time":8,"station_name":"Parung Panjang","i_long":106.568863,"transit":false,"is_transit":false,"i_lat":-6.3441410000000005},{"is_transit":false,"line":3,"time":9,"station_id":"CJT","station_name":"Cilejit","transit":false,"i_lat":-6.354349,"i_long":106.508482,"distance":7025}],[{"line":5,"i_lat":-6.161433,"transit":false,"station_name":"Pesing","time":0,"distance":0,"is_transit":false,"i_long":106.771379,"station_id":"PSG"},{"i_long":106.788277,"distance":2036,"i_lat":-6.162021,"line":5,"is_transit":false,"station_name":"Grogol","time":2,"transit":false,"station_id":"GRG"},{"station_name":"Duri","line":1,"station_id":"DU","transit":true,"i_lat":-6.155215,"is_transit":true,"i_long":106.800832,"time":3,"distance":1700},{"is_transit":false,"time":4,"station_id":"AK","station_name":"Angke","i_long":106.79867,"transit":false,"i_lat":-6.144674,"distance":1230,"line":1},{"i_lat":-6.132549,"is_transit":true,"transit":true,"station_name":"Kampung Bandan","i_long":106.826365,"station_id":"KPB","line":4,"distance":4102,"time":9},{"distance":1364,"station_name":"Jakarta Kota","i_long":106.812439,"station_id":"JAKK","is_transit":true,"time":3,"line":2,"transit":true,"i_lat":-6.137569},{"transit":false,"station_id":"JAY","time":4,"i_lat":-6.141205,"distance":1264,"station_name":"Jayakarta","is_transit":false,"line":2,"i_long":106.820901},{"station_name":"Manggabesar","time":2,"is_transit":false,"line":2,"i_lat":-6.149769,"station_id":"MGB","distance":1080,"transit":false,"i_long":106.82482},{"i_long":106.827103,"time":2,"transit":false,"i_lat":-6.160725,"line":2,"distance":906,"station_name":"Sawah Besar","station_id":"SW","is_transit":false},{"distance":1149,"i_long":106.828284,"station_id":"JUA","time":2,"station_name":"Juanda","is_transit":false,"transit":false,"i_lat":-6.166716,"line":2},{"distance":2015,"station_id":"GDD","is_transit":false,"transit":false,"i_lat":-6.186295,"i_long":106.832183,"line":2,"time":4,"station_name":"Gondangdia"},{"is_transit":false,"time":3,"distance":1750,"line":2,"i_lat":-6.198556,"station_id":"CKI","transit":false,"i_long":106.840169,"station_name":"Cikini"},{"line":2,"distance":1590,"time":4,"transit":true,"i_long":106.84912,"station_name":"Manggarai","station_id":"MRI","is_transit":true,"i_lat":-6.209883},{"time":4,"is_transit":false,"distance":3186,"line":1,"i_lat":-6.202263,"transit":false,"station_name":"Sudirman","i_long":106.822649,"station_id":"SUD"},{"station_name":"Sudirman Baru","transit":false,"distance":280,"station_id":"SUDB","time":1,"i_lat":-6.201433,"is_transit":false,"i_long":106.819881,"line":1},{"transit":false,"i_long":106.816351,"time":1,"station_name":"Karet","distance":471,"station_id":"KAT","line":1,"i_lat":-6.20132,"is_transit":false},{"line":1,"distance":2029,"i_long":106.811091,"station_id":"THB","transit":true,"station_name":"Tanah Abang","is_transit":true,"i_lat":-6.185545,"time":5},{"is_transit":false,"transit":false,"station_id":"PLM","i_lat":-6.207404,"line":6,"station_name":"Palmerah","time":6,"i_long":106.79689,"distance":3191},{"station_name":"Kebayoran","time":7,"distance":3737,"is_transit":false,"i_lat":-6.237242,"transit":false,"station_id":"KBY","i_long":106.780334,"line":6},{"line":6,"i_lat":-6.276362,"is_transit":false,"transit":false,"distance":6218,"station_name":"Pondokranji","station_id":"PDJ","i_long":106.74273,"time":8},{"i_lat":-6.288927,"time":3,"is_transit":false,"station_id":"JMU","i_long":106.728916,"line":6,"transit":false,"distance":2179,"station_name":"Jurangmangu"},{"transit":false,"station_id":"SDM","distance":1994,"i_long":106.712277,"line":6,"time":4,"i_lat":-6.296963,"station_name":"Sudimara","is_transit":false},{"station_name":"Rawa Buntu","is_transit":false,"i_lat":-6.314823,"i_long":106.675475,"station_id":"RU","distance":4566,"line":6,"time":6,"transit":false},{"line":6,"transit":false,"station_name":"Serpong","station_id":"SRP","time":4,"i_long":106.66566,"i_lat":-6.319871,"distance":2413,"is_transit":false},{"time":4,"distance":1784,"station_name":"Cisauk","station_id":"CSK","line":3,"is_transit":false,"i_lat":-6.32484,"i_long":106.640411,"transit":false},{"transit":false,"time":4,"i_lat":-6.329547,"station_id":"CC","distance":2519,"station_name":"Cicayur","i_long":106.617853,"is_transit":false,"line":3},{"i_lat":-6.3441410000000005,"transit":false,"i_long":106.568863,"line":6,"station_name":"Parung Panjang","station_id":"PRP","is_transit":false,"distance":5968,"time":8},{"line":3,"i_long":106.508482,"distance":7025,"is_transit":false,"station_name":"Cilejit","transit":false,"i_lat":-6.354349,"station_id":"CJT","time":9}],[{"station_id":"PSG","station_name":"Pesing","transit":false,"time":0,"i_long":106.771379,"distance":0,"is_transit":false,"line":5,"i_lat":-6.161433},{"i_lat":-6.162021,"station_id":"GRG","time":2,"distance":2036,"transit":false,"station_name":"Grogol","line":5,"is_transit":false,"i_long":106.788277},{"i_lat":-6.155215,"time":3,"line":1,"i_long":106.800832,"is_transit":true,"transit":true,"station_name":"Duri","distance":1700,"station_id":"DU"},{"is_transit":false,"station_id":"AK","time":4,"distance":1230,"station_name":"Angke","transit":false,"i_lat":-6.144674,"line":1,"i_long":106.79867},{"line":4,"station_name":"Kampung Bandan","transit":true,"i_lat":-6.132549,"station_id":"KPB","i_long":106.826365,"time":9,"is_transit":true,"distance":4102},{"station_name":"Rajawali","line":11,"station_id":"RJW","is_transit":false,"i_long":106.836569,"transit":false,"time":3,"distance":1444,"i_lat":-6.14505},{"station_id":"KMO","i_lat":-6.161728,"i_long":106.839204,"transit":false,"is_transit":false,"station_name":"Kemayoran","time":5,"line":11,"distance":1901},{"station_id":"PSE","transit":false,"i_lat":-6.174784,"time":4,"distance":1436,"station_name":"Pasar Senen","line":11,"i_long":106.84368,"is_transit":false},{"station_id":"GST","is_transit":false,"i_long":106.850107,"distance":1567,"line":11,"transit":false,"time":8,"i_lat":-6.185975,"station_name":"Gang Sentiong"},{"i_long":106.855437,"distance":973,"time":1,"is_transit":false,"station_name":"Kramat","line":11,"i_lat":-6.193792,"station_id":"KMT","transit":false},{"line":11,"station_id":"POK","time":2,"transit":false,"is_transit":false,"station_name":"Pondok Jati","distance":1829,"i_lat":-6.209188,"i_long":106.861737},{"time":9,"is_transit":true,"line":1,"transit":true,"station_name":"Jatinegara","i_lat":-6.215091,"station_id":"JNG","i_long":106.86807400000001,"distance":1236},{"station_id":"MTR","is_transit":false,"station_name":"Matraman","i_lat":-6.212485,"transit":false,"line":1,"distance":1377,"i_long":106.858896,"time":2},{"transit":false,"station_id":"MRI","time":2,"line":2,"distance":1275,"is_transit":false,"i_lat":-6.209883,"i_long":106.84912,"station_name":"Manggarai"},{"distance":3186,"i_long":106.822649,"station_id":"SUD","transit":false,"i_lat":-6.202263,"station_name":"Sudirman","is_transit":false,"line":1,"time":4},{"station_id":"SUDB","is_transit":false,"transit":false,"time":1,"station_name":"Sudirman Baru","i_lat":-6.201433,"i_long":106.819881,"distance":280,"line":1},{"is_transit":false,"transit":false,"station_id":"KAT","i_long":106.816351,"line":1,"distance":471,"station_name":"Karet","i_lat":-6.20132,"time":1},{"line":1,"station_name":"Tanah Abang","is_transit":true,"station_id":"THB","transit":true,"i_lat":-6.185545,"i_long":106.811091,"distance":2029,"time":5},{"i_lat":-6.207404,"time":6,"is_transit":false,"i_long":106.79689,"transit":false,"station_name":"Palmerah","station_id":"PLM","distance":3191,"line":6},{"i_lat":-6.237242,"station_id":"KBY","transit":false,"distance":3737,"is_transit":false,"i_long":106.780334,"line":6,"station_name":"Kebayoran","time":7},{"transit":false,"line":6,"distance":6218,"time":8,"station_id":"PDJ","is_transit":false,"i_lat":-6.276362,"station_name":"Pondokranji","i_long":106.74273},{"i_lat":-6.288927,"is_transit":false,"station_id":"JMU","distance":2179,"i_long":106.728916,"station_name":"Jurangmangu","line":6,"transit":false,"time":3},{"station_name":"Sudimara","distance":1994,"time":4,"line":6,"is_transit":false,"station_id":"SDM","i_lat":-6.296963,"transit":false,"i_long":106.712277},{"transit":false,"time":6,"distance":4566,"is_transit":false,"i_lat":-6.314823,"i_long":106.675475,"station_name":"Rawa Buntu","line":6,"station_id":"RU"},{"station_id":"SRP","transit":false,"time":4,"distance":2413,"i_lat":-6.319871,"station_name":"Serpong","is_transit":false,"i_long":106.66566,"line":6},{"is_transit":false,"station_name":"Cisauk","line":3,"time":4,"station_id":"CSK","distance":1784,"i_long":106.640411,"i_lat":-6.32484,"transit":false},{"station_id":"CC","time":4,"distance":2519,"is_transit":false,"i_lat":-6.329547,"i_long":106.617853,"transit":false,"line":3,"station_name":"Cicayur"},{"station_id":"PRP","transit":false,"station_name":"Parung Panjang","distance":5968,"time":8,"i_lat":-6.3441410000000005,"i_long":106.568863,"line":6,"is_transit":false},{"station_name":"Cilejit","i_lat":-6.354349,"i_long":106.508482,"station_id":"CJT","line":3,"is_transit":false,"transit":false,"time":9,"distance":7025}]]}