{"data":[[{"line":5,"distance":0,"is_transit":false,"i_lat":-6.161433,"i_long":106.771379,"transit":false,"station_id":"PSG","station_name":"Pesing","time":0},{"station_name":"Grogol","is_transit":false,"line":5,"distance":2036,"transit":false,"i_lat":-6.162021,"time":2,"station_id":"GGL","i_long":106.788277},{"station_name":"Duri","i_lat":-6.155215,"station_id":"DU","is_transit":true,"time":3,"i_long":106.800832,"transit":true,"distance":1700,"line":1},{"time":8,"i_long":106.811091,"i_lat":-6.185545,"line":1,"distance":3632,"transit":false,"station_name":"Tanah Abang","is_transit":false,"station_id":"THB"},{"distance":2029,"time":5,"station_id":"KAT","transit":false,"i_long":106.816351,"station_name":"Karet","i_lat":-6.20132,"is_transit":false,"line":1},{"time":1,"station_id":"SUDB","station_name":"Sudirman Baru","line":1,"i_long":106.819881,"is_transit":false,"transit":false,"distance":471,"i_lat":-6.201433},{"transit":false,"time":1,"is_transit":false,"station_name":"Sudirman","i_long":106.822649,"distance":280,"station_id":"SUD","line":1,"i_lat":-6.202263},{"line":2,"i_lat":-6.209883,"distance":3186,"station_name":"Manggarai","time":4,"is_transit":true,"transit":true,"i_long":106.84912,"station_id":"MRI"},{"station_id":"TEB","transit":false,"i_long":106.857948,"line":2,"distance":2610,"i_lat":-6.226659,"is_transit":false,"time":4,"station_name":"Tebet"},{"distance":1230,"station_name":"Cawang","i_lat":-6.242512,"i_long":106.856607,"time":2,"station_id":"CW","is_transit":false,"transit":false,"line":2},{"distance":1546,"i_lat":-6.255332,"station_name":"Duren Kalibata","transit":false,"station_id":"DRN","i_long":106.85449,"line":2,"time":3,"is_transit":false},{"distance":824,"i_lat":-6.263214,"line":2,"station_name":"Pasar Minggu Baru","time":2,"is_transit":false,"i_long":106.851577,"station_id":"PSMB","transit":false},{"i_lat":-6.2842400000000005,"distance":2380,"transit":false,"time":2,"i_long":106.843999,"is_transit":false,"line":2,"station_name":"Pasar Minggu","station_id":"PSM"},{"station_name":"Tanjung Barat","time":4,"distance":2820,"is_transit":false,"i_long":106.838896,"station_id":"TNT","transit":false,"line":2,"i_lat":-6.3080680000000005},{"line":2,"time":3,"i_long":106.832616,"distance":2671,"station_id":"LNA","is_transit":false,"transit":false,"station_name":"Lenteng Agung","i_lat":-6.330363},{"i_long":106.834175,"time":2,"line":2,"is_transit":false,"station_id":"UP","transit":false,"distance":1029,"i_lat":-6.339291,"station_name":"Univ. Pancasila"},{"i_lat":-6.360749,"distance":2264,"transit":false,"station_id":"UI","i_long":106.831474,"line":2,"time":3,"is_transit":false,"station_name":"Univ. Indonesia"},{"time":2,"distance":1109,"station_name":"Pondok Cina","line":2,"station_id":"POC","transit":false,"is_transit":false,"i_lat":-6.369073,"i_long":106.831114},{"distance":2727,"line":2,"transit":false,"i_long":106.819451,"station_id":"DPB","is_transit":false,"station_name":"Depokbaru","i_lat":-6.391065,"time":4},{"i_lat":-6.405256,"line":2,"station_id":"DP","station_name":"Depok","is_transit":false,"transit":false,"i_long":106.816926,"distance":1584,"time":3},{"distance":5084,"transit":true,"line":2,"station_name":"Citayam","time":6,"i_long":106.800298,"is_transit":true,"i_lat":-6.448811,"station_id":"CTA"},{"is_transit":false,"transit":false,"i_long":106.824374,"line":21,"time":0,"station_name":"Pondok Rajeg","i_lat":-6.460735,"station_id":"PDRG","distance":0},{"transit":false,"line":21,"is_transit":false,"station_name":"Cibinong","time":0,"station_id":"CBN","i_long":106.851978,"i_lat":-6.46424,"distance":0}],[{"line":5,"transit":false,"distance":0,"station_id":"PSG","i_long":106.771379,"i_lat":-6.161433,"is_transit":false,"station_name":"Pesing","time":0},{"line":5,"transit":false,"i_lat":-6.162021,"i_long":106.788277,"distance":2036,"station_id":"GGL","station_name":"Grogol","is_transit":false,"time":2},{"is_transit":true,"station_name":"Duri","time":3,"i_lat":-6.155215,"distance":1700,"i_long":106.800832,"transit":true,"station_id":"DU","line":1},{"time":4,"station_name":"Angke","distance":1230,"i_long":106.79867,"i_lat":-6.144674,"station_id":"AK","transit":false,"is_transit":false,"line":1},{"line":4,"transit":true,"station_id":"KPB","is_transit":true,"i_long":106.826365,"i_lat":-6.132549,"distance":4102,"time":9,"station_name":"Kampung Bandan"},{"time":3,"i_long":106.812439,"transit":true,"station_id":"JAKK","station_name":"Jakarta Kota","line":2,"distance":1364,"i_lat":-6.137569,"is_transit":true},{"i_lat":-6.141205,"station_id":"JAY","transit":false,"distance":1264,"station_name":"Jayakarta","time":4,"line":2,"i_long":106.820901,"is_transit":false},{"transit":false,"station_id":"MGB","i_long":106.82482,"line":2,"time":2,"distance":1080,"i_lat":-6.149769,"is_transit":false,"station_name":"Manggabesar"},{"i_long":106.827103,"station_id":"SW","time":2,"is_transit":false,"station_name":"Sawah Besar","transit":false,"distance":906,"i_lat":-6.160725,"line":2},{"is_transit":false,"station_name":"Juanda","station_id":"JUA","time":2,"transit":false,"i_lat":-6.166716,"line":2,"i_long":106.828284,"distance":1149},{"station_id":"GDD","is_transit":false,"station_name":"Gondangdia","distance":2015,"time":4,"transit":false,"i_lat":-6.186295,"i_long":106.832183,"line":2},{"station_name":"Cikini","time":3,"i_long":106.840169,"i_lat":-6.198556,"line":2,"transit":false,"is_transit":false,"station_id":"CKI","distance":1750},{"station_name":"Manggarai","distance":1590,"is_transit":false,"transit":false,"time":4,"line":2,"i_long":106.84912,"station_id":"MRI","i_lat":-6.209883},{"transit":false,"time":4,"distance":2610,"station_name":"Tebet","i_lat":-6.226659,"is_transit":false,"station_id":"TEB","i_long":106.857948,"line":2},{"distance":1230,"time":2,"transit":false,"station_name":"Cawang","i_long":106.856607,"line":2,"is_transit":false,"i_lat":-6.242512,"station_id":"CW"},{"station_name":"Duren Kalibata","time":3,"distance":1546,"i_long":106.85449,"station_id":"DRN","i_lat":-6.255332,"line":2,"is_transit":false,"transit":false},{"station_id":"PSMB","is_transit":false,"distance":824,"i_long":106.851577,"i_lat":-6.263214,"station_name":"Pasar Minggu Baru","line":2,"time":2,"transit":false},{"time":2,"transit":false,"station_id":"PSM","station_name":"Pasar Minggu","is_transit":false,"i_lat":-6.2842400000000005,"i_long":106.843999,"line":2,"distance":2380},{"station_name":"Tanjung Barat","is_transit":false,"line":2,"i_long":106.838896,"time":4,"distance":2820,"station_id":"TNT","transit":false,"i_lat":-6.3080680000000005},{"station_id":"LNA","transit":false,"station_name":"Lenteng Agung","is_transit":false,"time":3,"distance":2671,"i_lat":-6.330363,"i_long":106.832616,"line":2},{"i_long":106.834175,"i_lat":-6.339291,"line":2,"transit":false,"station_id":"UP","station_name":"Univ. Pancasila","time":2,"distance":1029,"is_transit":false},{"distance":2264,"station_name":"Univ. Indonesia","time":3,"i_lat":-6.360749,"station_id":"UI","is_transit":false,"i_long":106.831474,"transit":false,"line":2},{"i_lat":-6.369073,"transit":false,"is_transit":false,"station_id":"POC","station_name":"Pondok Cina","distance":1109,"time":2,"i_long":106.831114,"line":2},{"i_lat":-6.391065,"station_id":"DPB","transit":false,"is_transit":false,"time":4,"distance":2727,"line":2,"i_long":106.819451,"station_name":"Depokbaru"},{"i_long":106.816926,"transit":false,"distance":1584,"station_id":"DP","station_name":"Depok","line":2,"i_lat":-6.405256,"time":3,"is_transit":false},{"distance":5084,"is_transit":true,"station_id":"CTA","i_lat":-6.448811,"i_long":106.800298,"time":6,"line":2,"station_name":"Citayam","transit":true},{"station_id":"PDRG","distance":0,"i_lat":-6.460735,"station_name":"Pondok Rajeg","line":21,"time":0,"i_long":106.824374,"is_transit":false,"transit":false},{"station_name":"Cibinong","line":21,"transit":false,"is_transit":false,"i_lat":-6.46424,"distance":0,"time":0,"station_id":"CBN","i_long":106.851978}],[{"transit":false,"distance":0,"line":5,"i_lat":-6.161433,"station_name":"Pesing","i_long":106.771379,"station_id":"PSG","time":0,"is_transit":false},{"distance":2036,"i_lat":-6.162021,"transit":false,"station_name":"Grogol","is_transit":false,"time":2,"i_long":106.788277,"line":5,"station_id":"GGL"},{"is_transit":true,"time":3,"i_long":106.800832,"i_lat":-6.155215,"station_id":"DU","distance":1700,"transit":true,"station_name":"Duri","line":1},{"is_transit":false,"transit":false,"line":1,"station_name":"Angke","station_id":"AK","distance":1230,"i_lat":-6.144674,"time":4,"i_long":106.79867},{"distance":4102,"time":9,"i_long":106.826365,"is_transit":true,"station_id":"KPB","station_name":"Kampung Bandan","line":4,"i_lat":-6.132549,"transit":true},{"i_lat":-6.14505,"i_long":106.836569,"line":11,"transit":false,"station_id":"RJW","station_name":"Rajawali","is_transit":false,"time":3,"distance":1444},{"transit":false,"time":5,"station_name":"Kemayoran","line":11,"i_lat":-6.161728,"station_id":"KMO","is_transit":false,"distance":1901,"i_long":106.839204},{"transit":false,"station_id":"PSE","station_name":"Pasar Senen","is_transit":false,"i_lat":-6.174784,"i_long":106.84368,"line":11,"distance":1436,"time":4},{"i_long":106.850107,"distance":1567,"time":8,"station_id":"GST","i_lat":-6.185975,"is_transit":false,"station_name":"Gang Sentiong","line":11,"transit":false},{"time":1,"distance":973,"i_long":106.855437,"transit":false,"line":11,"i_lat":-6.193792,"station_id":"KMT","is_transit":false,"station_name":"Kramat"},{"station_name":"Pondok Jati","i_lat":-6.209188,"is_transit":false,"i_long":106.861737,"time":2,"transit":false,"line":11,"distance":1829,"station_id":"POK"},{"i_long":106.86807400000001,"station_id":"JNG","i_lat":-6.215091,"distance":1236,"is_transit":true,"transit":true,"station_name":"Jatinegara","line":1,"time":9},{"distance":1377,"i_long":106.858896,"line":1,"time":2,"station_id":"MTR","i_lat":-6.212485,"station_name":"Matraman","is_transit":false,"transit":false},{"station_name":"Manggarai","transit":true,"time":2,"is_transit":true,"distance":1275,"i_long":106.84912,"line":2,"station_id":"MRI","i_lat":-6.209883},{"i_lat":-6.226659,"time":4,"station_id":"TEB","station_name":"Tebet","is_transit":false,"transit":false,"i_long":106.857948,"distance":2610,"line":2},{"is_transit":false,"time":2,"i_lat":-6.242512,"line":2,"transit":false,"i_long":106.856607,"station_name":"Cawang","distance":1230,"station_id":"CW"},{"transit":false,"i_lat":-6.255332,"station_id":"DRN","is_transit":false,"station_name":"Duren Kalibata","time":3,"distance":1546,"i_long":106.85449,"line":2},{"i_lat":-6.263214,"distance":824,"station_id":"PSMB","is_transit":false,"i_long":106.851577,"line":2,"station_name":"Pasar Minggu Baru","time":2,"transit":false},{"distance":2380,"transit":false,"station_id":"PSM","station_name":"Pasar Minggu","is_transit":false,"time":2,"i_lat":-6.2842400000000005,"i_long":106.843999,"line":2},{"i_lat":-6.3080680000000005,"line":2,"transit":false,"is_transit":false,"distance":2820,"i_long":106.838896,"station_id":"TNT","time":4,"station_name":"Tanjung Barat"},{"distance":2671,"i_long":106.832616,"transit":false,"i_lat":-6.330363,"line":2,"station_id":"LNA","station_name":"Lenteng Agung","time":3,"is_transit":false},{"station_id":"UP","time":2,"station_name":"Univ. Pancasila","is_transit":false,"transit":false,"i_lat":-6.339291,"i_long":106.834175,"line":2,"distance":1029},{"station_id":"UI","distance":2264,"i_long":106.831474,"time":3,"line":2,"i_lat":-6.360749,"station_name":"Univ. Indonesia","transit":false,"is_transit":false},{"station_id":"POC","station_name":"Pondok Cina","i_long":106.831114,"line":2,"time":2,"i_lat":-6.369073,"transit":false,"is_transit":false,"distance":1109},{"is_transit":false,"station_id":"DPB","line":2,"transit":false,"station_name":"Depokbaru","time":4,"distance":2727,"i_long":106.819451,"i_lat":-6.391065},{"station_id":"DP","station_name":"Depok","i_lat":-6.405256,"line":2,"time":3,"transit":false,"is_transit":false,"distance":1584,"i_long":106.816926},{"is_transit":true,"station_name":"Citayam","i_long":106.800298,"distance":5084,"time":6,"station_id":"CTA","transit":true,"i_lat":-6.448811,"line":2},{"distance":0,"time":0,"i_long":106.824374,"i_lat":-6.460735,"station_id":"PDRG","station_name":"Pondok Rajeg","transit":false,"is_transit":false,"line":21},{"station_name":"Cibinong","station_id":"CBN","i_lat":-6.46424,"transit":false,"i_long":106.851978,"distance":0,"line":21,"time":0,"is_transit":false}]]}