{"data":[[{"i_long":106.771379,"time":0,"line":5,"transit":false,"station_name":"Pesing","distance":0,"is_transit":false,"i_lat":-6.161433,"station_id":"PSG"},{"station_name":"Grogol","transit":false,"time":2,"i_lat":-6.162021,"i_long":106.788277,"is_transit":false,"line":5,"distance":2036,"station_id":"GGL"},{"transit":true,"i_lat":-6.155215,"time":3,"station_name":"Duri","is_transit":true,"distance":1700,"station_id":"DU","i_long":106.800832,"line":1},{"time":8,"line":1,"transit":true,"station_id":"THB","is_transit":true,"i_long":106.811091,"station_name":"Tanah Abang","distance":3632,"i_lat":-6.185545},{"line":6,"i_long":106.79689,"distance":3191,"is_transit":false,"time":6,"station_name":"Palmerah","station_id":"PLM","transit":false,"i_lat":-6.207404},{"i_lat":-6.237242,"distance":3737,"time":7,"line":6,"is_transit":false,"station_name":"Kebayoran","station_id":"KBY","i_long":106.780334,"transit":false},{"station_id":"PDJ","time":8,"station_name":"Pondokranji","i_lat":-6.276362,"transit":false,"distance":6218,"is_transit":false,"line":6,"i_long":106.74273},{"i_long":106.728916,"i_lat":-6.288927,"time":3,"station_name":"Jurangmangu","station_id":"JMU","transit":false,"line":6,"distance":2179,"is_transit":false},{"line":6,"i_lat":-6.296963,"station_name":"Sudimara","transit":false,"i_long":106.712277,"is_transit":false,"station_id":"SDM","time":4,"distance":1994},{"distance":4566,"line":6,"i_long":106.675475,"time":6,"transit":false,"station_name":"Rawa Buntu","i_lat":-6.314823,"station_id":"RU","is_transit":false},{"distance":2413,"station_id":"SRP","i_long":106.66566,"line":6,"is_transit":false,"station_name":"Serpong","transit":false,"time":4,"i_lat":-6.319871},{"line":0,"station_id":"CSK","distance":1784,"time":4,"i_lat":-6.32484,"station_name":"Cisauk","is_transit":false,"i_long":106.640411,"transit":false},{"distance":2519,"i_long":106.617853,"station_name":"Cicayur","station_id":"CC","time":4,"line":0,"i_lat":-6.329547,"is_transit":false,"transit":false},{"i_lat":-6.3441410000000005,"is_transit":false,"transit":false,"distance":5968,"line":6,"time":8,"i_long":106.568863,"station_id":"PRP","station_name":"Parung Panjang"},{"i_long":106.508482,"station_id":"CJT","time":9,"is_transit":false,"transit":false,"i_lat":-6.354349,"line":0,"distance":7025,"station_name":"Cilejit"},{"station_id":"DAR","i_lat":-6.338021,"line":0,"is_transit":false,"i_long":106.491338,"station_name":"Daru","time":6,"transit":false,"distance":2675},{"transit":false,"line":6,"i_lat":-6.327251,"i_long":106.460812,"distance":3902,"time":5,"is_transit":false,"station_id":"TEJ","station_name":"Tenjo"},{"station_name":"Tigaraksa","transit":false,"is_transit":false,"i_long":106.425991,"i_lat":-6.328533,"line":6,"distance":2974,"station_id":"TGS","time":5}],[{"is_transit":false,"transit":false,"time":0,"station_name":"Pesing","i_long":106.771379,"line":5,"distance":0,"station_id":"PSG","i_lat":-6.161433},{"transit":false,"distance":2036,"time":2,"is_transit":false,"line":5,"station_name":"Grogol","i_lat":-6.162021,"i_long":106.788277,"station_id":"GGL"},{"line":1,"transit":true,"distance":1700,"is_transit":true,"station_name":"Duri","i_lat":-6.155215,"time":3,"station_id":"DU","i_long":106.800832},{"time":4,"i_lat":-6.144674,"distance":1230,"is_transit":false,"transit":false,"station_id":"AK","i_long":106.79867,"line":0,"station_name":"Angke"},{"i_lat":-6.132549,"line":0,"distance":4102,"i_long":106.826365,"time":9,"is_transit":true,"station_name":"Kampung Bandan","station_id":"KPB","transit":false},{"is_transit":true,"distance":1364,"transit":true,"i_lat":-6.137569,"station_name":"Jakarta Kota","line":0,"station_id":"JAKK","time":3,"i_long":106.812439},{"distance":1264,"transit":false,"i_long":106.820901,"time":4,"i_lat":-6.141205,"line":7,"station_name":"Jayakarta","is_transit":false,"station_id":"JAY"},{"line":2,"i_long":106.82482,"station_id":"MGB","transit":false,"distance":1080,"time":2,"station_name":"Manggabesar","i_lat":-6.149769,"is_transit":false},{"is_transit":false,"i_lat":-6.160725,"i_long":106.827103,"station_id":"SW","station_name":"Sawah Besar","distance":906,"time":2,"transit":false,"line":2},{"i_long":106.828284,"line":2,"station_id":"JUA","is_transit":false,"distance":1149,"time":2,"i_lat":-6.166716,"transit":false,"station_name":"Juanda"},{"i_long":106.832183,"station_name":"Gondangdia","distance":2015,"transit":false,"line":2,"time":4,"is_transit":false,"i_lat":-6.186295,"station_id":"GDD"},{"distance":1750,"i_lat":-6.198556,"i_long":106.840169,"transit":false,"line":0,"station_id":"CKI","time":3,"station_name":"Cikini","is_transit":false},{"station_name":"Manggarai","i_long":106.84912,"is_transit":true,"transit":true,"time":4,"line":0,"station_id":"MRI","i_lat":-6.209883,"distance":1590},{"station_id":"SUD","time":4,"transit":false,"line":1,"station_name":"Sudirman","distance":3186,"i_long":106.822649,"is_transit":false,"i_lat":-6.202263},{"station_name":"Sudirman Baru","time":1,"i_lat":-6.201433,"transit":false,"is_transit":false,"line":1,"distance":280,"station_id":"SUDB","i_long":106.819881},{"station_name":"Karet","station_id":"KAT","transit":false,"i_long":106.816351,"time":1,"i_lat":-6.20132,"distance":471,"is_transit":false,"line":1},{"time":5,"is_transit":true,"transit":true,"station_id":"THB","station_name":"Tanah Abang","i_lat":-6.185545,"distance":2029,"i_long":106.811091,"line":1},{"time":6,"station_name":"Palmerah","i_long":106.79689,"transit":false,"line":6,"station_id":"PLM","i_lat":-6.207404,"distance":3191,"is_transit":false},{"is_transit":false,"time":7,"station_name":"Kebayoran","i_lat":-6.237242,"distance":3737,"transit":false,"line":6,"station_id":"KBY","i_long":106.780334},{"line":6,"distance":6218,"is_transit":false,"i_long":106.74273,"station_name":"Pondokranji","transit":false,"time":8,"i_lat":-6.276362,"station_id":"PDJ"},{"station_name":"Jurangmangu","i_long":106.728916,"line":6,"i_lat":-6.288927,"is_transit":false,"time":3,"station_id":"JMU","transit":false,"distance":2179},{"i_long":106.712277,"line":6,"distance":1994,"is_transit":false,"station_id":"SDM","station_name":"Sudimara","time":4,"transit":false,"i_lat":-6.296963},{"i_lat":-6.314823,"transit":false,"line":6,"is_transit":false,"distance":4566,"station_id":"RU","station_name":"Rawa Buntu","time":6,"i_long":106.675475},{"i_long":106.66566,"station_name":"Serpong","station_id":"SRP","line":6,"is_transit":false,"time":4,"transit":false,"distance":2413,"i_lat":-6.319871},{"i_lat":-6.32484,"station_id":"CSK","line":0,"is_transit":false,"i_long":106.640411,"transit":false,"time":4,"station_name":"Cisauk","distance":1784},{"transit":false,"i_long":106.617853,"line":0,"distance":2519,"station_name":"Cicayur","is_transit":false,"i_lat":-6.329547,"station_id":"CC","time":4},{"station_id":"PRP","time":8,"i_lat":-6.3441410000000005,"distance":5968,"is_transit":false,"i_long":106.568863,"line":6,"station_name":"Parung Panjang","transit":false},{"line":0,"is_transit":false,"distance":7025,"station_id":"CJT","transit":false,"station_name":"Cilejit","i_lat":-6.354349,"i_long":106.508482,"time":9},{"i_lat":-6.338021,"i_long":106.491338,"is_transit":false,"station_name":"Daru","transit":false,"line":0,"station_id":"DAR","distance":2675,"time":6},{"is_transit":false,"distance":3902,"station_id":"TEJ","transit":false,"i_long":106.460812,"i_lat":-6.327251,"time":5,"line":6,"station_name":"Tenjo"},{"distance":2974,"is_transit":false,"time":5,"station_id":"TGS","i_lat":-6.328533,"i_long":106.425991,"line":6,"station_name":"Tigaraksa","transit":false}],[{"i_long":106.771379,"line":5,"distance":0,"transit":false,"i_lat":-6.161433,"station_id":"PSG","station_name":"Pesing","is_transit":false,"time":0},{"distance":2036,"line":5,"is_transit":false,"time":2,"station_id":"GGL","station_name":"Grogol","i_lat":-6.162021,"transit":false,"i_long":106.788277},{"i_long":106.800832,"is_transit":true,"distance":1700,"station_name":"Duri","line":1,"i_lat":-6.155215,"time":3,"station_id":"DU","transit":true},{"station_id":"AK","station_name":"Angke","line":0,"is_transit":false,"i_long":106.79867,"distance":1230,"time":4,"transit":false,"i_lat":-6.144674},{"transit":true,"is_transit":true,"time":9,"station_name":"Kampung Bandan","i_lat":-6.132549,"i_long":106.826365,"station_id":"KPB","distance":4102,"line":0},{"transit":false,"time":3,"distance":1444,"station_id":"RJW","station_name":"Rajawali","i_lat":-6.14505,"is_transit":false,"i_long":106.836569,"line":11},{"is_transit":false,"time":5,"line":11,"transit":false,"i_lat":-6.161728,"distance":1901,"station_name":"Kemayoran","station_id":"KMO","i_long":106.839204},{"i_lat":-6.174784,"i_long":106.84368,"station_name":"Pasar Senen","time":4,"transit":false,"is_transit":false,"distance":1436,"line":11,"station_id":"PSE"},{"i_lat":-6.185975,"distance":1567,"station_id":"GST","station_name":"Gang Sentiong","time":8,"is_transit":false,"line":11,"transit":false,"i_long":106.850107},{"transit":false,"station_id":"KMT","line":11,"i_long":106.855437,"time":1,"is_transit":false,"station_name":"Kramat","i_lat":-6.193792,"distance":973},{"line":11,"station_id":"POK","transit":false,"is_transit":false,"i_lat":-6.209188,"station_name":"Pondok Jati","time":2,"i_long":106.861737,"distance":1829},{"time":9,"i_lat":-6.215091,"line":0,"station_id":"JNG","distance":1236,"is_transit":true,"station_name":"Jatinegara","transit":true,"i_long":106.86807400000001},{"distance":1377,"i_lat":-6.212485,"station_name":"Matraman","transit":false,"time":2,"station_id":"MTR","i_long":106.858896,"is_transit":false,"line":1},{"distance":1275,"station_id":"MRI","station_name":"Manggarai","time":2,"transit":false,"i_lat":-6.209883,"line":0,"is_transit":true,"i_long":106.84912},{"distance":3186,"i_lat":-6.202263,"station_name":"Sudirman","station_id":"SUD","transit":false,"time":4,"line":1,"i_long":106.822649,"is_transit":false},{"transit":false,"i_long":106.819881,"distance":280,"is_transit":false,"i_lat":-6.201433,"station_id":"SUDB","line":1,"time":1,"station_name":"Sudirman Baru"},{"distance":471,"is_transit":false,"transit":false,"time":1,"line":1,"station_name":"Karet","station_id":"KAT","i_lat":-6.20132,"i_long":106.816351},{"distance":2029,"station_name":"Tanah Abang","time":5,"station_id":"THB","i_lat":-6.185545,"i_long":106.811091,"is_transit":true,"line":1,"transit":true},{"is_transit":false,"i_lat":-6.207404,"i_long":106.79689,"transit":false,"line":6,"station_id":"PLM","station_name":"Palmerah","distance":3191,"time":6},{"time":7,"line":6,"station_name":"Kebayoran","transit":false,"station_id":"KBY","i_long":106.780334,"distance":3737,"i_lat":-6.237242,"is_transit":false},{"transit":false,"station_name":"Pondokranji","station_id":"PDJ","is_transit":false,"distance":6218,"line":6,"time":8,"i_lat":-6.276362,"i_long":106.74273},{"line":6,"time":3,"i_lat":-6.288927,"transit":false,"station_name":"Jurangmangu","is_transit":false,"i_long":106.728916,"station_id":"JMU","distance":2179},{"distance":1994,"transit":false,"time":4,"is_transit":false,"line":6,"station_name":"Sudimara","i_lat":-6.296963,"i_long":106.712277,"station_id":"SDM"},{"i_lat":-6.314823,"transit":false,"i_long":106.675475,"line":6,"station_id":"RU","is_transit":false,"distance":4566,"station_name":"Rawa Buntu","time":6},{"time":4,"i_long":106.66566,"i_lat":-6.319871,"transit":false,"distance":2413,"is_transit":false,"station_id":"SRP","station_name":"Serpong","line":6},{"is_transit":false,"transit":false,"station_name":"Cisauk","distance":1784,"station_id":"CSK","i_lat":-6.32484,"line":0,"time":4,"i_long":106.640411},{"i_long":106.617853,"distance":2519,"line":0,"station_id":"CC","station_name":"Cicayur","time":4,"is_transit":false,"transit":false,"i_lat":-6.329547},{"i_lat":-6.3441410000000005,"time":8,"is_transit":false,"transit":false,"i_long":106.568863,"station_id":"PRP","line":6,"station_name":"Parung Panjang","distance":5968},{"station_id":"CJT","i_long":106.508482,"transit":false,"time":9,"i_lat":-6.354349,"distance":7025,"station_name":"Cilejit","line":0,"is_transit":false},{"line":0,"station_id":"DAR","is_transit":false,"distance":2675,"time":6,"i_lat":-6.338021,"transit":false,"station_name":"Daru","i_long":106.491338},{"i_long":106.460812,"transit":false,"time":5,"station_name":"Tenjo","distance":3902,"is_transit":false,"station_id":"TEJ","line":6,"i_lat":-6.327251},{"is_transit":false,"line":6,"transit":false,"distance":2974,"time":5,"station_name":"Tigaraksa","station_id":"TGS","i_lat":-6.328533,"i_long":106.425991}]]}