{"data":[[{"station_id":"PSG","station_name":"Pesing","distance":0,"i_lat":-6.161433,"i_long":106.771379,"transit":false,"line":5,"is_transit":false,"time":0},{"i_long":106.788277,"is_transit":false,"transit":false,"time":2,"line":5,"station_name":"Grogol","i_lat":-6.162021,"distance":2036,"station_id":"GGL"},{"distance":1700,"station_name":"Duri","line":1,"station_id":"DU","is_transit":true,"transit":true,"i_long":106.800832,"time":3,"i_lat":-6.155215},{"distance":3632,"transit":true,"i_long":106.811091,"station_name":"Tanah Abang","i_lat":-6.185545,"line":1,"is_transit":true,"station_id":"THB","time":8},{"line":6,"i_long":106.79689,"time":6,"station_name":"Palmerah","transit":false,"i_lat":-6.207404,"station_id":"PLM","distance":3191,"is_transit":false},{"is_transit":false,"station_id":"KBY","i_lat":-6.237242,"i_long":106.780334,"distance":3737,"station_name":"Kebayoran","line":6,"transit":false,"time":7},{"time":8,"station_name":"Pondokranji","is_transit":false,"line":6,"distance":6218,"station_id":"PDJ","transit":false,"i_lat":-6.276362,"i_long":106.74273},{"station_name":"Jurangmangu","distance":2179,"time":3,"station_id":"JMU","i_lat":-6.288927,"transit":false,"is_transit":false,"i_long":106.728916,"line":6},{"time":4,"station_name":"Sudimara","transit":false,"distance":1994,"is_transit":false,"i_long":106.712277,"station_id":"SDM","line":6,"i_lat":-6.296963},{"station_name":"Rawa Buntu","i_long":106.675475,"is_transit":false,"i_lat":-6.314823,"station_id":"RU","transit":false,"time":6,"line":6,"distance":4566},{"distance":2413,"transit":false,"line":6,"time":4,"station_id":"SRP","station_name":"Serpong","i_long":106.66566,"i_lat":-6.319871,"is_transit":false},{"line":0,"transit":false,"distance":1784,"station_id":"CSK","i_lat":-6.32484,"time":4,"is_transit":false,"i_long":106.640411,"station_name":"Cisauk"},{"is_transit":false,"transit":false,"time":4,"distance":2519,"i_lat":-6.329547,"i_long":106.617853,"station_name":"Cicayur","line":0,"station_id":"CC"},{"distance":5968,"time":8,"is_transit":false,"line":6,"i_long":106.568863,"station_name":"Parung Panjang","station_id":"PRP","transit":false,"i_lat":-6.3441410000000005},{"time":9,"distance":7025,"station_name":"Cilejit","i_lat":-6.354349,"i_long":106.508482,"is_transit":false,"station_id":"CJT","transit":false,"line":0}],[{"time":0,"distance":0,"line":5,"station_name":"Pesing","transit":false,"is_transit":false,"i_lat":-6.161433,"station_id":"PSG","i_long":106.771379},{"station_id":"GGL","i_lat":-6.162021,"i_long":106.788277,"station_name":"Grogol","line":5,"is_transit":false,"transit":false,"time":2,"distance":2036},{"distance":1700,"is_transit":true,"station_name":"Duri","transit":true,"i_long":106.800832,"line":1,"i_lat":-6.155215,"station_id":"DU","time":3},{"station_id":"AK","transit":false,"line":0,"distance":1230,"i_long":106.79867,"is_transit":false,"station_name":"Angke","time":4,"i_lat":-6.144674},{"i_lat":-6.132549,"distance":4102,"i_long":106.826365,"station_id":"KPB","line":0,"station_name":"Kampung Bandan","transit":false,"is_transit":true,"time":9},{"time":3,"distance":1364,"station_id":"JAKK","station_name":"Jakarta Kota","i_lat":-6.137569,"transit":true,"i_long":106.812439,"is_transit":true,"line":0},{"distance":1264,"station_id":"JAY","time":4,"i_long":106.820901,"station_name":"Jayakarta","i_lat":-6.141205,"line":7,"transit":false,"is_transit":false},{"transit":false,"distance":1080,"station_id":"MGB","i_long":106.82482,"is_transit":false,"i_lat":-6.149769,"line":2,"time":2,"station_name":"Manggabesar"},{"line":2,"distance":906,"transit":false,"station_id":"SW","i_lat":-6.160725,"time":2,"station_name":"Sawah Besar","is_transit":false,"i_long":106.827103},{"line":2,"i_lat":-6.166716,"station_name":"Juanda","transit":false,"is_transit":false,"distance":1149,"time":2,"i_long":106.828284,"station_id":"JUA"},{"i_lat":-6.186295,"transit":false,"time":4,"distance":2015,"i_long":106.832183,"is_transit":false,"station_id":"GDD","station_name":"Gondangdia","line":2},{"time":3,"is_transit":false,"line":0,"transit":false,"i_lat":-6.198556,"distance":1750,"station_id":"CKI","i_long":106.840169,"station_name":"Cikini"},{"station_name":"Manggarai","station_id":"MRI","line":0,"transit":true,"is_transit":true,"i_lat":-6.209883,"time":4,"i_long":106.84912,"distance":1590},{"is_transit":false,"transit":false,"station_id":"SUD","time":4,"distance":3186,"station_name":"Sudirman","i_long":106.822649,"line":1,"i_lat":-6.202263},{"is_transit":false,"transit":false,"line":1,"i_long":106.819881,"distance":280,"station_id":"SUDB","station_name":"Sudirman Baru","time":1,"i_lat":-6.201433},{"i_lat":-6.20132,"is_transit":false,"station_id":"KAT","i_long":106.816351,"station_name":"Karet","time":1,"line":1,"distance":471,"transit":false},{"i_long":106.811091,"distance":2029,"i_lat":-6.185545,"station_name":"Tanah Abang","transit":true,"is_transit":true,"station_id":"THB","time":5,"line":1},{"is_transit":false,"station_id":"PLM","line":6,"distance":3191,"time":6,"i_lat":-6.207404,"i_long":106.79689,"transit":false,"station_name":"Palmerah"},{"i_long":106.780334,"line":6,"station_name":"Kebayoran","time":7,"distance":3737,"is_transit":false,"i_lat":-6.237242,"station_id":"KBY","transit":false},{"station_id":"PDJ","time":8,"transit":false,"station_name":"Pondokranji","i_lat":-6.276362,"distance":6218,"is_transit":false,"i_long":106.74273,"line":6},{"time":3,"i_lat":-6.288927,"i_long":106.728916,"station_name":"Jurangmangu","line":6,"is_transit":false,"distance":2179,"station_id":"JMU","transit":false},{"line":6,"i_lat":-6.296963,"is_transit":false,"station_id":"SDM","station_name":"Sudimara","transit":false,"time":4,"i_long":106.712277,"distance":1994},{"is_transit":false,"i_long":106.675475,"line":6,"time":6,"station_name":"Rawa Buntu","i_lat":-6.314823,"distance":4566,"station_id":"RU","transit":false},{"i_lat":-6.319871,"time":4,"transit":false,"station_name":"Serpong","line":6,"i_long":106.66566,"is_transit":false,"distance":2413,"station_id":"SRP"},{"station_name":"Cisauk","time":4,"is_transit":false,"i_lat":-6.32484,"station_id":"CSK","i_long":106.640411,"distance":1784,"transit":false,"line":0},{"station_name":"Cicayur","time":4,"i_lat":-6.329547,"is_transit":false,"line":0,"distance":2519,"transit":false,"i_long":106.617853,"station_id":"CC"},{"distance":5968,"i_lat":-6.3441410000000005,"station_name":"Parung Panjang","is_transit":false,"transit":false,"time":8,"i_long":106.568863,"station_id":"PRP","line":6},{"station_id":"CJT","station_name":"Cilejit","time":9,"i_lat":-6.354349,"is_transit":false,"i_long":106.508482,"line":0,"distance":7025,"transit":false}],[{"station_name":"Pesing","i_lat":-6.161433,"is_transit":false,"station_id":"PSG","line":5,"i_long":106.771379,"transit":false,"time":0,"distance":0},{"transit":false,"line":5,"is_transit":false,"time":2,"station_id":"GGL","i_lat":-6.162021,"distance":2036,"station_name":"Grogol","i_long":106.788277},{"i_long":106.800832,"transit":true,"station_name":"Duri","station_id":"DU","distance":1700,"i_lat":-6.155215,"line":1,"is_transit":true,"time":3},{"station_id":"AK","distance":1230,"transit":false,"time":4,"is_transit":false,"i_lat":-6.144674,"i_long":106.79867,"station_name":"Angke","line":0},{"line":0,"distance":4102,"station_name":"Kampung Bandan","station_id":"KPB","transit":true,"i_long":106.826365,"i_lat":-6.132549,"is_transit":true,"time":9},{"is_transit":false,"transit":false,"line":11,"distance":1444,"time":3,"i_lat":-6.14505,"i_long":106.836569,"station_id":"RJW","station_name":"Rajawali"},{"time":5,"transit":false,"is_transit":false,"i_lat":-6.161728,"line":11,"station_id":"KMO","i_long":106.839204,"station_name":"Kemayoran","distance":1901},{"transit":false,"i_long":106.84368,"station_name":"Pasar Senen","distance":1436,"station_id":"PSE","is_transit":false,"i_lat":-6.174784,"line":11,"time":4},{"station_name":"Gang Sentiong","i_long":106.850107,"time":8,"line":11,"is_transit":false,"station_id":"GST","transit":false,"i_lat":-6.185975,"distance":1567},{"transit":false,"distance":973,"time":1,"i_lat":-6.193792,"station_id":"KMT","i_long":106.855437,"is_transit":false,"station_name":"Kramat","line":11},{"station_id":"POK","line":11,"i_lat":-6.209188,"station_name":"Pondok Jati","transit":false,"i_long":106.861737,"time":2,"distance":1829,"is_transit":false},{"is_transit":true,"station_id":"JNG","distance":1236,"transit":true,"i_lat":-6.215091,"station_name":"Jatinegara","i_long":106.86807400000001,"time":9,"line":0},{"transit":false,"i_lat":-6.212485,"time":2,"line":1,"station_name":"Matraman","is_transit":false,"i_long":106.858896,"distance":1377,"station_id":"MTR"},{"transit":false,"is_transit":true,"i_long":106.84912,"station_id":"MRI","i_lat":-6.209883,"station_name":"Manggarai","line":0,"distance":1275,"time":2},{"distance":3186,"time":4,"i_lat":-6.202263,"is_transit":false,"station_id":"SUD","transit":false,"i_long":106.822649,"line":1,"station_name":"Sudirman"},{"is_transit":false,"station_id":"SUDB","i_long":106.819881,"transit":false,"station_name":"Sudirman Baru","time":1,"line":1,"distance":280,"i_lat":-6.201433},{"distance":471,"is_transit":false,"station_id":"KAT","i_long":106.816351,"line":1,"time":1,"station_name":"Karet","i_lat":-6.20132,"transit":false},{"i_lat":-6.185545,"transit":true,"station_id":"THB","line":1,"station_name":"Tanah Abang","time":5,"distance":2029,"is_transit":true,"i_long":106.811091},{"transit":false,"time":6,"station_id":"PLM","distance":3191,"i_lat":-6.207404,"line":6,"i_long":106.79689,"station_name":"Palmerah","is_transit":false},{"is_transit":false,"time":7,"i_long":106.780334,"line":6,"transit":false,"distance":3737,"i_lat":-6.237242,"station_id":"KBY","station_name":"Kebayoran"},{"time":8,"is_transit":false,"i_long":106.74273,"line":6,"transit":false,"station_id":"PDJ","i_lat":-6.276362,"distance":6218,"station_name":"Pondokranji"},{"is_transit":false,"station_name":"Jurangmangu","transit":false,"i_lat":-6.288927,"station_id":"JMU","i_long":106.728916,"line":6,"time":3,"distance":2179},{"station_name":"Sudimara","station_id":"SDM","time":4,"i_long":106.712277,"is_transit":false,"i_lat":-6.296963,"line":6,"transit":false,"distance":1994},{"time":6,"i_lat":-6.314823,"i_long":106.675475,"distance":4566,"is_transit":false,"line":6,"transit":false,"station_id":"RU","station_name":"Rawa Buntu"},{"line":6,"i_long":106.66566,"station_name":"Serpong","i_lat":-6.319871,"station_id":"SRP","is_transit":false,"transit":false,"time":4,"distance":2413},{"station_id":"CSK","i_long":106.640411,"line":0,"distance":1784,"is_transit":false,"station_name":"Cisauk","transit":false,"time":4,"i_lat":-6.32484},{"distance":2519,"transit":false,"i_lat":-6.329547,"station_name":"Cicayur","station_id":"CC","i_long":106.617853,"line":0,"is_transit":false,"time":4},{"distance":5968,"transit":false,"i_lat":-6.3441410000000005,"station_id":"PRP","time":8,"i_long":106.568863,"line":6,"is_transit":false,"station_name":"Parung Panjang"},{"distance":7025,"time":9,"transit":false,"i_long":106.508482,"is_transit":false,"i_lat":-6.354349,"line":0,"station_id":"CJT","station_name":"Cilejit"}]]}