{"data":[[{"time":0,"distance":0,"station_id":"PSG","is_transit":false,"station_name":"Pesing","i_long":106.771379,"i_lat":-6.161433,"transit":false,"line":5},{"i_lat":-6.162021,"station_id":"GGL","is_transit":false,"i_long":106.788277,"time":2,"distance":2036,"transit":false,"station_name":"Grogol","line":5},{"i_long":106.800832,"distance":1700,"station_id":"DU","station_name":"Duri","line":1,"transit":true,"i_lat":-6.155215,"time":3,"is_transit":true},{"transit":false,"i_long":106.811091,"time":8,"line":1,"station_name":"Tanah Abang","is_transit":false,"station_id":"THB","i_lat":-6.185545,"distance":3632},{"time":5,"station_name":"Karet","is_transit":false,"line":1,"station_id":"KAT","transit":false,"distance":2029,"i_lat":-6.20132,"i_long":106.816351},{"distance":471,"transit":false,"station_id":"SUDB","time":1,"is_transit":false,"i_long":106.819881,"line":1,"i_lat":-6.201433,"station_name":"Sudirman Baru"},{"time":1,"transit":false,"i_lat":-6.202263,"distance":280,"line":1,"station_id":"SUD","is_transit":false,"station_name":"Sudirman","i_long":106.822649},{"station_id":"MRI","time":4,"distance":3186,"is_transit":true,"i_lat":-6.209883,"line":2,"station_name":"Manggarai","transit":true,"i_long":106.84912},{"is_transit":false,"station_id":"TEB","station_name":"Tebet","transit":false,"line":2,"distance":2610,"time":4,"i_lat":-6.226659,"i_long":106.857948},{"i_long":106.856607,"station_name":"Cawang","time":2,"distance":1230,"is_transit":false,"transit":false,"station_id":"CW","line":2,"i_lat":-6.242512},{"is_transit":false,"time":3,"station_id":"DRN","i_long":106.85449,"line":2,"i_lat":-6.255332,"station_name":"Duren Kalibata","distance":1546,"transit":false},{"i_long":106.851577,"is_transit":false,"line":2,"distance":824,"station_id":"PSMB","time":2,"transit":false,"station_name":"Pasar Minggu Baru","i_lat":-6.263214},{"i_long":106.843999,"is_transit":false,"transit":false,"time":2,"station_name":"Pasar Minggu","distance":2380,"i_lat":-6.2842400000000005,"line":2,"station_id":"PSM"},{"station_name":"Tanjung Barat","transit":false,"line":2,"is_transit":false,"i_lat":-6.3080680000000005,"i_long":106.838896,"time":4,"distance":2820,"station_id":"TNT"},{"transit":false,"i_lat":-6.330363,"station_name":"Lenteng Agung","line":2,"time":3,"i_long":106.832616,"distance":2671,"station_id":"LNA","is_transit":false},{"station_id":"UP","i_long":106.834175,"transit":false,"time":2,"distance":1029,"is_transit":false,"line":2,"station_name":"Univ. Pancasila","i_lat":-6.339291},{"i_long":106.831474,"station_id":"UI","line":2,"station_name":"Univ. Indonesia","time":3,"transit":false,"i_lat":-6.360749,"is_transit":false,"distance":2264},{"is_transit":false,"time":2,"transit":false,"distance":1109,"i_lat":-6.369073,"i_long":106.831114,"station_name":"Pondok Cina","line":2,"station_id":"POC"},{"station_id":"DPB","line":2,"distance":2727,"time":4,"is_transit":false,"i_long":106.819451,"station_name":"Depokbaru","i_lat":-6.391065,"transit":false},{"is_transit":false,"i_lat":-6.405256,"i_long":106.816926,"time":3,"line":2,"transit":false,"station_name":"Depok","distance":1584,"station_id":"DP"}],[{"transit":false,"station_name":"Pesing","is_transit":false,"i_lat":-6.161433,"i_long":106.771379,"distance":0,"station_id":"PSG","line":5,"time":0},{"transit":false,"station_name":"Grogol","is_transit":false,"i_long":106.788277,"station_id":"GGL","line":5,"i_lat":-6.162021,"time":2,"distance":2036},{"distance":1700,"i_long":106.800832,"i_lat":-6.155215,"station_id":"DU","line":1,"station_name":"Duri","transit":true,"is_transit":true,"time":3},{"is_transit":false,"station_id":"AK","station_name":"Angke","time":4,"distance":1230,"line":1,"i_long":106.79867,"transit":false,"i_lat":-6.144674},{"line":4,"is_transit":true,"station_name":"Kampung Bandan","i_lat":-6.132549,"station_id":"KPB","i_long":106.826365,"transit":true,"time":9,"distance":4102},{"station_id":"JAKK","line":2,"time":3,"station_name":"Jakarta Kota","is_transit":true,"transit":true,"distance":1364,"i_long":106.812439,"i_lat":-6.137569},{"line":2,"i_long":106.820901,"time":4,"transit":false,"station_name":"Jayakarta","distance":1264,"is_transit":false,"i_lat":-6.141205,"station_id":"JAY"},{"time":2,"i_lat":-6.149769,"i_long":106.82482,"line":2,"transit":false,"distance":1080,"is_transit":false,"station_name":"Manggabesar","station_id":"MGB"},{"station_name":"Sawah Besar","time":2,"is_transit":false,"distance":906,"line":2,"i_long":106.827103,"i_lat":-6.160725,"station_id":"SW","transit":false},{"is_transit":false,"station_id":"JUA","i_lat":-6.166716,"line":2,"distance":1149,"time":2,"transit":false,"i_long":106.828284,"station_name":"Juanda"},{"distance":2015,"station_name":"Gondangdia","i_long":106.832183,"is_transit":false,"line":2,"i_lat":-6.186295,"station_id":"GDD","time":4,"transit":false},{"i_long":106.840169,"is_transit":false,"i_lat":-6.198556,"line":2,"station_id":"CKI","time":3,"distance":1750,"transit":false,"station_name":"Cikini"},{"station_id":"MRI","line":2,"time":4,"distance":1590,"transit":false,"i_lat":-6.209883,"is_transit":false,"i_long":106.84912,"station_name":"Manggarai"},{"line":2,"i_long":106.857948,"station_name":"Tebet","time":4,"i_lat":-6.226659,"distance":2610,"station_id":"TEB","is_transit":false,"transit":false},{"i_lat":-6.242512,"station_name":"Cawang","distance":1230,"line":2,"transit":false,"i_long":106.856607,"time":2,"is_transit":false,"station_id":"CW"},{"station_name":"Duren Kalibata","is_transit":false,"time":3,"station_id":"DRN","transit":false,"i_long":106.85449,"i_lat":-6.255332,"distance":1546,"line":2},{"station_name":"Pasar Minggu Baru","distance":824,"line":2,"is_transit":false,"transit":false,"station_id":"PSMB","time":2,"i_long":106.851577,"i_lat":-6.263214},{"i_lat":-6.2842400000000005,"is_transit":false,"distance":2380,"time":2,"transit":false,"station_id":"PSM","i_long":106.843999,"station_name":"Pasar Minggu","line":2},{"i_long":106.838896,"transit":false,"time":4,"distance":2820,"is_transit":false,"station_name":"Tanjung Barat","i_lat":-6.3080680000000005,"line":2,"station_id":"TNT"},{"time":3,"station_id":"LNA","is_transit":false,"distance":2671,"station_name":"Lenteng Agung","i_lat":-6.330363,"transit":false,"i_long":106.832616,"line":2},{"transit":false,"station_name":"Univ. Pancasila","time":2,"distance":1029,"i_lat":-6.339291,"line":2,"is_transit":false,"station_id":"UP","i_long":106.834175},{"is_transit":false,"station_name":"Univ. Indonesia","i_lat":-6.360749,"i_long":106.831474,"transit":false,"line":2,"station_id":"UI","time":3,"distance":2264},{"is_transit":false,"distance":1109,"station_name":"Pondok Cina","transit":false,"time":2,"station_id":"POC","i_long":106.831114,"i_lat":-6.369073,"line":2},{"i_lat":-6.391065,"transit":false,"line":2,"is_transit":false,"i_long":106.819451,"station_name":"Depokbaru","time":4,"distance":2727,"station_id":"DPB"},{"time":3,"transit":false,"i_lat":-6.405256,"station_id":"DP","is_transit":false,"station_name":"Depok","line":2,"i_long":106.816926,"distance":1584}],[{"line":5,"is_transit":false,"i_lat":-6.161433,"distance":0,"station_id":"PSG","station_name":"Pesing","time":0,"i_long":106.771379,"transit":false},{"i_long":106.788277,"station_id":"GGL","station_name":"Grogol","distance":2036,"is_transit":false,"transit":false,"i_lat":-6.162021,"time":2,"line":5},{"station_id":"DU","station_name":"Duri","transit":true,"i_long":106.800832,"line":1,"i_lat":-6.155215,"distance":1700,"is_transit":true,"time":3},{"station_id":"AK","i_long":106.79867,"time":4,"station_name":"Angke","is_transit":false,"transit":false,"distance":1230,"i_lat":-6.144674,"line":1},{"line":4,"i_long":106.826365,"transit":true,"station_id":"KPB","station_name":"Kampung Bandan","time":9,"distance":4102,"is_transit":true,"i_lat":-6.132549},{"station_id":"RJW","distance":1444,"line":11,"is_transit":false,"time":3,"i_lat":-6.14505,"transit":false,"i_long":106.836569,"station_name":"Rajawali"},{"i_long":106.839204,"time":5,"station_name":"Kemayoran","station_id":"KMO","line":11,"distance":1901,"i_lat":-6.161728,"is_transit":false,"transit":false},{"station_id":"PSE","station_name":"Pasar Senen","transit":false,"i_lat":-6.174784,"line":11,"time":4,"is_transit":false,"distance":1436,"i_long":106.84368},{"time":8,"is_transit":false,"transit":false,"station_name":"Gang Sentiong","station_id":"GST","line":11,"i_lat":-6.185975,"i_long":106.850107,"distance":1567},{"station_name":"Kramat","line":11,"i_lat":-6.193792,"station_id":"KMT","time":1,"is_transit":false,"transit":false,"i_long":106.855437,"distance":973},{"i_long":106.861737,"station_id":"POK","time":2,"transit":false,"is_transit":false,"station_name":"Pondok Jati","line":11,"distance":1829,"i_lat":-6.209188},{"transit":true,"station_id":"JNG","i_long":106.86807400000001,"i_lat":-6.215091,"is_transit":true,"station_name":"Jatinegara","time":9,"distance":1236,"line":1},{"is_transit":false,"i_long":106.858896,"line":1,"i_lat":-6.212485,"station_id":"MTR","transit":false,"distance":1377,"station_name":"Matraman","time":2},{"station_id":"MRI","line":2,"distance":1275,"time":2,"station_name":"Manggarai","transit":true,"i_lat":-6.209883,"i_long":106.84912,"is_transit":true},{"station_name":"Tebet","time":4,"transit":false,"line":2,"station_id":"TEB","i_long":106.857948,"is_transit":false,"distance":2610,"i_lat":-6.226659},{"station_name":"Cawang","i_long":106.856607,"is_transit":false,"transit":false,"distance":1230,"i_lat":-6.242512,"line":2,"time":2,"station_id":"CW"},{"i_lat":-6.255332,"distance":1546,"line":2,"transit":false,"i_long":106.85449,"time":3,"station_name":"Duren Kalibata","is_transit":false,"station_id":"DRN"},{"is_transit":false,"time":2,"transit":false,"station_id":"PSMB","line":2,"station_name":"Pasar Minggu Baru","distance":824,"i_lat":-6.263214,"i_long":106.851577},{"is_transit":false,"station_name":"Pasar Minggu","i_long":106.843999,"distance":2380,"i_lat":-6.2842400000000005,"line":2,"transit":false,"station_id":"PSM","time":2},{"station_id":"TNT","i_lat":-6.3080680000000005,"is_transit":false,"time":4,"i_long":106.838896,"transit":false,"station_name":"Tanjung Barat","distance":2820,"line":2},{"transit":false,"station_name":"Lenteng Agung","i_long":106.832616,"station_id":"LNA","distance":2671,"i_lat":-6.330363,"is_transit":false,"time":3,"line":2},{"station_name":"Univ. Pancasila","is_transit":false,"time":2,"transit":false,"i_lat":-6.339291,"distance":1029,"line":2,"i_long":106.834175,"station_id":"UP"},{"station_name":"Univ. Indonesia","transit":false,"is_transit":false,"distance":2264,"i_lat":-6.360749,"line":2,"i_long":106.831474,"station_id":"UI","time":3},{"line":2,"time":2,"transit":false,"distance":1109,"station_id":"POC","is_transit":false,"station_name":"Pondok Cina","i_long":106.831114,"i_lat":-6.369073},{"line":2,"station_id":"DPB","i_long":106.819451,"is_transit":false,"time":4,"station_name":"Depokbaru","i_lat":-6.391065,"distance":2727,"transit":false},{"station_name":"Depok","station_id":"DP","is_transit":false,"distance":1584,"line":2,"time":3,"i_lat":-6.405256,"transit":false,"i_long":106.816926}]]}