{"data":[[{"transit":false,"time":0,"i_lat":-6.161433,"station_id":"PSG","station_name":"Pesing","i_long":106.771379,"distance":0,"line":5,"is_transit":false},{"line":5,"distance":2036,"i_long":106.788277,"station_name":"Grogol","is_transit":false,"i_lat":-6.162021,"transit":false,"station_id":"GGL","time":2},{"line":1,"i_lat":-6.155215,"transit":true,"i_long":106.800832,"distance":1700,"station_id":"DU","is_transit":true,"station_name":"Duri","time":3},{"line":1,"distance":3632,"is_transit":false,"station_name":"Tanah Abang","i_lat":-6.185545,"time":8,"transit":false,"i_long":106.811091,"station_id":"THB"},{"station_name":"Karet","time":5,"transit":false,"is_transit":false,"line":1,"station_id":"KAT","i_lat":-6.20132,"i_long":106.816351,"distance":2029},{"line":1,"time":1,"distance":471,"i_lat":-6.201433,"station_id":"SUDB","station_name":"Sudirman Baru","is_transit":false,"i_long":106.819881,"transit":false},{"station_id":"SUD","transit":false,"line":1,"time":1,"distance":280,"station_name":"Sudirman","i_lat":-6.202263,"is_transit":false,"i_long":106.822649},{"station_name":"Manggarai","i_long":106.84912,"distance":3186,"is_transit":true,"time":4,"station_id":"MRI","i_lat":-6.209883,"line":2,"transit":true},{"is_transit":false,"time":4,"transit":false,"line":2,"i_lat":-6.226659,"station_id":"TEB","station_name":"Tebet","i_long":106.857948,"distance":2610},{"is_transit":false,"station_name":"Cawang","i_long":106.856607,"i_lat":-6.242512,"time":2,"transit":false,"line":2,"distance":1230,"station_id":"CW"},{"is_transit":false,"distance":1546,"i_lat":-6.255332,"station_name":"Duren Kalibata","transit":false,"i_long":106.85449,"line":2,"time":3,"station_id":"DRN"},{"time":2,"i_long":106.851577,"distance":824,"station_id":"PSMB","is_transit":false,"station_name":"Pasar Minggu Baru","i_lat":-6.263214,"transit":false,"line":2},{"time":2,"i_long":106.843999,"is_transit":false,"transit":false,"line":2,"station_name":"Pasar Minggu","distance":2380,"station_id":"PSM","i_lat":-6.2842400000000005},{"is_transit":false,"i_long":106.838896,"distance":2820,"transit":false,"station_id":"TNT","station_name":"Tanjung Barat","time":4,"i_lat":-6.3080680000000005,"line":2},{"distance":2671,"station_id":"LNA","station_name":"Lenteng Agung","time":3,"i_lat":-6.330363,"i_long":106.832616,"transit":false,"is_transit":false,"line":2},{"station_id":"UP","distance":1029,"i_long":106.834175,"station_name":"Univ. Pancasila","time":2,"transit":false,"is_transit":false,"i_lat":-6.339291,"line":2}],[{"time":0,"station_id":"PSG","is_transit":false,"i_long":106.771379,"distance":0,"transit":false,"station_name":"Pesing","i_lat":-6.161433,"line":5},{"station_name":"Grogol","time":2,"i_lat":-6.162021,"line":5,"is_transit":false,"transit":false,"i_long":106.788277,"distance":2036,"station_id":"GGL"},{"distance":1700,"transit":true,"station_name":"Duri","is_transit":true,"line":1,"station_id":"DU","i_lat":-6.155215,"i_long":106.800832,"time":3},{"distance":1230,"i_lat":-6.144674,"line":1,"station_name":"Angke","time":4,"i_long":106.79867,"is_transit":false,"station_id":"AK","transit":false},{"line":4,"transit":true,"is_transit":true,"station_id":"KPB","distance":4102,"station_name":"Kampung Bandan","i_lat":-6.132549,"i_long":106.826365,"time":9},{"transit":true,"station_name":"Jakarta Kota","time":3,"is_transit":true,"distance":1364,"i_lat":-6.137569,"i_long":106.812439,"station_id":"JAKK","line":2},{"i_long":106.820901,"distance":1264,"time":4,"is_transit":false,"transit":false,"station_name":"Jayakarta","i_lat":-6.141205,"line":2,"station_id":"JAY"},{"i_lat":-6.149769,"station_name":"Manggabesar","transit":false,"line":2,"i_long":106.82482,"time":2,"distance":1080,"station_id":"MGB","is_transit":false},{"distance":906,"station_id":"SW","transit":false,"station_name":"Sawah Besar","is_transit":false,"time":2,"line":2,"i_lat":-6.160725,"i_long":106.827103},{"distance":1149,"transit":false,"time":2,"station_name":"Juanda","i_lat":-6.166716,"is_transit":false,"station_id":"JUA","i_long":106.828284,"line":2},{"line":2,"i_long":106.832183,"station_name":"Gondangdia","transit":false,"distance":2015,"is_transit":false,"time":4,"station_id":"GDD","i_lat":-6.186295},{"is_transit":false,"time":3,"distance":1750,"transit":false,"i_long":106.840169,"i_lat":-6.198556,"station_name":"Cikini","station_id":"CKI","line":2},{"station_id":"MRI","time":4,"transit":false,"is_transit":false,"i_long":106.84912,"line":2,"distance":1590,"station_name":"Manggarai","i_lat":-6.209883},{"station_id":"TEB","station_name":"Tebet","time":4,"i_long":106.857948,"distance":2610,"line":2,"transit":false,"i_lat":-6.226659,"is_transit":false},{"i_lat":-6.242512,"is_transit":false,"time":2,"transit":false,"distance":1230,"i_long":106.856607,"station_name":"Cawang","station_id":"CW","line":2},{"line":2,"transit":false,"i_long":106.85449,"station_id":"DRN","distance":1546,"i_lat":-6.255332,"time":3,"station_name":"Duren Kalibata","is_transit":false},{"i_long":106.851577,"is_transit":false,"line":2,"distance":824,"transit":false,"time":2,"station_name":"Pasar Minggu Baru","i_lat":-6.263214,"station_id":"PSMB"},{"time":2,"distance":2380,"line":2,"transit":false,"i_long":106.843999,"station_id":"PSM","station_name":"Pasar Minggu","i_lat":-6.2842400000000005,"is_transit":false},{"transit":false,"station_id":"TNT","station_name":"Tanjung Barat","i_long":106.838896,"line":2,"is_transit":false,"i_lat":-6.3080680000000005,"distance":2820,"time":4},{"distance":2671,"station_id":"LNA","i_lat":-6.330363,"station_name":"Lenteng Agung","line":2,"time":3,"i_long":106.832616,"is_transit":false,"transit":false},{"i_lat":-6.339291,"station_name":"Univ. Pancasila","distance":1029,"i_long":106.834175,"line":2,"is_transit":false,"transit":false,"time":2,"station_id":"UP"}],[{"i_lat":-6.161433,"distance":0,"is_transit":false,"i_long":106.771379,"line":5,"transit":false,"station_name":"Pesing","station_id":"PSG","time":0},{"time":2,"distance":2036,"is_transit":false,"transit":false,"station_name":"Grogol","i_lat":-6.162021,"i_long":106.788277,"line":5,"station_id":"GGL"},{"station_id":"DU","station_name":"Duri","is_transit":true,"line":1,"i_long":106.800832,"i_lat":-6.155215,"time":3,"transit":true,"distance":1700},{"transit":false,"i_lat":-6.144674,"i_long":106.79867,"station_name":"Angke","distance":1230,"station_id":"AK","line":1,"is_transit":false,"time":4},{"time":9,"line":4,"i_lat":-6.132549,"i_long":106.826365,"station_name":"Kampung Bandan","is_transit":true,"transit":true,"station_id":"KPB","distance":4102},{"is_transit":false,"station_name":"Rajawali","station_id":"RJW","transit":false,"i_long":106.836569,"line":11,"distance":1444,"time":3,"i_lat":-6.14505},{"station_name":"Kemayoran","station_id":"KMO","i_lat":-6.161728,"time":5,"is_transit":false,"distance":1901,"i_long":106.839204,"transit":false,"line":11},{"line":11,"transit":false,"is_transit":false,"time":4,"i_lat":-6.174784,"station_id":"PSE","distance":1436,"i_long":106.84368,"station_name":"Pasar Senen"},{"distance":1567,"i_long":106.850107,"transit":false,"is_transit":false,"station_id":"GST","time":8,"station_name":"Gang Sentiong","line":11,"i_lat":-6.185975},{"transit":false,"distance":973,"station_id":"KMT","i_long":106.855437,"i_lat":-6.193792,"time":1,"station_name":"Kramat","is_transit":false,"line":11},{"time":2,"station_name":"Pondok Jati","station_id":"POK","line":11,"distance":1829,"is_transit":false,"i_lat":-6.209188,"transit":false,"i_long":106.861737},{"station_name":"Jatinegara","is_transit":true,"station_id":"JNG","i_long":106.86807400000001,"distance":1236,"transit":true,"time":9,"i_lat":-6.215091,"line":1},{"line":1,"distance":1377,"is_transit":false,"transit":false,"time":2,"station_name":"Matraman","i_lat":-6.212485,"station_id":"MTR","i_long":106.858896},{"distance":1275,"i_long":106.84912,"transit":true,"station_id":"MRI","i_lat":-6.209883,"station_name":"Manggarai","time":2,"is_transit":true,"line":2},{"distance":2610,"time":4,"transit":false,"i_long":106.857948,"station_id":"TEB","i_lat":-6.226659,"line":2,"station_name":"Tebet","is_transit":false},{"line":2,"station_name":"Cawang","i_lat":-6.242512,"station_id":"CW","is_transit":false,"i_long":106.856607,"time":2,"distance":1230,"transit":false},{"line":2,"i_long":106.85449,"distance":1546,"transit":false,"is_transit":false,"i_lat":-6.255332,"time":3,"station_id":"DRN","station_name":"Duren Kalibata"},{"line":2,"distance":824,"transit":false,"station_id":"PSMB","i_long":106.851577,"is_transit":false,"i_lat":-6.263214,"station_name":"Pasar Minggu Baru","time":2},{"i_lat":-6.2842400000000005,"i_long":106.843999,"time":2,"line":2,"station_name":"Pasar Minggu","distance":2380,"transit":false,"station_id":"PSM","is_transit":false},{"i_long":106.838896,"station_id":"TNT","time":4,"is_transit":false,"line":2,"station_name":"Tanjung Barat","distance":2820,"i_lat":-6.3080680000000005,"transit":false},{"station_id":"LNA","i_lat":-6.330363,"line":2,"is_transit":false,"time":3,"transit":false,"station_name":"Lenteng Agung","i_long":106.832616,"distance":2671},{"time":2,"transit":false,"i_long":106.834175,"distance":1029,"station_id":"UP","station_name":"Univ. Pancasila","i_lat":-6.339291,"is_transit":false,"line":2}]]}