{"data":[[{"time":0,"i_long":106.771379,"distance":0,"is_transit":false,"transit":false,"station_id":"PSG","station_name":"Pesing","line":5,"i_lat":-6.161433},{"time":2,"line":5,"distance":2036,"station_name":"Grogol","is_transit":false,"transit":false,"station_id":"GGL","i_lat":-6.162021,"i_long":106.788277},{"line":1,"station_id":"DU","time":3,"station_name":"Duri","is_transit":true,"i_lat":-6.155215,"distance":1700,"transit":true,"i_long":106.800832},{"is_transit":true,"i_long":106.811091,"station_id":"THB","transit":true,"line":1,"station_name":"Tanah Abang","distance":3632,"time":8,"i_lat":-6.185545},{"i_long":106.79689,"station_id":"PLM","is_transit":false,"station_name":"Palmerah","i_lat":-6.207404,"line":6,"transit":false,"distance":3191,"time":6},{"i_lat":-6.237242,"line":6,"distance":3737,"is_transit":false,"station_id":"KBY","station_name":"Kebayoran","time":7,"i_long":106.780334,"transit":false},{"station_id":"PDJ","i_lat":-6.276362,"i_long":106.74273,"station_name":"Pondokranji","is_transit":false,"transit":false,"line":6,"distance":6218,"time":8},{"station_id":"JMU","line":6,"time":3,"is_transit":false,"distance":2179,"transit":false,"i_long":106.728916,"station_name":"Jurangmangu","i_lat":-6.288927},{"i_long":106.712277,"is_transit":false,"i_lat":-6.296963,"station_name":"Sudimara","distance":1994,"transit":false,"station_id":"SDM","line":6,"time":4},{"i_lat":-6.314823,"station_name":"Rawa Buntu","transit":false,"line":6,"time":6,"distance":4566,"i_long":106.675475,"is_transit":false,"station_id":"RU"},{"line":6,"station_id":"SRP","distance":2413,"time":4,"i_lat":-6.319871,"transit":false,"i_long":106.66566,"station_name":"Serpong","is_transit":false},{"station_name":"Cisauk","i_long":106.640411,"transit":false,"line":3,"i_lat":-6.32484,"distance":1784,"station_id":"CSK","time":4,"is_transit":false},{"is_transit":false,"distance":2519,"i_long":106.617853,"time":4,"station_name":"Cicayur","i_lat":-6.329547,"station_id":"CC","transit":false,"line":3},{"distance":5968,"time":8,"transit":false,"station_name":"Parung Panjang","i_lat":-6.3441410000000005,"station_id":"PRP","i_long":106.568863,"is_transit":false,"line":6},{"distance":7025,"station_id":"CJT","station_name":"Cilejit","i_lat":-6.354349,"transit":false,"time":9,"is_transit":false,"i_long":106.508482,"line":3},{"station_name":"Daru","station_id":"DAR","time":6,"is_transit":false,"i_long":106.491338,"transit":false,"distance":2675,"line":0,"i_lat":-6.338021}],[{"is_transit":false,"distance":0,"i_lat":-6.161433,"time":0,"i_long":106.771379,"station_id":"PSG","station_name":"Pesing","transit":false,"line":5},{"i_long":106.788277,"time":2,"station_name":"Grogol","distance":2036,"station_id":"GGL","is_transit":false,"line":5,"transit":false,"i_lat":-6.162021},{"is_transit":true,"i_long":106.800832,"transit":true,"distance":1700,"station_id":"DU","station_name":"Duri","time":3,"line":1,"i_lat":-6.155215},{"distance":1230,"transit":false,"i_long":106.79867,"station_id":"AK","is_transit":false,"station_name":"Angke","i_lat":-6.144674,"line":1,"time":4},{"i_lat":-6.132549,"i_long":106.826365,"distance":4102,"station_id":"KPB","station_name":"Kampung Bandan","transit":true,"is_transit":true,"time":9,"line":4},{"distance":1364,"time":3,"station_id":"JAKK","station_name":"Jakarta Kota","i_lat":-6.137569,"line":2,"i_long":106.812439,"transit":true,"is_transit":true},{"distance":1264,"is_transit":false,"time":4,"transit":false,"line":2,"i_long":106.820901,"station_id":"JAY","i_lat":-6.141205,"station_name":"Jayakarta"},{"i_lat":-6.149769,"station_id":"MGB","line":2,"transit":false,"is_transit":false,"station_name":"Manggabesar","time":2,"i_long":106.82482,"distance":1080},{"station_name":"Sawah Besar","i_lat":-6.160725,"line":2,"i_long":106.827103,"station_id":"SW","is_transit":false,"time":2,"distance":906,"transit":false},{"i_lat":-6.166716,"i_long":106.828284,"is_transit":false,"line":2,"time":2,"distance":1149,"station_name":"Juanda","station_id":"JUA","transit":false},{"i_lat":-6.186295,"distance":2015,"time":4,"station_name":"Gondangdia","i_long":106.832183,"line":2,"is_transit":false,"station_id":"GDD","transit":false},{"station_name":"Cikini","is_transit":false,"i_lat":-6.198556,"transit":false,"time":3,"station_id":"CKI","i_long":106.840169,"distance":1750,"line":2},{"is_transit":true,"distance":1590,"station_id":"MRI","station_name":"Manggarai","i_lat":-6.209883,"i_long":106.84912,"line":2,"transit":true,"time":4},{"transit":false,"station_name":"Sudirman","time":4,"station_id":"SUD","i_long":106.822649,"is_transit":false,"line":1,"i_lat":-6.202263,"distance":3186},{"time":1,"station_id":"SUDB","is_transit":false,"station_name":"Sudirman Baru","transit":false,"i_lat":-6.201433,"i_long":106.819881,"distance":280,"line":1},{"i_lat":-6.20132,"station_name":"Karet","transit":false,"station_id":"KAT","distance":471,"i_long":106.816351,"time":1,"line":1,"is_transit":false},{"transit":true,"station_name":"Tanah Abang","i_lat":-6.185545,"distance":2029,"is_transit":true,"station_id":"THB","time":5,"i_long":106.811091,"line":1},{"station_id":"PLM","line":6,"is_transit":false,"distance":3191,"transit":false,"i_lat":-6.207404,"station_name":"Palmerah","time":6,"i_long":106.79689},{"station_id":"KBY","station_name":"Kebayoran","i_lat":-6.237242,"line":6,"i_long":106.780334,"distance":3737,"is_transit":false,"transit":false,"time":7},{"transit":false,"time":8,"i_long":106.74273,"line":6,"station_id":"PDJ","distance":6218,"i_lat":-6.276362,"station_name":"Pondokranji","is_transit":false},{"i_lat":-6.288927,"station_id":"JMU","is_transit":false,"station_name":"Jurangmangu","time":3,"distance":2179,"i_long":106.728916,"line":6,"transit":false},{"distance":1994,"i_long":106.712277,"line":6,"i_lat":-6.296963,"is_transit":false,"transit":false,"station_id":"SDM","station_name":"Sudimara","time":4},{"transit":false,"station_name":"Rawa Buntu","is_transit":false,"i_long":106.675475,"distance":4566,"line":6,"i_lat":-6.314823,"station_id":"RU","time":6},{"station_id":"SRP","distance":2413,"i_long":106.66566,"station_name":"Serpong","time":4,"transit":false,"i_lat":-6.319871,"is_transit":false,"line":6},{"is_transit":false,"i_lat":-6.32484,"time":4,"line":3,"distance":1784,"station_id":"CSK","i_long":106.640411,"station_name":"Cisauk","transit":false},{"station_name":"Cicayur","distance":2519,"line":3,"is_transit":false,"transit":false,"station_id":"CC","i_lat":-6.329547,"time":4,"i_long":106.617853},{"time":8,"i_long":106.568863,"transit":false,"station_id":"PRP","station_name":"Parung Panjang","i_lat":-6.3441410000000005,"line":6,"distance":5968,"is_transit":false},{"transit":false,"station_id":"CJT","is_transit":false,"time":9,"distance":7025,"i_long":106.508482,"line":3,"station_name":"Cilejit","i_lat":-6.354349},{"distance":2675,"transit":false,"station_id":"DAR","station_name":"Daru","line":0,"is_transit":false,"time":6,"i_long":106.491338,"i_lat":-6.338021}],[{"i_long":106.771379,"is_transit":false,"distance":0,"transit":false,"station_id":"PSG","station_name":"Pesing","time":0,"i_lat":-6.161433,"line":5},{"distance":2036,"station_name":"Grogol","transit":false,"station_id":"GGL","time":2,"i_lat":-6.162021,"i_long":106.788277,"line":5,"is_transit":false},{"is_transit":true,"i_long":106.800832,"station_name":"Duri","distance":1700,"station_id":"DU","transit":true,"line":1,"i_lat":-6.155215,"time":3},{"is_transit":false,"distance":1230,"time":4,"station_id":"AK","i_long":106.79867,"transit":false,"line":1,"station_name":"Angke","i_lat":-6.144674},{"i_lat":-6.132549,"distance":4102,"station_id":"KPB","line":4,"station_name":"Kampung Bandan","time":9,"i_long":106.826365,"transit":true,"is_transit":true},{"station_id":"RJW","time":3,"distance":1444,"i_long":106.836569,"i_lat":-6.14505,"station_name":"Rajawali","is_transit":false,"line":11,"transit":false},{"i_long":106.839204,"transit":false,"station_id":"KMO","station_name":"Kemayoran","time":5,"distance":1901,"is_transit":false,"i_lat":-6.161728,"line":11},{"transit":false,"i_long":106.84368,"is_transit":false,"time":4,"station_id":"PSE","distance":1436,"line":11,"station_name":"Pasar Senen","i_lat":-6.174784},{"time":8,"is_transit":false,"transit":false,"distance":1567,"i_long":106.850107,"line":11,"station_name":"Gang Sentiong","station_id":"GST","i_lat":-6.185975},{"i_long":106.855437,"i_lat":-6.193792,"station_id":"KMT","time":1,"distance":973,"station_name":"Kramat","transit":false,"is_transit":false,"line":11},{"time":2,"distance":1829,"is_transit":false,"i_long":106.861737,"transit":false,"i_lat":-6.209188,"line":11,"station_id":"POK","station_name":"Pondok Jati"},{"station_id":"JNG","i_lat":-6.215091,"i_long":106.86807400000001,"line":1,"station_name":"Jatinegara","distance":1236,"is_transit":true,"time":9,"transit":true},{"line":1,"is_transit":false,"station_id":"MTR","station_name":"Matraman","transit":false,"time":2,"distance":1377,"i_long":106.858896,"i_lat":-6.212485},{"station_id":"MRI","is_transit":false,"line":2,"i_lat":-6.209883,"distance":1275,"transit":false,"station_name":"Manggarai","time":2,"i_long":106.84912},{"station_id":"SUD","transit":false,"is_transit":false,"time":4,"station_name":"Sudirman","distance":3186,"i_long":106.822649,"line":1,"i_lat":-6.202263},{"distance":280,"i_lat":-6.201433,"time":1,"line":1,"transit":false,"station_name":"Sudirman Baru","is_transit":false,"i_long":106.819881,"station_id":"SUDB"},{"line":1,"time":1,"station_name":"Karet","i_long":106.816351,"i_lat":-6.20132,"is_transit":false,"distance":471,"station_id":"KAT","transit":false},{"i_long":106.811091,"station_id":"THB","station_name":"Tanah Abang","time":5,"line":1,"i_lat":-6.185545,"is_transit":true,"transit":true,"distance":2029},{"transit":false,"distance":3191,"is_transit":false,"i_long":106.79689,"time":6,"i_lat":-6.207404,"station_name":"Palmerah","line":6,"station_id":"PLM"},{"is_transit":false,"station_id":"KBY","i_lat":-6.237242,"transit":false,"time":7,"distance":3737,"i_long":106.780334,"line":6,"station_name":"Kebayoran"},{"is_transit":false,"line":6,"time":8,"station_id":"PDJ","transit":false,"station_name":"Pondokranji","distance":6218,"i_long":106.74273,"i_lat":-6.276362},{"station_id":"JMU","i_long":106.728916,"station_name":"Jurangmangu","time":3,"i_lat":-6.288927,"transit":false,"distance":2179,"is_transit":false,"line":6},{"i_long":106.712277,"transit":false,"time":4,"distance":1994,"is_transit":false,"line":6,"station_id":"SDM","i_lat":-6.296963,"station_name":"Sudimara"},{"line":6,"time":6,"distance":4566,"station_name":"Rawa Buntu","i_long":106.675475,"station_id":"RU","i_lat":-6.314823,"transit":false,"is_transit":false},{"station_name":"Serpong","i_lat":-6.319871,"line":6,"station_id":"SRP","is_transit":false,"time":4,"i_long":106.66566,"transit":false,"distance":2413},{"distance":1784,"i_lat":-6.32484,"station_id":"CSK","transit":false,"is_transit":false,"time":4,"i_long":106.640411,"line":3,"station_name":"Cisauk"},{"i_lat":-6.329547,"is_transit":false,"transit":false,"line":3,"time":4,"station_id":"CC","distance":2519,"station_name":"Cicayur","i_long":106.617853},{"station_name":"Parung Panjang","line":6,"time":8,"is_transit":false,"transit":false,"distance":5968,"i_lat":-6.3441410000000005,"station_id":"PRP","i_long":106.568863},{"i_lat":-6.354349,"i_long":106.508482,"line":3,"station_name":"Cilejit","distance":7025,"transit":false,"station_id":"CJT","is_transit":false,"time":9},{"station_name":"Daru","i_long":106.491338,"distance":2675,"transit":false,"is_transit":false,"i_lat":-6.338021,"station_id":"DAR","time":6,"line":0}]]}