{"data":[[{"station_name":"Pesing","i_lat":-6.161433,"i_long":106.771379,"time":0,"distance":0,"transit":false,"is_transit":false,"station_id":"PSG","line":5},{"station_id":"GGL","i_lat":-6.162021,"line":5,"distance":2036,"is_transit":false,"time":2,"station_name":"Grogol","i_long":106.788277,"transit":false},{"distance":1700,"station_name":"Duri","i_lat":-6.155215,"station_id":"DU","is_transit":true,"transit":true,"time":3,"i_long":106.800832,"line":1},{"i_lat":-6.185545,"transit":false,"station_name":"Tanah Abang","time":8,"station_id":"THB","line":1,"is_transit":false,"distance":3632,"i_long":106.811091},{"transit":false,"station_id":"KAT","line":1,"is_transit":false,"time":5,"distance":2029,"station_name":"Karet","i_lat":-6.20132,"i_long":106.816351},{"time":1,"line":1,"distance":471,"station_name":"Sudirman Baru","i_lat":-6.201433,"is_transit":false,"i_long":106.819881,"transit":false,"station_id":"SUDB"},{"station_id":"SUD","i_long":106.822649,"line":1,"distance":280,"i_lat":-6.202263,"is_transit":false,"station_name":"Sudirman","transit":false,"time":1},{"i_lat":-6.209883,"station_id":"MRI","is_transit":true,"distance":3186,"time":4,"transit":true,"line":2,"station_name":"Manggarai","i_long":106.84912},{"i_lat":-6.226659,"line":2,"transit":false,"time":4,"i_long":106.857948,"station_name":"Tebet","station_id":"TEB","distance":2610,"is_transit":false},{"station_id":"CW","i_lat":-6.242512,"station_name":"Cawang","is_transit":false,"transit":false,"line":2,"time":2,"distance":1230,"i_long":106.856607},{"i_long":106.85449,"distance":1546,"station_name":"Duren Kalibata","i_lat":-6.255332,"transit":false,"station_id":"DRN","is_transit":false,"line":2,"time":3},{"time":2,"i_lat":-6.263214,"i_long":106.851577,"station_name":"Pasar Minggu Baru","transit":false,"line":2,"is_transit":false,"distance":824,"station_id":"PSMB"},{"transit":false,"time":2,"i_lat":-6.2842400000000005,"distance":2380,"station_id":"PSM","station_name":"Pasar Minggu","is_transit":false,"i_long":106.843999,"line":2},{"i_lat":-6.3080680000000005,"i_long":106.838896,"transit":false,"station_name":"Tanjung Barat","station_id":"TNT","time":4,"distance":2820,"line":2,"is_transit":false},{"i_long":106.832616,"transit":false,"time":3,"station_id":"LNA","station_name":"Lenteng Agung","distance":2671,"line":2,"is_transit":false,"i_lat":-6.330363},{"station_name":"Univ. Pancasila","is_transit":false,"i_lat":-6.339291,"line":2,"station_id":"UP","i_long":106.834175,"distance":1029,"time":2,"transit":false}],[{"time":0,"distance":0,"transit":false,"i_long":106.771379,"station_name":"Pesing","i_lat":-6.161433,"line":5,"is_transit":false,"station_id":"PSG"},{"time":2,"i_lat":-6.162021,"distance":2036,"station_id":"GGL","line":5,"transit":false,"is_transit":false,"station_name":"Grogol","i_long":106.788277},{"distance":1700,"time":3,"station_id":"DU","transit":true,"station_name":"Duri","line":1,"is_transit":true,"i_lat":-6.155215,"i_long":106.800832},{"transit":false,"distance":1230,"station_id":"AK","i_lat":-6.144674,"is_transit":false,"line":1,"station_name":"Angke","time":4,"i_long":106.79867},{"transit":true,"distance":4102,"station_id":"KPB","is_transit":true,"station_name":"Kampung Bandan","i_long":106.826365,"time":9,"i_lat":-6.132549,"line":4},{"line":2,"is_transit":true,"i_lat":-6.137569,"distance":1364,"station_id":"JAKK","transit":true,"station_name":"Jakarta Kota","time":3,"i_long":106.812439},{"i_long":106.820901,"is_transit":false,"station_name":"Jayakarta","station_id":"JAY","time":4,"distance":1264,"i_lat":-6.141205,"line":2,"transit":false},{"transit":false,"time":2,"distance":1080,"station_id":"MGB","i_long":106.82482,"station_name":"Manggabesar","line":2,"is_transit":false,"i_lat":-6.149769},{"is_transit":false,"time":2,"station_name":"Sawah Besar","i_lat":-6.160725,"line":2,"distance":906,"station_id":"SW","transit":false,"i_long":106.827103},{"distance":1149,"i_long":106.828284,"is_transit":false,"line":2,"i_lat":-6.166716,"station_id":"JUA","transit":false,"station_name":"Juanda","time":2},{"station_id":"GDD","i_long":106.832183,"transit":false,"station_name":"Gondangdia","i_lat":-6.186295,"line":2,"distance":2015,"is_transit":false,"time":4},{"line":2,"transit":false,"is_transit":false,"station_name":"Cikini","station_id":"CKI","time":3,"i_lat":-6.198556,"distance":1750,"i_long":106.840169},{"distance":1590,"time":4,"station_id":"MRI","i_lat":-6.209883,"station_name":"Manggarai","is_transit":false,"i_long":106.84912,"line":2,"transit":false},{"i_lat":-6.226659,"i_long":106.857948,"station_name":"Tebet","transit":false,"time":4,"distance":2610,"station_id":"TEB","is_transit":false,"line":2},{"line":2,"station_id":"CW","station_name":"Cawang","time":2,"distance":1230,"i_lat":-6.242512,"i_long":106.856607,"transit":false,"is_transit":false},{"transit":false,"distance":1546,"time":3,"line":2,"station_name":"Duren Kalibata","i_lat":-6.255332,"is_transit":false,"i_long":106.85449,"station_id":"DRN"},{"line":2,"transit":false,"station_name":"Pasar Minggu Baru","station_id":"PSMB","i_lat":-6.263214,"is_transit":false,"time":2,"distance":824,"i_long":106.851577},{"station_name":"Pasar Minggu","i_long":106.843999,"is_transit":false,"transit":false,"time":2,"distance":2380,"i_lat":-6.2842400000000005,"line":2,"station_id":"PSM"},{"distance":2820,"transit":false,"i_long":106.838896,"station_id":"TNT","i_lat":-6.3080680000000005,"line":2,"station_name":"Tanjung Barat","is_transit":false,"time":4},{"transit":false,"i_lat":-6.330363,"i_long":106.832616,"line":2,"time":3,"distance":2671,"is_transit":false,"station_id":"LNA","station_name":"Lenteng Agung"},{"i_lat":-6.339291,"line":2,"station_id":"UP","is_transit":false,"station_name":"Univ. Pancasila","time":2,"distance":1029,"transit":false,"i_long":106.834175}],[{"line":5,"is_transit":false,"distance":0,"transit":false,"station_name":"Pesing","station_id":"PSG","time":0,"i_lat":-6.161433,"i_long":106.771379},{"time":2,"station_name":"Grogol","is_transit":false,"station_id":"GGL","i_lat":-6.162021,"i_long":106.788277,"line":5,"distance":2036,"transit":false},{"station_name":"Duri","line":1,"is_transit":true,"transit":true,"station_id":"DU","time":3,"i_lat":-6.155215,"i_long":106.800832,"distance":1700},{"transit":false,"station_name":"Angke","time":4,"distance":1230,"i_lat":-6.144674,"i_long":106.79867,"line":1,"is_transit":false,"station_id":"AK"},{"transit":true,"is_transit":true,"i_long":106.826365,"station_id":"KPB","time":9,"line":4,"i_lat":-6.132549,"station_name":"Kampung Bandan","distance":4102},{"line":11,"i_long":106.836569,"station_name":"Rajawali","i_lat":-6.14505,"is_transit":false,"distance":1444,"time":3,"transit":false,"station_id":"RJW"},{"is_transit":false,"transit":false,"distance":1901,"i_lat":-6.161728,"station_id":"KMO","i_long":106.839204,"time":5,"station_name":"Kemayoran","line":11},{"i_lat":-6.174784,"distance":1436,"line":11,"station_name":"Pasar Senen","time":4,"station_id":"PSE","transit":false,"is_transit":false,"i_long":106.84368},{"station_id":"GST","transit":false,"distance":1567,"is_transit":false,"time":8,"i_long":106.850107,"station_name":"Gang Sentiong","i_lat":-6.185975,"line":11},{"station_id":"KMT","is_transit":false,"station_name":"Kramat","i_long":106.855437,"line":11,"time":1,"transit":false,"distance":973,"i_lat":-6.193792},{"is_transit":false,"time":2,"distance":1829,"i_lat":-6.209188,"line":11,"i_long":106.861737,"station_name":"Pondok Jati","station_id":"POK","transit":false},{"station_id":"JNG","distance":1236,"is_transit":true,"i_lat":-6.215091,"i_long":106.86807400000001,"station_name":"Jatinegara","time":9,"transit":true,"line":1},{"i_lat":-6.212485,"station_name":"Matraman","distance":1377,"line":1,"time":2,"transit":false,"station_id":"MTR","i_long":106.858896,"is_transit":false},{"station_name":"Manggarai","time":2,"i_lat":-6.209883,"is_transit":true,"transit":true,"distance":1275,"i_long":106.84912,"line":2,"station_id":"MRI"},{"distance":2610,"line":2,"station_id":"TEB","station_name":"Tebet","is_transit":false,"transit":false,"time":4,"i_long":106.857948,"i_lat":-6.226659},{"time":2,"transit":false,"is_transit":false,"distance":1230,"station_id":"CW","line":2,"i_lat":-6.242512,"station_name":"Cawang","i_long":106.856607},{"station_id":"DRN","i_long":106.85449,"transit":false,"station_name":"Duren Kalibata","is_transit":false,"distance":1546,"i_lat":-6.255332,"time":3,"line":2},{"distance":824,"station_id":"PSMB","i_long":106.851577,"is_transit":false,"transit":false,"i_lat":-6.263214,"time":2,"station_name":"Pasar Minggu Baru","line":2},{"station_id":"PSM","is_transit":false,"i_lat":-6.2842400000000005,"i_long":106.843999,"line":2,"distance":2380,"transit":false,"time":2,"station_name":"Pasar Minggu"},{"station_name":"Tanjung Barat","station_id":"TNT","distance":2820,"is_transit":false,"transit":false,"i_long":106.838896,"time":4,"i_lat":-6.3080680000000005,"line":2},{"i_lat":-6.330363,"transit":false,"station_id":"LNA","line":2,"time":3,"station_name":"Lenteng Agung","is_transit":false,"i_long":106.832616,"distance":2671},{"station_name":"Univ. Pancasila","distance":1029,"i_long":106.834175,"station_id":"UP","is_transit":false,"i_lat":-6.339291,"time":2,"transit":false,"line":2}]]}