{"data":[[{"line":5,"i_lat":-6.161433,"station_id":"PSG","is_transit":false,"transit":false,"distance":0,"time":0,"station_name":"Pesing","i_long":106.771379},{"time":2,"is_transit":false,"station_name":"Grogol","distance":2036,"transit":false,"i_lat":-6.162021,"i_long":106.788277,"line":5,"station_id":"GGL"},{"time":3,"line":1,"is_transit":true,"station_id":"DU","transit":true,"i_lat":-6.155215,"i_long":106.800832,"distance":1700,"station_name":"Duri"},{"station_name":"Tanah Abang","i_lat":-6.185545,"distance":3632,"station_id":"THB","transit":false,"time":8,"i_long":106.811091,"line":1,"is_transit":true},{"is_transit":false,"transit":false,"line":1,"distance":2029,"time":5,"i_long":106.816351,"station_id":"KAT","station_name":"Karet","i_lat":-6.20132},{"line":1,"i_long":106.819881,"is_transit":false,"distance":471,"transit":false,"station_name":"Sudirman Baru","station_id":"SUDB","time":1,"i_lat":-6.201433},{"station_id":"SUD","time":1,"i_lat":-6.202263,"i_long":106.822649,"line":1,"is_transit":false,"distance":280,"station_name":"Sudirman","transit":false},{"station_name":"Manggarai","time":4,"i_long":106.84912,"i_lat":-6.209883,"distance":3186,"transit":true,"line":0,"is_transit":true,"station_id":"MRI"},{"is_transit":false,"time":4,"station_name":"Tebet","station_id":"TEB","transit":false,"line":2,"i_long":106.857948,"i_lat":-6.226659,"distance":2610},{"station_id":"CW","station_name":"Cawang","is_transit":false,"distance":1230,"line":0,"i_long":106.856607,"transit":false,"time":2,"i_lat":-6.242512},{"is_transit":false,"i_long":106.85449,"line":0,"transit":false,"i_lat":-6.255332,"time":3,"station_id":"DRN","distance":1546,"station_name":"Duren Kalibata"},{"i_long":106.851577,"is_transit":false,"station_id":"PSMB","time":2,"i_lat":-6.263214,"distance":824,"transit":false,"line":2,"station_name":"Pasar Minggu Baru"},{"i_lat":-6.2842400000000005,"line":2,"station_name":"Pasar Minggu","station_id":"PSM","distance":2380,"transit":false,"time":2,"is_transit":false,"i_long":106.843999},{"station_name":"Tanjung Barat","i_long":106.838896,"i_lat":-6.3080680000000005,"station_id":"TNT","line":2,"distance":2820,"is_transit":false,"transit":false,"time":4},{"station_id":"LNA","station_name":"Lenteng Agung","distance":2671,"is_transit":false,"time":3,"i_lat":-6.330363,"i_long":106.832616,"line":2,"transit":false},{"is_transit":false,"station_id":"UP","time":2,"i_lat":-6.339291,"line":2,"distance":1029,"station_name":"Univ. Pancasila","transit":false,"i_long":106.834175},{"time":3,"i_lat":-6.360749,"i_long":106.831474,"line":2,"distance":2264,"is_transit":false,"station_id":"UI","transit":false,"station_name":"Univ. Indonesia"},{"is_transit":false,"station_name":"Pondok Cina","station_id":"POC","transit":false,"time":2,"i_long":106.831114,"i_lat":-6.369073,"line":2,"distance":1109},{"is_transit":false,"distance":2727,"station_id":"DPB","transit":false,"i_lat":-6.391065,"i_long":106.819451,"line":0,"time":4,"station_name":"Depokbaru"}],[{"is_transit":false,"i_lat":-6.161433,"transit":false,"station_id":"PSG","i_long":106.771379,"time":0,"station_name":"Pesing","distance":0,"line":5},{"station_name":"Grogol","distance":2036,"time":2,"i_long":106.788277,"is_transit":false,"transit":false,"station_id":"GGL","i_lat":-6.162021,"line":5},{"is_transit":true,"i_lat":-6.155215,"line":1,"distance":1700,"i_long":106.800832,"transit":true,"station_id":"DU","station_name":"Duri","time":3},{"time":4,"is_transit":false,"station_id":"AK","i_lat":-6.144674,"i_long":106.79867,"transit":false,"station_name":"Angke","distance":1230,"line":0},{"distance":4102,"station_name":"Kampung Bandan","transit":false,"time":9,"line":0,"is_transit":true,"station_id":"KPB","i_lat":-6.132549,"i_long":106.826365},{"line":0,"station_name":"Jakarta Kota","distance":1364,"i_lat":-6.137569,"i_long":106.812439,"is_transit":true,"transit":true,"time":3,"station_id":"JAKK"},{"is_transit":false,"i_lat":-6.141205,"line":7,"distance":1264,"i_long":106.820901,"transit":false,"station_id":"JAY","station_name":"Jayakarta","time":4},{"i_long":106.82482,"line":2,"time":2,"distance":1080,"station_id":"MGB","i_lat":-6.149769,"is_transit":false,"station_name":"Manggabesar","transit":false},{"line":2,"i_lat":-6.160725,"i_long":106.827103,"transit":false,"is_transit":false,"time":2,"distance":906,"station_id":"SW","station_name":"Sawah Besar"},{"line":2,"distance":1149,"is_transit":false,"station_name":"Juanda","station_id":"JUA","time":2,"i_lat":-6.166716,"i_long":106.828284,"transit":false},{"distance":2015,"is_transit":false,"i_long":106.832183,"station_id":"GDD","station_name":"Gondangdia","time":4,"transit":false,"i_lat":-6.186295,"line":2},{"i_lat":-6.198556,"is_transit":false,"time":3,"transit":false,"distance":1750,"i_long":106.840169,"station_id":"CKI","station_name":"Cikini","line":0},{"is_transit":true,"distance":1590,"time":4,"transit":true,"station_name":"Manggarai","line":0,"station_id":"MRI","i_lat":-6.209883,"i_long":106.84912},{"is_transit":false,"time":4,"i_long":106.857948,"station_id":"TEB","distance":2610,"station_name":"Tebet","transit":false,"line":2,"i_lat":-6.226659},{"line":0,"time":2,"station_id":"CW","i_long":106.856607,"station_name":"Cawang","is_transit":false,"distance":1230,"transit":false,"i_lat":-6.242512},{"station_name":"Duren Kalibata","is_transit":false,"transit":false,"i_lat":-6.255332,"time":3,"distance":1546,"i_long":106.85449,"line":0,"station_id":"DRN"},{"distance":824,"station_id":"PSMB","time":2,"i_lat":-6.263214,"line":2,"i_long":106.851577,"is_transit":false,"station_name":"Pasar Minggu Baru","transit":false},{"station_id":"PSM","station_name":"Pasar Minggu","i_lat":-6.2842400000000005,"line":2,"transit":false,"i_long":106.843999,"is_transit":false,"time":2,"distance":2380},{"i_lat":-6.3080680000000005,"line":2,"is_transit":false,"i_long":106.838896,"time":4,"station_name":"Tanjung Barat","distance":2820,"station_id":"TNT","transit":false},{"station_name":"Lenteng Agung","i_lat":-6.330363,"distance":2671,"transit":false,"time":3,"station_id":"LNA","i_long":106.832616,"line":2,"is_transit":false},{"station_name":"Univ. Pancasila","distance":1029,"is_transit":false,"transit":false,"station_id":"UP","time":2,"i_lat":-6.339291,"i_long":106.834175,"line":2},{"distance":2264,"transit":false,"time":3,"station_id":"UI","i_long":106.831474,"i_lat":-6.360749,"station_name":"Univ. Indonesia","line":2,"is_transit":false},{"line":2,"is_transit":false,"time":2,"i_long":106.831114,"transit":false,"station_name":"Pondok Cina","station_id":"POC","distance":1109,"i_lat":-6.369073},{"transit":false,"i_long":106.819451,"distance":2727,"is_transit":false,"i_lat":-6.391065,"station_name":"Depokbaru","station_id":"DPB","time":4,"line":0}],[{"station_id":"PSG","i_lat":-6.161433,"time":0,"is_transit":false,"i_long":106.771379,"line":5,"transit":false,"station_name":"Pesing","distance":0},{"transit":false,"line":5,"i_lat":-6.162021,"distance":2036,"time":2,"is_transit":false,"i_long":106.788277,"station_name":"Grogol","station_id":"GGL"},{"transit":true,"time":3,"line":1,"station_id":"DU","station_name":"Duri","i_lat":-6.155215,"distance":1700,"is_transit":true,"i_long":106.800832},{"station_name":"Angke","i_long":106.79867,"i_lat":-6.144674,"station_id":"AK","is_transit":false,"time":4,"distance":1230,"transit":false,"line":0},{"station_id":"KPB","is_transit":true,"station_name":"Kampung Bandan","i_lat":-6.132549,"transit":true,"i_long":106.826365,"line":0,"distance":4102,"time":9},{"i_long":106.836569,"station_id":"RJW","station_name":"Rajawali","time":3,"i_lat":-6.14505,"line":11,"transit":false,"is_transit":false,"distance":1444},{"transit":false,"i_long":106.839204,"i_lat":-6.161728,"is_transit":false,"station_id":"KMO","station_name":"Kemayoran","distance":1901,"line":11,"time":5},{"i_long":106.84368,"i_lat":-6.174784,"transit":false,"station_name":"Pasar Senen","station_id":"PSE","line":11,"time":4,"is_transit":false,"distance":1436},{"distance":1567,"line":11,"station_id":"GST","station_name":"Gang Sentiong","i_long":106.850107,"time":8,"is_transit":false,"transit":false,"i_lat":-6.185975},{"time":1,"i_lat":-6.193792,"is_transit":false,"distance":973,"station_id":"KMT","line":11,"transit":false,"i_long":106.855437,"station_name":"Kramat"},{"station_name":"Pondok Jati","line":11,"is_transit":false,"station_id":"POK","time":2,"i_long":106.861737,"distance":1829,"transit":false,"i_lat":-6.209188},{"is_transit":true,"station_name":"Jatinegara","transit":true,"i_long":106.86807400000001,"line":0,"station_id":"JNG","i_lat":-6.215091,"time":9,"distance":1236},{"distance":1377,"is_transit":false,"transit":false,"station_id":"MTR","line":1,"station_name":"Matraman","i_long":106.858896,"time":2,"i_lat":-6.212485},{"distance":1275,"station_id":"MRI","line":0,"is_transit":true,"time":2,"i_lat":-6.209883,"i_long":106.84912,"station_name":"Manggarai","transit":true},{"line":2,"transit":false,"is_transit":false,"station_name":"Tebet","station_id":"TEB","i_long":106.857948,"time":4,"distance":2610,"i_lat":-6.226659},{"distance":1230,"i_long":106.856607,"station_id":"CW","station_name":"Cawang","i_lat":-6.242512,"line":0,"transit":false,"is_transit":false,"time":2},{"distance":1546,"line":0,"i_lat":-6.255332,"transit":false,"station_id":"DRN","station_name":"Duren Kalibata","i_long":106.85449,"is_transit":false,"time":3},{"station_id":"PSMB","i_long":106.851577,"is_transit":false,"distance":824,"i_lat":-6.263214,"station_name":"Pasar Minggu Baru","time":2,"line":2,"transit":false},{"station_id":"PSM","station_name":"Pasar Minggu","is_transit":false,"i_lat":-6.2842400000000005,"i_long":106.843999,"line":2,"time":2,"distance":2380,"transit":false},{"i_long":106.838896,"is_transit":false,"i_lat":-6.3080680000000005,"distance":2820,"station_id":"TNT","line":2,"transit":false,"time":4,"station_name":"Tanjung Barat"},{"line":2,"time":3,"is_transit":false,"station_id":"LNA","i_lat":-6.330363,"transit":false,"station_name":"Lenteng Agung","distance":2671,"i_long":106.832616},{"station_name":"Univ. Pancasila","transit":false,"line":2,"station_id":"UP","time":2,"i_lat":-6.339291,"distance":1029,"i_long":106.834175,"is_transit":false},{"station_name":"Univ. Indonesia","time":3,"i_long":106.831474,"transit":false,"station_id":"UI","i_lat":-6.360749,"distance":2264,"is_transit":false,"line":2},{"line":2,"i_long":106.831114,"station_name":"Pondok Cina","is_transit":false,"time":2,"distance":1109,"transit":false,"station_id":"POC","i_lat":-6.369073},{"time":4,"station_name":"Depokbaru","i_long":106.819451,"station_id":"DPB","transit":false,"is_transit":false,"i_lat":-6.391065,"line":0,"distance":2727}]]}