{"data":[[{"station_id":"PSG","station_name":"Pesing","transit":false,"i_lat":-6.161433,"is_transit":false,"line":5,"distance":0,"i_long":106.771379,"time":0},{"distance":2036,"transit":false,"time":2,"station_id":"GGL","station_name":"Grogol","is_transit":false,"i_long":106.788277,"line":5,"i_lat":-6.162021},{"is_transit":true,"distance":1700,"i_long":106.800832,"line":1,"transit":true,"station_id":"DU","station_name":"Duri","time":3,"i_lat":-6.155215},{"distance":3632,"station_id":"THB","station_name":"Tanah Abang","transit":false,"is_transit":false,"i_long":106.811091,"line":1,"time":8,"i_lat":-6.185545},{"station_name":"Karet","transit":false,"i_long":106.816351,"line":1,"time":5,"is_transit":false,"station_id":"KAT","i_lat":-6.20132,"distance":2029},{"line":1,"time":1,"station_name":"Sudirman Baru","transit":false,"distance":471,"is_transit":false,"i_lat":-6.201433,"station_id":"SUDB","i_long":106.819881},{"line":1,"station_id":"SUD","station_name":"Sudirman","transit":false,"distance":280,"time":1,"i_lat":-6.202263,"i_long":106.822649,"is_transit":false},{"i_lat":-6.209883,"line":2,"distance":3186,"transit":true,"station_id":"MRI","is_transit":true,"time":4,"station_name":"Manggarai","i_long":106.84912},{"station_id":"TEB","distance":2610,"is_transit":false,"station_name":"Tebet","i_long":106.857948,"time":4,"transit":false,"line":2,"i_lat":-6.226659}],[{"station_id":"PSG","i_lat":-6.161433,"i_long":106.771379,"line":5,"is_transit":false,"time":0,"station_name":"Pesing","transit":false,"distance":0},{"line":5,"i_lat":-6.162021,"distance":2036,"is_transit":false,"station_name":"Grogol","transit":false,"time":2,"station_id":"GGL","i_long":106.788277},{"line":1,"distance":1700,"i_lat":-6.155215,"transit":true,"station_id":"DU","time":3,"i_long":106.800832,"station_name":"Duri","is_transit":true},{"station_id":"AK","is_transit":false,"i_long":106.79867,"i_lat":-6.144674,"transit":false,"time":4,"distance":1230,"station_name":"Angke","line":1},{"is_transit":true,"time":9,"station_id":"KPB","transit":true,"i_long":106.826365,"line":4,"station_name":"Kampung Bandan","i_lat":-6.132549,"distance":4102},{"i_long":106.812439,"is_transit":true,"time":3,"station_id":"JAKK","distance":1364,"station_name":"Jakarta Kota","transit":true,"i_lat":-6.137569,"line":2},{"station_id":"JAY","distance":1264,"is_transit":false,"time":4,"i_long":106.820901,"line":2,"i_lat":-6.141205,"transit":false,"station_name":"Jayakarta"},{"station_id":"MGB","line":2,"transit":false,"time":2,"distance":1080,"i_lat":-6.149769,"i_long":106.82482,"station_name":"Manggabesar","is_transit":false},{"i_long":106.827103,"distance":906,"line":2,"time":2,"transit":false,"station_name":"Sawah Besar","is_transit":false,"station_id":"SW","i_lat":-6.160725},{"line":2,"i_long":106.828284,"station_id":"JUA","station_name":"Juanda","transit":false,"distance":1149,"time":2,"is_transit":false,"i_lat":-6.166716},{"time":4,"i_long":106.832183,"i_lat":-6.186295,"distance":2015,"line":2,"transit":false,"station_id":"GDD","is_transit":false,"station_name":"Gondangdia"},{"station_name":"Cikini","is_transit":false,"line":2,"i_lat":-6.198556,"station_id":"CKI","distance":1750,"time":3,"i_long":106.840169,"transit":false},{"station_name":"Manggarai","is_transit":false,"i_lat":-6.209883,"distance":1590,"station_id":"MRI","time":4,"transit":false,"line":2,"i_long":106.84912},{"transit":false,"station_id":"TEB","i_lat":-6.226659,"time":4,"station_name":"Tebet","distance":2610,"i_long":106.857948,"is_transit":false,"line":2}],[{"distance":0,"i_long":106.771379,"station_name":"Pesing","time":0,"station_id":"PSG","transit":false,"i_lat":-6.161433,"line":5,"is_transit":false},{"time":2,"i_long":106.788277,"station_name":"Grogol","transit":false,"distance":2036,"station_id":"GGL","i_lat":-6.162021,"line":5,"is_transit":false},{"is_transit":true,"i_lat":-6.155215,"time":3,"transit":true,"i_long":106.800832,"station_id":"DU","station_name":"Duri","line":1,"distance":1700},{"is_transit":false,"station_id":"AK","station_name":"Angke","i_lat":-6.144674,"line":1,"transit":false,"distance":1230,"time":4,"i_long":106.79867},{"i_long":106.826365,"distance":4102,"time":9,"transit":true,"i_lat":-6.132549,"line":4,"is_transit":true,"station_id":"KPB","station_name":"Kampung Bandan"},{"i_lat":-6.14505,"distance":1444,"transit":false,"station_id":"RJW","line":11,"time":3,"station_name":"Rajawali","is_transit":false,"i_long":106.836569},{"time":5,"is_transit":false,"i_lat":-6.161728,"station_id":"KMO","line":11,"station_name":"Kemayoran","i_long":106.839204,"transit":false,"distance":1901},{"transit":false,"distance":1436,"i_lat":-6.174784,"station_id":"PSE","line":11,"station_name":"Pasar Senen","time":4,"is_transit":false,"i_long":106.84368},{"distance":1567,"station_name":"Gang Sentiong","time":8,"is_transit":false,"i_long":106.850107,"transit":false,"line":11,"station_id":"GST","i_lat":-6.185975},{"station_id":"KMT","time":1,"station_name":"Kramat","line":11,"is_transit":false,"distance":973,"i_lat":-6.193792,"i_long":106.855437,"transit":false},{"transit":false,"time":2,"i_long":106.861737,"line":11,"is_transit":false,"station_id":"POK","distance":1829,"i_lat":-6.209188,"station_name":"Pondok Jati"},{"distance":1236,"is_transit":true,"line":1,"time":9,"station_name":"Jatinegara","station_id":"JNG","i_lat":-6.215091,"i_long":106.86807400000001,"transit":true},{"station_id":"MTR","distance":1377,"station_name":"Matraman","i_long":106.858896,"transit":false,"is_transit":false,"i_lat":-6.212485,"line":1,"time":2},{"is_transit":true,"line":2,"i_lat":-6.209883,"time":2,"distance":1275,"station_id":"MRI","station_name":"Manggarai","i_long":106.84912,"transit":true},{"time":4,"distance":2610,"is_transit":false,"station_id":"TEB","i_lat":-6.226659,"station_name":"Tebet","transit":false,"line":2,"i_long":106.857948}]]}