{"data":[[{"transit":false,"time":0,"station_name":"Pesing","line":5,"station_id":"PSG","i_lat":-6.161433,"distance":0,"is_transit":false,"i_long":106.771379},{"i_lat":-6.162021,"i_long":106.788277,"is_transit":false,"station_name":"Grogol","line":5,"distance":2036,"time":2,"transit":false,"station_id":"GGL"},{"transit":true,"distance":1700,"line":1,"time":3,"is_transit":true,"station_name":"Duri","i_lat":-6.155215,"i_long":106.800832,"station_id":"DU"},{"transit":false,"is_transit":false,"i_long":106.79867,"station_name":"Angke","line":0,"distance":1230,"time":4,"i_lat":-6.144674,"station_id":"AK"},{"time":9,"transit":true,"is_transit":true,"distance":4102,"line":0,"station_name":"Kampung Bandan","i_lat":-6.132549,"i_long":106.826365,"station_id":"KPB"},{"station_name":"Rajawali","i_long":106.836569,"i_lat":-6.14505,"distance":1444,"line":11,"transit":false,"is_transit":false,"station_id":"RJW","time":3},{"transit":false,"i_lat":-6.161728,"distance":1901,"line":11,"time":5,"is_transit":false,"station_id":"KMO","station_name":"Kemayoran","i_long":106.839204}],[{"is_transit":false,"station_name":"Pesing","i_long":106.771379,"distance":0,"line":5,"transit":false,"time":0,"i_lat":-6.161433,"station_id":"PSG"},{"is_transit":false,"transit":false,"time":2,"line":5,"station_id":"GGL","station_name":"Grogol","i_long":106.788277,"distance":2036,"i_lat":-6.162021},{"is_transit":true,"station_name":"Duri","distance":1700,"i_long":106.800832,"i_lat":-6.155215,"time":3,"station_id":"DU","line":1,"transit":true},{"line":1,"is_transit":true,"i_long":106.811091,"transit":false,"time":8,"distance":3632,"i_lat":-6.185545,"station_id":"THB","station_name":"Tanah Abang"},{"time":5,"line":1,"i_lat":-6.20132,"station_id":"KAT","distance":2029,"station_name":"Karet","transit":false,"i_long":106.816351,"is_transit":false},{"i_long":106.819881,"line":1,"station_name":"Sudirman Baru","transit":false,"i_lat":-6.201433,"station_id":"SUDB","time":1,"is_transit":false,"distance":471},{"i_long":106.822649,"station_id":"SUD","station_name":"Sudirman","is_transit":false,"distance":280,"line":1,"transit":false,"i_lat":-6.202263,"time":1},{"distance":3186,"station_name":"Manggarai","is_transit":true,"station_id":"MRI","i_long":106.84912,"line":0,"time":4,"i_lat":-6.209883,"transit":false},{"station_id":"MTR","time":2,"i_long":106.858896,"line":1,"transit":false,"distance":1275,"i_lat":-6.212485,"station_name":"Matraman","is_transit":false},{"line":0,"distance":1377,"i_lat":-6.215091,"time":8,"station_name":"Jatinegara","i_long":106.86807400000001,"is_transit":true,"station_id":"JNG","transit":true},{"i_long":106.861737,"line":11,"transit":false,"is_transit":false,"station_name":"Pondok Jati","distance":1236,"i_lat":-6.209188,"time":2,"station_id":"POK"},{"station_id":"KMT","station_name":"Kramat","i_long":106.855437,"i_lat":-6.193792,"distance":1829,"is_transit":false,"time":2,"line":11,"transit":false},{"i_lat":-6.185975,"distance":973,"time":1,"station_name":"Gang Sentiong","line":11,"i_long":106.850107,"transit":false,"is_transit":false,"station_id":"GST"},{"station_id":"PSE","station_name":"Pasar Senen","i_lat":-6.174784,"i_long":106.84368,"distance":1567,"transit":false,"line":11,"is_transit":false,"time":8},{"time":4,"i_lat":-6.161728,"i_long":106.839204,"transit":false,"line":11,"station_id":"KMO","is_transit":false,"distance":1436,"station_name":"Kemayoran"}],[{"transit":false,"i_long":106.771379,"line":5,"distance":0,"time":0,"station_id":"PSG","i_lat":-6.161433,"station_name":"Pesing","is_transit":false},{"station_name":"Grogol","i_lat":-6.162021,"distance":2036,"station_id":"GGL","i_long":106.788277,"time":2,"transit":false,"is_transit":false,"line":5},{"transit":true,"distance":1700,"i_lat":-6.155215,"is_transit":true,"time":3,"i_long":106.800832,"line":1,"station_id":"DU","station_name":"Duri"},{"time":8,"distance":3632,"station_id":"THB","station_name":"Tanah Abang","is_transit":true,"transit":false,"i_long":106.811091,"i_lat":-6.185545,"line":1},{"transit":false,"i_long":106.816351,"distance":2029,"time":5,"i_lat":-6.20132,"line":1,"is_transit":false,"station_name":"Karet","station_id":"KAT"},{"transit":false,"i_lat":-6.201433,"i_long":106.819881,"line":1,"station_name":"Sudirman Baru","distance":471,"time":1,"is_transit":false,"station_id":"SUDB"},{"i_long":106.822649,"distance":280,"is_transit":false,"station_id":"SUD","transit":false,"time":1,"i_lat":-6.202263,"line":1,"station_name":"Sudirman"},{"transit":true,"is_transit":true,"i_lat":-6.209883,"line":0,"station_name":"Manggarai","station_id":"MRI","distance":3186,"i_long":106.84912,"time":4},{"i_lat":-6.198556,"line":0,"station_id":"CKI","distance":1590,"i_long":106.840169,"time":4,"station_name":"Cikini","transit":false,"is_transit":false},{"station_id":"GDD","time":3,"i_long":106.832183,"line":2,"station_name":"Gondangdia","is_transit":false,"i_lat":-6.186295,"distance":1750,"transit":false},{"station_name":"Juanda","i_lat":-6.166716,"transit":false,"line":2,"is_transit":false,"station_id":"JUA","time":4,"distance":2015,"i_long":106.828284},{"station_id":"SW","distance":1149,"station_name":"Sawah Besar","transit":false,"time":2,"i_lat":-6.160725,"line":2,"is_transit":false,"i_long":106.827103},{"line":2,"station_id":"MGB","i_long":106.82482,"is_transit":false,"distance":906,"station_name":"Manggabesar","time":2,"i_lat":-6.149769,"transit":false},{"i_long":106.820901,"transit":false,"i_lat":-6.141205,"time":2,"station_id":"JAY","distance":1080,"is_transit":false,"station_name":"Jayakarta","line":7},{"station_id":"JAKK","station_name":"Jakarta Kota","transit":true,"i_lat":-6.137569,"distance":1264,"i_long":106.812439,"line":0,"time":4,"is_transit":true},{"line":0,"i_long":106.826365,"is_transit":true,"distance":1364,"station_name":"Kampung Bandan","station_id":"KPB","transit":true,"time":3,"i_lat":-6.132549},{"i_long":106.836569,"distance":1444,"station_name":"Rajawali","transit":false,"line":11,"i_lat":-6.14505,"is_transit":false,"station_id":"RJW","time":3},{"i_lat":-6.161728,"i_long":106.839204,"station_id":"KMO","station_name":"Kemayoran","line":11,"distance":1901,"time":5,"is_transit":false,"transit":false}],[{"i_long":106.771379,"i_lat":-6.161433,"station_id":"PSG","station_name":"Pesing","time":0,"line":5,"distance":0,"is_transit":false,"transit":false},{"line":5,"is_transit":false,"distance":2036,"station_name":"Grogol","time":2,"i_lat":-6.162021,"i_long":106.788277,"station_id":"GGL","transit":false},{"i_long":106.800832,"distance":1700,"i_lat":-6.155215,"station_name":"Duri","station_id":"DU","line":1,"is_transit":true,"transit":true,"time":3},{"station_id":"AK","time":4,"is_transit":false,"i_lat":-6.144674,"distance":1230,"i_long":106.79867,"transit":false,"station_name":"Angke","line":0},{"distance":4102,"is_transit":true,"station_name":"Kampung Bandan","transit":false,"i_lat":-6.132549,"line":0,"time":9,"i_long":106.826365,"station_id":"KPB"},{"line":0,"distance":1364,"station_name":"Jakarta Kota","is_transit":true,"i_lat":-6.137569,"i_long":106.812439,"transit":true,"time":3,"station_id":"JAKK"},{"distance":1264,"transit":false,"station_id":"JAY","station_name":"Jayakarta","is_transit":false,"time":4,"i_lat":-6.141205,"line":7,"i_long":106.820901},{"station_name":"Manggabesar","i_long":106.82482,"time":2,"is_transit":false,"station_id":"MGB","transit":false,"line":2,"distance":1080,"i_lat":-6.149769},{"distance":906,"is_transit":false,"station_name":"Sawah Besar","time":2,"transit":false,"i_long":106.827103,"line":2,"station_id":"SW","i_lat":-6.160725},{"line":2,"i_long":106.828284,"time":2,"is_transit":false,"i_lat":-6.166716,"station_id":"JUA","distance":1149,"station_name":"Juanda","transit":false},{"station_id":"GDD","is_transit":false,"time":4,"distance":2015,"i_lat":-6.186295,"station_name":"Gondangdia","i_long":106.832183,"line":2,"transit":false},{"transit":false,"time":3,"i_lat":-6.198556,"distance":1750,"is_transit":false,"station_name":"Cikini","line":0,"i_long":106.840169,"station_id":"CKI"},{"station_id":"MRI","distance":1590,"transit":true,"i_lat":-6.209883,"line":0,"station_name":"Manggarai","is_transit":true,"time":4,"i_long":106.84912},{"transit":false,"time":2,"i_lat":-6.212485,"is_transit":false,"station_id":"MTR","distance":1275,"line":1,"station_name":"Matraman","i_long":106.858896},{"is_transit":true,"i_long":106.86807400000001,"station_id":"JNG","transit":true,"distance":1377,"time":8,"i_lat":-6.215091,"line":0,"station_name":"Jatinegara"},{"station_name":"Pondok Jati","transit":false,"station_id":"POK","time":2,"distance":1236,"i_long":106.861737,"line":11,"i_lat":-6.209188,"is_transit":false},{"transit":false,"time":2,"distance":1829,"line":11,"is_transit":false,"station_id":"KMT","station_name":"Kramat","i_lat":-6.193792,"i_long":106.855437},{"distance":973,"i_long":106.850107,"line":11,"transit":false,"is_transit":false,"station_name":"Gang Sentiong","time":1,"i_lat":-6.185975,"station_id":"GST"},{"time":8,"i_lat":-6.174784,"i_long":106.84368,"line":11,"station_name":"Pasar Senen","is_transit":false,"distance":1567,"station_id":"PSE","transit":false},{"time":4,"transit":false,"line":11,"distance":1436,"is_transit":false,"station_name":"Kemayoran","i_lat":-6.161728,"station_id":"KMO","i_long":106.839204}]]}