{"data":[[{"transit":false,"i_lat":-6.161433,"station_id":"PSG","station_name":"Pesing","i_long":106.771379,"time":0,"line":5,"distance":0,"is_transit":false},{"station_name":"Grogol","distance":2036,"is_transit":false,"line":5,"station_id":"GGL","i_lat":-6.162021,"i_long":106.788277,"transit":false,"time":2},{"is_transit":true,"station_id":"DU","i_lat":-6.155215,"transit":true,"i_long":106.800832,"line":1,"station_name":"Duri","time":3,"distance":1700},{"transit":false,"i_long":106.811091,"time":8,"distance":3632,"is_transit":true,"station_id":"THB","station_name":"Tanah Abang","line":1,"i_lat":-6.185545},{"line":1,"is_transit":false,"i_lat":-6.20132,"transit":false,"i_long":106.816351,"station_id":"KAT","station_name":"Karet","time":5,"distance":2029},{"transit":false,"station_name":"Sudirman Baru","i_lat":-6.201433,"station_id":"SUDB","line":1,"i_long":106.819881,"distance":471,"is_transit":false,"time":1},{"time":1,"i_lat":-6.202263,"line":1,"distance":280,"is_transit":false,"station_name":"Sudirman","i_long":106.822649,"station_id":"SUD","transit":false},{"station_id":"MRI","transit":true,"station_name":"Manggarai","distance":3186,"time":4,"line":0,"i_long":106.84912,"is_transit":true,"i_lat":-6.209883},{"station_id":"TEB","time":4,"distance":2610,"i_long":106.857948,"transit":false,"is_transit":false,"station_name":"Tebet","line":2,"i_lat":-6.226659},{"transit":false,"i_long":106.856607,"station_id":"CW","station_name":"Cawang","distance":1230,"is_transit":false,"i_lat":-6.242512,"time":2,"line":0},{"i_lat":-6.255332,"distance":1546,"is_transit":false,"time":3,"station_id":"DRN","station_name":"Duren Kalibata","transit":false,"line":0,"i_long":106.85449},{"is_transit":false,"distance":824,"transit":false,"station_name":"Pasar Minggu Baru","time":2,"i_long":106.851577,"line":2,"station_id":"PSMB","i_lat":-6.263214},{"transit":false,"i_long":106.843999,"line":2,"station_name":"Pasar Minggu","time":2,"i_lat":-6.2842400000000005,"distance":2380,"is_transit":false,"station_id":"PSM"},{"time":4,"line":2,"station_id":"TNT","i_lat":-6.3080680000000005,"distance":2820,"transit":false,"is_transit":false,"station_name":"Tanjung Barat","i_long":106.838896},{"time":3,"distance":2671,"i_long":106.832616,"line":2,"transit":false,"station_id":"LNA","station_name":"Lenteng Agung","is_transit":false,"i_lat":-6.330363},{"transit":false,"distance":1029,"is_transit":false,"line":2,"station_name":"Univ. Pancasila","i_long":106.834175,"time":2,"i_lat":-6.339291,"station_id":"UP"},{"station_id":"UI","i_lat":-6.360749,"time":3,"station_name":"Univ. Indonesia","i_long":106.831474,"distance":2264,"is_transit":false,"line":2,"transit":false},{"transit":false,"i_lat":-6.369073,"time":2,"distance":1109,"station_name":"Pondok Cina","line":2,"is_transit":false,"station_id":"POC","i_long":106.831114},{"distance":2727,"i_long":106.819451,"line":0,"station_name":"Depokbaru","is_transit":false,"time":4,"i_lat":-6.391065,"transit":false,"station_id":"DPB"},{"station_name":"Depok","time":3,"station_id":"DP","i_long":106.816926,"line":0,"transit":false,"i_lat":-6.405256,"is_transit":false,"distance":1584},{"line":1,"i_lat":-6.448811,"transit":false,"is_transit":true,"i_long":106.800298,"station_id":"CTA","time":6,"distance":5084,"station_name":"Citayam"},{"is_transit":false,"station_id":"CBN","i_long":106.851978,"time":10,"transit":false,"distance":6740,"i_lat":-6.46424,"line":0,"station_name":"Cibinong"},{"distance":6527,"station_name":"Nambo","is_transit":false,"i_long":106.905196,"line":21,"time":10,"transit":false,"station_id":"NMO","i_lat":-6.466285}],[{"station_id":"PSG","i_long":106.771379,"line":5,"is_transit":false,"distance":0,"i_lat":-6.161433,"time":0,"station_name":"Pesing","transit":false},{"time":2,"is_transit":false,"station_id":"GGL","i_long":106.788277,"distance":2036,"line":5,"station_name":"Grogol","transit":false,"i_lat":-6.162021},{"transit":true,"time":3,"i_long":106.800832,"line":1,"station_id":"DU","i_lat":-6.155215,"station_name":"Duri","distance":1700,"is_transit":true},{"is_transit":false,"i_lat":-6.144674,"line":0,"time":4,"i_long":106.79867,"station_name":"Angke","station_id":"AK","distance":1230,"transit":false},{"distance":4102,"time":9,"station_name":"Kampung Bandan","i_long":106.826365,"station_id":"KPB","i_lat":-6.132549,"line":0,"is_transit":true,"transit":false},{"time":3,"i_long":106.812439,"station_name":"Jakarta Kota","transit":true,"station_id":"JAKK","i_lat":-6.137569,"line":0,"distance":1364,"is_transit":true},{"station_id":"JAY","time":4,"i_long":106.820901,"line":7,"station_name":"Jayakarta","i_lat":-6.141205,"distance":1264,"transit":false,"is_transit":false},{"station_name":"Manggabesar","is_transit":false,"distance":1080,"transit":false,"i_long":106.82482,"station_id":"MGB","i_lat":-6.149769,"line":2,"time":2},{"distance":906,"station_name":"Sawah Besar","transit":false,"time":2,"station_id":"SW","i_lat":-6.160725,"i_long":106.827103,"is_transit":false,"line":2},{"station_id":"JUA","time":2,"i_long":106.828284,"distance":1149,"transit":false,"line":2,"station_name":"Juanda","is_transit":false,"i_lat":-6.166716},{"station_name":"Gondangdia","i_long":106.832183,"line":2,"transit":false,"is_transit":false,"distance":2015,"time":4,"station_id":"GDD","i_lat":-6.186295},{"distance":1750,"is_transit":false,"transit":false,"station_name":"Cikini","time":3,"line":0,"i_long":106.840169,"i_lat":-6.198556,"station_id":"CKI"},{"distance":1590,"station_name":"Manggarai","i_long":106.84912,"time":4,"transit":true,"line":0,"i_lat":-6.209883,"is_transit":true,"station_id":"MRI"},{"i_lat":-6.226659,"station_id":"TEB","time":4,"station_name":"Tebet","i_long":106.857948,"line":2,"is_transit":false,"transit":false,"distance":2610},{"station_id":"CW","time":2,"station_name":"Cawang","is_transit":false,"i_lat":-6.242512,"line":0,"distance":1230,"i_long":106.856607,"transit":false},{"station_id":"DRN","time":3,"station_name":"Duren Kalibata","i_long":106.85449,"is_transit":false,"transit":false,"distance":1546,"i_lat":-6.255332,"line":0},{"station_id":"PSMB","time":2,"i_long":106.851577,"station_name":"Pasar Minggu Baru","is_transit":false,"i_lat":-6.263214,"distance":824,"transit":false,"line":2},{"i_lat":-6.2842400000000005,"is_transit":false,"transit":false,"distance":2380,"line":2,"time":2,"i_long":106.843999,"station_id":"PSM","station_name":"Pasar Minggu"},{"i_long":106.838896,"station_id":"TNT","time":4,"is_transit":false,"transit":false,"i_lat":-6.3080680000000005,"line":2,"distance":2820,"station_name":"Tanjung Barat"},{"station_id":"LNA","i_lat":-6.330363,"line":2,"is_transit":false,"i_long":106.832616,"station_name":"Lenteng Agung","time":3,"transit":false,"distance":2671},{"transit":false,"line":2,"i_lat":-6.339291,"i_long":106.834175,"distance":1029,"time":2,"is_transit":false,"station_id":"UP","station_name":"Univ. Pancasila"},{"distance":2264,"is_transit":false,"station_name":"Univ. Indonesia","time":3,"i_lat":-6.360749,"line":2,"station_id":"UI","transit":false,"i_long":106.831474},{"i_lat":-6.369073,"line":2,"transit":false,"i_long":106.831114,"time":2,"station_name":"Pondok Cina","distance":1109,"is_transit":false,"station_id":"POC"},{"station_name":"Depokbaru","transit":false,"distance":2727,"is_transit":false,"time":4,"i_long":106.819451,"i_lat":-6.391065,"station_id":"DPB","line":0},{"is_transit":false,"i_long":106.816926,"station_id":"DP","distance":1584,"time":3,"line":0,"i_lat":-6.405256,"transit":false,"station_name":"Depok"},{"station_id":"CTA","is_transit":true,"station_name":"Citayam","i_lat":-6.448811,"i_long":106.800298,"transit":false,"distance":5084,"line":1,"time":6},{"time":10,"distance":6740,"i_lat":-6.46424,"i_long":106.851978,"transit":false,"station_name":"Cibinong","line":0,"is_transit":false,"station_id":"CBN"},{"time":10,"is_transit":false,"station_id":"NMO","distance":6527,"station_name":"Nambo","transit":false,"line":21,"i_lat":-6.466285,"i_long":106.905196}],[{"station_name":"Pesing","line":5,"distance":0,"time":0,"transit":false,"is_transit":false,"i_lat":-6.161433,"i_long":106.771379,"station_id":"PSG"},{"i_long":106.788277,"line":5,"i_lat":-6.162021,"station_name":"Grogol","distance":2036,"is_transit":false,"time":2,"station_id":"GGL","transit":false},{"transit":true,"station_id":"DU","time":3,"i_long":106.800832,"line":1,"is_transit":true,"i_lat":-6.155215,"distance":1700,"station_name":"Duri"},{"is_transit":false,"transit":false,"i_lat":-6.144674,"time":4,"station_id":"AK","station_name":"Angke","line":0,"i_long":106.79867,"distance":1230},{"distance":4102,"time":9,"i_lat":-6.132549,"i_long":106.826365,"station_name":"Kampung Bandan","line":0,"is_transit":true,"station_id":"KPB","transit":true},{"station_name":"Rajawali","i_lat":-6.14505,"distance":1444,"station_id":"RJW","transit":false,"is_transit":false,"time":3,"i_long":106.836569,"line":11},{"i_lat":-6.161728,"is_transit":false,"station_id":"KMO","line":11,"station_name":"Kemayoran","transit":false,"time":5,"distance":1901,"i_long":106.839204},{"transit":false,"line":11,"station_name":"Pasar Senen","distance":1436,"time":4,"station_id":"PSE","i_lat":-6.174784,"is_transit":false,"i_long":106.84368},{"station_id":"GST","station_name":"Gang Sentiong","time":8,"transit":false,"i_long":106.850107,"line":11,"distance":1567,"is_transit":false,"i_lat":-6.185975},{"transit":false,"i_long":106.855437,"line":11,"distance":973,"i_lat":-6.193792,"is_transit":false,"station_name":"Kramat","time":1,"station_id":"KMT"},{"transit":false,"i_lat":-6.209188,"station_id":"POK","i_long":106.861737,"line":11,"distance":1829,"station_name":"Pondok Jati","is_transit":false,"time":2},{"time":9,"i_long":106.86807400000001,"line":0,"station_id":"JNG","transit":true,"distance":1236,"is_transit":true,"i_lat":-6.215091,"station_name":"Jatinegara"},{"is_transit":false,"line":1,"station_id":"MTR","distance":1377,"i_long":106.858896,"station_name":"Matraman","transit":false,"time":2,"i_lat":-6.212485},{"station_id":"MRI","transit":true,"i_lat":-6.209883,"distance":1275,"i_long":106.84912,"time":2,"is_transit":true,"station_name":"Manggarai","line":0},{"time":4,"i_long":106.857948,"i_lat":-6.226659,"distance":2610,"station_id":"TEB","line":2,"station_name":"Tebet","transit":false,"is_transit":false},{"i_long":106.856607,"line":0,"station_name":"Cawang","transit":false,"time":2,"distance":1230,"is_transit":false,"station_id":"CW","i_lat":-6.242512},{"station_name":"Duren Kalibata","i_lat":-6.255332,"line":0,"station_id":"DRN","is_transit":false,"transit":false,"i_long":106.85449,"time":3,"distance":1546},{"station_name":"Pasar Minggu Baru","i_lat":-6.263214,"transit":false,"i_long":106.851577,"station_id":"PSMB","time":2,"is_transit":false,"distance":824,"line":2},{"transit":false,"is_transit":false,"time":2,"i_long":106.843999,"station_id":"PSM","i_lat":-6.2842400000000005,"line":2,"station_name":"Pasar Minggu","distance":2380},{"distance":2820,"station_id":"TNT","transit":false,"station_name":"Tanjung Barat","i_lat":-6.3080680000000005,"i_long":106.838896,"time":4,"is_transit":false,"line":2},{"is_transit":false,"line":2,"i_lat":-6.330363,"time":3,"transit":false,"station_id":"LNA","station_name":"Lenteng Agung","distance":2671,"i_long":106.832616},{"i_long":106.834175,"is_transit":false,"station_id":"UP","distance":1029,"transit":false,"time":2,"station_name":"Univ. Pancasila","i_lat":-6.339291,"line":2},{"i_lat":-6.360749,"time":3,"distance":2264,"station_id":"UI","line":2,"transit":false,"i_long":106.831474,"is_transit":false,"station_name":"Univ. Indonesia"},{"i_lat":-6.369073,"i_long":106.831114,"line":2,"time":2,"station_name":"Pondok Cina","is_transit":false,"distance":1109,"station_id":"POC","transit":false},{"i_lat":-6.391065,"line":0,"is_transit":false,"station_id":"DPB","station_name":"Depokbaru","i_long":106.819451,"distance":2727,"transit":false,"time":4},{"station_name":"Depok","distance":1584,"transit":false,"i_long":106.816926,"i_lat":-6.405256,"line":0,"time":3,"station_id":"DP","is_transit":false},{"time":6,"i_long":106.800298,"is_transit":true,"transit":false,"station_id":"CTA","i_lat":-6.448811,"distance":5084,"line":1,"station_name":"Citayam"},{"station_id":"CBN","station_name":"Cibinong","distance":6740,"i_long":106.851978,"i_lat":-6.46424,"time":10,"is_transit":false,"line":0,"transit":false},{"time":10,"station_id":"NMO","line":21,"is_transit":false,"transit":false,"distance":6527,"station_name":"Nambo","i_long":106.905196,"i_lat":-6.466285}]]}