{"data":[[{"station_id":"PSM","station_name":"Pasar Minggu","i_long":106.843999,"line":2,"transit":false,"time":0,"distance":0,"is_transit":false,"i_lat":-6.2842400000000005},{"time":2,"station_id":"PSMB","transit":false,"is_transit":false,"distance":2380,"i_long":106.851577,"line":2,"station_name":"Pasar Minggu Baru","i_lat":-6.263214},{"i_long":106.85449,"station_id":"DRN","line":2,"transit":false,"station_name":"Duren Kalibata","is_transit":false,"time":2,"distance":824,"i_lat":-6.255332},{"is_transit":false,"station_id":"CW","i_lat":-6.242512,"i_long":106.856607,"transit":false,"time":3,"line":2,"distance":1546,"station_name":"Cawang"},{"station_id":"TEB","is_transit":false,"transit":false,"i_lat":-6.226659,"time":2,"station_name":"Tebet","line":2,"i_long":106.857948,"distance":1230},{"distance":2610,"line":2,"is_transit":false,"i_lat":-6.209883,"i_long":106.84912,"transit":false,"station_name":"Manggarai","time":4,"station_id":"MRI"},{"line":2,"transit":false,"i_long":106.840169,"time":4,"station_id":"CKI","station_name":"Cikini","distance":1590,"i_lat":-6.198556,"is_transit":false},{"station_name":"Gondangdia","is_transit":false,"line":2,"distance":1750,"i_lat":-6.186295,"station_id":"GDD","transit":false,"time":3,"i_long":106.832183},{"station_name":"Juanda","i_lat":-6.166716,"i_long":106.828284,"time":4,"line":2,"distance":2015,"station_id":"JUA","is_transit":false,"transit":false},{"i_lat":-6.160725,"is_transit":false,"distance":1149,"transit":false,"station_name":"Sawah Besar","station_id":"SW","line":2,"i_long":106.827103,"time":2},{"transit":false,"distance":906,"i_long":106.82482,"line":2,"station_id":"MGB","station_name":"Manggabesar","time":2,"is_transit":false,"i_lat":-6.149769}],[{"distance":0,"i_lat":-6.2842400000000005,"line":2,"station_id":"PSM","station_name":"Pasar Minggu","is_transit":false,"transit":false,"i_long":106.843999,"time":0},{"time":2,"i_long":106.851577,"line":2,"station_id":"PSMB","i_lat":-6.263214,"transit":false,"distance":2380,"station_name":"Pasar Minggu Baru","is_transit":false},{"i_lat":-6.255332,"station_name":"Duren Kalibata","is_transit":false,"i_long":106.85449,"line":2,"distance":824,"transit":false,"station_id":"DRN","time":2},{"station_id":"CW","line":2,"transit":false,"i_lat":-6.242512,"time":3,"i_long":106.856607,"is_transit":false,"station_name":"Cawang","distance":1546},{"station_name":"Tebet","time":2,"i_long":106.857948,"station_id":"TEB","transit":false,"is_transit":false,"distance":1230,"line":2,"i_lat":-6.226659},{"transit":true,"distance":2610,"i_long":106.84912,"i_lat":-6.209883,"station_id":"MRI","is_transit":true,"line":2,"station_name":"Manggarai","time":4},{"i_lat":-6.202263,"station_name":"Sudirman","distance":3186,"station_id":"SUD","i_long":106.822649,"is_transit":false,"transit":false,"time":4,"line":1},{"station_name":"Sudirman Baru","distance":280,"is_transit":false,"time":1,"i_lat":-6.201433,"station_id":"SUDB","transit":false,"line":1,"i_long":106.819881},{"is_transit":false,"time":1,"station_id":"KAT","transit":false,"station_name":"Karet","distance":471,"i_long":106.816351,"line":1,"i_lat":-6.20132},{"i_long":106.811091,"is_transit":false,"transit":false,"station_id":"THB","line":1,"distance":2029,"time":5,"station_name":"Tanah Abang","i_lat":-6.185545},{"i_long":106.800832,"i_lat":-6.155215,"time":8,"distance":3632,"is_transit":false,"station_name":"Duri","line":1,"station_id":"DU","transit":false},{"line":1,"distance":1230,"station_id":"AK","i_lat":-6.144674,"time":4,"i_long":106.79867,"transit":false,"station_name":"Angke","is_transit":false},{"time":9,"distance":4102,"i_lat":-6.132549,"transit":true,"station_name":"Kampung Bandan","station_id":"KPB","i_long":106.826365,"is_transit":true,"line":4},{"i_long":106.812439,"is_transit":true,"time":3,"station_name":"Jakarta Kota","line":2,"distance":1364,"transit":true,"i_lat":-6.137569,"station_id":"JAKK"},{"station_id":"JAY","is_transit":false,"time":4,"i_long":106.820901,"station_name":"Jayakarta","line":2,"i_lat":-6.141205,"transit":false,"distance":1264},{"transit":false,"distance":1080,"station_id":"MGB","time":2,"station_name":"Manggabesar","i_lat":-6.149769,"i_long":106.82482,"is_transit":false,"line":2}],[{"i_long":106.843999,"time":0,"is_transit":false,"station_id":"PSM","station_name":"Pasar Minggu","distance":0,"i_lat":-6.2842400000000005,"transit":false,"line":2},{"i_lat":-6.263214,"time":2,"distance":2380,"station_name":"Pasar Minggu Baru","station_id":"PSMB","transit":false,"is_transit":false,"i_long":106.851577,"line":2},{"i_lat":-6.255332,"transit":false,"station_id":"DRN","distance":824,"line":2,"i_long":106.85449,"station_name":"Duren Kalibata","time":2,"is_transit":false},{"station_id":"CW","is_transit":false,"time":3,"i_lat":-6.242512,"line":2,"station_name":"Cawang","distance":1546,"transit":false,"i_long":106.856607},{"station_name":"Tebet","transit":false,"time":2,"is_transit":false,"distance":1230,"line":2,"i_lat":-6.226659,"station_id":"TEB","i_long":106.857948},{"i_lat":-6.209883,"i_long":106.84912,"distance":2610,"station_id":"MRI","line":2,"is_transit":true,"time":4,"transit":true,"station_name":"Manggarai"},{"i_lat":-6.212485,"i_long":106.858896,"transit":false,"is_transit":false,"station_name":"Matraman","station_id":"MTR","time":2,"distance":1275,"line":1},{"time":8,"i_long":106.86807400000001,"station_id":"JNG","transit":true,"station_name":"Jatinegara","is_transit":true,"i_lat":-6.215091,"distance":1377,"line":1},{"line":11,"time":2,"i_long":106.861737,"i_lat":-6.209188,"station_id":"POK","is_transit":false,"station_name":"Pondok Jati","distance":1236,"transit":false},{"distance":1829,"time":2,"i_lat":-6.193792,"transit":false,"i_long":106.855437,"station_name":"Kramat","line":11,"is_transit":false,"station_id":"KMT"},{"i_long":106.850107,"distance":973,"is_transit":false,"line":11,"i_lat":-6.185975,"transit":false,"station_id":"GST","time":1,"station_name":"Gang Sentiong"},{"distance":1567,"station_name":"Pasar Senen","transit":false,"station_id":"PSE","time":8,"i_lat":-6.174784,"is_transit":false,"i_long":106.84368,"line":11},{"line":11,"station_id":"KMO","station_name":"Kemayoran","i_lat":-6.161728,"transit":false,"is_transit":false,"i_long":106.839204,"distance":1436,"time":4},{"i_lat":-6.14505,"i_long":106.836569,"is_transit":false,"station_name":"Rajawali","station_id":"RJW","time":5,"distance":1901,"transit":false,"line":11},{"distance":1444,"station_name":"Kampung Bandan","i_long":106.826365,"transit":true,"time":3,"line":4,"station_id":"KPB","is_transit":true,"i_lat":-6.132549},{"transit":true,"station_name":"Jakarta Kota","time":3,"is_transit":true,"i_long":106.812439,"line":2,"station_id":"JAKK","distance":1364,"i_lat":-6.137569},{"time":4,"i_long":106.820901,"station_id":"JAY","line":2,"station_name":"Jayakarta","is_transit":false,"transit":false,"i_lat":-6.141205,"distance":1264},{"station_id":"MGB","is_transit":false,"i_lat":-6.149769,"time":2,"line":2,"distance":1080,"i_long":106.82482,"station_name":"Manggabesar","transit":false}]]}