{"data":[[{"line":2,"time":0,"transit":false,"distance":0,"station_id":"PSM","is_transit":false,"i_long":106.843999,"i_lat":-6.2842400000000005,"station_name":"Pasar Minggu"},{"distance":2380,"station_id":"PSMB","line":2,"station_name":"Pasar Minggu Baru","time":2,"i_long":106.851577,"is_transit":false,"i_lat":-6.263214,"transit":false},{"station_name":"Duren Kalibata","i_lat":-6.255332,"i_long":106.85449,"time":2,"distance":824,"transit":false,"line":2,"station_id":"DRN","is_transit":false},{"time":3,"line":2,"distance":1546,"is_transit":false,"station_id":"CW","station_name":"Cawang","transit":false,"i_lat":-6.242512,"i_long":106.856607},{"time":2,"transit":false,"i_long":106.857948,"distance":1230,"is_transit":false,"station_id":"TEB","i_lat":-6.226659,"station_name":"Tebet","line":2},{"transit":true,"i_lat":-6.209883,"time":4,"is_transit":true,"i_long":106.84912,"distance":2610,"station_name":"Manggarai","line":2,"station_id":"MRI"},{"transit":false,"is_transit":false,"i_lat":-6.202263,"distance":3186,"station_name":"Sudirman","station_id":"SUD","line":1,"time":4,"i_long":106.822649},{"station_id":"SUDB","line":1,"time":1,"distance":280,"transit":false,"i_long":106.819881,"station_name":"Sudirman Baru","is_transit":false,"i_lat":-6.201433},{"station_id":"KAT","distance":471,"transit":false,"i_long":106.816351,"line":1,"station_name":"Karet","i_lat":-6.20132,"time":1,"is_transit":false},{"i_lat":-6.185545,"transit":false,"i_long":106.811091,"time":5,"distance":2029,"line":1,"station_name":"Tanah Abang","station_id":"THB","is_transit":false},{"i_long":106.800832,"station_name":"Duri","line":1,"distance":3632,"transit":true,"i_lat":-6.155215,"time":8,"station_id":"DU","is_transit":true},{"i_long":106.788277,"transit":false,"line":5,"time":3,"i_lat":-6.162021,"station_id":"GRG","distance":1700,"station_name":"Grogol","is_transit":false},{"distance":2036,"is_transit":false,"transit":false,"i_lat":-6.161433,"i_long":106.771379,"time":2,"station_name":"Pesing","station_id":"PSG","line":5},{"is_transit":false,"station_id":"TKO","line":5,"transit":false,"distance":1614,"i_long":106.756522,"time":2,"i_lat":-6.1587309999999995,"station_name":"Taman Kota"},{"time":2,"is_transit":false,"line":5,"distance":2334,"station_name":"Bojongindah","transit":false,"i_lat":-6.159876,"station_id":"BOI","i_long":106.737035},{"distance":1152,"station_name":"Rawa Buaya","line":5,"i_long":106.723064,"station_id":"RW","time":4,"transit":false,"is_transit":false,"i_lat":-6.162758},{"i_long":106.701612,"transit":false,"is_transit":false,"distance":2504,"time":3,"station_name":"Kalideres","station_id":"KDS","i_lat":-6.166068,"line":5},{"station_name":"Poris","line":5,"i_lat":-6.169933,"is_transit":false,"distance":2548,"i_long":106.679458,"transit":false,"station_id":"PI","time":3},{"station_name":"Batuceper","transit":false,"distance":1834,"i_lat":-6.171811,"line":5,"i_long":106.665036,"station_id":"BPR","time":3,"is_transit":false}],[{"is_transit":false,"time":0,"distance":0,"station_id":"PSM","station_name":"Pasar Minggu","i_long":106.843999,"i_lat":-6.2842400000000005,"line":2,"transit":false},{"station_id":"PSMB","transit":false,"i_long":106.851577,"distance":2380,"i_lat":-6.263214,"time":2,"line":2,"is_transit":false,"station_name":"Pasar Minggu Baru"},{"is_transit":false,"time":2,"station_name":"Duren Kalibata","station_id":"DRN","i_lat":-6.255332,"line":2,"i_long":106.85449,"transit":false,"distance":824},{"is_transit":false,"transit":false,"station_id":"CW","i_lat":-6.242512,"i_long":106.856607,"line":2,"distance":1546,"station_name":"Cawang","time":3},{"station_name":"Tebet","distance":1230,"is_transit":false,"i_long":106.857948,"station_id":"TEB","line":2,"time":2,"transit":false,"i_lat":-6.226659},{"station_id":"MRI","is_transit":false,"station_name":"Manggarai","time":4,"i_lat":-6.209883,"line":2,"distance":2610,"i_long":106.84912,"transit":false},{"i_long":106.840169,"distance":1590,"station_id":"CKI","is_transit":false,"transit":false,"i_lat":-6.198556,"line":2,"station_name":"Cikini","time":4},{"distance":1750,"is_transit":false,"station_id":"GDD","station_name":"Gondangdia","i_long":106.832183,"line":2,"i_lat":-6.186295,"transit":false,"time":3},{"transit":false,"is_transit":false,"i_lat":-6.166716,"i_long":106.828284,"station_name":"Juanda","distance":2015,"station_id":"JUA","time":4,"line":2},{"station_name":"Sawah Besar","distance":1149,"station_id":"SW","time":2,"i_lat":-6.160725,"line":2,"is_transit":false,"transit":false,"i_long":106.827103},{"distance":906,"station_name":"Manggabesar","transit":false,"station_id":"MGB","i_lat":-6.149769,"line":2,"is_transit":false,"time":2,"i_long":106.82482},{"distance":1080,"i_long":106.820901,"i_lat":-6.141205,"station_id":"JAY","is_transit":false,"transit":false,"line":2,"time":2,"station_name":"Jayakarta"},{"distance":1264,"station_name":"Jakarta Kota","station_id":"JAKK","i_long":106.812439,"time":4,"is_transit":true,"line":2,"transit":true,"i_lat":-6.137569},{"is_transit":true,"i_long":106.826365,"i_lat":-6.132549,"time":3,"line":4,"station_id":"KPB","transit":true,"station_name":"Kampung Bandan","distance":1364},{"line":1,"is_transit":false,"i_long":106.79867,"i_lat":-6.144674,"time":9,"station_name":"Angke","transit":false,"station_id":"AK","distance":4102},{"station_name":"Duri","station_id":"DU","distance":1230,"transit":true,"time":4,"i_long":106.800832,"i_lat":-6.155215,"line":1,"is_transit":true},{"is_transit":false,"time":3,"distance":1700,"i_lat":-6.162021,"station_name":"Grogol","station_id":"GRG","i_long":106.788277,"line":5,"transit":false},{"i_lat":-6.161433,"transit":false,"station_name":"Pesing","station_id":"PSG","is_transit":false,"i_long":106.771379,"time":2,"distance":2036,"line":5},{"time":2,"is_transit":false,"station_name":"Taman Kota","transit":false,"station_id":"TKO","line":5,"i_long":106.756522,"distance":1614,"i_lat":-6.1587309999999995},{"is_transit":false,"line":5,"transit":false,"station_id":"BOI","i_long":106.737035,"station_name":"Bojongindah","time":2,"distance":2334,"i_lat":-6.159876},{"i_lat":-6.162758,"station_id":"RW","transit":false,"distance":1152,"i_long":106.723064,"time":4,"line":5,"is_transit":false,"station_name":"Rawa Buaya"},{"distance":2504,"station_name":"Kalideres","i_lat":-6.166068,"time":3,"i_long":106.701612,"is_transit":false,"station_id":"KDS","transit":false,"line":5},{"station_id":"PI","station_name":"Poris","distance":2548,"i_lat":-6.169933,"transit":false,"i_long":106.679458,"time":3,"line":5,"is_transit":false},{"station_id":"BPR","i_lat":-6.171811,"distance":1834,"line":5,"station_name":"Batuceper","time":3,"transit":false,"i_long":106.665036,"is_transit":false}],[{"station_name":"Pasar Minggu","i_long":106.843999,"distance":0,"station_id":"PSM","time":0,"line":2,"is_transit":false,"i_lat":-6.2842400000000005,"transit":false},{"i_lat":-6.263214,"is_transit":false,"transit":false,"i_long":106.851577,"line":2,"distance":2380,"station_id":"PSMB","time":2,"station_name":"Pasar Minggu Baru"},{"time":2,"transit":false,"station_name":"Duren Kalibata","i_long":106.85449,"station_id":"DRN","distance":824,"line":2,"is_transit":false,"i_lat":-6.255332},{"line":2,"is_transit":false,"transit":false,"station_id":"CW","distance":1546,"i_lat":-6.242512,"time":3,"station_name":"Cawang","i_long":106.856607},{"i_lat":-6.226659,"is_transit":false,"i_long":106.857948,"line":2,"station_id":"TEB","time":2,"distance":1230,"station_name":"Tebet","transit":false},{"distance":2610,"station_id":"MRI","i_long":106.84912,"station_name":"Manggarai","time":4,"is_transit":true,"i_lat":-6.209883,"transit":true,"line":2},{"transit":false,"is_transit":false,"time":2,"i_long":106.858896,"line":1,"station_id":"MTR","distance":1275,"station_name":"Matraman","i_lat":-6.212485},{"i_long":106.86807400000001,"line":1,"is_transit":true,"station_name":"Jatinegara","distance":1377,"i_lat":-6.215091,"transit":true,"station_id":"JNG","time":8},{"time":2,"i_lat":-6.209188,"transit":false,"i_long":106.861737,"line":11,"station_name":"Pondok Jati","station_id":"POK","is_transit":false,"distance":1236},{"is_transit":false,"distance":1829,"station_name":"Kramat","station_id":"KMT","transit":false,"time":2,"line":11,"i_long":106.855437,"i_lat":-6.193792},{"station_name":"Gang Sentiong","distance":973,"line":11,"is_transit":false,"station_id":"GST","i_long":106.850107,"i_lat":-6.185975,"time":1,"transit":false},{"is_transit":false,"time":8,"i_lat":-6.174784,"transit":false,"station_name":"Pasar Senen","i_long":106.84368,"distance":1567,"line":11,"station_id":"PSE"},{"transit":false,"station_id":"KMO","is_transit":false,"line":11,"station_name":"Kemayoran","i_long":106.839204,"distance":1436,"i_lat":-6.161728,"time":4},{"station_id":"RJW","i_lat":-6.14505,"distance":1901,"line":11,"transit":false,"time":5,"is_transit":false,"station_name":"Rajawali","i_long":106.836569},{"line":4,"i_long":106.826365,"is_transit":true,"station_id":"KPB","distance":1444,"i_lat":-6.132549,"transit":true,"time":3,"station_name":"Kampung Bandan"},{"i_lat":-6.144674,"is_transit":false,"station_name":"Angke","i_long":106.79867,"line":1,"time":9,"transit":false,"station_id":"AK","distance":4102},{"i_lat":-6.155215,"station_name":"Duri","i_long":106.800832,"time":4,"line":1,"station_id":"DU","transit":true,"is_transit":true,"distance":1230},{"is_transit":false,"station_id":"GRG","time":3,"distance":1700,"i_lat":-6.162021,"station_name":"Grogol","line":5,"transit":false,"i_long":106.788277},{"i_lat":-6.161433,"is_transit":false,"station_name":"Pesing","station_id":"PSG","distance":2036,"i_long":106.771379,"transit":false,"line":5,"time":2},{"station_name":"Taman Kota","distance":1614,"is_transit":false,"time":2,"line":5,"i_long":106.756522,"transit":false,"station_id":"TKO","i_lat":-6.1587309999999995},{"is_transit":false,"transit":false,"distance":2334,"time":2,"line":5,"i_lat":-6.159876,"station_id":"BOI","station_name":"Bojongindah","i_long":106.737035},{"i_long":106.723064,"station_id":"RW","line":5,"station_name":"Rawa Buaya","transit":false,"i_lat":-6.162758,"distance":1152,"time":4,"is_transit":false},{"station_id":"KDS","distance":2504,"is_transit":false,"station_name":"Kalideres","i_lat":-6.166068,"time":3,"i_long":106.701612,"transit":false,"line":5},{"i_lat":-6.169933,"line":5,"station_name":"Poris","station_id":"PI","is_transit":false,"time":3,"transit":false,"distance":2548,"i_long":106.679458},{"is_transit":false,"station_id":"BPR","transit":false,"i_lat":-6.171811,"station_name":"Batuceper","i_long":106.665036,"distance":1834,"time":3,"line":5}]]}