{"data":[[{"transit":false,"i_long":106.843999,"is_transit":false,"station_name":"Pasar Minggu","line":2,"i_lat":-6.2842400000000005,"station_id":"PSM","time":0,"distance":0},{"is_transit":false,"transit":false,"distance":2380,"i_lat":-6.263214,"i_long":106.851577,"station_id":"PSMB","time":2,"line":2,"station_name":"Pasar Minggu Baru"},{"station_name":"Duren Kalibata","station_id":"DRN","transit":false,"is_transit":false,"i_lat":-6.255332,"i_long":106.85449,"line":2,"time":2,"distance":824},{"i_lat":-6.242512,"station_name":"Cawang","time":3,"transit":false,"distance":1546,"is_transit":false,"line":2,"i_long":106.856607,"station_id":"CW"},{"i_long":106.857948,"time":2,"distance":1230,"is_transit":false,"i_lat":-6.226659,"station_id":"TEB","transit":false,"station_name":"Tebet","line":2},{"i_lat":-6.209883,"distance":2610,"time":4,"station_name":"Manggarai","line":2,"transit":true,"is_transit":true,"station_id":"MRI","i_long":106.84912},{"is_transit":false,"time":2,"i_lat":-6.212485,"i_long":106.858896,"station_name":"Matraman","distance":1275,"transit":false,"station_id":"MTR","line":1},{"station_name":"Jatinegara","transit":false,"distance":1377,"station_id":"JNG","is_transit":false,"time":8,"line":1,"i_long":106.86807400000001,"i_lat":-6.215091},{"i_lat":-6.2135,"i_long":106.899548,"station_id":"KLD","line":1,"station_name":"Klender","transit":false,"time":3,"is_transit":false,"distance":3395},{"is_transit":false,"station_name":"Buaran","station_id":"BUA","transit":false,"i_long":106.922662,"time":2,"distance":3100,"i_lat":-6.215568,"line":1},{"station_id":"KLDB","line":1,"is_transit":false,"station_name":"Klenderbaru","time":1,"transit":false,"distance":1305,"i_long":106.939679,"i_lat":-6.217455},{"station_id":"CUK","line":1,"transit":false,"i_long":106.951283,"i_lat":-6.219053,"time":8,"station_name":"Cakung","is_transit":false,"distance":1385},{"i_long":106.977657,"station_name":"Kranji","line":1,"i_lat":-6.224515,"transit":false,"time":3,"station_id":"KRI","is_transit":false,"distance":3097},{"station_name":"Bekasi","line":1,"station_id":"BKS","transit":false,"is_transit":false,"distance":2520,"i_long":106.997013,"time":4,"i_lat":-6.236616},{"distance":2368,"i_long":107.016735,"line":1,"transit":false,"station_id":"BKST","is_transit":false,"station_name":"Bekasi Timur","time":2,"i_lat":-6.248029},{"i_long":107.055722,"is_transit":false,"distance":4460,"line":1,"time":7,"station_name":"Tambun","station_id":"TB","i_lat":-6.258864,"transit":false},{"is_transit":false,"station_id":"CIT","distance":3420,"time":3,"i_lat":-6.261877,"i_long":107.083084,"station_name":"Cibitung","line":1,"transit":false},{"distance":2800,"i_long":107.093313,"transit":false,"station_id":"TLM","time":2,"i_lat":-6.262938,"line":1,"station_name":"Metland Telaga Murni","is_transit":false},{"distance":3689,"is_transit":false,"transit":false,"i_lat":-6.2553149999999995,"i_long":107.144613,"station_id":"CKR","line":1,"station_name":"Cikarang","time":4}],[{"line":2,"station_id":"PSM","transit":false,"station_name":"Pasar Minggu","distance":0,"i_lat":-6.2842400000000005,"is_transit":false,"time":0,"i_long":106.843999},{"station_id":"PSMB","time":2,"i_lat":-6.263214,"is_transit":false,"line":2,"i_long":106.851577,"distance":2380,"transit":false,"station_name":"Pasar Minggu Baru"},{"station_id":"DRN","i_long":106.85449,"transit":false,"is_transit":false,"i_lat":-6.255332,"line":2,"distance":824,"time":2,"station_name":"Duren Kalibata"},{"transit":false,"station_name":"Cawang","station_id":"CW","is_transit":false,"time":3,"distance":1546,"i_lat":-6.242512,"i_long":106.856607,"line":2},{"i_lat":-6.226659,"station_name":"Tebet","is_transit":false,"time":2,"station_id":"TEB","line":2,"transit":false,"i_long":106.857948,"distance":1230},{"station_id":"MRI","i_long":106.84912,"station_name":"Manggarai","transit":true,"line":2,"i_lat":-6.209883,"distance":2610,"time":4,"is_transit":true},{"i_long":106.822649,"line":1,"station_name":"Sudirman","distance":3186,"is_transit":false,"station_id":"SUD","transit":false,"time":4,"i_lat":-6.202263},{"time":1,"station_id":"SUDB","station_name":"Sudirman Baru","i_long":106.819881,"i_lat":-6.201433,"transit":false,"is_transit":false,"distance":280,"line":1},{"i_lat":-6.20132,"line":1,"transit":false,"station_name":"Karet","distance":471,"i_long":106.816351,"time":1,"is_transit":false,"station_id":"KAT"},{"distance":2029,"transit":false,"station_id":"THB","line":1,"station_name":"Tanah Abang","i_lat":-6.185545,"is_transit":false,"i_long":106.811091,"time":5},{"is_transit":false,"line":1,"station_name":"Duri","distance":3632,"i_long":106.800832,"i_lat":-6.155215,"time":8,"station_id":"DU","transit":false},{"time":4,"line":1,"station_id":"AK","transit":false,"station_name":"Angke","distance":1230,"i_lat":-6.144674,"i_long":106.79867,"is_transit":false},{"is_transit":true,"time":9,"distance":4102,"transit":true,"i_lat":-6.132549,"station_id":"KPB","i_long":106.826365,"line":4,"station_name":"Kampung Bandan"},{"transit":false,"station_name":"Rajawali","distance":1444,"line":11,"station_id":"RJW","time":3,"i_long":106.836569,"is_transit":false,"i_lat":-6.14505},{"transit":false,"station_name":"Kemayoran","distance":1901,"is_transit":false,"line":11,"time":5,"i_long":106.839204,"i_lat":-6.161728,"station_id":"KMO"},{"station_name":"Pasar Senen","station_id":"PSE","distance":1436,"i_lat":-6.174784,"i_long":106.84368,"transit":false,"time":4,"is_transit":false,"line":11},{"transit":false,"station_id":"GST","is_transit":false,"distance":1567,"i_lat":-6.185975,"time":8,"i_long":106.850107,"line":11,"station_name":"Gang Sentiong"},{"is_transit":false,"time":1,"station_name":"Kramat","station_id":"KMT","i_long":106.855437,"line":11,"transit":false,"distance":973,"i_lat":-6.193792},{"station_name":"Pondok Jati","i_lat":-6.209188,"i_long":106.861737,"line":11,"distance":1829,"transit":false,"station_id":"POK","time":2,"is_transit":false},{"i_lat":-6.215091,"station_name":"Jatinegara","is_transit":true,"line":1,"i_long":106.86807400000001,"distance":1236,"transit":true,"time":9,"station_id":"JNG"},{"station_name":"Klender","station_id":"KLD","is_transit":false,"time":3,"line":1,"transit":false,"i_long":106.899548,"distance":3395,"i_lat":-6.2135},{"transit":false,"i_long":106.922662,"is_transit":false,"time":2,"i_lat":-6.215568,"distance":3100,"line":1,"station_name":"Buaran","station_id":"BUA"},{"is_transit":false,"time":1,"station_id":"KLDB","distance":1305,"station_name":"Klenderbaru","i_lat":-6.217455,"line":1,"transit":false,"i_long":106.939679},{"distance":1385,"transit":false,"time":8,"station_name":"Cakung","i_lat":-6.219053,"station_id":"CUK","is_transit":false,"i_long":106.951283,"line":1},{"distance":3097,"i_long":106.977657,"transit":false,"line":1,"station_name":"Kranji","is_transit":false,"time":3,"i_lat":-6.224515,"station_id":"KRI"},{"line":1,"i_lat":-6.236616,"is_transit":false,"station_id":"BKS","station_name":"Bekasi","time":4,"transit":false,"distance":2520,"i_long":106.997013},{"is_transit":false,"time":2,"station_name":"Bekasi Timur","station_id":"BKST","transit":false,"i_lat":-6.248029,"distance":2368,"i_long":107.016735,"line":1},{"line":1,"i_lat":-6.258864,"distance":4460,"is_transit":false,"transit":false,"i_long":107.055722,"station_id":"TB","time":7,"station_name":"Tambun"},{"transit":false,"is_transit":false,"station_id":"CIT","station_name":"Cibitung","line":1,"distance":3420,"i_long":107.083084,"time":3,"i_lat":-6.261877},{"line":1,"is_transit":false,"distance":2800,"station_name":"Metland Telaga Murni","station_id":"TLM","i_lat":-6.262938,"time":2,"transit":false,"i_long":107.093313},{"transit":false,"time":4,"station_id":"CKR","i_lat":-6.2553149999999995,"i_long":107.144613,"line":1,"is_transit":false,"distance":3689,"station_name":"Cikarang"}],[{"is_transit":false,"distance":0,"i_long":106.843999,"time":0,"transit":false,"station_name":"Pasar Minggu","line":2,"i_lat":-6.2842400000000005,"station_id":"PSM"},{"transit":false,"station_id":"PSMB","time":2,"i_lat":-6.263214,"i_long":106.851577,"line":2,"distance":2380,"is_transit":false,"station_name":"Pasar Minggu Baru"},{"station_name":"Duren Kalibata","is_transit":false,"i_lat":-6.255332,"i_long":106.85449,"time":2,"transit":false,"station_id":"DRN","distance":824,"line":2},{"is_transit":false,"i_lat":-6.242512,"station_id":"CW","transit":false,"station_name":"Cawang","line":2,"time":3,"distance":1546,"i_long":106.856607},{"station_name":"Tebet","i_long":106.857948,"line":2,"distance":1230,"time":2,"station_id":"TEB","transit":false,"i_lat":-6.226659,"is_transit":false},{"time":4,"station_id":"MRI","i_lat":-6.209883,"station_name":"Manggarai","is_transit":false,"i_long":106.84912,"line":2,"distance":2610,"transit":false},{"distance":1590,"i_lat":-6.198556,"line":2,"is_transit":false,"time":4,"transit":false,"i_long":106.840169,"station_id":"CKI","station_name":"Cikini"},{"line":2,"station_id":"GDD","is_transit":false,"station_name":"Gondangdia","transit":false,"i_long":106.832183,"distance":1750,"time":3,"i_lat":-6.186295},{"i_lat":-6.166716,"transit":false,"distance":2015,"station_name":"Juanda","station_id":"JUA","is_transit":false,"time":4,"i_long":106.828284,"line":2},{"distance":1149,"transit":false,"is_transit":false,"station_name":"Sawah Besar","i_long":106.827103,"station_id":"SW","i_lat":-6.160725,"time":2,"line":2},{"line":2,"i_long":106.82482,"time":2,"distance":906,"is_transit":false,"transit":false,"station_name":"Manggabesar","station_id":"MGB","i_lat":-6.149769},{"station_id":"JAY","i_lat":-6.141205,"line":2,"distance":1080,"is_transit":false,"i_long":106.820901,"station_name":"Jayakarta","transit":false,"time":2},{"line":2,"distance":1264,"i_lat":-6.137569,"station_id":"JAKK","transit":true,"time":4,"i_long":106.812439,"station_name":"Jakarta Kota","is_transit":true},{"station_name":"Kampung Bandan","station_id":"KPB","line":4,"transit":true,"is_transit":true,"distance":1364,"i_long":106.826365,"i_lat":-6.132549,"time":3},{"station_id":"RJW","i_long":106.836569,"line":11,"transit":false,"time":3,"is_transit":false,"station_name":"Rajawali","distance":1444,"i_lat":-6.14505},{"time":5,"i_lat":-6.161728,"distance":1901,"line":11,"station_id":"KMO","i_long":106.839204,"transit":false,"is_transit":false,"station_name":"Kemayoran"},{"is_transit":false,"i_lat":-6.174784,"i_long":106.84368,"station_id":"PSE","line":11,"time":4,"distance":1436,"station_name":"Pasar Senen","transit":false},{"i_lat":-6.185975,"i_long":106.850107,"station_id":"GST","line":11,"transit":false,"is_transit":false,"time":8,"distance":1567,"station_name":"Gang Sentiong"},{"time":1,"is_transit":false,"distance":973,"i_lat":-6.193792,"line":11,"station_name":"Kramat","transit":false,"station_id":"KMT","i_long":106.855437},{"line":11,"station_id":"POK","i_lat":-6.209188,"distance":1829,"transit":false,"is_transit":false,"i_long":106.861737,"time":2,"station_name":"Pondok Jati"},{"time":9,"distance":1236,"transit":true,"station_id":"JNG","is_transit":true,"i_lat":-6.215091,"station_name":"Jatinegara","line":1,"i_long":106.86807400000001},{"transit":false,"is_transit":false,"line":1,"i_lat":-6.2135,"station_name":"Klender","station_id":"KLD","distance":3395,"i_long":106.899548,"time":3},{"station_id":"BUA","time":2,"distance":3100,"i_lat":-6.215568,"transit":false,"line":1,"is_transit":false,"i_long":106.922662,"station_name":"Buaran"},{"station_name":"Klenderbaru","station_id":"KLDB","i_long":106.939679,"i_lat":-6.217455,"is_transit":false,"time":1,"distance":1305,"transit":false,"line":1},{"i_long":106.951283,"transit":false,"station_name":"Cakung","time":8,"distance":1385,"i_lat":-6.219053,"is_transit":false,"line":1,"station_id":"CUK"},{"is_transit":false,"distance":3097,"time":3,"station_id":"KRI","i_lat":-6.224515,"transit":false,"line":1,"i_long":106.977657,"station_name":"Kranji"},{"station_name":"Bekasi","line":1,"time":4,"transit":false,"is_transit":false,"station_id":"BKS","distance":2520,"i_lat":-6.236616,"i_long":106.997013},{"distance":2368,"station_name":"Bekasi Timur","transit":false,"is_transit":false,"station_id":"BKST","time":2,"i_lat":-6.248029,"i_long":107.016735,"line":1},{"station_name":"Tambun","distance":4460,"i_lat":-6.258864,"line":1,"transit":false,"i_long":107.055722,"is_transit":false,"station_id":"TB","time":7},{"i_lat":-6.261877,"transit":false,"distance":3420,"is_transit":false,"station_name":"Cibitung","time":3,"i_long":107.083084,"line":1,"station_id":"CIT"},{"station_name":"Metland Telaga Murni","time":2,"distance":2800,"is_transit":false,"i_long":107.093313,"line":1,"i_lat":-6.262938,"station_id":"TLM","transit":false},{"is_transit":false,"station_id":"CKR","line":1,"distance":3689,"i_lat":-6.2553149999999995,"transit":false,"time":4,"i_long":107.144613,"station_name":"Cikarang"}]]}