{"data":[[{"line":2,"station_name":"Pasar Minggu","time":0,"is_transit":false,"i_lat":-6.2842400000000005,"distance":0,"station_id":"PSM","i_long":106.843999,"transit":false},{"distance":2380,"is_transit":false,"line":2,"i_long":106.851577,"i_lat":-6.263214,"station_id":"PSMB","transit":false,"station_name":"Pasar Minggu Baru","time":2},{"is_transit":false,"distance":824,"transit":false,"i_lat":-6.255332,"line":2,"i_long":106.85449,"station_id":"DRN","station_name":"Duren Kalibata","time":2},{"transit":false,"line":2,"station_name":"Cawang","distance":1546,"i_long":106.856607,"time":3,"i_lat":-6.242512,"is_transit":false,"station_id":"CW"},{"distance":1230,"station_name":"Tebet","i_long":106.857948,"transit":false,"i_lat":-6.226659,"time":2,"is_transit":false,"line":2,"station_id":"TEB"},{"i_long":106.84912,"time":4,"distance":2610,"transit":true,"i_lat":-6.209883,"is_transit":true,"station_id":"MRI","station_name":"Manggarai","line":2},{"is_transit":false,"i_long":106.858896,"distance":1275,"line":1,"time":2,"station_id":"MTR","station_name":"Matraman","transit":false,"i_lat":-6.212485},{"time":8,"i_lat":-6.215091,"station_name":"Jatinegara","i_long":106.86807400000001,"is_transit":true,"transit":true,"station_id":"JNG","line":1,"distance":1377},{"transit":false,"i_lat":-6.209188,"station_id":"POK","is_transit":false,"time":2,"i_long":106.861737,"line":11,"distance":1236,"station_name":"Pondok Jati"},{"station_name":"Kramat","transit":false,"distance":1829,"time":2,"i_lat":-6.193792,"is_transit":false,"i_long":106.855437,"station_id":"KMT","line":11},{"is_transit":false,"station_id":"GST","time":1,"distance":973,"i_lat":-6.185975,"station_name":"Gang Sentiong","line":11,"transit":false,"i_long":106.850107},{"i_lat":-6.174784,"is_transit":false,"distance":1567,"station_id":"PSE","station_name":"Pasar Senen","i_long":106.84368,"transit":false,"line":11,"time":8},{"station_name":"Kemayoran","distance":1436,"time":4,"is_transit":false,"line":11,"i_long":106.839204,"transit":false,"station_id":"KMO","i_lat":-6.161728}],[{"is_transit":false,"transit":false,"distance":0,"time":0,"line":2,"i_lat":-6.2842400000000005,"station_id":"PSM","station_name":"Pasar Minggu","i_long":106.843999},{"i_long":106.851577,"station_id":"PSMB","line":2,"station_name":"Pasar Minggu Baru","transit":false,"i_lat":-6.263214,"distance":2380,"time":2,"is_transit":false},{"station_id":"DRN","distance":824,"is_transit":false,"station_name":"Duren Kalibata","i_lat":-6.255332,"time":2,"i_long":106.85449,"transit":false,"line":2},{"line":2,"is_transit":false,"time":3,"i_lat":-6.242512,"transit":false,"i_long":106.856607,"station_id":"CW","distance":1546,"station_name":"Cawang"},{"i_lat":-6.226659,"time":2,"station_id":"TEB","line":2,"transit":false,"i_long":106.857948,"station_name":"Tebet","distance":1230,"is_transit":false},{"station_name":"Manggarai","station_id":"MRI","line":2,"is_transit":true,"transit":true,"i_long":106.84912,"i_lat":-6.209883,"time":4,"distance":2610},{"time":4,"distance":3186,"station_name":"Sudirman","is_transit":false,"station_id":"SUD","i_lat":-6.202263,"transit":false,"i_long":106.822649,"line":1},{"station_id":"SUDB","is_transit":false,"line":1,"time":1,"transit":false,"i_lat":-6.201433,"station_name":"Sudirman Baru","distance":280,"i_long":106.819881},{"transit":false,"time":1,"station_name":"Karet","i_lat":-6.20132,"line":1,"is_transit":false,"distance":471,"i_long":106.816351,"station_id":"KAT"},{"station_id":"THB","transit":false,"line":1,"i_lat":-6.185545,"station_name":"Tanah Abang","is_transit":false,"i_long":106.811091,"time":5,"distance":2029},{"transit":false,"line":1,"time":8,"distance":3632,"is_transit":false,"station_id":"DU","i_lat":-6.155215,"i_long":106.800832,"station_name":"Duri"},{"transit":false,"time":4,"distance":1230,"station_id":"AK","station_name":"Angke","is_transit":false,"line":1,"i_long":106.79867,"i_lat":-6.144674},{"distance":4102,"is_transit":true,"time":9,"transit":true,"i_lat":-6.132549,"station_name":"Kampung Bandan","i_long":106.826365,"station_id":"KPB","line":4},{"station_id":"RJW","is_transit":false,"transit":false,"i_lat":-6.14505,"station_name":"Rajawali","time":3,"distance":1444,"i_long":106.836569,"line":11},{"i_long":106.839204,"line":11,"is_transit":false,"i_lat":-6.161728,"transit":false,"time":5,"distance":1901,"station_id":"KMO","station_name":"Kemayoran"}],[{"time":0,"distance":0,"transit":false,"station_id":"PSM","i_long":106.843999,"i_lat":-6.2842400000000005,"line":2,"station_name":"Pasar Minggu","is_transit":false},{"line":2,"distance":2380,"time":2,"transit":false,"i_lat":-6.263214,"station_name":"Pasar Minggu Baru","i_long":106.851577,"station_id":"PSMB","is_transit":false},{"station_id":"DRN","transit":false,"station_name":"Duren Kalibata","distance":824,"time":2,"is_transit":false,"i_long":106.85449,"line":2,"i_lat":-6.255332},{"line":2,"station_id":"CW","distance":1546,"is_transit":false,"time":3,"transit":false,"i_lat":-6.242512,"i_long":106.856607,"station_name":"Cawang"},{"line":2,"time":2,"distance":1230,"is_transit":false,"i_lat":-6.226659,"transit":false,"station_name":"Tebet","i_long":106.857948,"station_id":"TEB"},{"station_id":"MRI","i_long":106.84912,"distance":2610,"station_name":"Manggarai","is_transit":false,"i_lat":-6.209883,"transit":false,"line":2,"time":4},{"station_id":"CKI","distance":1590,"i_lat":-6.198556,"time":4,"transit":false,"station_name":"Cikini","is_transit":false,"i_long":106.840169,"line":2},{"is_transit":false,"station_id":"GDD","distance":1750,"transit":false,"station_name":"Gondangdia","i_lat":-6.186295,"line":2,"i_long":106.832183,"time":3},{"line":2,"time":4,"transit":false,"i_lat":-6.166716,"distance":2015,"i_long":106.828284,"station_id":"JUA","station_name":"Juanda","is_transit":false},{"time":2,"line":2,"station_name":"Sawah Besar","station_id":"SW","is_transit":false,"transit":false,"i_long":106.827103,"i_lat":-6.160725,"distance":1149},{"station_name":"Manggabesar","is_transit":false,"transit":false,"time":2,"distance":906,"station_id":"MGB","i_lat":-6.149769,"line":2,"i_long":106.82482},{"i_long":106.820901,"line":2,"station_id":"JAY","time":2,"distance":1080,"i_lat":-6.141205,"station_name":"Jayakarta","transit":false,"is_transit":false},{"line":2,"is_transit":true,"transit":true,"distance":1264,"station_id":"JAKK","i_long":106.812439,"i_lat":-6.137569,"time":4,"station_name":"Jakarta Kota"},{"is_transit":true,"distance":1364,"station_name":"Kampung Bandan","time":3,"line":4,"i_long":106.826365,"transit":true,"i_lat":-6.132549,"station_id":"KPB"},{"i_lat":-6.14505,"distance":1444,"time":3,"is_transit":false,"line":11,"station_id":"RJW","station_name":"Rajawali","transit":false,"i_long":106.836569},{"time":5,"line":11,"transit":false,"distance":1901,"station_id":"KMO","is_transit":false,"station_name":"Kemayoran","i_long":106.839204,"i_lat":-6.161728}]]}