{"data":[[{"time":0,"i_long":106.843999,"is_transit":false,"station_name":"Pasar Minggu","i_lat":-6.2842400000000005,"distance":0,"station_id":"PSM","transit":false,"line":2},{"station_name":"Pasar Minggu Baru","distance":2380,"station_id":"PSMB","time":2,"line":2,"i_long":106.851577,"transit":false,"i_lat":-6.263214,"is_transit":false},{"i_long":106.85449,"station_name":"Duren Kalibata","i_lat":-6.255332,"time":2,"distance":824,"station_id":"DRN","line":0,"is_transit":false,"transit":false},{"station_name":"Cawang","transit":false,"time":3,"distance":1546,"station_id":"CW","line":0,"i_long":106.856607,"i_lat":-6.242512,"is_transit":false},{"transit":false,"distance":1230,"station_id":"TEB","station_name":"Tebet","time":2,"i_lat":-6.226659,"i_long":106.857948,"line":2,"is_transit":false},{"is_transit":true,"station_id":"MRI","line":0,"i_lat":-6.209883,"time":4,"i_long":106.84912,"station_name":"Manggarai","distance":2610,"transit":true},{"is_transit":false,"station_name":"Cikini","i_long":106.840169,"i_lat":-6.198556,"station_id":"CKI","transit":false,"distance":1590,"time":4,"line":0},{"i_lat":-6.186295,"distance":1750,"transit":false,"station_id":"GDD","station_name":"Gondangdia","line":2,"is_transit":false,"time":3,"i_long":106.832183},{"transit":false,"station_id":"JUA","is_transit":false,"station_name":"Juanda","time":4,"line":2,"distance":2015,"i_lat":-6.166716,"i_long":106.828284},{"is_transit":false,"line":2,"transit":false,"distance":1149,"station_name":"Sawah Besar","time":2,"i_lat":-6.160725,"station_id":"SW","i_long":106.827103},{"station_name":"Manggabesar","line":2,"transit":false,"station_id":"MGB","time":2,"distance":906,"i_lat":-6.149769,"is_transit":false,"i_long":106.82482},{"station_name":"Jayakarta","line":7,"time":2,"is_transit":false,"i_long":106.820901,"station_id":"JAY","i_lat":-6.141205,"transit":false,"distance":1080},{"time":4,"distance":1264,"station_name":"Jakarta Kota","i_lat":-6.137569,"is_transit":true,"i_long":106.812439,"transit":false,"line":0,"station_id":"JAKK"}],[{"i_long":106.843999,"is_transit":false,"line":2,"i_lat":-6.2842400000000005,"station_id":"PSM","time":0,"transit":false,"station_name":"Pasar Minggu","distance":0},{"station_id":"PSMB","time":2,"i_lat":-6.263214,"distance":2380,"is_transit":false,"station_name":"Pasar Minggu Baru","transit":false,"i_long":106.851577,"line":2},{"station_id":"DRN","i_long":106.85449,"line":0,"is_transit":false,"i_lat":-6.255332,"station_name":"Duren Kalibata","time":2,"transit":false,"distance":824},{"line":0,"distance":1546,"station_name":"Cawang","transit":false,"i_lat":-6.242512,"station_id":"CW","i_long":106.856607,"is_transit":false,"time":3},{"line":2,"time":2,"i_lat":-6.226659,"i_long":106.857948,"is_transit":false,"transit":false,"distance":1230,"station_name":"Tebet","station_id":"TEB"},{"distance":2610,"station_name":"Manggarai","transit":true,"i_lat":-6.209883,"time":4,"is_transit":true,"i_long":106.84912,"line":0,"station_id":"MRI"},{"i_lat":-6.202263,"station_id":"SUD","i_long":106.822649,"is_transit":false,"transit":false,"line":1,"time":4,"distance":3186,"station_name":"Sudirman"},{"i_long":106.819881,"station_name":"Sudirman Baru","i_lat":-6.201433,"distance":280,"is_transit":false,"transit":false,"station_id":"SUDB","line":1,"time":1},{"line":1,"distance":471,"station_name":"Karet","station_id":"KAT","transit":false,"time":1,"i_long":106.816351,"is_transit":false,"i_lat":-6.20132},{"distance":2029,"time":5,"is_transit":true,"i_lat":-6.185545,"station_name":"Tanah Abang","station_id":"THB","line":1,"transit":false,"i_long":106.811091},{"is_transit":true,"line":1,"time":8,"i_lat":-6.155215,"i_long":106.800832,"transit":true,"station_name":"Duri","distance":3632,"station_id":"DU"},{"station_name":"Angke","line":0,"distance":1230,"is_transit":false,"station_id":"AK","transit":false,"time":4,"i_lat":-6.144674,"i_long":106.79867},{"is_transit":true,"transit":false,"station_name":"Kampung Bandan","distance":4102,"line":0,"time":9,"station_id":"KPB","i_long":106.826365,"i_lat":-6.132549},{"is_transit":true,"station_id":"JAKK","i_long":106.812439,"distance":1364,"transit":false,"station_name":"Jakarta Kota","line":0,"time":3,"i_lat":-6.137569}],[{"station_name":"Pasar Minggu","i_long":106.843999,"line":2,"is_transit":false,"station_id":"PSM","transit":false,"i_lat":-6.2842400000000005,"distance":0,"time":0},{"line":2,"is_transit":false,"time":2,"station_name":"Pasar Minggu Baru","i_lat":-6.263214,"i_long":106.851577,"distance":2380,"station_id":"PSMB","transit":false},{"distance":824,"i_long":106.85449,"line":0,"station_id":"DRN","station_name":"Duren Kalibata","transit":false,"time":2,"is_transit":false,"i_lat":-6.255332},{"is_transit":false,"station_name":"Cawang","i_lat":-6.242512,"distance":1546,"station_id":"CW","time":3,"i_long":106.856607,"line":0,"transit":false},{"i_lat":-6.226659,"distance":1230,"is_transit":false,"station_name":"Tebet","transit":false,"i_long":106.857948,"line":2,"station_id":"TEB","time":2},{"time":4,"transit":true,"is_transit":true,"station_name":"Manggarai","line":0,"station_id":"MRI","distance":2610,"i_long":106.84912,"i_lat":-6.209883},{"line":1,"transit":false,"i_lat":-6.212485,"station_id":"MTR","is_transit":false,"distance":1275,"station_name":"Matraman","time":2,"i_long":106.858896},{"distance":1377,"transit":true,"station_name":"Jatinegara","time":8,"is_transit":true,"station_id":"JNG","i_long":106.86807400000001,"line":0,"i_lat":-6.215091},{"is_transit":false,"transit":false,"time":2,"station_name":"Pondok Jati","i_long":106.861737,"station_id":"POK","i_lat":-6.209188,"line":11,"distance":1236},{"line":11,"station_id":"KMT","transit":false,"is_transit":false,"i_lat":-6.193792,"station_name":"Kramat","distance":1829,"i_long":106.855437,"time":2},{"station_id":"GST","station_name":"Gang Sentiong","time":1,"i_lat":-6.185975,"is_transit":false,"line":11,"transit":false,"i_long":106.850107,"distance":973},{"i_lat":-6.174784,"i_long":106.84368,"transit":false,"station_name":"Pasar Senen","station_id":"PSE","is_transit":false,"time":8,"distance":1567,"line":11},{"i_long":106.839204,"time":4,"is_transit":false,"distance":1436,"line":11,"i_lat":-6.161728,"station_name":"Kemayoran","station_id":"KMO","transit":false},{"i_long":106.836569,"time":5,"i_lat":-6.14505,"transit":false,"distance":1901,"station_id":"RJW","line":11,"is_transit":false,"station_name":"Rajawali"},{"is_transit":true,"i_lat":-6.132549,"distance":1444,"line":0,"station_id":"KPB","time":3,"station_name":"Kampung Bandan","transit":true,"i_long":106.826365},{"station_name":"Jakarta Kota","i_lat":-6.137569,"line":0,"station_id":"JAKK","distance":1364,"is_transit":true,"transit":false,"time":3,"i_long":106.812439}]]}