{"data":[[{"is_transit":false,"station_id":"PSM","line":2,"time":0,"station_name":"Pasar Minggu","transit":false,"i_lat":-6.2842400000000005,"distance":0,"i_long":106.843999},{"time":2,"transit":false,"line":2,"distance":2380,"is_transit":false,"station_id":"PSMB","i_long":106.851577,"i_lat":-6.263214,"station_name":"Pasar Minggu Baru"},{"station_id":"DRN","time":2,"station_name":"Duren Kalibata","is_transit":false,"distance":824,"i_lat":-6.255332,"i_long":106.85449,"transit":false,"line":2},{"is_transit":false,"line":2,"time":3,"station_name":"Cawang","i_long":106.856607,"i_lat":-6.242512,"distance":1546,"station_id":"CW","transit":false},{"time":2,"station_name":"Tebet","station_id":"TEB","i_lat":-6.226659,"i_long":106.857948,"transit":false,"is_transit":false,"distance":1230,"line":2},{"line":2,"distance":2610,"station_id":"MRI","i_lat":-6.209883,"station_name":"Manggarai","is_transit":false,"transit":false,"i_long":106.84912,"time":4},{"i_lat":-6.198556,"time":4,"station_id":"CKI","transit":false,"distance":1590,"line":2,"is_transit":false,"i_long":106.840169,"station_name":"Cikini"},{"i_long":106.832183,"station_id":"GDD","line":2,"distance":1750,"station_name":"Gondangdia","time":3,"transit":false,"i_lat":-6.186295,"is_transit":false},{"transit":false,"time":4,"line":2,"station_id":"JUA","distance":2015,"station_name":"Juanda","i_long":106.828284,"is_transit":false,"i_lat":-6.166716},{"distance":1149,"time":2,"is_transit":false,"station_name":"Sawah Besar","transit":false,"i_lat":-6.160725,"i_long":106.827103,"station_id":"SW","line":2},{"i_lat":-6.149769,"distance":906,"time":2,"station_name":"Manggabesar","i_long":106.82482,"transit":false,"is_transit":false,"line":2,"station_id":"MGB"}],[{"time":0,"is_transit":false,"distance":0,"i_long":106.843999,"line":2,"i_lat":-6.2842400000000005,"station_name":"Pasar Minggu","transit":false,"station_id":"PSM"},{"station_name":"Pasar Minggu Baru","line":2,"i_lat":-6.263214,"i_long":106.851577,"transit":false,"station_id":"PSMB","distance":2380,"time":2,"is_transit":false},{"station_id":"DRN","transit":false,"line":2,"i_long":106.85449,"is_transit":false,"time":2,"distance":824,"station_name":"Duren Kalibata","i_lat":-6.255332},{"transit":false,"time":3,"i_lat":-6.242512,"distance":1546,"is_transit":false,"line":2,"station_id":"CW","i_long":106.856607,"station_name":"Cawang"},{"station_id":"TEB","line":2,"time":2,"is_transit":false,"transit":false,"station_name":"Tebet","i_long":106.857948,"distance":1230,"i_lat":-6.226659},{"distance":2610,"time":4,"station_name":"Manggarai","is_transit":true,"station_id":"MRI","line":2,"transit":true,"i_lat":-6.209883,"i_long":106.84912},{"line":1,"station_id":"SUD","time":4,"station_name":"Sudirman","distance":3186,"is_transit":false,"i_lat":-6.202263,"transit":false,"i_long":106.822649},{"i_lat":-6.201433,"station_id":"SUDB","distance":280,"line":1,"is_transit":false,"time":1,"station_name":"Sudirman Baru","transit":false,"i_long":106.819881},{"time":1,"is_transit":false,"station_name":"Karet","transit":false,"i_long":106.816351,"line":1,"distance":471,"station_id":"KAT","i_lat":-6.20132},{"distance":2029,"station_id":"THB","is_transit":false,"transit":false,"station_name":"Tanah Abang","line":1,"time":5,"i_lat":-6.185545,"i_long":106.811091},{"i_lat":-6.155215,"is_transit":false,"line":1,"station_name":"Duri","i_long":106.800832,"transit":false,"time":8,"distance":3632,"station_id":"DU"},{"time":4,"station_id":"AK","i_lat":-6.144674,"station_name":"Angke","transit":false,"i_long":106.79867,"line":1,"distance":1230,"is_transit":false},{"distance":4102,"is_transit":true,"transit":true,"station_id":"KPB","i_long":106.826365,"time":9,"i_lat":-6.132549,"station_name":"Kampung Bandan","line":4},{"distance":1364,"station_id":"JAKK","station_name":"Jakarta Kota","i_lat":-6.137569,"transit":true,"is_transit":true,"line":2,"i_long":106.812439,"time":3},{"time":4,"distance":1264,"i_lat":-6.141205,"line":2,"i_long":106.820901,"station_id":"JAY","is_transit":false,"station_name":"Jayakarta","transit":false},{"station_name":"Manggabesar","is_transit":false,"transit":false,"station_id":"MGB","i_long":106.82482,"line":2,"time":2,"i_lat":-6.149769,"distance":1080}],[{"station_id":"PSM","distance":0,"station_name":"Pasar Minggu","is_transit":false,"i_long":106.843999,"i_lat":-6.2842400000000005,"line":2,"time":0,"transit":false},{"i_lat":-6.263214,"time":2,"is_transit":false,"transit":false,"distance":2380,"i_long":106.851577,"station_name":"Pasar Minggu Baru","station_id":"PSMB","line":2},{"transit":false,"time":2,"i_lat":-6.255332,"is_transit":false,"line":2,"station_name":"Duren Kalibata","distance":824,"station_id":"DRN","i_long":106.85449},{"i_lat":-6.242512,"line":2,"station_name":"Cawang","time":3,"distance":1546,"transit":false,"i_long":106.856607,"station_id":"CW","is_transit":false},{"station_id":"TEB","i_lat":-6.226659,"station_name":"Tebet","is_transit":false,"i_long":106.857948,"transit":false,"distance":1230,"time":2,"line":2},{"time":4,"station_id":"MRI","is_transit":true,"i_long":106.84912,"line":2,"distance":2610,"i_lat":-6.209883,"station_name":"Manggarai","transit":true},{"transit":false,"i_long":106.858896,"line":1,"station_id":"MTR","distance":1275,"time":2,"station_name":"Matraman","i_lat":-6.212485,"is_transit":false},{"i_lat":-6.215091,"station_id":"JNG","is_transit":true,"time":8,"i_long":106.86807400000001,"distance":1377,"station_name":"Jatinegara","transit":true,"line":1},{"transit":false,"station_id":"POK","is_transit":false,"i_long":106.861737,"i_lat":-6.209188,"line":11,"station_name":"Pondok Jati","distance":1236,"time":2},{"i_lat":-6.193792,"time":2,"station_name":"Kramat","i_long":106.855437,"distance":1829,"line":11,"transit":false,"is_transit":false,"station_id":"KMT"},{"i_lat":-6.185975,"time":1,"is_transit":false,"distance":973,"transit":false,"i_long":106.850107,"station_name":"Gang Sentiong","station_id":"GST","line":11},{"distance":1567,"time":8,"transit":false,"i_long":106.84368,"station_name":"Pasar Senen","is_transit":false,"i_lat":-6.174784,"line":11,"station_id":"PSE"},{"i_lat":-6.161728,"line":11,"distance":1436,"station_id":"KMO","station_name":"Kemayoran","i_long":106.839204,"time":4,"transit":false,"is_transit":false},{"is_transit":false,"i_lat":-6.14505,"distance":1901,"transit":false,"i_long":106.836569,"station_name":"Rajawali","station_id":"RJW","time":5,"line":11},{"station_id":"KPB","i_lat":-6.132549,"distance":1444,"station_name":"Kampung Bandan","i_long":106.826365,"line":4,"time":3,"is_transit":true,"transit":true},{"station_id":"JAKK","i_long":106.812439,"line":2,"is_transit":true,"station_name":"Jakarta Kota","distance":1364,"transit":true,"time":3,"i_lat":-6.137569},{"i_lat":-6.141205,"distance":1264,"i_long":106.820901,"is_transit":false,"line":2,"time":4,"station_id":"JAY","transit":false,"station_name":"Jayakarta"},{"i_long":106.82482,"distance":1080,"station_id":"MGB","is_transit":false,"transit":false,"i_lat":-6.149769,"time":2,"station_name":"Manggabesar","line":2}]]}