{"data":[[{"station_name":"Pasar Minggu","station_id":"PSM","time":0,"transit":false,"distance":0,"i_lat":-6.2842400000000005,"is_transit":false,"i_long":106.843999,"line":2},{"i_long":106.838896,"time":4,"distance":2820,"i_lat":-6.3080680000000005,"is_transit":false,"station_id":"TNT","station_name":"Tanjung Barat","line":2,"transit":false},{"distance":2671,"line":2,"is_transit":false,"station_name":"Lenteng Agung","i_lat":-6.330363,"station_id":"LNA","transit":false,"time":3,"i_long":106.832616},{"station_name":"Univ. Pancasila","station_id":"UP","time":2,"transit":false,"line":2,"i_lat":-6.339291,"i_long":106.834175,"distance":1029,"is_transit":false},{"station_name":"Univ. Indonesia","i_long":106.831474,"time":3,"transit":false,"is_transit":false,"distance":2264,"i_lat":-6.360749,"station_id":"UI","line":2},{"i_lat":-6.369073,"line":2,"is_transit":false,"station_id":"POC","transit":false,"time":2,"station_name":"Pondok Cina","i_long":106.831114,"distance":1109},{"transit":false,"i_lat":-6.391065,"line":0,"station_id":"DPB","is_transit":false,"distance":2727,"i_long":106.819451,"station_name":"Depokbaru","time":4},{"transit":false,"line":0,"time":3,"distance":1584,"is_transit":false,"station_name":"Depok","i_long":106.816926,"station_id":"DP","i_lat":-6.405256},{"line":1,"is_transit":true,"i_lat":-6.448811,"station_id":"CTA","station_name":"Citayam","distance":5084,"transit":false,"time":6,"i_long":106.800298},{"i_long":106.851978,"line":0,"distance":6740,"station_name":"Cibinong","is_transit":false,"station_id":"CBN","time":10,"transit":false,"i_lat":-6.46424}]]}