{"data":[[{"i_lat":-6.2842400000000005,"line":2,"i_long":106.843999,"transit":false,"time":0,"distance":0,"is_transit":false,"station_id":"PSM","station_name":"Pasar Minggu"},{"transit":false,"distance":2380,"station_name":"Pasar Minggu Baru","is_transit":false,"i_lat":-6.263214,"line":2,"station_id":"PSMB","i_long":106.851577,"time":2},{"station_id":"DRN","i_lat":-6.255332,"time":2,"i_long":106.85449,"line":0,"is_transit":false,"distance":824,"transit":false,"station_name":"Duren Kalibata"},{"is_transit":false,"i_lat":-6.242512,"station_id":"CW","i_long":106.856607,"station_name":"Cawang","line":0,"time":3,"distance":1546,"transit":false},{"is_transit":false,"station_name":"Tebet","time":2,"line":2,"station_id":"TEB","i_lat":-6.226659,"distance":1230,"i_long":106.857948,"transit":false},{"time":4,"station_id":"MRI","is_transit":true,"i_lat":-6.209883,"i_long":106.84912,"distance":2610,"line":0,"transit":true,"station_name":"Manggarai"},{"i_lat":-6.202263,"line":1,"station_name":"Sudirman","is_transit":false,"time":4,"distance":3186,"station_id":"SUD","transit":false,"i_long":106.822649},{"i_lat":-6.201433,"station_id":"SUDB","station_name":"Sudirman Baru","transit":false,"is_transit":false,"time":1,"distance":280,"i_long":106.819881,"line":1},{"distance":471,"is_transit":false,"time":1,"station_id":"KAT","i_lat":-6.20132,"station_name":"Karet","line":1,"transit":false,"i_long":106.816351},{"i_long":106.811091,"line":1,"station_id":"THB","station_name":"Tanah Abang","time":5,"i_lat":-6.185545,"distance":2029,"is_transit":true,"transit":false},{"is_transit":true,"i_lat":-6.155215,"time":8,"station_id":"DU","i_long":106.800832,"distance":3632,"station_name":"Duri","line":1,"transit":true},{"is_transit":false,"transit":false,"i_lat":-6.162021,"line":5,"time":3,"station_name":"Grogol","station_id":"GGL","i_long":106.788277,"distance":1700},{"line":5,"distance":2036,"i_long":106.771379,"is_transit":false,"transit":false,"station_name":"Pesing","time":2,"i_lat":-6.161433,"station_id":"PSG"},{"i_long":106.756522,"station_name":"Taman Kota","i_lat":-6.1587309999999995,"time":2,"distance":1614,"transit":false,"station_id":"TKO","is_transit":false,"line":5},{"station_id":"BOI","distance":2334,"station_name":"Bojongindah","is_transit":false,"line":0,"time":2,"i_lat":-6.159876,"i_long":106.737035,"transit":false},{"station_id":"RW","station_name":"Rawa Buaya","i_lat":-6.162758,"i_long":106.723064,"distance":1152,"is_transit":false,"line":5,"transit":false,"time":4},{"time":3,"is_transit":false,"i_lat":-6.166068,"station_name":"Kalideres","station_id":"KDS","transit":false,"i_long":106.701612,"line":5,"distance":2504},{"time":3,"i_long":106.679458,"transit":false,"station_id":"PI","is_transit":false,"distance":2548,"i_lat":-6.169933,"line":5,"station_name":"Poris"},{"i_long":106.665036,"station_name":"Batuceper","is_transit":false,"time":3,"i_lat":-6.171811,"line":0,"station_id":"BPR","distance":1834,"transit":false}],[{"station_name":"Pasar Minggu","is_transit":false,"distance":0,"station_id":"PSM","i_lat":-6.2842400000000005,"line":2,"time":0,"transit":false,"i_long":106.843999},{"time":2,"i_long":106.851577,"transit":false,"line":2,"distance":2380,"station_id":"PSMB","i_lat":-6.263214,"station_name":"Pasar Minggu Baru","is_transit":false},{"transit":false,"i_lat":-6.255332,"is_transit":false,"station_id":"DRN","time":2,"i_long":106.85449,"station_name":"Duren Kalibata","line":0,"distance":824},{"distance":1546,"i_long":106.856607,"line":0,"time":3,"station_id":"CW","i_lat":-6.242512,"is_transit":false,"transit":false,"station_name":"Cawang"},{"station_name":"Tebet","i_long":106.857948,"time":2,"i_lat":-6.226659,"distance":1230,"line":2,"station_id":"TEB","transit":false,"is_transit":false},{"i_long":106.84912,"time":4,"station_name":"Manggarai","i_lat":-6.209883,"line":0,"distance":2610,"station_id":"MRI","transit":true,"is_transit":true},{"distance":1590,"is_transit":false,"time":4,"transit":false,"i_lat":-6.198556,"i_long":106.840169,"station_name":"Cikini","line":0,"station_id":"CKI"},{"i_lat":-6.186295,"is_transit":false,"i_long":106.832183,"transit":false,"line":2,"station_id":"GDD","distance":1750,"station_name":"Gondangdia","time":3},{"i_lat":-6.166716,"station_id":"JUA","line":2,"i_long":106.828284,"station_name":"Juanda","is_transit":false,"transit":false,"distance":2015,"time":4},{"distance":1149,"i_long":106.827103,"station_id":"SW","transit":false,"i_lat":-6.160725,"is_transit":false,"time":2,"line":2,"station_name":"Sawah Besar"},{"station_name":"Manggabesar","distance":906,"i_long":106.82482,"line":2,"is_transit":false,"transit":false,"station_id":"MGB","i_lat":-6.149769,"time":2},{"is_transit":false,"transit":false,"line":7,"time":2,"station_id":"JAY","distance":1080,"i_long":106.820901,"i_lat":-6.141205,"station_name":"Jayakarta"},{"time":4,"station_id":"JAKK","i_long":106.812439,"distance":1264,"transit":true,"line":0,"i_lat":-6.137569,"station_name":"Jakarta Kota","is_transit":true},{"i_long":106.826365,"station_name":"Kampung Bandan","station_id":"KPB","time":3,"distance":1364,"i_lat":-6.132549,"transit":false,"line":0,"is_transit":true},{"station_name":"Angke","is_transit":false,"distance":4102,"i_long":106.79867,"station_id":"AK","line":0,"transit":false,"time":9,"i_lat":-6.144674},{"time":4,"station_name":"Duri","is_transit":true,"i_long":106.800832,"line":1,"station_id":"DU","distance":1230,"i_lat":-6.155215,"transit":true},{"distance":1700,"transit":false,"i_lat":-6.162021,"is_transit":false,"line":5,"station_name":"Grogol","time":3,"i_long":106.788277,"station_id":"GGL"},{"transit":false,"line":5,"station_name":"Pesing","time":2,"i_lat":-6.161433,"station_id":"PSG","i_long":106.771379,"distance":2036,"is_transit":false},{"time":2,"distance":1614,"line":5,"station_name":"Taman Kota","is_transit":false,"transit":false,"i_lat":-6.1587309999999995,"i_long":106.756522,"station_id":"TKO"},{"line":0,"is_transit":false,"distance":2334,"i_long":106.737035,"i_lat":-6.159876,"station_id":"BOI","time":2,"station_name":"Bojongindah","transit":false},{"i_lat":-6.162758,"station_id":"RW","distance":1152,"station_name":"Rawa Buaya","line":5,"i_long":106.723064,"time":4,"transit":false,"is_transit":false},{"distance":2504,"time":3,"i_long":106.701612,"is_transit":false,"station_id":"KDS","line":5,"station_name":"Kalideres","transit":false,"i_lat":-6.166068},{"line":5,"i_lat":-6.169933,"distance":2548,"station_name":"Poris","time":3,"station_id":"PI","is_transit":false,"transit":false,"i_long":106.679458},{"station_name":"Batuceper","distance":1834,"transit":false,"i_long":106.665036,"line":0,"station_id":"BPR","is_transit":false,"time":3,"i_lat":-6.171811}],[{"distance":0,"transit":false,"station_name":"Pasar Minggu","i_lat":-6.2842400000000005,"time":0,"line":2,"station_id":"PSM","i_long":106.843999,"is_transit":false},{"time":2,"is_transit":false,"line":2,"distance":2380,"transit":false,"i_long":106.851577,"i_lat":-6.263214,"station_name":"Pasar Minggu Baru","station_id":"PSMB"},{"transit":false,"i_long":106.85449,"station_id":"DRN","i_lat":-6.255332,"station_name":"Duren Kalibata","distance":824,"line":0,"is_transit":false,"time":2},{"i_long":106.856607,"line":0,"is_transit":false,"station_id":"CW","time":3,"station_name":"Cawang","transit":false,"distance":1546,"i_lat":-6.242512},{"is_transit":false,"i_lat":-6.226659,"transit":false,"station_name":"Tebet","distance":1230,"time":2,"i_long":106.857948,"line":2,"station_id":"TEB"},{"station_id":"MRI","station_name":"Manggarai","i_long":106.84912,"line":0,"time":4,"transit":true,"i_lat":-6.209883,"is_transit":true,"distance":2610},{"is_transit":false,"station_id":"MTR","time":2,"transit":false,"distance":1275,"i_long":106.858896,"station_name":"Matraman","i_lat":-6.212485,"line":1},{"station_id":"JNG","transit":true,"distance":1377,"line":0,"is_transit":true,"i_lat":-6.215091,"i_long":106.86807400000001,"time":8,"station_name":"Jatinegara"},{"i_long":106.861737,"time":2,"station_id":"POK","is_transit":false,"i_lat":-6.209188,"line":11,"transit":false,"station_name":"Pondok Jati","distance":1236},{"i_lat":-6.193792,"time":2,"i_long":106.855437,"transit":false,"distance":1829,"line":11,"station_name":"Kramat","station_id":"KMT","is_transit":false},{"line":11,"station_name":"Gang Sentiong","transit":false,"i_long":106.850107,"time":1,"station_id":"GST","distance":973,"i_lat":-6.185975,"is_transit":false},{"station_id":"PSE","i_long":106.84368,"line":11,"distance":1567,"i_lat":-6.174784,"station_name":"Pasar Senen","is_transit":false,"time":8,"transit":false},{"station_id":"KMO","station_name":"Kemayoran","distance":1436,"i_long":106.839204,"i_lat":-6.161728,"time":4,"transit":false,"is_transit":false,"line":11},{"station_name":"Rajawali","i_lat":-6.14505,"distance":1901,"time":5,"transit":false,"i_long":106.836569,"station_id":"RJW","line":11,"is_transit":false},{"station_id":"KPB","distance":1444,"line":0,"i_long":106.826365,"station_name":"Kampung Bandan","time":3,"is_transit":true,"transit":true,"i_lat":-6.132549},{"distance":4102,"transit":false,"station_id":"AK","i_long":106.79867,"time":9,"line":0,"is_transit":false,"station_name":"Angke","i_lat":-6.144674},{"station_id":"DU","station_name":"Duri","time":4,"distance":1230,"i_lat":-6.155215,"i_long":106.800832,"transit":true,"is_transit":true,"line":1},{"transit":false,"distance":1700,"i_long":106.788277,"line":5,"station_name":"Grogol","is_transit":false,"station_id":"GGL","time":3,"i_lat":-6.162021},{"i_long":106.771379,"is_transit":false,"transit":false,"time":2,"station_id":"PSG","line":5,"distance":2036,"i_lat":-6.161433,"station_name":"Pesing"},{"transit":false,"distance":1614,"time":2,"i_lat":-6.1587309999999995,"line":5,"station_id":"TKO","is_transit":false,"i_long":106.756522,"station_name":"Taman Kota"},{"time":2,"i_lat":-6.159876,"is_transit":false,"transit":false,"distance":2334,"station_name":"Bojongindah","i_long":106.737035,"line":0,"station_id":"BOI"},{"i_long":106.723064,"line":5,"is_transit":false,"station_name":"Rawa Buaya","transit":false,"station_id":"RW","distance":1152,"i_lat":-6.162758,"time":4},{"station_name":"Kalideres","transit":false,"i_long":106.701612,"time":3,"distance":2504,"line":5,"is_transit":false,"station_id":"KDS","i_lat":-6.166068},{"transit":false,"i_lat":-6.169933,"time":3,"is_transit":false,"i_long":106.679458,"station_id":"PI","line":5,"distance":2548,"station_name":"Poris"},{"transit":false,"i_long":106.665036,"is_transit":false,"station_name":"Batuceper","station_id":"BPR","time":3,"distance":1834,"i_lat":-6.171811,"line":0}]]}