{"data":[[{"station_id":"PSM","time":0,"is_transit":false,"i_long":106.843999,"distance":0,"station_name":"Pasar Minggu","line":2,"i_lat":-6.2842400000000005,"transit":false},{"i_long":106.851577,"is_transit":false,"time":2,"distance":2380,"station_id":"PSMB","transit":false,"i_lat":-6.263214,"station_name":"Pasar Minggu Baru","line":2},{"distance":824,"time":2,"i_lat":-6.255332,"transit":false,"is_transit":false,"station_name":"Duren Kalibata","station_id":"DRN","i_long":106.85449,"line":2},{"i_lat":-6.242512,"station_id":"CW","i_long":106.856607,"distance":1546,"line":2,"is_transit":false,"station_name":"Cawang","transit":false,"time":3},{"distance":1230,"is_transit":false,"i_long":106.857948,"station_name":"Tebet","line":2,"station_id":"TEB","i_lat":-6.226659,"transit":false,"time":2},{"is_transit":true,"distance":2610,"time":4,"station_id":"MRI","station_name":"Manggarai","i_long":106.84912,"i_lat":-6.209883,"transit":true,"line":2},{"station_id":"SUD","i_lat":-6.202263,"line":1,"time":4,"is_transit":false,"distance":3186,"station_name":"Sudirman","transit":false,"i_long":106.822649},{"station_id":"SUDB","i_lat":-6.201433,"i_long":106.819881,"time":1,"distance":280,"is_transit":false,"transit":false,"line":1,"station_name":"Sudirman Baru"},{"station_id":"KAT","transit":false,"station_name":"Karet","i_long":106.816351,"distance":471,"is_transit":false,"line":1,"i_lat":-6.20132,"time":1},{"is_transit":false,"distance":2029,"station_name":"Tanah Abang","i_long":106.811091,"i_lat":-6.185545,"transit":false,"time":5,"station_id":"THB","line":1},{"is_transit":true,"line":1,"i_lat":-6.155215,"distance":3632,"i_long":106.800832,"station_id":"DU","time":8,"transit":true,"station_name":"Duri"},{"i_lat":-6.162021,"is_transit":false,"time":3,"i_long":106.788277,"station_id":"GGL","distance":1700,"station_name":"Grogol","transit":false,"line":5},{"station_name":"Pesing","i_lat":-6.161433,"distance":2036,"line":5,"i_long":106.771379,"transit":false,"station_id":"PSG","time":2,"is_transit":false},{"station_id":"TKO","transit":false,"station_name":"Taman Kota","i_long":106.756522,"is_transit":false,"line":5,"i_lat":-6.1587309999999995,"time":2,"distance":1614},{"station_name":"Bojongindah","is_transit":false,"transit":false,"i_long":106.737035,"time":2,"station_id":"BOI","line":5,"distance":2334,"i_lat":-6.159876},{"is_transit":false,"transit":false,"time":4,"station_id":"RW","i_long":106.723064,"i_lat":-6.162758,"line":5,"station_name":"Rawa Buaya","distance":1152},{"station_id":"KDS","station_name":"Kalideres","i_lat":-6.166068,"i_long":106.701612,"distance":2504,"is_transit":false,"transit":false,"time":3,"line":5},{"transit":false,"is_transit":false,"station_name":"Poris","station_id":"PI","i_long":106.679458,"time":3,"i_lat":-6.169933,"line":5,"distance":2548},{"i_long":106.665036,"distance":1834,"station_id":"BPR","line":5,"time":3,"transit":false,"station_name":"Batuceper","i_lat":-6.171811,"is_transit":false}],[{"transit":false,"is_transit":false,"time":0,"station_name":"Pasar Minggu","i_lat":-6.2842400000000005,"station_id":"PSM","i_long":106.843999,"distance":0,"line":2},{"i_long":106.851577,"line":2,"distance":2380,"is_transit":false,"time":2,"i_lat":-6.263214,"transit":false,"station_id":"PSMB","station_name":"Pasar Minggu Baru"},{"station_id":"DRN","time":2,"station_name":"Duren Kalibata","transit":false,"i_long":106.85449,"is_transit":false,"i_lat":-6.255332,"line":2,"distance":824},{"time":3,"transit":false,"i_long":106.856607,"is_transit":false,"station_id":"CW","station_name":"Cawang","i_lat":-6.242512,"line":2,"distance":1546},{"station_id":"TEB","transit":false,"is_transit":false,"station_name":"Tebet","i_lat":-6.226659,"time":2,"line":2,"i_long":106.857948,"distance":1230},{"distance":2610,"station_id":"MRI","time":4,"i_lat":-6.209883,"line":2,"station_name":"Manggarai","is_transit":false,"i_long":106.84912,"transit":false},{"time":4,"distance":1590,"station_id":"CKI","i_lat":-6.198556,"transit":false,"line":2,"i_long":106.840169,"station_name":"Cikini","is_transit":false},{"distance":1750,"is_transit":false,"station_name":"Gondangdia","time":3,"i_lat":-6.186295,"i_long":106.832183,"line":2,"transit":false,"station_id":"GDD"},{"distance":2015,"station_name":"Juanda","i_long":106.828284,"is_transit":false,"time":4,"line":2,"i_lat":-6.166716,"station_id":"JUA","transit":false},{"distance":1149,"i_long":106.827103,"line":2,"is_transit":false,"station_name":"Sawah Besar","i_lat":-6.160725,"station_id":"SW","time":2,"transit":false},{"distance":906,"station_id":"MGB","time":2,"i_lat":-6.149769,"transit":false,"is_transit":false,"i_long":106.82482,"line":2,"station_name":"Manggabesar"},{"transit":false,"station_id":"JAY","i_long":106.820901,"is_transit":false,"time":2,"station_name":"Jayakarta","distance":1080,"i_lat":-6.141205,"line":2},{"i_long":106.812439,"transit":true,"station_id":"JAKK","i_lat":-6.137569,"line":2,"is_transit":true,"time":4,"distance":1264,"station_name":"Jakarta Kota"},{"i_lat":-6.132549,"line":4,"station_id":"KPB","is_transit":true,"time":3,"distance":1364,"i_long":106.826365,"transit":true,"station_name":"Kampung Bandan"},{"transit":false,"i_long":106.79867,"line":1,"is_transit":false,"station_id":"AK","station_name":"Angke","i_lat":-6.144674,"time":9,"distance":4102},{"distance":1230,"station_name":"Duri","i_lat":-6.155215,"line":1,"station_id":"DU","is_transit":true,"time":4,"i_long":106.800832,"transit":true},{"transit":false,"station_id":"GGL","line":5,"i_lat":-6.162021,"station_name":"Grogol","is_transit":false,"time":3,"i_long":106.788277,"distance":1700},{"line":5,"station_name":"Pesing","time":2,"transit":false,"is_transit":false,"station_id":"PSG","distance":2036,"i_lat":-6.161433,"i_long":106.771379},{"is_transit":false,"time":2,"line":5,"station_id":"TKO","distance":1614,"station_name":"Taman Kota","i_lat":-6.1587309999999995,"i_long":106.756522,"transit":false},{"is_transit":false,"line":5,"i_lat":-6.159876,"distance":2334,"station_name":"Bojongindah","i_long":106.737035,"station_id":"BOI","time":2,"transit":false},{"transit":false,"distance":1152,"station_id":"RW","is_transit":false,"line":5,"station_name":"Rawa Buaya","i_long":106.723064,"time":4,"i_lat":-6.162758},{"station_name":"Kalideres","i_lat":-6.166068,"line":5,"distance":2504,"time":3,"i_long":106.701612,"transit":false,"is_transit":false,"station_id":"KDS"},{"time":3,"i_lat":-6.169933,"line":5,"station_id":"PI","is_transit":false,"i_long":106.679458,"distance":2548,"transit":false,"station_name":"Poris"},{"is_transit":false,"transit":false,"distance":1834,"time":3,"line":5,"i_long":106.665036,"station_name":"Batuceper","i_lat":-6.171811,"station_id":"BPR"}],[{"station_id":"PSM","is_transit":false,"station_name":"Pasar Minggu","i_lat":-6.2842400000000005,"i_long":106.843999,"transit":false,"time":0,"line":2,"distance":0},{"station_id":"PSMB","station_name":"Pasar Minggu Baru","is_transit":false,"distance":2380,"i_lat":-6.263214,"transit":false,"i_long":106.851577,"line":2,"time":2},{"distance":824,"time":2,"i_long":106.85449,"station_id":"DRN","station_name":"Duren Kalibata","line":2,"transit":false,"is_transit":false,"i_lat":-6.255332},{"transit":false,"is_transit":false,"station_id":"CW","line":2,"time":3,"distance":1546,"i_lat":-6.242512,"i_long":106.856607,"station_name":"Cawang"},{"line":2,"i_long":106.857948,"is_transit":false,"station_id":"TEB","i_lat":-6.226659,"station_name":"Tebet","transit":false,"distance":1230,"time":2},{"is_transit":true,"station_id":"MRI","distance":2610,"i_long":106.84912,"time":4,"transit":true,"i_lat":-6.209883,"line":2,"station_name":"Manggarai"},{"station_id":"MTR","station_name":"Matraman","i_long":106.858896,"line":1,"transit":false,"time":2,"distance":1275,"i_lat":-6.212485,"is_transit":false},{"station_id":"JNG","i_long":106.86807400000001,"station_name":"Jatinegara","distance":1377,"line":1,"is_transit":true,"time":8,"transit":true,"i_lat":-6.215091},{"i_lat":-6.209188,"line":11,"distance":1236,"station_id":"POK","transit":false,"is_transit":false,"time":2,"i_long":106.861737,"station_name":"Pondok Jati"},{"is_transit":false,"time":2,"transit":false,"station_id":"KMT","distance":1829,"i_lat":-6.193792,"line":11,"i_long":106.855437,"station_name":"Kramat"},{"line":11,"is_transit":false,"distance":973,"i_lat":-6.185975,"transit":false,"station_name":"Gang Sentiong","station_id":"GST","i_long":106.850107,"time":1},{"time":8,"i_long":106.84368,"transit":false,"is_transit":false,"station_id":"PSE","distance":1567,"line":11,"station_name":"Pasar Senen","i_lat":-6.174784},{"station_name":"Kemayoran","i_lat":-6.161728,"i_long":106.839204,"time":4,"line":11,"station_id":"KMO","transit":false,"is_transit":false,"distance":1436},{"i_lat":-6.14505,"line":11,"is_transit":false,"distance":1901,"time":5,"i_long":106.836569,"transit":false,"station_id":"RJW","station_name":"Rajawali"},{"i_lat":-6.132549,"transit":true,"station_name":"Kampung Bandan","station_id":"KPB","line":4,"time":3,"is_transit":true,"distance":1444,"i_long":106.826365},{"i_long":106.79867,"line":1,"is_transit":false,"time":9,"station_id":"AK","distance":4102,"station_name":"Angke","i_lat":-6.144674,"transit":false},{"station_name":"Duri","transit":true,"station_id":"DU","is_transit":true,"i_lat":-6.155215,"time":4,"distance":1230,"line":1,"i_long":106.800832},{"transit":false,"is_transit":false,"i_lat":-6.162021,"station_name":"Grogol","distance":1700,"station_id":"GGL","time":3,"i_long":106.788277,"line":5},{"station_name":"Pesing","distance":2036,"is_transit":false,"line":5,"transit":false,"station_id":"PSG","time":2,"i_lat":-6.161433,"i_long":106.771379},{"line":5,"is_transit":false,"station_id":"TKO","transit":false,"distance":1614,"station_name":"Taman Kota","time":2,"i_lat":-6.1587309999999995,"i_long":106.756522},{"transit":false,"station_id":"BOI","station_name":"Bojongindah","is_transit":false,"distance":2334,"i_lat":-6.159876,"i_long":106.737035,"line":5,"time":2},{"i_long":106.723064,"station_id":"RW","time":4,"transit":false,"is_transit":false,"distance":1152,"station_name":"Rawa Buaya","line":5,"i_lat":-6.162758},{"line":5,"station_name":"Kalideres","transit":false,"station_id":"KDS","distance":2504,"time":3,"is_transit":false,"i_long":106.701612,"i_lat":-6.166068},{"station_id":"PI","i_long":106.679458,"transit":false,"distance":2548,"time":3,"i_lat":-6.169933,"station_name":"Poris","is_transit":false,"line":5},{"i_long":106.665036,"distance":1834,"is_transit":false,"i_lat":-6.171811,"station_name":"Batuceper","line":5,"transit":false,"station_id":"BPR","time":3}]]}