{"data":[[{"time":0,"line":2,"distance":0,"i_lat":-6.2842400000000005,"i_long":106.843999,"is_transit":false,"station_id":"PSM","station_name":"Pasar Minggu","transit":false},{"is_transit":false,"i_long":106.838896,"distance":2820,"transit":false,"line":2,"i_lat":-6.3080680000000005,"station_id":"TNT","station_name":"Tanjung Barat","time":4},{"station_id":"LNA","i_lat":-6.330363,"transit":false,"time":3,"i_long":106.832616,"line":2,"distance":2671,"is_transit":false,"station_name":"Lenteng Agung"},{"transit":false,"station_id":"UP","i_lat":-6.339291,"is_transit":false,"station_name":"Univ. Pancasila","time":2,"i_long":106.834175,"line":2,"distance":1029},{"is_transit":false,"distance":2264,"i_long":106.831474,"station_id":"UI","line":2,"transit":false,"i_lat":-6.360749,"station_name":"Univ. Indonesia","time":3},{"line":2,"transit":false,"station_name":"Pondok Cina","is_transit":false,"time":2,"i_lat":-6.369073,"i_long":106.831114,"station_id":"POC","distance":1109},{"station_id":"DPB","time":4,"distance":2727,"i_lat":-6.391065,"station_name":"Depokbaru","line":2,"is_transit":false,"transit":false,"i_long":106.819451},{"station_id":"DP","i_long":106.816926,"station_name":"Depok","distance":1584,"i_lat":-6.405256,"transit":false,"line":2,"is_transit":false,"time":3},{"distance":5084,"transit":true,"i_lat":-6.448811,"time":6,"is_transit":true,"station_id":"CTA","station_name":"Citayam","i_long":106.800298,"line":2},{"is_transit":false,"station_name":"Pondok Rajeg","time":0,"distance":0,"i_lat":-6.460735,"i_long":106.824374,"transit":false,"station_id":"PDRG","line":21}]]}