{"data":[[{"is_transit":false,"time":0,"distance":0,"station_name":"Pasar Minggu","i_long":106.843999,"line":2,"i_lat":-6.2842400000000005,"transit":false,"station_id":"PSM"},{"i_long":106.851577,"station_name":"Pasar Minggu Baru","transit":false,"time":2,"station_id":"PSMB","is_transit":false,"i_lat":-6.263214,"line":2,"distance":2380},{"i_long":106.85449,"station_name":"Duren Kalibata","time":2,"i_lat":-6.255332,"station_id":"DRN","line":2,"is_transit":false,"transit":false,"distance":824},{"transit":false,"distance":1546,"i_lat":-6.242512,"time":3,"station_name":"Cawang","station_id":"CW","is_transit":false,"i_long":106.856607,"line":2},{"transit":false,"station_name":"Tebet","i_lat":-6.226659,"time":2,"line":2,"distance":1230,"is_transit":false,"station_id":"TEB","i_long":106.857948},{"i_long":106.84912,"is_transit":true,"time":4,"distance":2610,"station_id":"MRI","line":2,"transit":true,"station_name":"Manggarai","i_lat":-6.209883},{"station_id":"SUD","i_lat":-6.202263,"time":4,"is_transit":false,"distance":3186,"i_long":106.822649,"transit":false,"line":1,"station_name":"Sudirman"},{"time":1,"station_id":"SUDB","distance":280,"transit":false,"i_long":106.819881,"i_lat":-6.201433,"is_transit":false,"station_name":"Sudirman Baru","line":1},{"i_long":106.816351,"time":1,"transit":false,"station_name":"Karet","station_id":"KAT","distance":471,"i_lat":-6.20132,"line":1,"is_transit":false},{"i_lat":-6.185545,"i_long":106.811091,"transit":true,"distance":2029,"station_id":"THB","is_transit":true,"station_name":"Tanah Abang","time":5,"line":1},{"station_id":"PLM","distance":3191,"time":6,"station_name":"Palmerah","i_long":106.79689,"i_lat":-6.207404,"line":6,"transit":false,"is_transit":false},{"i_lat":-6.237242,"i_long":106.780334,"station_id":"KBY","is_transit":false,"transit":false,"time":7,"line":6,"station_name":"Kebayoran","distance":3737},{"is_transit":false,"time":8,"transit":false,"line":6,"station_name":"Pondokranji","i_long":106.74273,"distance":6218,"station_id":"PDJ","i_lat":-6.276362},{"station_name":"Jurangmangu","line":6,"time":3,"distance":2179,"transit":false,"station_id":"JMU","is_transit":false,"i_long":106.728916,"i_lat":-6.288927},{"station_name":"Sudimara","i_long":106.712277,"i_lat":-6.296963,"line":6,"transit":false,"time":4,"distance":1994,"is_transit":false,"station_id":"SDM"},{"time":6,"station_name":"Rawa Buntu","i_lat":-6.314823,"i_long":106.675475,"transit":false,"line":6,"station_id":"RU","is_transit":false,"distance":4566},{"station_id":"SRP","i_long":106.66566,"i_lat":-6.319871,"time":4,"line":6,"transit":false,"station_name":"Serpong","distance":2413,"is_transit":false},{"station_id":"CSK","station_name":"Cisauk","line":3,"distance":1784,"i_lat":-6.32484,"i_long":106.640411,"time":4,"transit":false,"is_transit":false}],[{"distance":0,"station_id":"PSM","transit":false,"is_transit":false,"station_name":"Pasar Minggu","time":0,"line":2,"i_lat":-6.2842400000000005,"i_long":106.843999},{"distance":2380,"i_long":106.851577,"transit":false,"station_name":"Pasar Minggu Baru","is_transit":false,"time":2,"line":2,"i_lat":-6.263214,"station_id":"PSMB"},{"transit":false,"distance":824,"station_name":"Duren Kalibata","i_long":106.85449,"line":2,"is_transit":false,"station_id":"DRN","time":2,"i_lat":-6.255332},{"i_lat":-6.242512,"i_long":106.856607,"time":3,"station_id":"CW","is_transit":false,"transit":false,"station_name":"Cawang","distance":1546,"line":2},{"station_name":"Tebet","is_transit":false,"i_lat":-6.226659,"line":2,"i_long":106.857948,"transit":false,"station_id":"TEB","time":2,"distance":1230},{"distance":2610,"i_long":106.84912,"is_transit":false,"line":2,"station_id":"MRI","i_lat":-6.209883,"time":4,"station_name":"Manggarai","transit":false},{"station_name":"Cikini","transit":false,"is_transit":false,"distance":1590,"i_lat":-6.198556,"time":4,"line":2,"station_id":"CKI","i_long":106.840169},{"time":3,"distance":1750,"transit":false,"i_long":106.832183,"station_name":"Gondangdia","is_transit":false,"i_lat":-6.186295,"line":2,"station_id":"GDD"},{"distance":2015,"i_long":106.828284,"is_transit":false,"station_name":"Juanda","time":4,"station_id":"JUA","i_lat":-6.166716,"transit":false,"line":2},{"station_name":"Sawah Besar","time":2,"line":2,"distance":1149,"transit":false,"is_transit":false,"station_id":"SW","i_lat":-6.160725,"i_long":106.827103},{"i_long":106.82482,"line":2,"is_transit":false,"station_name":"Manggabesar","station_id":"MGB","distance":906,"i_lat":-6.149769,"transit":false,"time":2},{"distance":1080,"transit":false,"i_lat":-6.141205,"station_id":"JAY","i_long":106.820901,"station_name":"Jayakarta","line":2,"is_transit":false,"time":2},{"i_lat":-6.137569,"station_id":"JAKK","i_long":106.812439,"transit":true,"distance":1264,"station_name":"Jakarta Kota","is_transit":true,"time":4,"line":2},{"line":4,"time":3,"i_long":106.826365,"station_name":"Kampung Bandan","transit":true,"distance":1364,"i_lat":-6.132549,"is_transit":true,"station_id":"KPB"},{"transit":false,"distance":4102,"station_id":"AK","station_name":"Angke","time":9,"is_transit":false,"i_long":106.79867,"i_lat":-6.144674,"line":1},{"time":4,"line":1,"station_id":"DU","transit":false,"is_transit":false,"i_long":106.800832,"distance":1230,"i_lat":-6.155215,"station_name":"Duri"},{"station_id":"THB","is_transit":true,"i_lat":-6.185545,"distance":3632,"time":8,"transit":true,"i_long":106.811091,"station_name":"Tanah Abang","line":1},{"station_id":"PLM","station_name":"Palmerah","i_lat":-6.207404,"line":6,"is_transit":false,"transit":false,"time":6,"distance":3191,"i_long":106.79689},{"station_id":"KBY","distance":3737,"is_transit":false,"transit":false,"i_lat":-6.237242,"line":6,"time":7,"station_name":"Kebayoran","i_long":106.780334},{"station_name":"Pondokranji","transit":false,"distance":6218,"i_lat":-6.276362,"station_id":"PDJ","line":6,"is_transit":false,"i_long":106.74273,"time":8},{"station_id":"JMU","is_transit":false,"station_name":"Jurangmangu","distance":2179,"i_lat":-6.288927,"line":6,"transit":false,"i_long":106.728916,"time":3},{"i_long":106.712277,"station_id":"SDM","line":6,"time":4,"is_transit":false,"i_lat":-6.296963,"transit":false,"distance":1994,"station_name":"Sudimara"},{"is_transit":false,"station_name":"Rawa Buntu","station_id":"RU","transit":false,"time":6,"distance":4566,"i_lat":-6.314823,"i_long":106.675475,"line":6},{"transit":false,"station_id":"SRP","is_transit":false,"distance":2413,"line":6,"i_long":106.66566,"station_name":"Serpong","time":4,"i_lat":-6.319871},{"line":3,"time":4,"station_name":"Cisauk","station_id":"CSK","transit":false,"i_lat":-6.32484,"i_long":106.640411,"is_transit":false,"distance":1784}],[{"time":0,"station_name":"Pasar Minggu","station_id":"PSM","i_lat":-6.2842400000000005,"distance":0,"is_transit":false,"transit":false,"i_long":106.843999,"line":2},{"distance":2380,"line":2,"station_name":"Pasar Minggu Baru","i_lat":-6.263214,"transit":false,"i_long":106.851577,"time":2,"is_transit":false,"station_id":"PSMB"},{"distance":824,"station_name":"Duren Kalibata","station_id":"DRN","is_transit":false,"time":2,"i_lat":-6.255332,"i_long":106.85449,"line":2,"transit":false},{"time":3,"line":2,"station_id":"CW","i_long":106.856607,"transit":false,"station_name":"Cawang","is_transit":false,"distance":1546,"i_lat":-6.242512},{"line":2,"time":2,"distance":1230,"is_transit":false,"station_name":"Tebet","transit":false,"station_id":"TEB","i_long":106.857948,"i_lat":-6.226659},{"is_transit":true,"line":2,"transit":true,"time":4,"distance":2610,"i_lat":-6.209883,"station_id":"MRI","i_long":106.84912,"station_name":"Manggarai"},{"line":1,"station_name":"Matraman","station_id":"MTR","transit":false,"time":2,"distance":1275,"is_transit":false,"i_long":106.858896,"i_lat":-6.212485},{"time":8,"station_id":"JNG","i_lat":-6.215091,"transit":true,"station_name":"Jatinegara","is_transit":true,"i_long":106.86807400000001,"line":1,"distance":1377},{"i_lat":-6.209188,"distance":1236,"station_name":"Pondok Jati","i_long":106.861737,"transit":false,"line":11,"is_transit":false,"station_id":"POK","time":2},{"is_transit":false,"i_lat":-6.193792,"transit":false,"station_id":"KMT","distance":1829,"station_name":"Kramat","time":2,"i_long":106.855437,"line":11},{"i_lat":-6.185975,"i_long":106.850107,"distance":973,"transit":false,"line":11,"station_id":"GST","time":1,"station_name":"Gang Sentiong","is_transit":false},{"time":8,"station_name":"Pasar Senen","distance":1567,"station_id":"PSE","is_transit":false,"transit":false,"line":11,"i_lat":-6.174784,"i_long":106.84368},{"station_name":"Kemayoran","distance":1436,"i_long":106.839204,"transit":false,"line":11,"station_id":"KMO","is_transit":false,"time":4,"i_lat":-6.161728},{"station_name":"Rajawali","i_lat":-6.14505,"i_long":106.836569,"is_transit":false,"transit":false,"distance":1901,"line":11,"station_id":"RJW","time":5},{"transit":true,"is_transit":true,"line":4,"distance":1444,"station_name":"Kampung Bandan","i_lat":-6.132549,"station_id":"KPB","time":3,"i_long":106.826365},{"station_id":"AK","distance":4102,"i_lat":-6.144674,"is_transit":false,"line":1,"i_long":106.79867,"time":9,"station_name":"Angke","transit":false},{"is_transit":false,"distance":1230,"i_long":106.800832,"time":4,"i_lat":-6.155215,"transit":false,"line":1,"station_id":"DU","station_name":"Duri"},{"i_lat":-6.185545,"time":8,"transit":true,"station_name":"Tanah Abang","distance":3632,"i_long":106.811091,"station_id":"THB","line":1,"is_transit":true},{"transit":false,"i_lat":-6.207404,"distance":3191,"line":6,"i_long":106.79689,"is_transit":false,"time":6,"station_name":"Palmerah","station_id":"PLM"},{"line":6,"station_name":"Kebayoran","time":7,"i_lat":-6.237242,"transit":false,"station_id":"KBY","is_transit":false,"distance":3737,"i_long":106.780334},{"station_id":"PDJ","station_name":"Pondokranji","is_transit":false,"transit":false,"line":6,"i_lat":-6.276362,"distance":6218,"time":8,"i_long":106.74273},{"transit":false,"time":3,"i_long":106.728916,"is_transit":false,"line":6,"i_lat":-6.288927,"distance":2179,"station_id":"JMU","station_name":"Jurangmangu"},{"is_transit":false,"line":6,"i_long":106.712277,"station_name":"Sudimara","time":4,"transit":false,"station_id":"SDM","distance":1994,"i_lat":-6.296963},{"station_id":"RU","station_name":"Rawa Buntu","is_transit":false,"distance":4566,"i_lat":-6.314823,"i_long":106.675475,"line":6,"time":6,"transit":false},{"i_long":106.66566,"transit":false,"line":6,"distance":2413,"i_lat":-6.319871,"is_transit":false,"station_name":"Serpong","station_id":"SRP","time":4},{"time":4,"station_name":"Cisauk","station_id":"CSK","i_lat":-6.32484,"is_transit":false,"transit":false,"i_long":106.640411,"line":3,"distance":1784}]]}