{"data":[[{"is_transit":false,"time":0,"i_lat":-6.2842400000000005,"distance":0,"transit":false,"i_long":106.843999,"station_id":"PSM","station_name":"Pasar Minggu","line":2},{"line":2,"i_lat":-6.3080680000000005,"time":4,"i_long":106.838896,"is_transit":false,"transit":false,"station_name":"Tanjung Barat","station_id":"TNT","distance":2820},{"station_id":"LNA","time":3,"is_transit":false,"i_long":106.832616,"station_name":"Lenteng Agung","i_lat":-6.330363,"transit":false,"line":2,"distance":2671},{"line":2,"station_id":"UP","transit":false,"station_name":"Univ. Pancasila","is_transit":false,"time":2,"distance":1029,"i_lat":-6.339291,"i_long":106.834175},{"distance":2264,"i_long":106.831474,"line":2,"i_lat":-6.360749,"time":3,"transit":false,"is_transit":false,"station_name":"Univ. Indonesia","station_id":"UI"},{"line":2,"i_long":106.831114,"i_lat":-6.369073,"transit":false,"station_name":"Pondok Cina","time":2,"station_id":"POC","is_transit":false,"distance":1109},{"distance":2727,"time":4,"transit":false,"i_lat":-6.391065,"line":2,"i_long":106.819451,"station_id":"DPB","station_name":"Depokbaru","is_transit":false},{"time":3,"is_transit":false,"distance":1584,"station_id":"DP","i_lat":-6.405256,"line":2,"transit":false,"i_long":106.816926,"station_name":"Depok"},{"transit":true,"line":2,"i_lat":-6.448811,"time":6,"i_long":106.800298,"station_name":"Citayam","distance":5084,"is_transit":true,"station_id":"CTA"},{"transit":false,"station_name":"Pondok Rajeg","time":0,"distance":0,"i_lat":-6.460735,"i_long":106.824374,"line":21,"station_id":"PDRG","is_transit":false},{"time":0,"transit":false,"i_lat":-6.46424,"i_long":106.851978,"line":21,"distance":0,"station_id":"CBN","station_name":"Cibinong","is_transit":false}]]}