{"data":[[{"station_name":"Pasar Minggu","transit":false,"distance":0,"is_transit":false,"time":0,"i_lat":-6.2842400000000005,"line":2,"station_id":"PSM","i_long":106.843999},{"time":4,"station_name":"Tanjung Barat","is_transit":false,"i_lat":-6.3080680000000005,"line":2,"station_id":"TNT","distance":2820,"transit":false,"i_long":106.838896},{"line":2,"station_name":"Lenteng Agung","distance":2671,"transit":false,"is_transit":false,"station_id":"LNA","i_lat":-6.330363,"time":3,"i_long":106.832616},{"station_id":"UP","line":2,"station_name":"Univ. Pancasila","time":2,"transit":false,"distance":1029,"is_transit":false,"i_lat":-6.339291,"i_long":106.834175},{"i_long":106.831474,"line":2,"transit":false,"station_name":"Univ. Indonesia","i_lat":-6.360749,"station_id":"UI","distance":2264,"time":3,"is_transit":false},{"station_name":"Pondok Cina","distance":1109,"is_transit":false,"i_long":106.831114,"line":2,"i_lat":-6.369073,"station_id":"POC","time":2,"transit":false},{"transit":false,"i_long":106.819451,"station_id":"DPB","station_name":"Depokbaru","i_lat":-6.391065,"distance":2727,"is_transit":false,"time":4,"line":2},{"line":2,"station_name":"Depok","station_id":"DP","i_lat":-6.405256,"i_long":106.816926,"time":3,"distance":1584,"transit":false,"is_transit":false},{"transit":true,"i_long":106.800298,"station_id":"CTA","station_name":"Citayam","is_transit":true,"time":6,"i_lat":-6.448811,"distance":5084,"line":2},{"is_transit":false,"time":0,"transit":false,"i_long":106.824374,"i_lat":-6.460735,"distance":0,"station_name":"Pondok Rajeg","line":21,"station_id":"PDRG"}]]}