{"data":[[{"station_name":"Pasar Minggu","distance":0,"is_transit":false,"i_long":106.843999,"transit":false,"line":2,"time":0,"station_id":"PSM","i_lat":-6.2842400000000005},{"line":2,"is_transit":false,"i_lat":-6.263214,"i_long":106.851577,"time":2,"distance":2380,"station_id":"PSMB","station_name":"Pasar Minggu Baru","transit":false},{"line":2,"is_transit":false,"station_id":"DRN","time":2,"station_name":"Duren Kalibata","transit":false,"i_lat":-6.255332,"distance":824,"i_long":106.85449},{"station_id":"CW","transit":false,"distance":1546,"is_transit":false,"line":2,"station_name":"Cawang","i_long":106.856607,"time":3,"i_lat":-6.242512},{"station_id":"TEB","time":2,"distance":1230,"station_name":"Tebet","i_lat":-6.226659,"line":2,"transit":false,"is_transit":false,"i_long":106.857948},{"is_transit":true,"line":2,"i_long":106.84912,"station_id":"MRI","transit":true,"i_lat":-6.209883,"time":4,"distance":2610,"station_name":"Manggarai"},{"time":2,"station_name":"Matraman","transit":false,"is_transit":false,"distance":1275,"station_id":"MTR","i_lat":-6.212485,"i_long":106.858896,"line":1},{"i_lat":-6.215091,"line":1,"time":8,"station_id":"JNG","is_transit":false,"distance":1377,"transit":false,"i_long":106.86807400000001,"station_name":"Jatinegara"},{"i_long":106.899548,"distance":3395,"transit":false,"line":1,"station_name":"Klender","time":3,"i_lat":-6.2135,"is_transit":false,"station_id":"KLD"},{"transit":false,"line":1,"station_name":"Buaran","distance":3100,"is_transit":false,"i_lat":-6.215568,"time":2,"station_id":"BUA","i_long":106.922662},{"is_transit":false,"time":1,"distance":1305,"line":1,"station_id":"KLDB","transit":false,"i_lat":-6.217455,"i_long":106.939679,"station_name":"Klenderbaru"},{"station_id":"CUK","distance":1385,"line":1,"is_transit":false,"station_name":"Cakung","i_long":106.951283,"time":8,"transit":false,"i_lat":-6.219053},{"station_name":"Kranji","distance":3097,"time":3,"is_transit":false,"transit":false,"i_long":106.977657,"line":1,"i_lat":-6.224515,"station_id":"KRI"},{"time":4,"i_long":106.997013,"distance":2520,"station_id":"BKS","is_transit":false,"transit":false,"i_lat":-6.236616,"station_name":"Bekasi","line":1},{"is_transit":false,"station_id":"BKST","i_lat":-6.248029,"transit":false,"time":2,"distance":2368,"station_name":"Bekasi Timur","i_long":107.016735,"line":1},{"station_name":"Tambun","is_transit":false,"time":7,"i_long":107.055722,"transit":false,"i_lat":-6.258864,"distance":4460,"line":1,"station_id":"TB"},{"transit":false,"distance":3420,"i_lat":-6.261877,"time":3,"line":1,"i_long":107.083084,"station_id":"CIT","station_name":"Cibitung","is_transit":false},{"line":1,"distance":2800,"station_id":"TLM","transit":false,"is_transit":false,"i_long":107.093313,"time":2,"station_name":"Metland Telaga Murni","i_lat":-6.262938}],[{"distance":0,"transit":false,"i_long":106.843999,"station_id":"PSM","time":0,"line":2,"station_name":"Pasar Minggu","i_lat":-6.2842400000000005,"is_transit":false},{"line":2,"time":2,"distance":2380,"station_name":"Pasar Minggu Baru","i_lat":-6.263214,"i_long":106.851577,"is_transit":false,"station_id":"PSMB","transit":false},{"line":2,"time":2,"station_name":"Duren Kalibata","is_transit":false,"distance":824,"i_lat":-6.255332,"station_id":"DRN","i_long":106.85449,"transit":false},{"transit":false,"distance":1546,"station_name":"Cawang","time":3,"is_transit":false,"line":2,"i_long":106.856607,"station_id":"CW","i_lat":-6.242512},{"line":2,"i_lat":-6.226659,"distance":1230,"i_long":106.857948,"is_transit":false,"station_name":"Tebet","transit":false,"time":2,"station_id":"TEB"},{"time":4,"station_id":"MRI","i_long":106.84912,"distance":2610,"transit":true,"line":2,"i_lat":-6.209883,"station_name":"Manggarai","is_transit":true},{"transit":false,"station_id":"SUD","i_lat":-6.202263,"station_name":"Sudirman","i_long":106.822649,"line":1,"time":4,"is_transit":false,"distance":3186},{"station_id":"SUDB","i_long":106.819881,"transit":false,"is_transit":false,"station_name":"Sudirman Baru","time":1,"distance":280,"i_lat":-6.201433,"line":1},{"is_transit":false,"i_lat":-6.20132,"i_long":106.816351,"station_name":"Karet","time":1,"transit":false,"station_id":"KAT","distance":471,"line":1},{"station_name":"Tanah Abang","i_lat":-6.185545,"distance":2029,"i_long":106.811091,"time":5,"is_transit":false,"transit":false,"station_id":"THB","line":1},{"i_lat":-6.155215,"station_id":"DU","line":1,"is_transit":false,"i_long":106.800832,"transit":false,"distance":3632,"station_name":"Duri","time":8},{"distance":1230,"i_lat":-6.144674,"transit":false,"station_name":"Angke","line":1,"is_transit":false,"station_id":"AK","i_long":106.79867,"time":4},{"line":4,"station_name":"Kampung Bandan","is_transit":true,"station_id":"KPB","i_lat":-6.132549,"time":9,"transit":true,"distance":4102,"i_long":106.826365},{"station_name":"Rajawali","station_id":"RJW","time":3,"distance":1444,"i_lat":-6.14505,"transit":false,"i_long":106.836569,"line":11,"is_transit":false},{"i_lat":-6.161728,"line":11,"station_id":"KMO","i_long":106.839204,"transit":false,"station_name":"Kemayoran","time":5,"distance":1901,"is_transit":false},{"station_id":"PSE","time":4,"i_long":106.84368,"line":11,"is_transit":false,"station_name":"Pasar Senen","transit":false,"distance":1436,"i_lat":-6.174784},{"i_lat":-6.185975,"line":11,"distance":1567,"is_transit":false,"time":8,"i_long":106.850107,"station_name":"Gang Sentiong","transit":false,"station_id":"GST"},{"i_long":106.855437,"i_lat":-6.193792,"is_transit":false,"station_id":"KMT","time":1,"line":11,"distance":973,"transit":false,"station_name":"Kramat"},{"is_transit":false,"time":2,"i_long":106.861737,"distance":1829,"station_id":"POK","transit":false,"i_lat":-6.209188,"line":11,"station_name":"Pondok Jati"},{"distance":1236,"transit":true,"time":9,"i_long":106.86807400000001,"i_lat":-6.215091,"line":1,"station_id":"JNG","is_transit":true,"station_name":"Jatinegara"},{"distance":3395,"time":3,"is_transit":false,"transit":false,"i_lat":-6.2135,"station_id":"KLD","line":1,"i_long":106.899548,"station_name":"Klender"},{"i_lat":-6.215568,"i_long":106.922662,"line":1,"station_name":"Buaran","is_transit":false,"station_id":"BUA","transit":false,"time":2,"distance":3100},{"distance":1305,"station_name":"Klenderbaru","transit":false,"station_id":"KLDB","i_long":106.939679,"is_transit":false,"time":1,"i_lat":-6.217455,"line":1},{"i_lat":-6.219053,"station_name":"Cakung","time":8,"station_id":"CUK","is_transit":false,"distance":1385,"transit":false,"i_long":106.951283,"line":1},{"line":1,"is_transit":false,"time":3,"transit":false,"station_name":"Kranji","i_long":106.977657,"i_lat":-6.224515,"station_id":"KRI","distance":3097},{"i_lat":-6.236616,"line":1,"is_transit":false,"station_id":"BKS","station_name":"Bekasi","time":4,"distance":2520,"i_long":106.997013,"transit":false},{"line":1,"station_name":"Bekasi Timur","is_transit":false,"station_id":"BKST","i_long":107.016735,"transit":false,"time":2,"distance":2368,"i_lat":-6.248029},{"is_transit":false,"station_id":"TB","i_lat":-6.258864,"station_name":"Tambun","i_long":107.055722,"line":1,"transit":false,"distance":4460,"time":7},{"transit":false,"station_name":"Cibitung","i_long":107.083084,"station_id":"CIT","distance":3420,"i_lat":-6.261877,"line":1,"time":3,"is_transit":false},{"i_long":107.093313,"station_name":"Metland Telaga Murni","line":1,"distance":2800,"transit":false,"is_transit":false,"time":2,"station_id":"TLM","i_lat":-6.262938}],[{"i_long":106.843999,"is_transit":false,"i_lat":-6.2842400000000005,"transit":false,"line":2,"distance":0,"time":0,"station_id":"PSM","station_name":"Pasar Minggu"},{"i_long":106.851577,"transit":false,"is_transit":false,"time":2,"i_lat":-6.263214,"station_name":"Pasar Minggu Baru","distance":2380,"station_id":"PSMB","line":2},{"distance":824,"transit":false,"station_id":"DRN","line":2,"is_transit":false,"time":2,"i_lat":-6.255332,"i_long":106.85449,"station_name":"Duren Kalibata"},{"transit":false,"is_transit":false,"distance":1546,"i_lat":-6.242512,"station_id":"CW","i_long":106.856607,"line":2,"time":3,"station_name":"Cawang"},{"station_name":"Tebet","is_transit":false,"i_lat":-6.226659,"station_id":"TEB","time":2,"distance":1230,"i_long":106.857948,"transit":false,"line":2},{"station_name":"Manggarai","is_transit":false,"i_lat":-6.209883,"station_id":"MRI","distance":2610,"transit":false,"time":4,"line":2,"i_long":106.84912},{"distance":1590,"line":2,"station_name":"Cikini","i_long":106.840169,"time":4,"is_transit":false,"station_id":"CKI","i_lat":-6.198556,"transit":false},{"distance":1750,"line":2,"is_transit":false,"transit":false,"station_id":"GDD","i_lat":-6.186295,"i_long":106.832183,"time":3,"station_name":"Gondangdia"},{"time":4,"station_id":"JUA","distance":2015,"i_lat":-6.166716,"station_name":"Juanda","is_transit":false,"line":2,"i_long":106.828284,"transit":false},{"line":2,"is_transit":false,"distance":1149,"time":2,"i_long":106.827103,"transit":false,"station_id":"SW","i_lat":-6.160725,"station_name":"Sawah Besar"},{"station_id":"MGB","is_transit":false,"i_long":106.82482,"station_name":"Manggabesar","i_lat":-6.149769,"transit":false,"distance":906,"line":2,"time":2},{"is_transit":false,"station_id":"JAY","i_lat":-6.141205,"station_name":"Jayakarta","distance":1080,"transit":false,"i_long":106.820901,"time":2,"line":2},{"i_long":106.812439,"i_lat":-6.137569,"line":2,"station_id":"JAKK","station_name":"Jakarta Kota","transit":true,"time":4,"is_transit":true,"distance":1264},{"station_id":"KPB","i_long":106.826365,"distance":1364,"transit":true,"line":4,"is_transit":true,"station_name":"Kampung Bandan","i_lat":-6.132549,"time":3},{"distance":1444,"station_id":"RJW","is_transit":false,"i_long":106.836569,"line":11,"time":3,"station_name":"Rajawali","transit":false,"i_lat":-6.14505},{"i_lat":-6.161728,"station_id":"KMO","i_long":106.839204,"distance":1901,"transit":false,"line":11,"time":5,"is_transit":false,"station_name":"Kemayoran"},{"station_id":"PSE","distance":1436,"station_name":"Pasar Senen","i_lat":-6.174784,"i_long":106.84368,"time":4,"is_transit":false,"line":11,"transit":false},{"station_id":"GST","is_transit":false,"distance":1567,"line":11,"transit":false,"i_lat":-6.185975,"i_long":106.850107,"time":8,"station_name":"Gang Sentiong"},{"is_transit":false,"transit":false,"station_name":"Kramat","distance":973,"i_long":106.855437,"line":11,"time":1,"i_lat":-6.193792,"station_id":"KMT"},{"i_long":106.861737,"station_name":"Pondok Jati","transit":false,"is_transit":false,"station_id":"POK","distance":1829,"i_lat":-6.209188,"line":11,"time":2},{"station_name":"Jatinegara","is_transit":true,"line":1,"transit":true,"time":9,"distance":1236,"i_long":106.86807400000001,"station_id":"JNG","i_lat":-6.215091},{"time":3,"distance":3395,"station_id":"KLD","i_long":106.899548,"is_transit":false,"i_lat":-6.2135,"line":1,"transit":false,"station_name":"Klender"},{"i_lat":-6.215568,"line":1,"transit":false,"distance":3100,"station_name":"Buaran","time":2,"station_id":"BUA","is_transit":false,"i_long":106.922662},{"station_name":"Klenderbaru","is_transit":false,"station_id":"KLDB","time":1,"i_long":106.939679,"i_lat":-6.217455,"transit":false,"distance":1305,"line":1},{"station_id":"CUK","distance":1385,"line":1,"is_transit":false,"transit":false,"time":8,"station_name":"Cakung","i_lat":-6.219053,"i_long":106.951283},{"i_lat":-6.224515,"station_name":"Kranji","distance":3097,"i_long":106.977657,"transit":false,"is_transit":false,"time":3,"line":1,"station_id":"KRI"},{"i_lat":-6.236616,"transit":false,"time":4,"station_id":"BKS","i_long":106.997013,"is_transit":false,"line":1,"distance":2520,"station_name":"Bekasi"},{"is_transit":false,"time":2,"i_lat":-6.248029,"line":1,"transit":false,"i_long":107.016735,"station_id":"BKST","station_name":"Bekasi Timur","distance":2368},{"line":1,"distance":4460,"i_lat":-6.258864,"transit":false,"time":7,"is_transit":false,"station_name":"Tambun","i_long":107.055722,"station_id":"TB"},{"is_transit":false,"station_name":"Cibitung","line":1,"i_long":107.083084,"time":3,"station_id":"CIT","distance":3420,"transit":false,"i_lat":-6.261877},{"station_id":"TLM","i_lat":-6.262938,"line":1,"distance":2800,"station_name":"Metland Telaga Murni","i_long":107.093313,"time":2,"is_transit":false,"transit":false}]]}