{"data":[[{"distance":0,"i_long":106.843999,"station_name":"Pasar Minggu","transit":false,"station_id":"PSM","is_transit":false,"time":0,"i_lat":-6.2842400000000005,"line":2},{"time":2,"station_id":"PSMB","i_long":106.851577,"is_transit":false,"distance":2380,"i_lat":-6.263214,"transit":false,"line":2,"station_name":"Pasar Minggu Baru"},{"distance":824,"is_transit":false,"transit":false,"time":2,"station_id":"DRN","line":0,"i_lat":-6.255332,"station_name":"Duren Kalibata","i_long":106.85449},{"i_long":106.856607,"is_transit":false,"time":3,"transit":false,"station_name":"Cawang","line":0,"i_lat":-6.242512,"distance":1546,"station_id":"CW"},{"time":2,"station_name":"Tebet","i_lat":-6.226659,"line":2,"transit":false,"i_long":106.857948,"distance":1230,"is_transit":false,"station_id":"TEB"},{"line":0,"transit":true,"i_lat":-6.209883,"is_transit":true,"station_id":"MRI","station_name":"Manggarai","time":4,"i_long":106.84912,"distance":2610},{"is_transit":false,"station_name":"Matraman","i_long":106.858896,"i_lat":-6.212485,"line":1,"station_id":"MTR","distance":1275,"transit":false,"time":2}],[{"distance":0,"time":0,"i_lat":-6.2842400000000005,"station_name":"Pasar Minggu","transit":false,"station_id":"PSM","line":2,"is_transit":false,"i_long":106.843999},{"distance":2380,"i_lat":-6.263214,"time":2,"transit":false,"station_id":"PSMB","is_transit":false,"station_name":"Pasar Minggu Baru","i_long":106.851577,"line":2},{"distance":824,"i_long":106.85449,"station_name":"Duren Kalibata","time":2,"is_transit":false,"station_id":"DRN","line":0,"i_lat":-6.255332,"transit":false},{"station_name":"Cawang","is_transit":false,"line":0,"distance":1546,"transit":false,"i_lat":-6.242512,"i_long":106.856607,"time":3,"station_id":"CW"},{"station_name":"Tebet","line":2,"transit":false,"distance":1230,"time":2,"i_long":106.857948,"is_transit":false,"station_id":"TEB","i_lat":-6.226659},{"station_id":"MRI","is_transit":true,"transit":true,"i_long":106.84912,"line":0,"time":4,"station_name":"Manggarai","distance":2610,"i_lat":-6.209883},{"transit":false,"line":1,"distance":3186,"station_id":"SUD","is_transit":false,"station_name":"Sudirman","i_long":106.822649,"time":4,"i_lat":-6.202263},{"i_long":106.819881,"station_id":"SUDB","line":1,"transit":false,"i_lat":-6.201433,"is_transit":false,"distance":280,"time":1,"station_name":"Sudirman Baru"},{"transit":false,"time":1,"i_long":106.816351,"line":1,"i_lat":-6.20132,"station_name":"Karet","distance":471,"station_id":"KAT","is_transit":false},{"station_name":"Tanah Abang","i_long":106.811091,"transit":false,"line":1,"time":5,"i_lat":-6.185545,"station_id":"THB","distance":2029,"is_transit":true},{"time":8,"i_long":106.800832,"transit":true,"station_name":"Duri","station_id":"DU","i_lat":-6.155215,"line":1,"is_transit":true,"distance":3632},{"transit":false,"distance":1230,"time":4,"line":0,"station_name":"Angke","i_lat":-6.144674,"i_long":106.79867,"is_transit":false,"station_id":"AK"},{"line":0,"time":9,"station_id":"KPB","distance":4102,"is_transit":true,"station_name":"Kampung Bandan","i_lat":-6.132549,"i_long":106.826365,"transit":true},{"station_id":"RJW","is_transit":false,"distance":1444,"transit":false,"station_name":"Rajawali","i_lat":-6.14505,"i_long":106.836569,"time":3,"line":11},{"time":5,"station_id":"KMO","i_lat":-6.161728,"distance":1901,"is_transit":false,"transit":false,"station_name":"Kemayoran","i_long":106.839204,"line":11},{"station_id":"PSE","distance":1436,"is_transit":false,"station_name":"Pasar Senen","transit":false,"time":4,"i_lat":-6.174784,"i_long":106.84368,"line":11},{"is_transit":false,"transit":false,"time":8,"distance":1567,"station_name":"Gang Sentiong","i_lat":-6.185975,"line":11,"station_id":"GST","i_long":106.850107},{"line":11,"time":1,"distance":973,"transit":false,"i_long":106.855437,"station_name":"Kramat","station_id":"KMT","is_transit":false,"i_lat":-6.193792},{"line":11,"distance":1829,"is_transit":false,"time":2,"i_lat":-6.209188,"i_long":106.861737,"station_name":"Pondok Jati","station_id":"POK","transit":false},{"i_long":106.86807400000001,"line":0,"time":9,"distance":1236,"station_id":"JNG","i_lat":-6.215091,"station_name":"Jatinegara","is_transit":true,"transit":true},{"station_id":"MTR","line":1,"is_transit":false,"station_name":"Matraman","time":2,"i_lat":-6.212485,"transit":false,"i_long":106.858896,"distance":1377}],[{"line":2,"station_id":"PSM","i_long":106.843999,"i_lat":-6.2842400000000005,"station_name":"Pasar Minggu","time":0,"distance":0,"transit":false,"is_transit":false},{"transit":false,"time":2,"distance":2380,"is_transit":false,"i_long":106.851577,"station_id":"PSMB","station_name":"Pasar Minggu Baru","i_lat":-6.263214,"line":2},{"station_name":"Duren Kalibata","is_transit":false,"i_lat":-6.255332,"i_long":106.85449,"time":2,"line":0,"station_id":"DRN","transit":false,"distance":824},{"i_long":106.856607,"line":0,"time":3,"station_id":"CW","is_transit":false,"station_name":"Cawang","transit":false,"distance":1546,"i_lat":-6.242512},{"i_long":106.857948,"transit":false,"station_id":"TEB","line":2,"station_name":"Tebet","distance":1230,"time":2,"is_transit":false,"i_lat":-6.226659},{"station_name":"Manggarai","transit":true,"distance":2610,"i_long":106.84912,"is_transit":true,"station_id":"MRI","i_lat":-6.209883,"line":0,"time":4},{"distance":1590,"station_id":"CKI","is_transit":false,"i_lat":-6.198556,"line":0,"station_name":"Cikini","i_long":106.840169,"transit":false,"time":4},{"station_id":"GDD","i_long":106.832183,"transit":false,"station_name":"Gondangdia","is_transit":false,"time":3,"i_lat":-6.186295,"distance":1750,"line":2},{"station_id":"JUA","distance":2015,"is_transit":false,"transit":false,"i_lat":-6.166716,"line":2,"time":4,"station_name":"Juanda","i_long":106.828284},{"i_lat":-6.160725,"station_id":"SW","transit":false,"i_long":106.827103,"line":2,"distance":1149,"is_transit":false,"station_name":"Sawah Besar","time":2},{"distance":906,"station_name":"Manggabesar","station_id":"MGB","is_transit":false,"time":2,"transit":false,"i_lat":-6.149769,"i_long":106.82482,"line":2},{"i_long":106.820901,"is_transit":false,"i_lat":-6.141205,"time":2,"distance":1080,"station_id":"JAY","line":7,"station_name":"Jayakarta","transit":false},{"station_id":"JAKK","station_name":"Jakarta Kota","transit":true,"i_long":106.812439,"is_transit":true,"i_lat":-6.137569,"distance":1264,"time":4,"line":0},{"i_lat":-6.132549,"time":3,"i_long":106.826365,"distance":1364,"line":0,"transit":true,"station_id":"KPB","station_name":"Kampung Bandan","is_transit":true},{"station_name":"Rajawali","is_transit":false,"time":3,"distance":1444,"station_id":"RJW","i_long":106.836569,"line":11,"i_lat":-6.14505,"transit":false},{"station_id":"KMO","i_lat":-6.161728,"i_long":106.839204,"line":11,"is_transit":false,"time":5,"station_name":"Kemayoran","transit":false,"distance":1901},{"distance":1436,"station_name":"Pasar Senen","transit":false,"time":4,"station_id":"PSE","is_transit":false,"i_lat":-6.174784,"i_long":106.84368,"line":11},{"station_id":"GST","transit":false,"line":11,"time":8,"station_name":"Gang Sentiong","distance":1567,"i_long":106.850107,"is_transit":false,"i_lat":-6.185975},{"time":1,"i_lat":-6.193792,"station_name":"Kramat","is_transit":false,"station_id":"KMT","i_long":106.855437,"line":11,"distance":973,"transit":false},{"time":2,"i_long":106.861737,"station_id":"POK","line":11,"station_name":"Pondok Jati","transit":false,"distance":1829,"is_transit":false,"i_lat":-6.209188},{"i_long":106.86807400000001,"is_transit":true,"station_name":"Jatinegara","transit":true,"time":9,"line":0,"i_lat":-6.215091,"distance":1236,"station_id":"JNG"},{"i_lat":-6.212485,"is_transit":false,"i_long":106.858896,"distance":1377,"station_name":"Matraman","line":1,"station_id":"MTR","transit":false,"time":2}]]}