{"data":[[{"transit":false,"i_long":106.843999,"station_name":"Pasar Minggu","is_transit":false,"station_id":"PSM","time":0,"line":2,"i_lat":-6.2842400000000005,"distance":0},{"distance":2380,"station_name":"Pasar Minggu Baru","is_transit":false,"station_id":"PSMB","transit":false,"i_lat":-6.263214,"line":2,"i_long":106.851577,"time":2},{"station_name":"Duren Kalibata","station_id":"DRN","distance":824,"time":2,"transit":false,"i_lat":-6.255332,"is_transit":false,"i_long":106.85449,"line":2},{"time":3,"station_id":"CW","line":2,"i_long":106.856607,"transit":false,"is_transit":false,"distance":1546,"station_name":"Cawang","i_lat":-6.242512},{"station_name":"Tebet","distance":1230,"station_id":"TEB","is_transit":false,"time":2,"i_long":106.857948,"transit":false,"i_lat":-6.226659,"line":2},{"transit":true,"is_transit":true,"time":4,"distance":2610,"i_lat":-6.209883,"station_name":"Manggarai","line":2,"station_id":"MRI","i_long":106.84912},{"line":1,"i_long":106.822649,"is_transit":false,"distance":3186,"time":4,"station_name":"Sudirman","station_id":"SUD","transit":false,"i_lat":-6.202263},{"transit":false,"station_name":"Sudirman Baru","is_transit":false,"distance":280,"time":1,"station_id":"SUDB","i_lat":-6.201433,"i_long":106.819881,"line":1},{"i_lat":-6.20132,"station_name":"Karet","station_id":"KAT","line":1,"transit":false,"is_transit":false,"i_long":106.816351,"time":1,"distance":471},{"distance":2029,"time":5,"station_id":"THB","i_long":106.811091,"station_name":"Tanah Abang","is_transit":false,"line":1,"transit":false,"i_lat":-6.185545},{"i_lat":-6.155215,"transit":true,"i_long":106.800832,"line":1,"is_transit":true,"distance":3632,"time":8,"station_id":"DU","station_name":"Duri"},{"distance":1700,"line":5,"i_long":106.788277,"station_id":"GGL","i_lat":-6.162021,"is_transit":false,"station_name":"Grogol","transit":false,"time":3},{"station_name":"Pesing","is_transit":false,"distance":2036,"i_lat":-6.161433,"i_long":106.771379,"time":2,"transit":false,"line":5,"station_id":"PSG"},{"station_id":"TKO","line":5,"station_name":"Taman Kota","is_transit":false,"time":2,"distance":1614,"transit":false,"i_lat":-6.1587309999999995,"i_long":106.756522},{"line":5,"time":2,"station_id":"BOI","i_lat":-6.159876,"is_transit":false,"transit":false,"station_name":"Bojongindah","i_long":106.737035,"distance":2334},{"i_long":106.723064,"i_lat":-6.162758,"time":4,"station_name":"Rawa Buaya","transit":false,"is_transit":false,"line":5,"station_id":"RW","distance":1152},{"i_lat":-6.166068,"transit":false,"time":3,"station_name":"Kalideres","line":5,"distance":2504,"i_long":106.701612,"station_id":"KDS","is_transit":false},{"is_transit":false,"time":3,"line":5,"station_id":"PI","transit":false,"i_long":106.679458,"station_name":"Poris","i_lat":-6.169933,"distance":2548}],[{"line":2,"time":0,"is_transit":false,"station_name":"Pasar Minggu","station_id":"PSM","i_long":106.843999,"distance":0,"transit":false,"i_lat":-6.2842400000000005},{"time":2,"line":2,"station_id":"PSMB","station_name":"Pasar Minggu Baru","transit":false,"i_lat":-6.263214,"distance":2380,"is_transit":false,"i_long":106.851577},{"is_transit":false,"i_long":106.85449,"line":2,"station_name":"Duren Kalibata","time":2,"transit":false,"i_lat":-6.255332,"distance":824,"station_id":"DRN"},{"time":3,"station_name":"Cawang","distance":1546,"transit":false,"i_lat":-6.242512,"station_id":"CW","is_transit":false,"line":2,"i_long":106.856607},{"station_name":"Tebet","distance":1230,"time":2,"station_id":"TEB","i_lat":-6.226659,"line":2,"i_long":106.857948,"transit":false,"is_transit":false},{"distance":2610,"i_long":106.84912,"i_lat":-6.209883,"is_transit":false,"line":2,"transit":false,"station_name":"Manggarai","station_id":"MRI","time":4},{"is_transit":false,"station_name":"Cikini","station_id":"CKI","transit":false,"line":2,"i_long":106.840169,"distance":1590,"i_lat":-6.198556,"time":4},{"i_lat":-6.186295,"distance":1750,"line":2,"is_transit":false,"i_long":106.832183,"station_name":"Gondangdia","time":3,"station_id":"GDD","transit":false},{"station_name":"Juanda","station_id":"JUA","distance":2015,"line":2,"is_transit":false,"i_lat":-6.166716,"time":4,"transit":false,"i_long":106.828284},{"transit":false,"station_name":"Sawah Besar","is_transit":false,"i_long":106.827103,"time":2,"station_id":"SW","line":2,"i_lat":-6.160725,"distance":1149},{"time":2,"station_id":"MGB","station_name":"Manggabesar","i_long":106.82482,"line":2,"transit":false,"distance":906,"is_transit":false,"i_lat":-6.149769},{"time":2,"is_transit":false,"i_long":106.820901,"station_name":"Jayakarta","distance":1080,"i_lat":-6.141205,"station_id":"JAY","line":2,"transit":false},{"transit":true,"distance":1264,"station_id":"JAKK","line":2,"station_name":"Jakarta Kota","time":4,"is_transit":true,"i_lat":-6.137569,"i_long":106.812439},{"station_name":"Kampung Bandan","i_lat":-6.132549,"line":4,"i_long":106.826365,"time":3,"station_id":"KPB","is_transit":true,"distance":1364,"transit":true},{"time":9,"distance":4102,"line":1,"i_long":106.79867,"station_id":"AK","station_name":"Angke","is_transit":false,"i_lat":-6.144674,"transit":false},{"is_transit":true,"transit":true,"line":1,"station_id":"DU","station_name":"Duri","time":4,"i_long":106.800832,"distance":1230,"i_lat":-6.155215},{"station_id":"GGL","time":3,"i_lat":-6.162021,"station_name":"Grogol","distance":1700,"transit":false,"is_transit":false,"i_long":106.788277,"line":5},{"station_id":"PSG","station_name":"Pesing","transit":false,"line":5,"i_lat":-6.161433,"i_long":106.771379,"distance":2036,"time":2,"is_transit":false},{"station_id":"TKO","transit":false,"i_long":106.756522,"station_name":"Taman Kota","distance":1614,"is_transit":false,"time":2,"i_lat":-6.1587309999999995,"line":5},{"station_name":"Bojongindah","time":2,"line":5,"transit":false,"is_transit":false,"i_long":106.737035,"distance":2334,"station_id":"BOI","i_lat":-6.159876},{"station_name":"Rawa Buaya","is_transit":false,"station_id":"RW","transit":false,"i_lat":-6.162758,"line":5,"i_long":106.723064,"distance":1152,"time":4},{"time":3,"i_long":106.701612,"station_name":"Kalideres","station_id":"KDS","i_lat":-6.166068,"distance":2504,"transit":false,"is_transit":false,"line":5},{"station_id":"PI","i_lat":-6.169933,"station_name":"Poris","distance":2548,"transit":false,"i_long":106.679458,"time":3,"line":5,"is_transit":false}],[{"distance":0,"is_transit":false,"line":2,"i_lat":-6.2842400000000005,"station_name":"Pasar Minggu","i_long":106.843999,"station_id":"PSM","transit":false,"time":0},{"is_transit":false,"time":2,"distance":2380,"line":2,"i_long":106.851577,"transit":false,"i_lat":-6.263214,"station_name":"Pasar Minggu Baru","station_id":"PSMB"},{"station_name":"Duren Kalibata","transit":false,"i_lat":-6.255332,"time":2,"line":2,"is_transit":false,"i_long":106.85449,"distance":824,"station_id":"DRN"},{"distance":1546,"time":3,"transit":false,"station_name":"Cawang","station_id":"CW","is_transit":false,"i_lat":-6.242512,"i_long":106.856607,"line":2},{"transit":false,"is_transit":false,"i_lat":-6.226659,"i_long":106.857948,"line":2,"station_name":"Tebet","time":2,"station_id":"TEB","distance":1230},{"line":2,"i_long":106.84912,"i_lat":-6.209883,"distance":2610,"is_transit":true,"transit":true,"station_name":"Manggarai","time":4,"station_id":"MRI"},{"distance":1275,"is_transit":false,"i_long":106.858896,"time":2,"line":1,"transit":false,"station_name":"Matraman","station_id":"MTR","i_lat":-6.212485},{"distance":1377,"time":8,"i_long":106.86807400000001,"i_lat":-6.215091,"station_name":"Jatinegara","transit":true,"line":1,"is_transit":true,"station_id":"JNG"},{"time":2,"line":11,"station_id":"POK","i_long":106.861737,"transit":false,"i_lat":-6.209188,"is_transit":false,"station_name":"Pondok Jati","distance":1236},{"station_id":"KMT","transit":false,"i_long":106.855437,"i_lat":-6.193792,"station_name":"Kramat","distance":1829,"is_transit":false,"line":11,"time":2},{"distance":973,"i_long":106.850107,"transit":false,"time":1,"station_id":"GST","is_transit":false,"i_lat":-6.185975,"station_name":"Gang Sentiong","line":11},{"transit":false,"time":8,"line":11,"i_long":106.84368,"station_name":"Pasar Senen","is_transit":false,"station_id":"PSE","i_lat":-6.174784,"distance":1567},{"is_transit":false,"station_name":"Kemayoran","i_long":106.839204,"i_lat":-6.161728,"station_id":"KMO","line":11,"transit":false,"distance":1436,"time":4},{"station_name":"Rajawali","station_id":"RJW","i_long":106.836569,"distance":1901,"time":5,"transit":false,"i_lat":-6.14505,"line":11,"is_transit":false},{"distance":1444,"i_long":106.826365,"i_lat":-6.132549,"station_id":"KPB","time":3,"line":4,"station_name":"Kampung Bandan","is_transit":true,"transit":true},{"i_lat":-6.144674,"distance":4102,"station_id":"AK","i_long":106.79867,"is_transit":false,"line":1,"transit":false,"time":9,"station_name":"Angke"},{"transit":true,"is_transit":true,"line":1,"i_lat":-6.155215,"time":4,"station_id":"DU","i_long":106.800832,"station_name":"Duri","distance":1230},{"transit":false,"line":5,"distance":1700,"station_name":"Grogol","time":3,"i_lat":-6.162021,"station_id":"GGL","is_transit":false,"i_long":106.788277},{"distance":2036,"station_id":"PSG","station_name":"Pesing","is_transit":false,"line":5,"time":2,"i_lat":-6.161433,"transit":false,"i_long":106.771379},{"station_id":"TKO","transit":false,"i_long":106.756522,"distance":1614,"is_transit":false,"station_name":"Taman Kota","i_lat":-6.1587309999999995,"line":5,"time":2},{"is_transit":false,"transit":false,"i_long":106.737035,"line":5,"distance":2334,"station_name":"Bojongindah","time":2,"i_lat":-6.159876,"station_id":"BOI"},{"transit":false,"distance":1152,"i_long":106.723064,"time":4,"station_id":"RW","i_lat":-6.162758,"line":5,"station_name":"Rawa Buaya","is_transit":false},{"i_lat":-6.166068,"is_transit":false,"i_long":106.701612,"line":5,"station_name":"Kalideres","station_id":"KDS","transit":false,"time":3,"distance":2504},{"transit":false,"i_lat":-6.169933,"distance":2548,"station_name":"Poris","station_id":"PI","is_transit":false,"time":3,"line":5,"i_long":106.679458}]]}