{"data":[[{"distance":0,"transit":false,"time":0,"i_long":106.843999,"is_transit":false,"station_id":"PSM","line":2,"i_lat":-6.2842400000000005,"station_name":"Pasar Minggu"},{"station_id":"TNT","is_transit":false,"station_name":"Tanjung Barat","time":4,"i_long":106.838896,"line":2,"distance":2820,"transit":false,"i_lat":-6.3080680000000005},{"station_id":"LNA","i_long":106.832616,"line":2,"is_transit":false,"time":3,"distance":2671,"station_name":"Lenteng Agung","transit":false,"i_lat":-6.330363},{"station_id":"UP","is_transit":false,"time":2,"line":2,"transit":false,"station_name":"Univ. Pancasila","i_long":106.834175,"i_lat":-6.339291,"distance":1029},{"distance":2264,"line":2,"station_id":"UI","is_transit":false,"station_name":"Univ. Indonesia","time":3,"i_lat":-6.360749,"transit":false,"i_long":106.831474},{"is_transit":false,"station_name":"Pondok Cina","i_lat":-6.369073,"line":2,"transit":false,"station_id":"POC","distance":1109,"time":2,"i_long":106.831114},{"i_lat":-6.391065,"is_transit":false,"transit":false,"distance":2727,"station_name":"Depokbaru","time":4,"station_id":"DPB","i_long":106.819451,"line":0},{"transit":false,"i_lat":-6.405256,"station_name":"Depok","is_transit":false,"time":3,"distance":1584,"station_id":"DP","line":0,"i_long":106.816926},{"time":6,"station_name":"Citayam","i_long":106.800298,"transit":false,"line":1,"station_id":"CTA","i_lat":-6.448811,"distance":5084,"is_transit":true}]]}