{"data":[[{"i_lat":-6.2842400000000005,"station_id":"PSM","station_name":"Pasar Minggu","i_long":106.843999,"time":0,"distance":0,"is_transit":false,"transit":false,"line":2},{"distance":2380,"station_id":"PSMB","time":2,"is_transit":false,"transit":false,"station_name":"Pasar Minggu Baru","i_lat":-6.263214,"line":2,"i_long":106.851577},{"distance":824,"i_long":106.85449,"is_transit":false,"transit":false,"time":2,"i_lat":-6.255332,"station_name":"Duren Kalibata","station_id":"DRN","line":2},{"i_lat":-6.242512,"station_id":"CW","is_transit":false,"distance":1546,"transit":false,"line":2,"station_name":"Cawang","i_long":106.856607,"time":3},{"is_transit":false,"i_lat":-6.226659,"time":2,"station_name":"Tebet","line":2,"transit":false,"station_id":"TEB","distance":1230,"i_long":106.857948},{"time":4,"is_transit":true,"transit":true,"i_lat":-6.209883,"distance":2610,"station_name":"Manggarai","i_long":106.84912,"line":2,"station_id":"MRI"},{"distance":1275,"transit":false,"is_transit":false,"i_lat":-6.212485,"i_long":106.858896,"station_id":"MTR","line":1,"station_name":"Matraman","time":2},{"line":1,"station_name":"Jatinegara","is_transit":false,"i_lat":-6.215091,"i_long":106.86807400000001,"station_id":"JNG","transit":false,"distance":1377,"time":8},{"i_lat":-6.2135,"station_name":"Klender","i_long":106.899548,"time":3,"transit":false,"line":1,"is_transit":false,"distance":3395,"station_id":"KLD"},{"station_id":"BUA","station_name":"Buaran","i_long":106.922662,"distance":3100,"i_lat":-6.215568,"time":2,"transit":false,"is_transit":false,"line":1},{"i_lat":-6.217455,"transit":false,"station_name":"Klenderbaru","station_id":"KLDB","i_long":106.939679,"time":1,"is_transit":false,"line":1,"distance":1305},{"station_id":"CUK","i_lat":-6.219053,"distance":1385,"line":1,"station_name":"Cakung","i_long":106.951283,"is_transit":false,"transit":false,"time":8},{"i_lat":-6.224515,"is_transit":false,"station_id":"KRI","station_name":"Kranji","i_long":106.977657,"line":1,"distance":3097,"time":3,"transit":false},{"is_transit":false,"station_id":"BKS","transit":false,"i_long":106.997013,"line":1,"i_lat":-6.236616,"time":4,"station_name":"Bekasi","distance":2520},{"time":2,"station_id":"BKST","station_name":"Bekasi Timur","distance":2368,"is_transit":false,"i_lat":-6.248029,"transit":false,"i_long":107.016735,"line":1},{"station_id":"TB","time":7,"distance":4460,"i_lat":-6.258864,"transit":false,"i_long":107.055722,"station_name":"Tambun","line":1,"is_transit":false},{"i_long":107.083084,"distance":3420,"time":3,"station_name":"Cibitung","i_lat":-6.261877,"station_id":"CIT","is_transit":false,"transit":false,"line":1},{"time":2,"i_lat":-6.262938,"station_id":"TLM","is_transit":false,"transit":false,"i_long":107.093313,"station_name":"Metland Telaga Murni","line":1,"distance":2800},{"i_lat":-6.2553149999999995,"is_transit":false,"time":4,"station_name":"Cikarang","station_id":"CKR","line":1,"transit":false,"i_long":107.144613,"distance":3689}],[{"station_id":"PSM","transit":false,"distance":0,"time":0,"is_transit":false,"i_lat":-6.2842400000000005,"station_name":"Pasar Minggu","line":2,"i_long":106.843999},{"time":2,"station_name":"Pasar Minggu Baru","is_transit":false,"i_lat":-6.263214,"i_long":106.851577,"station_id":"PSMB","transit":false,"distance":2380,"line":2},{"station_name":"Duren Kalibata","distance":824,"i_long":106.85449,"i_lat":-6.255332,"is_transit":false,"transit":false,"line":2,"time":2,"station_id":"DRN"},{"time":3,"station_id":"CW","distance":1546,"transit":false,"is_transit":false,"line":2,"i_long":106.856607,"station_name":"Cawang","i_lat":-6.242512},{"distance":1230,"i_lat":-6.226659,"station_name":"Tebet","line":2,"time":2,"station_id":"TEB","is_transit":false,"i_long":106.857948,"transit":false},{"distance":2610,"time":4,"line":2,"transit":true,"station_name":"Manggarai","is_transit":true,"i_lat":-6.209883,"i_long":106.84912,"station_id":"MRI"},{"i_lat":-6.202263,"i_long":106.822649,"distance":3186,"time":4,"station_name":"Sudirman","is_transit":false,"transit":false,"station_id":"SUD","line":1},{"transit":false,"distance":280,"i_lat":-6.201433,"station_name":"Sudirman Baru","i_long":106.819881,"line":1,"time":1,"is_transit":false,"station_id":"SUDB"},{"station_id":"KAT","time":1,"i_lat":-6.20132,"station_name":"Karet","is_transit":false,"distance":471,"line":1,"i_long":106.816351,"transit":false},{"station_id":"THB","line":1,"i_lat":-6.185545,"is_transit":false,"time":5,"distance":2029,"i_long":106.811091,"transit":false,"station_name":"Tanah Abang"},{"time":8,"i_long":106.800832,"station_name":"Duri","station_id":"DU","distance":3632,"is_transit":false,"transit":false,"line":1,"i_lat":-6.155215},{"distance":1230,"is_transit":false,"station_name":"Angke","station_id":"AK","i_long":106.79867,"i_lat":-6.144674,"transit":false,"time":4,"line":1},{"is_transit":true,"time":9,"i_lat":-6.132549,"station_name":"Kampung Bandan","station_id":"KPB","transit":true,"distance":4102,"i_long":106.826365,"line":4},{"is_transit":false,"transit":false,"i_lat":-6.14505,"station_id":"RJW","line":11,"station_name":"Rajawali","distance":1444,"time":3,"i_long":106.836569},{"time":5,"i_lat":-6.161728,"is_transit":false,"station_name":"Kemayoran","station_id":"KMO","distance":1901,"i_long":106.839204,"transit":false,"line":11},{"station_id":"PSE","transit":false,"station_name":"Pasar Senen","time":4,"i_lat":-6.174784,"line":11,"i_long":106.84368,"is_transit":false,"distance":1436},{"is_transit":false,"i_lat":-6.185975,"station_id":"GST","transit":false,"i_long":106.850107,"distance":1567,"line":11,"time":8,"station_name":"Gang Sentiong"},{"station_id":"KMT","is_transit":false,"line":11,"transit":false,"distance":973,"i_lat":-6.193792,"station_name":"Kramat","time":1,"i_long":106.855437},{"is_transit":false,"station_name":"Pondok Jati","time":2,"distance":1829,"station_id":"POK","i_lat":-6.209188,"transit":false,"i_long":106.861737,"line":11},{"station_id":"JNG","station_name":"Jatinegara","distance":1236,"transit":true,"is_transit":true,"time":9,"i_lat":-6.215091,"i_long":106.86807400000001,"line":1},{"time":3,"i_lat":-6.2135,"transit":false,"station_name":"Klender","line":1,"station_id":"KLD","i_long":106.899548,"distance":3395,"is_transit":false},{"transit":false,"distance":3100,"line":1,"i_long":106.922662,"station_id":"BUA","station_name":"Buaran","is_transit":false,"i_lat":-6.215568,"time":2},{"station_name":"Klenderbaru","time":1,"line":1,"transit":false,"distance":1305,"is_transit":false,"i_lat":-6.217455,"i_long":106.939679,"station_id":"KLDB"},{"station_name":"Cakung","distance":1385,"transit":false,"i_long":106.951283,"line":1,"station_id":"CUK","time":8,"i_lat":-6.219053,"is_transit":false},{"is_transit":false,"distance":3097,"station_id":"KRI","line":1,"i_lat":-6.224515,"i_long":106.977657,"time":3,"station_name":"Kranji","transit":false},{"i_lat":-6.236616,"station_name":"Bekasi","is_transit":false,"transit":false,"time":4,"i_long":106.997013,"distance":2520,"station_id":"BKS","line":1},{"station_id":"BKST","i_lat":-6.248029,"station_name":"Bekasi Timur","transit":false,"line":1,"distance":2368,"time":2,"i_long":107.016735,"is_transit":false},{"distance":4460,"station_name":"Tambun","station_id":"TB","line":1,"i_long":107.055722,"transit":false,"i_lat":-6.258864,"time":7,"is_transit":false},{"line":1,"time":3,"i_lat":-6.261877,"station_name":"Cibitung","is_transit":false,"transit":false,"distance":3420,"i_long":107.083084,"station_id":"CIT"},{"i_lat":-6.262938,"i_long":107.093313,"is_transit":false,"transit":false,"distance":2800,"time":2,"station_id":"TLM","line":1,"station_name":"Metland Telaga Murni"},{"is_transit":false,"time":4,"i_long":107.144613,"transit":false,"line":1,"i_lat":-6.2553149999999995,"station_id":"CKR","station_name":"Cikarang","distance":3689}],[{"transit":false,"i_lat":-6.2842400000000005,"i_long":106.843999,"is_transit":false,"line":2,"distance":0,"station_id":"PSM","station_name":"Pasar Minggu","time":0},{"i_long":106.851577,"distance":2380,"time":2,"station_name":"Pasar Minggu Baru","transit":false,"station_id":"PSMB","i_lat":-6.263214,"is_transit":false,"line":2},{"is_transit":false,"station_name":"Duren Kalibata","time":2,"i_lat":-6.255332,"distance":824,"transit":false,"line":2,"i_long":106.85449,"station_id":"DRN"},{"distance":1546,"i_lat":-6.242512,"station_id":"CW","i_long":106.856607,"line":2,"transit":false,"station_name":"Cawang","time":3,"is_transit":false},{"station_name":"Tebet","i_long":106.857948,"station_id":"TEB","line":2,"distance":1230,"is_transit":false,"time":2,"transit":false,"i_lat":-6.226659},{"station_id":"MRI","transit":false,"is_transit":false,"time":4,"station_name":"Manggarai","i_lat":-6.209883,"i_long":106.84912,"line":2,"distance":2610},{"station_name":"Cikini","is_transit":false,"station_id":"CKI","distance":1590,"i_lat":-6.198556,"transit":false,"time":4,"line":2,"i_long":106.840169},{"station_name":"Gondangdia","transit":false,"distance":1750,"i_long":106.832183,"line":2,"i_lat":-6.186295,"station_id":"GDD","time":3,"is_transit":false},{"station_id":"JUA","station_name":"Juanda","is_transit":false,"transit":false,"distance":2015,"time":4,"i_lat":-6.166716,"i_long":106.828284,"line":2},{"line":2,"i_lat":-6.160725,"transit":false,"time":2,"is_transit":false,"station_id":"SW","station_name":"Sawah Besar","distance":1149,"i_long":106.827103},{"i_lat":-6.149769,"line":2,"i_long":106.82482,"time":2,"transit":false,"station_id":"MGB","station_name":"Manggabesar","distance":906,"is_transit":false},{"station_id":"JAY","distance":1080,"line":2,"is_transit":false,"station_name":"Jayakarta","transit":false,"i_long":106.820901,"time":2,"i_lat":-6.141205},{"is_transit":true,"station_name":"Jakarta Kota","i_lat":-6.137569,"distance":1264,"transit":true,"time":4,"line":2,"station_id":"JAKK","i_long":106.812439},{"i_long":106.826365,"is_transit":true,"station_id":"KPB","time":3,"station_name":"Kampung Bandan","line":4,"i_lat":-6.132549,"distance":1364,"transit":true},{"line":11,"distance":1444,"is_transit":false,"time":3,"transit":false,"i_long":106.836569,"station_id":"RJW","station_name":"Rajawali","i_lat":-6.14505},{"distance":1901,"station_id":"KMO","transit":false,"i_lat":-6.161728,"is_transit":false,"time":5,"station_name":"Kemayoran","i_long":106.839204,"line":11},{"line":11,"i_lat":-6.174784,"time":4,"station_id":"PSE","i_long":106.84368,"station_name":"Pasar Senen","distance":1436,"is_transit":false,"transit":false},{"is_transit":false,"station_id":"GST","station_name":"Gang Sentiong","transit":false,"time":8,"distance":1567,"i_long":106.850107,"i_lat":-6.185975,"line":11},{"time":1,"i_long":106.855437,"line":11,"is_transit":false,"transit":false,"i_lat":-6.193792,"station_name":"Kramat","distance":973,"station_id":"KMT"},{"station_id":"POK","is_transit":false,"time":2,"station_name":"Pondok Jati","distance":1829,"i_lat":-6.209188,"i_long":106.861737,"line":11,"transit":false},{"station_name":"Jatinegara","i_lat":-6.215091,"station_id":"JNG","distance":1236,"is_transit":true,"transit":true,"time":9,"i_long":106.86807400000001,"line":1},{"is_transit":false,"transit":false,"line":1,"station_id":"KLD","time":3,"i_long":106.899548,"distance":3395,"station_name":"Klender","i_lat":-6.2135},{"transit":false,"i_lat":-6.215568,"distance":3100,"time":2,"i_long":106.922662,"line":1,"station_name":"Buaran","is_transit":false,"station_id":"BUA"},{"station_name":"Klenderbaru","transit":false,"i_lat":-6.217455,"distance":1305,"station_id":"KLDB","i_long":106.939679,"is_transit":false,"line":1,"time":1},{"station_id":"CUK","distance":1385,"time":8,"station_name":"Cakung","transit":false,"is_transit":false,"i_lat":-6.219053,"i_long":106.951283,"line":1},{"is_transit":false,"transit":false,"distance":3097,"station_id":"KRI","i_long":106.977657,"station_name":"Kranji","i_lat":-6.224515,"line":1,"time":3},{"station_name":"Bekasi","time":4,"line":1,"transit":false,"i_long":106.997013,"distance":2520,"i_lat":-6.236616,"station_id":"BKS","is_transit":false},{"time":2,"distance":2368,"transit":false,"line":1,"station_name":"Bekasi Timur","i_long":107.016735,"station_id":"BKST","i_lat":-6.248029,"is_transit":false},{"i_long":107.055722,"i_lat":-6.258864,"line":1,"station_name":"Tambun","distance":4460,"transit":false,"station_id":"TB","time":7,"is_transit":false},{"is_transit":false,"station_name":"Cibitung","time":3,"i_lat":-6.261877,"i_long":107.083084,"station_id":"CIT","line":1,"transit":false,"distance":3420},{"distance":2800,"is_transit":false,"station_name":"Metland Telaga Murni","i_long":107.093313,"line":1,"i_lat":-6.262938,"time":2,"station_id":"TLM","transit":false},{"i_lat":-6.2553149999999995,"time":4,"station_name":"Cikarang","transit":false,"i_long":107.144613,"line":1,"is_transit":false,"distance":3689,"station_id":"CKR"}]]}