{"data":[[{"is_transit":false,"line":2,"i_lat":-6.2842400000000005,"time":0,"distance":0,"transit":false,"station_id":"PSM","i_long":106.843999,"station_name":"Pasar Minggu"},{"station_name":"Pasar Minggu Baru","station_id":"PSMB","time":2,"is_transit":false,"line":2,"i_long":106.851577,"distance":2380,"transit":false,"i_lat":-6.263214},{"i_lat":-6.255332,"line":2,"distance":824,"transit":false,"station_id":"DRN","station_name":"Duren Kalibata","time":2,"is_transit":false,"i_long":106.85449},{"time":3,"distance":1546,"transit":false,"i_long":106.856607,"line":2,"station_id":"CW","station_name":"Cawang","i_lat":-6.242512,"is_transit":false},{"distance":1230,"station_name":"Tebet","transit":false,"is_transit":false,"time":2,"i_long":106.857948,"line":2,"i_lat":-6.226659,"station_id":"TEB"},{"time":4,"distance":2610,"station_name":"Manggarai","transit":true,"i_lat":-6.209883,"i_long":106.84912,"line":2,"station_id":"MRI","is_transit":true},{"station_name":"Sudirman","line":1,"station_id":"SUD","transit":false,"i_long":106.822649,"distance":3186,"i_lat":-6.202263,"time":4,"is_transit":false},{"distance":280,"station_name":"Sudirman Baru","station_id":"SUDB","i_long":106.819881,"line":1,"is_transit":false,"transit":false,"time":1,"i_lat":-6.201433},{"time":1,"distance":471,"i_lat":-6.20132,"i_long":106.816351,"transit":false,"station_id":"KAT","is_transit":false,"station_name":"Karet","line":1},{"time":5,"i_long":106.811091,"distance":2029,"line":1,"station_id":"THB","transit":false,"station_name":"Tanah Abang","is_transit":false,"i_lat":-6.185545},{"i_lat":-6.155215,"is_transit":false,"i_long":106.800832,"station_name":"Duri","distance":3632,"station_id":"DU","time":8,"line":1,"transit":false},{"is_transit":false,"i_lat":-6.144674,"distance":1230,"transit":false,"line":1,"i_long":106.79867,"station_id":"AK","time":4,"station_name":"Angke"},{"transit":false,"time":9,"station_name":"Kampung Bandan","station_id":"KPB","is_transit":false,"distance":4102,"i_long":106.826365,"i_lat":-6.132549,"line":4}],[{"time":0,"is_transit":false,"distance":0,"line":2,"i_long":106.843999,"i_lat":-6.2842400000000005,"station_id":"PSM","station_name":"Pasar Minggu","transit":false},{"i_long":106.851577,"station_id":"PSMB","i_lat":-6.263214,"station_name":"Pasar Minggu Baru","time":2,"transit":false,"distance":2380,"is_transit":false,"line":2},{"i_long":106.85449,"transit":false,"station_id":"DRN","distance":824,"time":2,"i_lat":-6.255332,"station_name":"Duren Kalibata","is_transit":false,"line":2},{"station_name":"Cawang","line":2,"time":3,"transit":false,"i_lat":-6.242512,"distance":1546,"station_id":"CW","is_transit":false,"i_long":106.856607},{"line":2,"i_long":106.857948,"distance":1230,"i_lat":-6.226659,"is_transit":false,"station_name":"Tebet","transit":false,"station_id":"TEB","time":2},{"time":4,"station_name":"Manggarai","transit":false,"distance":2610,"is_transit":false,"i_long":106.84912,"line":2,"i_lat":-6.209883,"station_id":"MRI"},{"i_long":106.840169,"time":4,"station_name":"Cikini","line":2,"distance":1590,"station_id":"CKI","transit":false,"i_lat":-6.198556,"is_transit":false},{"i_lat":-6.186295,"is_transit":false,"i_long":106.832183,"distance":1750,"time":3,"station_id":"GDD","station_name":"Gondangdia","transit":false,"line":2},{"i_lat":-6.166716,"line":2,"distance":2015,"station_name":"Juanda","transit":false,"time":4,"is_transit":false,"i_long":106.828284,"station_id":"JUA"},{"i_lat":-6.160725,"is_transit":false,"transit":false,"i_long":106.827103,"station_id":"SW","station_name":"Sawah Besar","line":2,"time":2,"distance":1149},{"i_lat":-6.149769,"station_name":"Manggabesar","time":2,"i_long":106.82482,"is_transit":false,"transit":false,"distance":906,"line":2,"station_id":"MGB"},{"time":2,"station_name":"Jayakarta","is_transit":false,"transit":false,"i_lat":-6.141205,"distance":1080,"station_id":"JAY","line":2,"i_long":106.820901},{"transit":true,"i_long":106.812439,"station_name":"Jakarta Kota","time":4,"distance":1264,"station_id":"JAKK","is_transit":true,"line":2,"i_lat":-6.137569},{"station_name":"Kampung Bandan","transit":false,"line":4,"time":3,"station_id":"KPB","distance":1364,"is_transit":false,"i_long":106.826365,"i_lat":-6.132549}],[{"i_long":106.843999,"distance":0,"station_name":"Pasar Minggu","transit":false,"line":2,"i_lat":-6.2842400000000005,"station_id":"PSM","time":0,"is_transit":false},{"i_long":106.851577,"time":2,"station_name":"Pasar Minggu Baru","line":2,"station_id":"PSMB","is_transit":false,"i_lat":-6.263214,"distance":2380,"transit":false},{"transit":false,"is_transit":false,"station_id":"DRN","time":2,"i_lat":-6.255332,"line":2,"distance":824,"station_name":"Duren Kalibata","i_long":106.85449},{"station_name":"Cawang","line":2,"station_id":"CW","transit":false,"is_transit":false,"i_long":106.856607,"i_lat":-6.242512,"time":3,"distance":1546},{"station_id":"TEB","distance":1230,"station_name":"Tebet","time":2,"i_lat":-6.226659,"is_transit":false,"i_long":106.857948,"transit":false,"line":2},{"i_lat":-6.209883,"i_long":106.84912,"line":2,"station_id":"MRI","distance":2610,"transit":true,"is_transit":true,"station_name":"Manggarai","time":4},{"i_lat":-6.212485,"line":1,"distance":1275,"station_name":"Matraman","time":2,"is_transit":false,"transit":false,"station_id":"MTR","i_long":106.858896},{"i_long":106.86807400000001,"distance":1377,"time":8,"station_name":"Jatinegara","is_transit":true,"station_id":"JNG","i_lat":-6.215091,"line":1,"transit":true},{"time":2,"station_name":"Pondok Jati","i_lat":-6.209188,"i_long":106.861737,"line":11,"is_transit":false,"station_id":"POK","transit":false,"distance":1236},{"time":2,"distance":1829,"line":11,"transit":false,"station_id":"KMT","is_transit":false,"i_long":106.855437,"station_name":"Kramat","i_lat":-6.193792},{"distance":973,"time":1,"i_lat":-6.185975,"i_long":106.850107,"line":11,"station_name":"Gang Sentiong","station_id":"GST","is_transit":false,"transit":false},{"line":11,"time":8,"is_transit":false,"distance":1567,"i_long":106.84368,"station_id":"PSE","i_lat":-6.174784,"transit":false,"station_name":"Pasar Senen"},{"distance":1436,"i_long":106.839204,"station_id":"KMO","transit":false,"line":11,"i_lat":-6.161728,"is_transit":false,"station_name":"Kemayoran","time":4},{"i_long":106.836569,"transit":false,"line":11,"time":5,"station_name":"Rajawali","station_id":"RJW","is_transit":false,"distance":1901,"i_lat":-6.14505},{"station_name":"Kampung Bandan","i_lat":-6.132549,"transit":false,"time":3,"is_transit":false,"distance":1444,"line":4,"station_id":"KPB","i_long":106.826365}]]}