{"data":[[{"i_lat":-6.2842400000000005,"station_name":"Pasar Minggu","is_transit":false,"time":0,"distance":0,"transit":false,"station_id":"PSM","i_long":106.843999,"line":2},{"line":2,"transit":false,"station_name":"Pasar Minggu Baru","i_long":106.851577,"distance":2380,"is_transit":false,"i_lat":-6.263214,"time":2,"station_id":"PSMB"},{"distance":824,"time":2,"station_name":"Duren Kalibata","i_lat":-6.255332,"station_id":"DRN","is_transit":false,"transit":false,"i_long":106.85449,"line":2},{"i_lat":-6.242512,"station_id":"CW","time":3,"i_long":106.856607,"transit":false,"distance":1546,"line":2,"is_transit":false,"station_name":"Cawang"},{"transit":false,"distance":1230,"i_long":106.857948,"time":2,"is_transit":false,"i_lat":-6.226659,"station_name":"Tebet","line":2,"station_id":"TEB"},{"station_id":"MRI","time":4,"line":2,"is_transit":true,"transit":true,"i_lat":-6.209883,"station_name":"Manggarai","distance":2610,"i_long":106.84912},{"transit":false,"is_transit":false,"station_id":"SUD","station_name":"Sudirman","distance":3186,"time":4,"i_lat":-6.202263,"i_long":106.822649,"line":1},{"transit":false,"station_id":"SUDB","distance":280,"i_long":106.819881,"station_name":"Sudirman Baru","line":1,"i_lat":-6.201433,"time":1,"is_transit":false},{"distance":471,"i_lat":-6.20132,"line":1,"is_transit":false,"transit":false,"station_id":"KAT","time":1,"station_name":"Karet","i_long":106.816351},{"station_id":"THB","line":1,"time":5,"transit":false,"is_transit":false,"distance":2029,"station_name":"Tanah Abang","i_long":106.811091,"i_lat":-6.185545},{"line":1,"station_id":"DU","time":8,"is_transit":true,"i_long":106.800832,"i_lat":-6.155215,"transit":true,"station_name":"Duri","distance":3632},{"station_id":"GGL","station_name":"Grogol","is_transit":false,"transit":false,"line":5,"i_long":106.788277,"i_lat":-6.162021,"time":3,"distance":1700},{"station_name":"Pesing","is_transit":false,"distance":2036,"transit":false,"time":2,"i_long":106.771379,"line":5,"station_id":"PSG","i_lat":-6.161433},{"i_lat":-6.1587309999999995,"station_id":"TKO","i_long":106.756522,"line":5,"distance":1614,"is_transit":false,"time":2,"transit":false,"station_name":"Taman Kota"},{"line":5,"distance":2334,"station_name":"Bojongindah","i_long":106.737035,"is_transit":false,"i_lat":-6.159876,"time":2,"transit":false,"station_id":"BOI"},{"is_transit":false,"distance":1152,"station_name":"Rawa Buaya","time":4,"station_id":"RW","transit":false,"line":5,"i_long":106.723064,"i_lat":-6.162758},{"transit":false,"i_long":106.701612,"station_name":"Kalideres","i_lat":-6.166068,"is_transit":false,"station_id":"KDS","time":3,"line":5,"distance":2504},{"line":5,"station_name":"Poris","i_long":106.679458,"is_transit":false,"station_id":"PI","distance":2548,"transit":false,"time":3,"i_lat":-6.169933},{"i_lat":-6.171811,"i_long":106.665036,"transit":false,"line":5,"time":3,"station_id":"BPR","distance":1834,"station_name":"Batuceper","is_transit":false},{"i_long":106.64657,"line":5,"time":3,"i_lat":-6.17331,"distance":2028,"station_name":"Tanah Tinggi","is_transit":false,"transit":false,"station_id":"TTI"}],[{"i_long":106.843999,"line":2,"station_id":"PSM","distance":0,"station_name":"Pasar Minggu","is_transit":false,"transit":false,"i_lat":-6.2842400000000005,"time":0},{"time":2,"transit":false,"station_name":"Pasar Minggu Baru","i_long":106.851577,"is_transit":false,"distance":2380,"station_id":"PSMB","i_lat":-6.263214,"line":2},{"station_id":"DRN","station_name":"Duren Kalibata","time":2,"transit":false,"distance":824,"line":2,"is_transit":false,"i_long":106.85449,"i_lat":-6.255332},{"transit":false,"time":3,"distance":1546,"line":2,"station_name":"Cawang","is_transit":false,"i_lat":-6.242512,"station_id":"CW","i_long":106.856607},{"station_id":"TEB","i_lat":-6.226659,"station_name":"Tebet","distance":1230,"time":2,"is_transit":false,"i_long":106.857948,"line":2,"transit":false},{"station_id":"MRI","i_lat":-6.209883,"is_transit":false,"time":4,"i_long":106.84912,"station_name":"Manggarai","distance":2610,"line":2,"transit":false},{"is_transit":false,"station_name":"Cikini","transit":false,"i_lat":-6.198556,"i_long":106.840169,"line":2,"distance":1590,"station_id":"CKI","time":4},{"station_name":"Gondangdia","is_transit":false,"i_long":106.832183,"line":2,"distance":1750,"station_id":"GDD","transit":false,"i_lat":-6.186295,"time":3},{"time":4,"i_lat":-6.166716,"is_transit":false,"i_long":106.828284,"line":2,"station_id":"JUA","station_name":"Juanda","distance":2015,"transit":false},{"time":2,"i_long":106.827103,"line":2,"station_name":"Sawah Besar","is_transit":false,"station_id":"SW","i_lat":-6.160725,"distance":1149,"transit":false},{"line":2,"is_transit":false,"transit":false,"time":2,"i_long":106.82482,"station_id":"MGB","distance":906,"i_lat":-6.149769,"station_name":"Manggabesar"},{"station_name":"Jayakarta","i_lat":-6.141205,"i_long":106.820901,"is_transit":false,"time":2,"transit":false,"line":2,"station_id":"JAY","distance":1080},{"transit":true,"time":4,"i_lat":-6.137569,"line":2,"distance":1264,"i_long":106.812439,"station_name":"Jakarta Kota","is_transit":true,"station_id":"JAKK"},{"is_transit":true,"transit":true,"station_name":"Kampung Bandan","distance":1364,"line":4,"i_lat":-6.132549,"time":3,"i_long":106.826365,"station_id":"KPB"},{"transit":false,"is_transit":false,"distance":4102,"station_name":"Angke","i_lat":-6.144674,"station_id":"AK","i_long":106.79867,"time":9,"line":1},{"station_name":"Duri","line":1,"station_id":"DU","transit":true,"time":4,"is_transit":true,"distance":1230,"i_lat":-6.155215,"i_long":106.800832},{"is_transit":false,"distance":1700,"line":5,"i_lat":-6.162021,"i_long":106.788277,"time":3,"station_id":"GGL","station_name":"Grogol","transit":false},{"is_transit":false,"distance":2036,"station_id":"PSG","station_name":"Pesing","i_lat":-6.161433,"transit":false,"time":2,"line":5,"i_long":106.771379},{"i_lat":-6.1587309999999995,"line":5,"i_long":106.756522,"distance":1614,"time":2,"is_transit":false,"station_name":"Taman Kota","station_id":"TKO","transit":false},{"station_id":"BOI","is_transit":false,"transit":false,"station_name":"Bojongindah","i_lat":-6.159876,"line":5,"time":2,"distance":2334,"i_long":106.737035},{"line":5,"is_transit":false,"station_id":"RW","station_name":"Rawa Buaya","time":4,"distance":1152,"transit":false,"i_lat":-6.162758,"i_long":106.723064},{"station_name":"Kalideres","time":3,"distance":2504,"line":5,"station_id":"KDS","i_long":106.701612,"is_transit":false,"transit":false,"i_lat":-6.166068},{"i_long":106.679458,"i_lat":-6.169933,"station_id":"PI","line":5,"time":3,"distance":2548,"station_name":"Poris","is_transit":false,"transit":false},{"is_transit":false,"station_name":"Batuceper","i_long":106.665036,"station_id":"BPR","transit":false,"distance":1834,"line":5,"i_lat":-6.171811,"time":3},{"distance":2028,"time":3,"line":5,"station_name":"Tanah Tinggi","transit":false,"station_id":"TTI","i_lat":-6.17331,"i_long":106.64657,"is_transit":false}],[{"is_transit":false,"station_id":"PSM","distance":0,"i_lat":-6.2842400000000005,"i_long":106.843999,"line":2,"station_name":"Pasar Minggu","time":0,"transit":false},{"i_lat":-6.263214,"i_long":106.851577,"transit":false,"station_name":"Pasar Minggu Baru","line":2,"station_id":"PSMB","time":2,"distance":2380,"is_transit":false},{"transit":false,"i_lat":-6.255332,"station_id":"DRN","station_name":"Duren Kalibata","line":2,"i_long":106.85449,"distance":824,"time":2,"is_transit":false},{"i_lat":-6.242512,"i_long":106.856607,"line":2,"station_name":"Cawang","distance":1546,"is_transit":false,"transit":false,"station_id":"CW","time":3},{"station_name":"Tebet","i_lat":-6.226659,"i_long":106.857948,"line":2,"is_transit":false,"station_id":"TEB","distance":1230,"transit":false,"time":2},{"time":4,"station_id":"MRI","distance":2610,"is_transit":true,"i_long":106.84912,"i_lat":-6.209883,"transit":true,"station_name":"Manggarai","line":2},{"line":1,"i_long":106.858896,"time":2,"transit":false,"station_name":"Matraman","station_id":"MTR","is_transit":false,"distance":1275,"i_lat":-6.212485},{"distance":1377,"i_lat":-6.215091,"time":8,"is_transit":true,"station_name":"Jatinegara","station_id":"JNG","transit":true,"i_long":106.86807400000001,"line":1},{"i_lat":-6.209188,"station_name":"Pondok Jati","time":2,"line":11,"is_transit":false,"distance":1236,"transit":false,"i_long":106.861737,"station_id":"POK"},{"distance":1829,"is_transit":false,"time":2,"i_long":106.855437,"line":11,"station_id":"KMT","transit":false,"station_name":"Kramat","i_lat":-6.193792},{"time":1,"station_id":"GST","is_transit":false,"line":11,"distance":973,"transit":false,"i_long":106.850107,"i_lat":-6.185975,"station_name":"Gang Sentiong"},{"is_transit":false,"i_long":106.84368,"transit":false,"station_id":"PSE","station_name":"Pasar Senen","distance":1567,"time":8,"i_lat":-6.174784,"line":11},{"station_name":"Kemayoran","distance":1436,"transit":false,"time":4,"station_id":"KMO","is_transit":false,"i_lat":-6.161728,"i_long":106.839204,"line":11},{"distance":1901,"transit":false,"i_long":106.836569,"line":11,"station_id":"RJW","station_name":"Rajawali","is_transit":false,"time":5,"i_lat":-6.14505},{"time":3,"i_long":106.826365,"station_id":"KPB","i_lat":-6.132549,"transit":true,"is_transit":true,"line":4,"distance":1444,"station_name":"Kampung Bandan"},{"time":9,"station_id":"AK","is_transit":false,"i_long":106.79867,"distance":4102,"line":1,"station_name":"Angke","transit":false,"i_lat":-6.144674},{"time":4,"station_name":"Duri","i_long":106.800832,"is_transit":true,"station_id":"DU","distance":1230,"transit":true,"i_lat":-6.155215,"line":1},{"is_transit":false,"transit":false,"i_lat":-6.162021,"line":5,"i_long":106.788277,"station_name":"Grogol","station_id":"GGL","distance":1700,"time":3},{"transit":false,"is_transit":false,"line":5,"station_name":"Pesing","station_id":"PSG","time":2,"i_lat":-6.161433,"i_long":106.771379,"distance":2036},{"i_long":106.756522,"transit":false,"station_name":"Taman Kota","line":5,"time":2,"i_lat":-6.1587309999999995,"distance":1614,"station_id":"TKO","is_transit":false},{"time":2,"distance":2334,"i_lat":-6.159876,"station_id":"BOI","i_long":106.737035,"transit":false,"station_name":"Bojongindah","is_transit":false,"line":5},{"station_id":"RW","distance":1152,"line":5,"i_long":106.723064,"station_name":"Rawa Buaya","transit":false,"is_transit":false,"i_lat":-6.162758,"time":4},{"time":3,"station_name":"Kalideres","distance":2504,"i_lat":-6.166068,"is_transit":false,"i_long":106.701612,"transit":false,"line":5,"station_id":"KDS"},{"distance":2548,"is_transit":false,"i_lat":-6.169933,"station_name":"Poris","line":5,"station_id":"PI","time":3,"transit":false,"i_long":106.679458},{"station_name":"Batuceper","station_id":"BPR","i_long":106.665036,"i_lat":-6.171811,"is_transit":false,"line":5,"time":3,"transit":false,"distance":1834},{"station_name":"Tanah Tinggi","is_transit":false,"line":5,"time":3,"station_id":"TTI","i_long":106.64657,"i_lat":-6.17331,"distance":2028,"transit":false}]]}