{"data":[[{"transit":false,"i_long":106.843999,"time":0,"distance":0,"station_name":"Pasar Minggu","is_transit":false,"station_id":"PSM","line":2,"i_lat":-6.2842400000000005},{"i_long":106.851577,"transit":false,"distance":2380,"is_transit":false,"i_lat":-6.263214,"time":2,"station_id":"PSMB","station_name":"Pasar Minggu Baru","line":2},{"station_id":"DRN","station_name":"Duren Kalibata","time":2,"distance":824,"i_lat":-6.255332,"is_transit":false,"i_long":106.85449,"line":2,"transit":false},{"line":2,"time":3,"is_transit":false,"i_long":106.856607,"distance":1546,"station_name":"Cawang","station_id":"CW","i_lat":-6.242512,"transit":false},{"station_id":"TEB","distance":1230,"line":2,"station_name":"Tebet","time":2,"transit":false,"is_transit":false,"i_lat":-6.226659,"i_long":106.857948},{"transit":false,"i_lat":-6.209883,"is_transit":false,"distance":2610,"station_name":"Manggarai","i_long":106.84912,"line":2,"station_id":"MRI","time":4},{"i_long":106.840169,"time":4,"line":2,"transit":false,"station_name":"Cikini","is_transit":false,"station_id":"CKI","distance":1590,"i_lat":-6.198556}],[{"i_lat":-6.2842400000000005,"time":0,"i_long":106.843999,"transit":false,"station_name":"Pasar Minggu","station_id":"PSM","is_transit":false,"distance":0,"line":2},{"station_name":"Pasar Minggu Baru","is_transit":false,"line":2,"station_id":"PSMB","transit":false,"distance":2380,"i_lat":-6.263214,"time":2,"i_long":106.851577},{"time":2,"station_id":"DRN","i_lat":-6.255332,"station_name":"Duren Kalibata","line":2,"transit":false,"is_transit":false,"distance":824,"i_long":106.85449},{"i_lat":-6.242512,"line":2,"distance":1546,"station_id":"CW","is_transit":false,"time":3,"transit":false,"i_long":106.856607,"station_name":"Cawang"},{"i_long":106.857948,"line":2,"station_name":"Tebet","time":2,"i_lat":-6.226659,"is_transit":false,"transit":false,"station_id":"TEB","distance":1230},{"station_name":"Manggarai","station_id":"MRI","distance":2610,"is_transit":true,"i_long":106.84912,"time":4,"line":2,"i_lat":-6.209883,"transit":true},{"line":1,"i_long":106.822649,"time":4,"station_name":"Sudirman","station_id":"SUD","distance":3186,"is_transit":false,"transit":false,"i_lat":-6.202263},{"station_id":"SUDB","line":1,"is_transit":false,"i_long":106.819881,"i_lat":-6.201433,"distance":280,"time":1,"transit":false,"station_name":"Sudirman Baru"},{"time":1,"line":1,"transit":false,"station_id":"KAT","is_transit":false,"station_name":"Karet","distance":471,"i_long":106.816351,"i_lat":-6.20132},{"station_name":"Tanah Abang","transit":false,"distance":2029,"is_transit":false,"station_id":"THB","i_lat":-6.185545,"line":1,"time":5,"i_long":106.811091},{"i_lat":-6.155215,"i_long":106.800832,"is_transit":false,"station_id":"DU","transit":false,"station_name":"Duri","line":1,"time":8,"distance":3632},{"distance":1230,"station_name":"Angke","time":4,"transit":false,"i_long":106.79867,"station_id":"AK","is_transit":false,"i_lat":-6.144674,"line":1},{"station_name":"Kampung Bandan","distance":4102,"time":9,"is_transit":true,"transit":true,"i_lat":-6.132549,"line":4,"station_id":"KPB","i_long":106.826365},{"distance":1364,"station_name":"Jakarta Kota","i_lat":-6.137569,"is_transit":true,"time":3,"station_id":"JAKK","i_long":106.812439,"line":2,"transit":true},{"i_long":106.820901,"station_id":"JAY","time":4,"transit":false,"line":2,"distance":1264,"station_name":"Jayakarta","is_transit":false,"i_lat":-6.141205},{"station_name":"Manggabesar","transit":false,"is_transit":false,"time":2,"station_id":"MGB","distance":1080,"i_long":106.82482,"i_lat":-6.149769,"line":2},{"transit":false,"i_long":106.827103,"i_lat":-6.160725,"station_name":"Sawah Besar","station_id":"SW","line":2,"time":2,"distance":906,"is_transit":false},{"line":2,"i_long":106.828284,"transit":false,"time":2,"station_id":"JUA","is_transit":false,"i_lat":-6.166716,"station_name":"Juanda","distance":1149},{"line":2,"distance":2015,"station_id":"GDD","is_transit":false,"time":4,"i_long":106.832183,"i_lat":-6.186295,"transit":false,"station_name":"Gondangdia"},{"time":3,"is_transit":false,"i_long":106.840169,"distance":1750,"station_name":"Cikini","transit":false,"i_lat":-6.198556,"station_id":"CKI","line":2}],[{"station_id":"PSM","is_transit":false,"line":2,"transit":false,"i_long":106.843999,"distance":0,"i_lat":-6.2842400000000005,"station_name":"Pasar Minggu","time":0},{"station_name":"Pasar Minggu Baru","transit":false,"time":2,"distance":2380,"i_long":106.851577,"is_transit":false,"i_lat":-6.263214,"station_id":"PSMB","line":2},{"transit":false,"station_name":"Duren Kalibata","station_id":"DRN","time":2,"distance":824,"line":2,"i_long":106.85449,"is_transit":false,"i_lat":-6.255332},{"station_id":"CW","transit":false,"station_name":"Cawang","time":3,"i_lat":-6.242512,"is_transit":false,"i_long":106.856607,"distance":1546,"line":2},{"is_transit":false,"transit":false,"time":2,"i_lat":-6.226659,"distance":1230,"station_name":"Tebet","station_id":"TEB","i_long":106.857948,"line":2},{"time":4,"line":2,"i_lat":-6.209883,"station_id":"MRI","i_long":106.84912,"distance":2610,"transit":true,"station_name":"Manggarai","is_transit":true},{"i_lat":-6.212485,"is_transit":false,"i_long":106.858896,"transit":false,"station_id":"MTR","distance":1275,"line":1,"time":2,"station_name":"Matraman"},{"station_id":"JNG","i_lat":-6.215091,"i_long":106.86807400000001,"time":8,"line":1,"transit":true,"station_name":"Jatinegara","is_transit":true,"distance":1377},{"station_name":"Pondok Jati","station_id":"POK","time":2,"i_long":106.861737,"line":11,"distance":1236,"transit":false,"is_transit":false,"i_lat":-6.209188},{"station_id":"KMT","is_transit":false,"distance":1829,"i_long":106.855437,"station_name":"Kramat","time":2,"line":11,"transit":false,"i_lat":-6.193792},{"is_transit":false,"time":1,"distance":973,"line":11,"station_id":"GST","i_long":106.850107,"station_name":"Gang Sentiong","i_lat":-6.185975,"transit":false},{"transit":false,"i_long":106.84368,"time":8,"is_transit":false,"distance":1567,"station_id":"PSE","i_lat":-6.174784,"station_name":"Pasar Senen","line":11},{"is_transit":false,"transit":false,"station_id":"KMO","distance":1436,"i_lat":-6.161728,"station_name":"Kemayoran","line":11,"time":4,"i_long":106.839204},{"time":5,"is_transit":false,"transit":false,"distance":1901,"i_lat":-6.14505,"i_long":106.836569,"station_name":"Rajawali","station_id":"RJW","line":11},{"is_transit":true,"station_name":"Kampung Bandan","transit":true,"time":3,"i_lat":-6.132549,"line":4,"i_long":106.826365,"distance":1444,"station_id":"KPB"},{"is_transit":true,"distance":1364,"station_id":"JAKK","i_long":106.812439,"line":2,"i_lat":-6.137569,"transit":true,"time":3,"station_name":"Jakarta Kota"},{"time":4,"distance":1264,"i_lat":-6.141205,"station_name":"Jayakarta","line":2,"is_transit":false,"station_id":"JAY","i_long":106.820901,"transit":false},{"station_name":"Manggabesar","line":2,"is_transit":false,"station_id":"MGB","i_lat":-6.149769,"transit":false,"i_long":106.82482,"distance":1080,"time":2},{"transit":false,"line":2,"station_name":"Sawah Besar","i_long":106.827103,"station_id":"SW","is_transit":false,"distance":906,"i_lat":-6.160725,"time":2},{"transit":false,"distance":1149,"time":2,"station_name":"Juanda","i_long":106.828284,"line":2,"station_id":"JUA","i_lat":-6.166716,"is_transit":false},{"time":4,"i_lat":-6.186295,"station_id":"GDD","i_long":106.832183,"distance":2015,"transit":false,"is_transit":false,"line":2,"station_name":"Gondangdia"},{"distance":1750,"time":3,"station_name":"Cikini","station_id":"CKI","i_lat":-6.198556,"line":2,"i_long":106.840169,"transit":false,"is_transit":false}]]}