{"data":[[{"station_id":"PSM","time":0,"station_name":"Pasar Minggu","transit":false,"i_lat":-6.2842400000000005,"is_transit":false,"distance":0,"i_long":106.843999,"line":2},{"distance":2380,"transit":false,"i_lat":-6.263214,"station_name":"Pasar Minggu Baru","line":2,"station_id":"PSMB","time":2,"is_transit":false,"i_long":106.851577},{"distance":824,"i_long":106.85449,"transit":false,"station_id":"DRN","time":2,"is_transit":false,"i_lat":-6.255332,"line":0,"station_name":"Duren Kalibata"},{"i_long":106.856607,"station_id":"CW","i_lat":-6.242512,"distance":1546,"is_transit":false,"line":0,"time":3,"transit":false,"station_name":"Cawang"},{"is_transit":false,"station_id":"TEB","station_name":"Tebet","i_lat":-6.226659,"transit":false,"i_long":106.857948,"distance":1230,"line":2,"time":2},{"i_lat":-6.209883,"station_name":"Manggarai","is_transit":true,"i_long":106.84912,"line":0,"transit":true,"time":4,"distance":2610,"station_id":"MRI"},{"is_transit":false,"distance":3186,"station_id":"SUD","station_name":"Sudirman","line":1,"time":4,"i_long":106.822649,"transit":false,"i_lat":-6.202263},{"time":1,"station_name":"Sudirman Baru","station_id":"SUDB","is_transit":false,"i_lat":-6.201433,"line":1,"distance":280,"i_long":106.819881,"transit":false},{"station_name":"Karet","is_transit":false,"station_id":"KAT","i_lat":-6.20132,"line":1,"distance":471,"transit":false,"i_long":106.816351,"time":1},{"i_long":106.811091,"is_transit":true,"distance":2029,"station_name":"Tanah Abang","line":1,"transit":true,"i_lat":-6.185545,"station_id":"THB","time":5},{"time":6,"distance":3191,"is_transit":false,"line":6,"i_lat":-6.207404,"i_long":106.79689,"station_id":"PLM","station_name":"Palmerah","transit":false},{"i_lat":-6.237242,"line":6,"transit":false,"is_transit":false,"distance":3737,"time":7,"i_long":106.780334,"station_id":"KBY","station_name":"Kebayoran"},{"i_lat":-6.276362,"i_long":106.74273,"line":6,"transit":false,"distance":6218,"is_transit":false,"time":8,"station_id":"PDJ","station_name":"Pondokranji"},{"is_transit":false,"i_long":106.728916,"i_lat":-6.288927,"line":6,"transit":false,"station_id":"JMU","time":3,"station_name":"Jurangmangu","distance":2179},{"is_transit":false,"station_name":"Sudimara","line":6,"station_id":"SDM","time":4,"i_long":106.712277,"transit":false,"i_lat":-6.296963,"distance":1994},{"distance":4566,"station_id":"RU","station_name":"Rawa Buntu","time":6,"line":6,"is_transit":false,"transit":false,"i_lat":-6.314823,"i_long":106.675475},{"is_transit":false,"i_lat":-6.319871,"line":6,"distance":2413,"station_name":"Serpong","transit":false,"time":4,"i_long":106.66566,"station_id":"SRP"},{"line":0,"distance":1784,"station_id":"CSK","time":4,"transit":false,"is_transit":false,"station_name":"Cisauk","i_lat":-6.32484,"i_long":106.640411},{"i_lat":-6.329547,"transit":false,"station_id":"CC","station_name":"Cicayur","i_long":106.617853,"time":4,"distance":2519,"line":0,"is_transit":false},{"time":8,"i_long":106.568863,"distance":5968,"is_transit":false,"line":6,"station_id":"PRP","transit":false,"i_lat":-6.3441410000000005,"station_name":"Parung Panjang"},{"i_lat":-6.354349,"is_transit":false,"station_name":"Cilejit","distance":7025,"station_id":"CJT","transit":false,"time":9,"i_long":106.508482,"line":0},{"i_lat":-6.338021,"i_long":106.491338,"line":0,"distance":2675,"is_transit":false,"station_name":"Daru","time":6,"station_id":"DAR","transit":false},{"time":5,"transit":false,"distance":3902,"i_lat":-6.327251,"i_long":106.460812,"station_id":"TEJ","line":6,"is_transit":false,"station_name":"Tenjo"}],[{"station_name":"Pasar Minggu","i_lat":-6.2842400000000005,"line":2,"station_id":"PSM","time":0,"i_long":106.843999,"transit":false,"distance":0,"is_transit":false},{"distance":2380,"time":2,"is_transit":false,"i_long":106.851577,"station_name":"Pasar Minggu Baru","station_id":"PSMB","transit":false,"i_lat":-6.263214,"line":2},{"i_long":106.85449,"distance":824,"time":2,"line":0,"station_name":"Duren Kalibata","i_lat":-6.255332,"is_transit":false,"station_id":"DRN","transit":false},{"time":3,"is_transit":false,"transit":false,"i_long":106.856607,"i_lat":-6.242512,"station_name":"Cawang","station_id":"CW","distance":1546,"line":0},{"i_lat":-6.226659,"transit":false,"time":2,"distance":1230,"station_id":"TEB","is_transit":false,"station_name":"Tebet","line":2,"i_long":106.857948},{"is_transit":true,"line":0,"i_long":106.84912,"transit":true,"station_id":"MRI","distance":2610,"station_name":"Manggarai","time":4,"i_lat":-6.209883},{"is_transit":false,"i_lat":-6.198556,"station_name":"Cikini","station_id":"CKI","transit":false,"distance":1590,"i_long":106.840169,"line":0,"time":4},{"is_transit":false,"transit":false,"i_long":106.832183,"station_id":"GDD","station_name":"Gondangdia","line":2,"time":3,"i_lat":-6.186295,"distance":1750},{"station_name":"Juanda","time":4,"station_id":"JUA","i_long":106.828284,"i_lat":-6.166716,"transit":false,"line":2,"distance":2015,"is_transit":false},{"transit":false,"i_lat":-6.160725,"station_name":"Sawah Besar","station_id":"SW","i_long":106.827103,"is_transit":false,"distance":1149,"time":2,"line":2},{"distance":906,"station_id":"MGB","transit":false,"i_lat":-6.149769,"i_long":106.82482,"is_transit":false,"line":2,"station_name":"Manggabesar","time":2},{"station_name":"Jayakarta","time":2,"i_lat":-6.141205,"line":7,"transit":false,"is_transit":false,"i_long":106.820901,"distance":1080,"station_id":"JAY"},{"time":4,"station_id":"JAKK","i_long":106.812439,"i_lat":-6.137569,"distance":1264,"station_name":"Jakarta Kota","transit":true,"line":0,"is_transit":true},{"transit":false,"distance":1364,"i_lat":-6.132549,"station_name":"Kampung Bandan","i_long":106.826365,"time":3,"line":0,"is_transit":true,"station_id":"KPB"},{"i_long":106.79867,"station_id":"AK","is_transit":false,"station_name":"Angke","transit":false,"time":9,"i_lat":-6.144674,"distance":4102,"line":0},{"i_long":106.800832,"line":1,"transit":true,"distance":1230,"i_lat":-6.155215,"station_id":"DU","is_transit":true,"time":4,"station_name":"Duri"},{"time":8,"is_transit":true,"station_id":"THB","station_name":"Tanah Abang","transit":true,"i_lat":-6.185545,"distance":3632,"line":1,"i_long":106.811091},{"is_transit":false,"station_id":"PLM","time":6,"i_long":106.79689,"transit":false,"i_lat":-6.207404,"station_name":"Palmerah","line":6,"distance":3191},{"distance":3737,"i_long":106.780334,"station_name":"Kebayoran","line":6,"is_transit":false,"time":7,"station_id":"KBY","i_lat":-6.237242,"transit":false},{"distance":6218,"is_transit":false,"i_lat":-6.276362,"i_long":106.74273,"time":8,"line":6,"station_name":"Pondokranji","transit":false,"station_id":"PDJ"},{"distance":2179,"i_lat":-6.288927,"i_long":106.728916,"transit":false,"station_name":"Jurangmangu","is_transit":false,"station_id":"JMU","time":3,"line":6},{"station_name":"Sudimara","time":4,"line":6,"is_transit":false,"i_lat":-6.296963,"distance":1994,"station_id":"SDM","i_long":106.712277,"transit":false},{"i_lat":-6.314823,"distance":4566,"station_name":"Rawa Buntu","is_transit":false,"transit":false,"time":6,"i_long":106.675475,"line":6,"station_id":"RU"},{"is_transit":false,"station_id":"SRP","i_lat":-6.319871,"station_name":"Serpong","i_long":106.66566,"line":6,"transit":false,"time":4,"distance":2413},{"transit":false,"i_lat":-6.32484,"time":4,"i_long":106.640411,"distance":1784,"station_id":"CSK","is_transit":false,"station_name":"Cisauk","line":0},{"is_transit":false,"transit":false,"station_id":"CC","time":4,"i_lat":-6.329547,"line":0,"i_long":106.617853,"distance":2519,"station_name":"Cicayur"},{"is_transit":false,"station_name":"Parung Panjang","i_long":106.568863,"i_lat":-6.3441410000000005,"station_id":"PRP","line":6,"transit":false,"time":8,"distance":5968},{"distance":7025,"station_name":"Cilejit","station_id":"CJT","is_transit":false,"time":9,"i_lat":-6.354349,"i_long":106.508482,"transit":false,"line":0},{"time":6,"i_lat":-6.338021,"station_name":"Daru","i_long":106.491338,"distance":2675,"is_transit":false,"station_id":"DAR","transit":false,"line":0},{"i_long":106.460812,"station_name":"Tenjo","is_transit":false,"time":5,"i_lat":-6.327251,"distance":3902,"line":6,"station_id":"TEJ","transit":false}],[{"transit":false,"time":0,"is_transit":false,"station_name":"Pasar Minggu","line":2,"station_id":"PSM","i_long":106.843999,"distance":0,"i_lat":-6.2842400000000005},{"i_long":106.851577,"line":2,"transit":false,"distance":2380,"station_id":"PSMB","i_lat":-6.263214,"is_transit":false,"station_name":"Pasar Minggu Baru","time":2},{"station_id":"DRN","line":0,"i_long":106.85449,"is_transit":false,"distance":824,"i_lat":-6.255332,"station_name":"Duren Kalibata","transit":false,"time":2},{"line":0,"is_transit":false,"transit":false,"time":3,"i_lat":-6.242512,"distance":1546,"station_name":"Cawang","i_long":106.856607,"station_id":"CW"},{"distance":1230,"time":2,"station_name":"Tebet","is_transit":false,"station_id":"TEB","i_long":106.857948,"transit":false,"i_lat":-6.226659,"line":2},{"time":4,"transit":true,"i_lat":-6.209883,"distance":2610,"is_transit":true,"station_id":"MRI","line":0,"i_long":106.84912,"station_name":"Manggarai"},{"station_name":"Matraman","time":2,"i_long":106.858896,"line":1,"transit":false,"i_lat":-6.212485,"distance":1275,"is_transit":false,"station_id":"MTR"},{"station_name":"Jatinegara","is_transit":true,"transit":true,"time":8,"distance":1377,"station_id":"JNG","i_long":106.86807400000001,"line":0,"i_lat":-6.215091},{"transit":false,"distance":1236,"is_transit":false,"time":2,"i_long":106.861737,"line":11,"station_name":"Pondok Jati","i_lat":-6.209188,"station_id":"POK"},{"station_name":"Kramat","transit":false,"i_lat":-6.193792,"station_id":"KMT","line":11,"time":2,"i_long":106.855437,"distance":1829,"is_transit":false},{"transit":false,"is_transit":false,"i_lat":-6.185975,"station_name":"Gang Sentiong","station_id":"GST","distance":973,"i_long":106.850107,"line":11,"time":1},{"i_lat":-6.174784,"i_long":106.84368,"station_name":"Pasar Senen","line":11,"is_transit":false,"station_id":"PSE","transit":false,"time":8,"distance":1567},{"distance":1436,"transit":false,"line":11,"station_id":"KMO","time":4,"is_transit":false,"i_lat":-6.161728,"station_name":"Kemayoran","i_long":106.839204},{"distance":1901,"station_name":"Rajawali","line":11,"is_transit":false,"i_long":106.836569,"i_lat":-6.14505,"station_id":"RJW","transit":false,"time":5},{"time":3,"i_lat":-6.132549,"station_name":"Kampung Bandan","transit":true,"distance":1444,"i_long":106.826365,"is_transit":true,"line":0,"station_id":"KPB"},{"distance":4102,"is_transit":false,"line":0,"time":9,"station_id":"AK","station_name":"Angke","i_long":106.79867,"transit":false,"i_lat":-6.144674},{"time":4,"i_lat":-6.155215,"distance":1230,"is_transit":true,"i_long":106.800832,"station_name":"Duri","transit":true,"line":1,"station_id":"DU"},{"station_id":"THB","time":8,"i_lat":-6.185545,"is_transit":true,"transit":true,"i_long":106.811091,"distance":3632,"station_name":"Tanah Abang","line":1},{"line":6,"is_transit":false,"transit":false,"i_lat":-6.207404,"station_id":"PLM","i_long":106.79689,"station_name":"Palmerah","time":6,"distance":3191},{"is_transit":false,"station_id":"KBY","i_lat":-6.237242,"transit":false,"time":7,"i_long":106.780334,"line":6,"distance":3737,"station_name":"Kebayoran"},{"i_lat":-6.276362,"line":6,"distance":6218,"station_name":"Pondokranji","i_long":106.74273,"is_transit":false,"station_id":"PDJ","transit":false,"time":8},{"station_id":"JMU","time":3,"transit":false,"line":6,"station_name":"Jurangmangu","distance":2179,"i_lat":-6.288927,"is_transit":false,"i_long":106.728916},{"i_long":106.712277,"station_name":"Sudimara","distance":1994,"transit":false,"time":4,"i_lat":-6.296963,"line":6,"is_transit":false,"station_id":"SDM"},{"line":6,"i_long":106.675475,"is_transit":false,"station_id":"RU","distance":4566,"station_name":"Rawa Buntu","i_lat":-6.314823,"transit":false,"time":6},{"distance":2413,"i_lat":-6.319871,"transit":false,"station_name":"Serpong","station_id":"SRP","i_long":106.66566,"is_transit":false,"time":4,"line":6},{"transit":false,"station_name":"Cisauk","i_long":106.640411,"i_lat":-6.32484,"station_id":"CSK","time":4,"distance":1784,"line":0,"is_transit":false},{"i_long":106.617853,"is_transit":false,"station_name":"Cicayur","distance":2519,"i_lat":-6.329547,"time":4,"line":0,"transit":false,"station_id":"CC"},{"time":8,"is_transit":false,"i_long":106.568863,"line":6,"transit":false,"i_lat":-6.3441410000000005,"station_id":"PRP","station_name":"Parung Panjang","distance":5968},{"transit":false,"i_lat":-6.354349,"is_transit":false,"line":0,"distance":7025,"i_long":106.508482,"time":9,"station_name":"Cilejit","station_id":"CJT"},{"station_name":"Daru","is_transit":false,"time":6,"i_lat":-6.338021,"line":0,"i_long":106.491338,"station_id":"DAR","distance":2675,"transit":false},{"is_transit":false,"station_id":"TEJ","time":5,"i_lat":-6.327251,"line":6,"distance":3902,"station_name":"Tenjo","transit":false,"i_long":106.460812}]]}