{"data":[[{"transit":false,"i_lat":-6.2842400000000005,"station_id":"PSM","i_long":106.843999,"line":2,"is_transit":false,"time":0,"distance":0,"station_name":"Pasar Minggu"},{"line":2,"i_lat":-6.263214,"station_id":"PSMB","time":2,"distance":2380,"station_name":"Pasar Minggu Baru","is_transit":false,"transit":false,"i_long":106.851577},{"line":2,"station_id":"DRN","transit":false,"time":2,"is_transit":false,"station_name":"Duren Kalibata","i_long":106.85449,"distance":824,"i_lat":-6.255332},{"transit":false,"line":2,"station_id":"CW","distance":1546,"i_lat":-6.242512,"time":3,"is_transit":false,"i_long":106.856607,"station_name":"Cawang"},{"station_name":"Tebet","i_long":106.857948,"time":2,"i_lat":-6.226659,"line":2,"distance":1230,"transit":false,"station_id":"TEB","is_transit":false},{"i_lat":-6.209883,"transit":true,"station_id":"MRI","line":2,"i_long":106.84912,"is_transit":true,"time":4,"station_name":"Manggarai","distance":2610},{"distance":3186,"station_name":"Sudirman","transit":false,"time":4,"station_id":"SUD","i_long":106.822649,"is_transit":false,"i_lat":-6.202263,"line":1},{"station_name":"Sudirman Baru","i_long":106.819881,"is_transit":false,"distance":280,"time":1,"i_lat":-6.201433,"station_id":"SUDB","transit":false,"line":1},{"transit":false,"station_id":"KAT","time":1,"distance":471,"station_name":"Karet","i_long":106.816351,"i_lat":-6.20132,"line":1,"is_transit":false},{"station_id":"THB","i_long":106.811091,"time":5,"station_name":"Tanah Abang","distance":2029,"transit":false,"is_transit":false,"i_lat":-6.185545,"line":1},{"transit":true,"i_lat":-6.155215,"line":1,"distance":3632,"i_long":106.800832,"station_name":"Duri","is_transit":true,"time":8,"station_id":"DU"},{"i_lat":-6.162021,"station_id":"GGL","is_transit":false,"station_name":"Grogol","distance":1700,"i_long":106.788277,"line":5,"transit":false,"time":3},{"line":5,"station_id":"PSG","is_transit":false,"i_long":106.771379,"distance":2036,"time":2,"transit":false,"station_name":"Pesing","i_lat":-6.161433},{"station_id":"TKO","station_name":"Taman Kota","is_transit":false,"transit":false,"time":2,"i_lat":-6.1587309999999995,"i_long":106.756522,"line":5,"distance":1614},{"time":2,"distance":2334,"transit":false,"i_long":106.737035,"station_name":"Bojongindah","station_id":"BOI","is_transit":false,"i_lat":-6.159876,"line":5},{"i_long":106.723064,"is_transit":false,"station_id":"RW","line":5,"transit":false,"distance":1152,"i_lat":-6.162758,"time":4,"station_name":"Rawa Buaya"},{"station_id":"KDS","is_transit":false,"line":5,"time":3,"distance":2504,"transit":false,"station_name":"Kalideres","i_lat":-6.166068,"i_long":106.701612},{"station_id":"PI","is_transit":false,"transit":false,"line":5,"distance":2548,"i_lat":-6.169933,"i_long":106.679458,"time":3,"station_name":"Poris"},{"distance":1834,"line":5,"time":3,"transit":false,"station_id":"BPR","i_long":106.665036,"station_name":"Batuceper","i_lat":-6.171811,"is_transit":false},{"line":5,"i_lat":-6.17331,"station_id":"TTI","station_name":"Tanah Tinggi","distance":2028,"transit":false,"i_long":106.64657,"is_transit":false,"time":3},{"station_id":"TNG","time":3,"distance":1547,"is_transit":false,"i_lat":-6.176583,"transit":false,"station_name":"Tangerang","i_long":106.632761,"line":5}],[{"transit":false,"line":2,"is_transit":false,"station_id":"PSM","i_long":106.843999,"distance":0,"station_name":"Pasar Minggu","i_lat":-6.2842400000000005,"time":0},{"line":2,"station_id":"PSMB","transit":false,"station_name":"Pasar Minggu Baru","is_transit":false,"i_long":106.851577,"time":2,"i_lat":-6.263214,"distance":2380},{"time":2,"i_long":106.85449,"station_name":"Duren Kalibata","station_id":"DRN","i_lat":-6.255332,"line":2,"distance":824,"transit":false,"is_transit":false},{"station_name":"Cawang","is_transit":false,"line":2,"transit":false,"distance":1546,"i_lat":-6.242512,"station_id":"CW","time":3,"i_long":106.856607},{"i_lat":-6.226659,"line":2,"is_transit":false,"station_name":"Tebet","time":2,"i_long":106.857948,"distance":1230,"station_id":"TEB","transit":false},{"distance":2610,"i_lat":-6.209883,"station_id":"MRI","i_long":106.84912,"station_name":"Manggarai","line":2,"transit":false,"is_transit":false,"time":4},{"time":4,"i_long":106.840169,"station_id":"CKI","station_name":"Cikini","line":2,"distance":1590,"transit":false,"is_transit":false,"i_lat":-6.198556},{"station_id":"GDD","station_name":"Gondangdia","i_long":106.832183,"is_transit":false,"line":2,"transit":false,"time":3,"i_lat":-6.186295,"distance":1750},{"is_transit":false,"time":4,"distance":2015,"station_name":"Juanda","i_long":106.828284,"i_lat":-6.166716,"line":2,"transit":false,"station_id":"JUA"},{"i_long":106.827103,"station_id":"SW","time":2,"station_name":"Sawah Besar","transit":false,"i_lat":-6.160725,"distance":1149,"is_transit":false,"line":2},{"time":2,"i_lat":-6.149769,"station_name":"Manggabesar","transit":false,"station_id":"MGB","distance":906,"is_transit":false,"i_long":106.82482,"line":2},{"station_id":"JAY","is_transit":false,"i_long":106.820901,"station_name":"Jayakarta","line":2,"distance":1080,"time":2,"transit":false,"i_lat":-6.141205},{"station_name":"Jakarta Kota","station_id":"JAKK","i_lat":-6.137569,"line":2,"i_long":106.812439,"distance":1264,"time":4,"is_transit":true,"transit":true},{"station_id":"KPB","distance":1364,"is_transit":true,"i_lat":-6.132549,"i_long":106.826365,"time":3,"line":4,"transit":true,"station_name":"Kampung Bandan"},{"is_transit":false,"station_id":"AK","distance":4102,"line":1,"time":9,"transit":false,"i_long":106.79867,"station_name":"Angke","i_lat":-6.144674},{"station_name":"Duri","station_id":"DU","line":1,"transit":true,"is_transit":true,"i_long":106.800832,"i_lat":-6.155215,"distance":1230,"time":4},{"i_lat":-6.162021,"station_name":"Grogol","station_id":"GGL","is_transit":false,"i_long":106.788277,"time":3,"transit":false,"distance":1700,"line":5},{"i_lat":-6.161433,"is_transit":false,"transit":false,"distance":2036,"line":5,"time":2,"i_long":106.771379,"station_id":"PSG","station_name":"Pesing"},{"line":5,"station_id":"TKO","i_lat":-6.1587309999999995,"distance":1614,"is_transit":false,"i_long":106.756522,"transit":false,"time":2,"station_name":"Taman Kota"},{"station_name":"Bojongindah","i_long":106.737035,"line":5,"distance":2334,"transit":false,"i_lat":-6.159876,"is_transit":false,"time":2,"station_id":"BOI"},{"transit":false,"station_name":"Rawa Buaya","is_transit":false,"i_long":106.723064,"station_id":"RW","i_lat":-6.162758,"line":5,"time":4,"distance":1152},{"i_long":106.701612,"transit":false,"station_name":"Kalideres","time":3,"i_lat":-6.166068,"line":5,"is_transit":false,"station_id":"KDS","distance":2504},{"i_lat":-6.169933,"line":5,"station_name":"Poris","time":3,"is_transit":false,"transit":false,"station_id":"PI","distance":2548,"i_long":106.679458},{"line":5,"i_long":106.665036,"transit":false,"station_id":"BPR","station_name":"Batuceper","distance":1834,"time":3,"i_lat":-6.171811,"is_transit":false},{"station_name":"Tanah Tinggi","station_id":"TTI","transit":false,"i_lat":-6.17331,"distance":2028,"line":5,"is_transit":false,"i_long":106.64657,"time":3},{"station_id":"TNG","i_lat":-6.176583,"i_long":106.632761,"distance":1547,"station_name":"Tangerang","is_transit":false,"time":3,"line":5,"transit":false}],[{"i_long":106.843999,"i_lat":-6.2842400000000005,"is_transit":false,"time":0,"transit":false,"station_name":"Pasar Minggu","distance":0,"line":2,"station_id":"PSM"},{"station_id":"PSMB","is_transit":false,"time":2,"station_name":"Pasar Minggu Baru","transit":false,"distance":2380,"i_lat":-6.263214,"line":2,"i_long":106.851577},{"is_transit":false,"time":2,"station_name":"Duren Kalibata","station_id":"DRN","i_lat":-6.255332,"i_long":106.85449,"transit":false,"line":2,"distance":824},{"station_id":"CW","transit":false,"i_lat":-6.242512,"is_transit":false,"line":2,"i_long":106.856607,"station_name":"Cawang","distance":1546,"time":3},{"i_lat":-6.226659,"is_transit":false,"line":2,"distance":1230,"station_name":"Tebet","i_long":106.857948,"transit":false,"time":2,"station_id":"TEB"},{"transit":true,"distance":2610,"i_long":106.84912,"time":4,"station_id":"MRI","line":2,"i_lat":-6.209883,"is_transit":true,"station_name":"Manggarai"},{"i_lat":-6.212485,"distance":1275,"time":2,"station_id":"MTR","is_transit":false,"line":1,"station_name":"Matraman","i_long":106.858896,"transit":false},{"station_name":"Jatinegara","transit":true,"station_id":"JNG","time":8,"is_transit":true,"line":1,"i_long":106.86807400000001,"distance":1377,"i_lat":-6.215091},{"i_long":106.861737,"station_id":"POK","time":2,"is_transit":false,"station_name":"Pondok Jati","transit":false,"line":11,"distance":1236,"i_lat":-6.209188},{"station_id":"KMT","i_lat":-6.193792,"distance":1829,"line":11,"station_name":"Kramat","i_long":106.855437,"transit":false,"is_transit":false,"time":2},{"i_lat":-6.185975,"is_transit":false,"i_long":106.850107,"line":11,"transit":false,"station_name":"Gang Sentiong","time":1,"station_id":"GST","distance":973},{"line":11,"transit":false,"distance":1567,"station_name":"Pasar Senen","is_transit":false,"station_id":"PSE","time":8,"i_lat":-6.174784,"i_long":106.84368},{"time":4,"distance":1436,"line":11,"i_lat":-6.161728,"station_id":"KMO","transit":false,"i_long":106.839204,"station_name":"Kemayoran","is_transit":false},{"is_transit":false,"i_lat":-6.14505,"station_name":"Rajawali","distance":1901,"transit":false,"line":11,"station_id":"RJW","time":5,"i_long":106.836569},{"i_lat":-6.132549,"station_name":"Kampung Bandan","is_transit":true,"distance":1444,"transit":true,"station_id":"KPB","time":3,"i_long":106.826365,"line":4},{"line":1,"i_lat":-6.144674,"station_name":"Angke","transit":false,"distance":4102,"i_long":106.79867,"station_id":"AK","time":9,"is_transit":false},{"line":1,"is_transit":true,"station_name":"Duri","i_lat":-6.155215,"transit":true,"time":4,"distance":1230,"i_long":106.800832,"station_id":"DU"},{"distance":1700,"transit":false,"i_lat":-6.162021,"i_long":106.788277,"time":3,"station_id":"GGL","is_transit":false,"station_name":"Grogol","line":5},{"is_transit":false,"line":5,"station_name":"Pesing","distance":2036,"i_lat":-6.161433,"transit":false,"i_long":106.771379,"time":2,"station_id":"PSG"},{"station_id":"TKO","transit":false,"time":2,"station_name":"Taman Kota","i_lat":-6.1587309999999995,"line":5,"distance":1614,"is_transit":false,"i_long":106.756522},{"line":5,"is_transit":false,"station_id":"BOI","i_lat":-6.159876,"i_long":106.737035,"transit":false,"time":2,"distance":2334,"station_name":"Bojongindah"},{"i_long":106.723064,"line":5,"distance":1152,"time":4,"i_lat":-6.162758,"transit":false,"station_id":"RW","is_transit":false,"station_name":"Rawa Buaya"},{"i_long":106.701612,"transit":false,"station_id":"KDS","is_transit":false,"station_name":"Kalideres","i_lat":-6.166068,"line":5,"time":3,"distance":2504},{"is_transit":false,"time":3,"distance":2548,"station_name":"Poris","line":5,"i_long":106.679458,"station_id":"PI","transit":false,"i_lat":-6.169933},{"station_name":"Batuceper","station_id":"BPR","time":3,"line":5,"i_long":106.665036,"is_transit":false,"transit":false,"i_lat":-6.171811,"distance":1834},{"transit":false,"station_id":"TTI","time":3,"i_long":106.64657,"line":5,"station_name":"Tanah Tinggi","is_transit":false,"i_lat":-6.17331,"distance":2028},{"distance":1547,"station_name":"Tangerang","transit":false,"station_id":"TNG","time":3,"i_long":106.632761,"is_transit":false,"line":5,"i_lat":-6.176583}]]}