{"data":[[{"transit":false,"i_long":106.843999,"i_lat":-6.2842400000000005,"is_transit":false,"time":0,"distance":0,"station_id":"PSM","station_name":"Pasar Minggu","line":2},{"i_lat":-6.263214,"i_long":106.851577,"station_name":"Pasar Minggu Baru","transit":false,"line":2,"distance":2380,"is_transit":false,"station_id":"PSMB","time":2},{"distance":824,"is_transit":false,"transit":false,"station_name":"Duren Kalibata","i_lat":-6.255332,"i_long":106.85449,"line":0,"time":2,"station_id":"DRN"},{"distance":1546,"i_long":106.856607,"line":0,"is_transit":false,"i_lat":-6.242512,"station_id":"CW","station_name":"Cawang","transit":false,"time":3},{"i_long":106.857948,"line":2,"distance":1230,"station_id":"TEB","transit":false,"station_name":"Tebet","is_transit":false,"i_lat":-6.226659,"time":2},{"transit":true,"i_lat":-6.209883,"station_id":"MRI","i_long":106.84912,"line":0,"time":4,"is_transit":true,"station_name":"Manggarai","distance":2610},{"distance":1590,"is_transit":false,"station_id":"CKI","station_name":"Cikini","transit":false,"line":0,"time":4,"i_lat":-6.198556,"i_long":106.840169}],[{"time":0,"transit":false,"line":2,"station_id":"PSM","is_transit":false,"i_lat":-6.2842400000000005,"i_long":106.843999,"distance":0,"station_name":"Pasar Minggu"},{"i_long":106.851577,"line":2,"is_transit":false,"station_id":"PSMB","station_name":"Pasar Minggu Baru","transit":false,"distance":2380,"time":2,"i_lat":-6.263214},{"line":0,"i_long":106.85449,"transit":false,"station_name":"Duren Kalibata","time":2,"i_lat":-6.255332,"station_id":"DRN","distance":824,"is_transit":false},{"time":3,"transit":false,"is_transit":false,"distance":1546,"station_id":"CW","station_name":"Cawang","i_long":106.856607,"line":0,"i_lat":-6.242512},{"i_long":106.857948,"line":2,"distance":1230,"station_name":"Tebet","is_transit":false,"transit":false,"station_id":"TEB","time":2,"i_lat":-6.226659},{"is_transit":true,"i_lat":-6.209883,"station_name":"Manggarai","time":4,"transit":true,"line":0,"i_long":106.84912,"distance":2610,"station_id":"MRI"},{"i_lat":-6.202263,"time":4,"station_id":"SUD","i_long":106.822649,"distance":3186,"transit":false,"line":1,"station_name":"Sudirman","is_transit":false},{"station_name":"Sudirman Baru","i_long":106.819881,"i_lat":-6.201433,"line":1,"station_id":"SUDB","distance":280,"is_transit":false,"transit":false,"time":1},{"i_lat":-6.20132,"distance":471,"is_transit":false,"transit":false,"station_name":"Karet","time":1,"line":1,"i_long":106.816351,"station_id":"KAT"},{"line":1,"transit":false,"station_name":"Tanah Abang","time":5,"is_transit":true,"station_id":"THB","i_lat":-6.185545,"i_long":106.811091,"distance":2029},{"i_long":106.800832,"time":8,"i_lat":-6.155215,"line":1,"transit":true,"distance":3632,"is_transit":true,"station_id":"DU","station_name":"Duri"},{"is_transit":false,"station_id":"AK","i_lat":-6.144674,"time":4,"station_name":"Angke","i_long":106.79867,"distance":1230,"transit":false,"line":0},{"distance":4102,"i_long":106.826365,"station_name":"Kampung Bandan","is_transit":true,"transit":false,"line":0,"station_id":"KPB","time":9,"i_lat":-6.132549},{"time":3,"i_lat":-6.137569,"transit":true,"i_long":106.812439,"distance":1364,"is_transit":true,"station_id":"JAKK","line":0,"station_name":"Jakarta Kota"},{"line":7,"distance":1264,"i_lat":-6.141205,"i_long":106.820901,"transit":false,"station_name":"Jayakarta","is_transit":false,"station_id":"JAY","time":4},{"station_name":"Manggabesar","i_long":106.82482,"line":2,"is_transit":false,"i_lat":-6.149769,"time":2,"transit":false,"distance":1080,"station_id":"MGB"},{"i_long":106.827103,"station_id":"SW","distance":906,"station_name":"Sawah Besar","i_lat":-6.160725,"line":2,"is_transit":false,"time":2,"transit":false},{"station_id":"JUA","i_long":106.828284,"is_transit":false,"station_name":"Juanda","time":2,"line":2,"distance":1149,"transit":false,"i_lat":-6.166716},{"i_lat":-6.186295,"station_id":"GDD","transit":false,"is_transit":false,"i_long":106.832183,"line":2,"time":4,"distance":2015,"station_name":"Gondangdia"},{"i_long":106.840169,"time":3,"station_name":"Cikini","station_id":"CKI","transit":false,"i_lat":-6.198556,"is_transit":false,"distance":1750,"line":0}],[{"distance":0,"station_id":"PSM","station_name":"Pasar Minggu","i_long":106.843999,"is_transit":false,"line":2,"time":0,"i_lat":-6.2842400000000005,"transit":false},{"i_long":106.851577,"distance":2380,"i_lat":-6.263214,"time":2,"station_name":"Pasar Minggu Baru","station_id":"PSMB","transit":false,"line":2,"is_transit":false},{"station_name":"Duren Kalibata","line":0,"time":2,"i_long":106.85449,"distance":824,"is_transit":false,"station_id":"DRN","transit":false,"i_lat":-6.255332},{"is_transit":false,"time":3,"distance":1546,"station_id":"CW","line":0,"transit":false,"i_lat":-6.242512,"i_long":106.856607,"station_name":"Cawang"},{"is_transit":false,"station_name":"Tebet","transit":false,"distance":1230,"station_id":"TEB","i_long":106.857948,"line":2,"i_lat":-6.226659,"time":2},{"distance":2610,"is_transit":true,"station_id":"MRI","transit":true,"i_long":106.84912,"station_name":"Manggarai","time":4,"i_lat":-6.209883,"line":0},{"i_lat":-6.212485,"distance":1275,"i_long":106.858896,"station_name":"Matraman","is_transit":false,"station_id":"MTR","transit":false,"time":2,"line":1},{"station_name":"Jatinegara","line":0,"i_long":106.86807400000001,"is_transit":true,"distance":1377,"i_lat":-6.215091,"transit":true,"time":8,"station_id":"JNG"},{"i_lat":-6.209188,"is_transit":false,"station_name":"Pondok Jati","i_long":106.861737,"line":11,"transit":false,"station_id":"POK","time":2,"distance":1236},{"time":2,"i_long":106.855437,"line":11,"i_lat":-6.193792,"is_transit":false,"station_id":"KMT","transit":false,"station_name":"Kramat","distance":1829},{"station_name":"Gang Sentiong","line":11,"time":1,"distance":973,"is_transit":false,"i_lat":-6.185975,"transit":false,"station_id":"GST","i_long":106.850107},{"station_name":"Pasar Senen","station_id":"PSE","i_lat":-6.174784,"time":8,"distance":1567,"is_transit":false,"line":11,"transit":false,"i_long":106.84368},{"line":11,"i_lat":-6.161728,"station_id":"KMO","time":4,"transit":false,"distance":1436,"is_transit":false,"station_name":"Kemayoran","i_long":106.839204},{"station_name":"Rajawali","station_id":"RJW","i_long":106.836569,"i_lat":-6.14505,"distance":1901,"transit":false,"is_transit":false,"time":5,"line":11},{"transit":true,"distance":1444,"i_lat":-6.132549,"line":0,"station_name":"Kampung Bandan","station_id":"KPB","time":3,"i_long":106.826365,"is_transit":true},{"time":3,"i_lat":-6.137569,"line":0,"i_long":106.812439,"is_transit":true,"station_name":"Jakarta Kota","distance":1364,"station_id":"JAKK","transit":true},{"i_long":106.820901,"line":7,"time":4,"station_id":"JAY","distance":1264,"is_transit":false,"station_name":"Jayakarta","transit":false,"i_lat":-6.141205},{"time":2,"station_id":"MGB","i_lat":-6.149769,"i_long":106.82482,"line":2,"station_name":"Manggabesar","transit":false,"is_transit":false,"distance":1080},{"is_transit":false,"line":2,"station_id":"SW","distance":906,"i_long":106.827103,"time":2,"station_name":"Sawah Besar","i_lat":-6.160725,"transit":false},{"i_long":106.828284,"is_transit":false,"transit":false,"i_lat":-6.166716,"distance":1149,"time":2,"line":2,"station_id":"JUA","station_name":"Juanda"},{"distance":2015,"is_transit":false,"station_id":"GDD","station_name":"Gondangdia","time":4,"i_long":106.832183,"i_lat":-6.186295,"line":2,"transit":false},{"is_transit":false,"i_lat":-6.198556,"i_long":106.840169,"station_id":"CKI","station_name":"Cikini","transit":false,"line":0,"distance":1750,"time":3}]]}