{"data":[[{"time":0,"i_long":106.843999,"station_name":"Pasar Minggu","distance":0,"is_transit":false,"line":2,"station_id":"PSM","i_lat":-6.2842400000000005,"transit":false},{"station_id":"PSMB","is_transit":false,"time":2,"distance":2380,"station_name":"Pasar Minggu Baru","transit":false,"i_lat":-6.263214,"line":2,"i_long":106.851577},{"i_lat":-6.255332,"i_long":106.85449,"is_transit":false,"station_name":"Duren Kalibata","time":2,"distance":824,"station_id":"DRN","transit":false,"line":2},{"time":3,"line":2,"i_long":106.856607,"distance":1546,"station_name":"Cawang","transit":false,"is_transit":false,"i_lat":-6.242512,"station_id":"CW"},{"time":2,"i_long":106.857948,"i_lat":-6.226659,"is_transit":false,"transit":false,"station_name":"Tebet","line":2,"station_id":"TEB","distance":1230},{"i_lat":-6.209883,"i_long":106.84912,"is_transit":true,"line":2,"time":4,"distance":2610,"station_name":"Manggarai","station_id":"MRI","transit":true},{"station_id":"SUD","i_lat":-6.202263,"line":1,"is_transit":false,"transit":false,"time":4,"station_name":"Sudirman","distance":3186,"i_long":106.822649},{"i_lat":-6.201433,"i_long":106.819881,"distance":280,"is_transit":false,"time":1,"transit":false,"line":1,"station_name":"Sudirman Baru","station_id":"SUDB"},{"station_id":"KAT","station_name":"Karet","line":1,"is_transit":false,"i_lat":-6.20132,"transit":false,"time":1,"i_long":106.816351,"distance":471},{"station_id":"THB","is_transit":true,"time":5,"station_name":"Tanah Abang","i_lat":-6.185545,"i_long":106.811091,"transit":true,"line":1,"distance":2029},{"station_name":"Palmerah","is_transit":false,"i_lat":-6.207404,"station_id":"PLM","time":6,"distance":3191,"transit":false,"line":6,"i_long":106.79689},{"station_name":"Kebayoran","station_id":"KBY","i_long":106.780334,"line":6,"time":7,"transit":false,"i_lat":-6.237242,"is_transit":false,"distance":3737},{"line":6,"station_id":"PDJ","transit":false,"time":8,"is_transit":false,"distance":6218,"station_name":"Pondokranji","i_lat":-6.276362,"i_long":106.74273},{"station_name":"Jurangmangu","i_long":106.728916,"station_id":"JMU","i_lat":-6.288927,"is_transit":false,"time":3,"distance":2179,"transit":false,"line":6},{"line":6,"station_id":"SDM","i_long":106.712277,"distance":1994,"station_name":"Sudimara","transit":false,"i_lat":-6.296963,"time":4,"is_transit":false},{"line":6,"station_id":"RU","distance":4566,"station_name":"Rawa Buntu","i_long":106.675475,"time":6,"is_transit":false,"transit":false,"i_lat":-6.314823},{"station_id":"SRP","station_name":"Serpong","transit":false,"i_long":106.66566,"line":6,"i_lat":-6.319871,"time":4,"is_transit":false,"distance":2413},{"i_long":106.640411,"line":3,"is_transit":false,"time":4,"station_name":"Cisauk","distance":1784,"transit":false,"station_id":"CSK","i_lat":-6.32484},{"i_lat":-6.329547,"station_name":"Cicayur","station_id":"CC","time":4,"i_long":106.617853,"is_transit":false,"line":3,"distance":2519,"transit":false},{"transit":false,"is_transit":false,"line":6,"distance":5968,"station_id":"PRP","time":8,"station_name":"Parung Panjang","i_long":106.568863,"i_lat":-6.3441410000000005},{"transit":false,"line":3,"station_id":"CJT","is_transit":false,"i_lat":-6.354349,"i_long":106.508482,"distance":7025,"station_name":"Cilejit","time":9},{"station_id":"DAR","i_long":106.491338,"i_lat":-6.338021,"line":0,"time":6,"station_name":"Daru","transit":false,"distance":2675,"is_transit":false}],[{"is_transit":false,"transit":false,"i_long":106.843999,"distance":0,"line":2,"station_name":"Pasar Minggu","station_id":"PSM","time":0,"i_lat":-6.2842400000000005},{"i_long":106.851577,"line":2,"time":2,"station_name":"Pasar Minggu Baru","i_lat":-6.263214,"transit":false,"is_transit":false,"distance":2380,"station_id":"PSMB"},{"distance":824,"station_name":"Duren Kalibata","transit":false,"i_long":106.85449,"station_id":"DRN","line":2,"is_transit":false,"i_lat":-6.255332,"time":2},{"station_name":"Cawang","transit":false,"station_id":"CW","is_transit":false,"i_lat":-6.242512,"distance":1546,"i_long":106.856607,"time":3,"line":2},{"i_long":106.857948,"i_lat":-6.226659,"time":2,"is_transit":false,"transit":false,"distance":1230,"station_name":"Tebet","station_id":"TEB","line":2},{"line":2,"station_name":"Manggarai","is_transit":false,"transit":false,"time":4,"distance":2610,"i_long":106.84912,"station_id":"MRI","i_lat":-6.209883},{"station_name":"Cikini","line":2,"distance":1590,"time":4,"transit":false,"station_id":"CKI","is_transit":false,"i_long":106.840169,"i_lat":-6.198556},{"transit":false,"is_transit":false,"time":3,"station_name":"Gondangdia","station_id":"GDD","i_long":106.832183,"i_lat":-6.186295,"distance":1750,"line":2},{"time":4,"line":2,"station_id":"JUA","is_transit":false,"i_lat":-6.166716,"station_name":"Juanda","distance":2015,"transit":false,"i_long":106.828284},{"i_lat":-6.160725,"transit":false,"time":2,"is_transit":false,"station_name":"Sawah Besar","station_id":"SW","line":2,"i_long":106.827103,"distance":1149},{"line":2,"transit":false,"i_lat":-6.149769,"is_transit":false,"i_long":106.82482,"station_id":"MGB","time":2,"distance":906,"station_name":"Manggabesar"},{"station_name":"Jayakarta","i_lat":-6.141205,"i_long":106.820901,"transit":false,"time":2,"line":2,"station_id":"JAY","is_transit":false,"distance":1080},{"is_transit":true,"i_long":106.812439,"station_id":"JAKK","transit":true,"time":4,"distance":1264,"i_lat":-6.137569,"station_name":"Jakarta Kota","line":2},{"station_name":"Kampung Bandan","i_long":106.826365,"time":3,"line":4,"i_lat":-6.132549,"is_transit":true,"station_id":"KPB","transit":true,"distance":1364},{"is_transit":false,"station_name":"Angke","transit":false,"i_lat":-6.144674,"i_long":106.79867,"time":9,"distance":4102,"line":1,"station_id":"AK"},{"i_long":106.800832,"station_id":"DU","is_transit":false,"transit":false,"time":4,"distance":1230,"station_name":"Duri","i_lat":-6.155215,"line":1},{"i_long":106.811091,"time":8,"distance":3632,"station_id":"THB","line":1,"transit":true,"i_lat":-6.185545,"is_transit":true,"station_name":"Tanah Abang"},{"is_transit":false,"i_lat":-6.207404,"line":6,"transit":false,"i_long":106.79689,"station_id":"PLM","station_name":"Palmerah","time":6,"distance":3191},{"is_transit":false,"distance":3737,"station_id":"KBY","i_lat":-6.237242,"line":6,"station_name":"Kebayoran","i_long":106.780334,"transit":false,"time":7},{"is_transit":false,"line":6,"distance":6218,"i_lat":-6.276362,"station_name":"Pondokranji","time":8,"station_id":"PDJ","i_long":106.74273,"transit":false},{"transit":false,"i_lat":-6.288927,"station_name":"Jurangmangu","is_transit":false,"station_id":"JMU","time":3,"distance":2179,"i_long":106.728916,"line":6},{"station_id":"SDM","time":4,"i_long":106.712277,"distance":1994,"is_transit":false,"i_lat":-6.296963,"station_name":"Sudimara","transit":false,"line":6},{"i_lat":-6.314823,"is_transit":false,"distance":4566,"i_long":106.675475,"line":6,"transit":false,"station_name":"Rawa Buntu","time":6,"station_id":"RU"},{"station_name":"Serpong","i_lat":-6.319871,"transit":false,"time":4,"i_long":106.66566,"distance":2413,"line":6,"is_transit":false,"station_id":"SRP"},{"distance":1784,"station_id":"CSK","i_lat":-6.32484,"transit":false,"line":3,"i_long":106.640411,"station_name":"Cisauk","time":4,"is_transit":false},{"i_long":106.617853,"time":4,"i_lat":-6.329547,"line":3,"station_name":"Cicayur","is_transit":false,"station_id":"CC","transit":false,"distance":2519},{"time":8,"is_transit":false,"station_id":"PRP","i_long":106.568863,"line":6,"station_name":"Parung Panjang","i_lat":-6.3441410000000005,"transit":false,"distance":5968},{"transit":false,"is_transit":false,"station_id":"CJT","i_lat":-6.354349,"station_name":"Cilejit","i_long":106.508482,"line":3,"distance":7025,"time":9},{"i_lat":-6.338021,"i_long":106.491338,"line":0,"station_id":"DAR","station_name":"Daru","is_transit":false,"time":6,"distance":2675,"transit":false}],[{"is_transit":false,"line":2,"transit":false,"distance":0,"time":0,"station_id":"PSM","i_long":106.843999,"i_lat":-6.2842400000000005,"station_name":"Pasar Minggu"},{"time":2,"is_transit":false,"transit":false,"i_long":106.851577,"station_name":"Pasar Minggu Baru","distance":2380,"line":2,"station_id":"PSMB","i_lat":-6.263214},{"is_transit":false,"transit":false,"station_name":"Duren Kalibata","time":2,"distance":824,"line":2,"i_lat":-6.255332,"i_long":106.85449,"station_id":"DRN"},{"distance":1546,"station_name":"Cawang","time":3,"transit":false,"station_id":"CW","is_transit":false,"i_lat":-6.242512,"line":2,"i_long":106.856607},{"i_long":106.857948,"transit":false,"time":2,"is_transit":false,"distance":1230,"i_lat":-6.226659,"line":2,"station_name":"Tebet","station_id":"TEB"},{"station_id":"MRI","distance":2610,"station_name":"Manggarai","i_long":106.84912,"line":2,"is_transit":true,"i_lat":-6.209883,"transit":true,"time":4},{"station_id":"MTR","is_transit":false,"i_lat":-6.212485,"transit":false,"distance":1275,"i_long":106.858896,"station_name":"Matraman","time":2,"line":1},{"time":8,"i_lat":-6.215091,"station_name":"Jatinegara","i_long":106.86807400000001,"distance":1377,"is_transit":true,"line":1,"transit":true,"station_id":"JNG"},{"line":11,"station_name":"Pondok Jati","transit":false,"time":2,"is_transit":false,"distance":1236,"station_id":"POK","i_long":106.861737,"i_lat":-6.209188},{"time":2,"is_transit":false,"distance":1829,"i_long":106.855437,"i_lat":-6.193792,"line":11,"station_name":"Kramat","station_id":"KMT","transit":false},{"distance":973,"i_lat":-6.185975,"station_name":"Gang Sentiong","i_long":106.850107,"is_transit":false,"time":1,"line":11,"station_id":"GST","transit":false},{"transit":false,"station_name":"Pasar Senen","distance":1567,"i_lat":-6.174784,"line":11,"time":8,"is_transit":false,"station_id":"PSE","i_long":106.84368},{"station_name":"Kemayoran","distance":1436,"i_long":106.839204,"is_transit":false,"station_id":"KMO","transit":false,"time":4,"line":11,"i_lat":-6.161728},{"transit":false,"is_transit":false,"time":5,"i_long":106.836569,"station_id":"RJW","distance":1901,"i_lat":-6.14505,"line":11,"station_name":"Rajawali"},{"is_transit":true,"distance":1444,"transit":true,"i_long":106.826365,"station_id":"KPB","station_name":"Kampung Bandan","time":3,"i_lat":-6.132549,"line":4},{"station_name":"Angke","transit":false,"is_transit":false,"station_id":"AK","line":1,"i_lat":-6.144674,"distance":4102,"i_long":106.79867,"time":9},{"is_transit":false,"station_name":"Duri","station_id":"DU","time":4,"i_lat":-6.155215,"distance":1230,"line":1,"transit":false,"i_long":106.800832},{"transit":true,"i_lat":-6.185545,"station_id":"THB","time":8,"station_name":"Tanah Abang","distance":3632,"is_transit":true,"i_long":106.811091,"line":1},{"is_transit":false,"distance":3191,"line":6,"station_name":"Palmerah","i_lat":-6.207404,"transit":false,"i_long":106.79689,"time":6,"station_id":"PLM"},{"line":6,"is_transit":false,"station_id":"KBY","i_long":106.780334,"station_name":"Kebayoran","transit":false,"time":7,"distance":3737,"i_lat":-6.237242},{"i_long":106.74273,"station_id":"PDJ","time":8,"distance":6218,"i_lat":-6.276362,"is_transit":false,"line":6,"station_name":"Pondokranji","transit":false},{"line":6,"time":3,"station_name":"Jurangmangu","is_transit":false,"transit":false,"distance":2179,"i_lat":-6.288927,"i_long":106.728916,"station_id":"JMU"},{"i_lat":-6.296963,"i_long":106.712277,"is_transit":false,"line":6,"station_id":"SDM","distance":1994,"station_name":"Sudimara","transit":false,"time":4},{"distance":4566,"is_transit":false,"i_lat":-6.314823,"transit":false,"station_id":"RU","line":6,"station_name":"Rawa Buntu","time":6,"i_long":106.675475},{"station_id":"SRP","transit":false,"time":4,"i_long":106.66566,"i_lat":-6.319871,"station_name":"Serpong","distance":2413,"is_transit":false,"line":6},{"station_id":"CSK","time":4,"i_lat":-6.32484,"station_name":"Cisauk","i_long":106.640411,"is_transit":false,"transit":false,"distance":1784,"line":3},{"line":3,"is_transit":false,"time":4,"distance":2519,"transit":false,"station_id":"CC","station_name":"Cicayur","i_lat":-6.329547,"i_long":106.617853},{"station_id":"PRP","i_lat":-6.3441410000000005,"transit":false,"i_long":106.568863,"time":8,"distance":5968,"station_name":"Parung Panjang","line":6,"is_transit":false},{"line":3,"distance":7025,"i_long":106.508482,"transit":false,"time":9,"i_lat":-6.354349,"station_name":"Cilejit","is_transit":false,"station_id":"CJT"},{"station_name":"Daru","transit":false,"is_transit":false,"distance":2675,"line":0,"i_lat":-6.338021,"station_id":"DAR","time":6,"i_long":106.491338}]]}