{"data":[[{"station_name":"Pasar Minggu","is_transit":false,"distance":0,"line":2,"i_lat":-6.2842400000000005,"i_long":106.843999,"time":0,"transit":false,"station_id":"PSM"},{"is_transit":false,"time":2,"station_name":"Pasar Minggu Baru","distance":2380,"line":2,"transit":false,"station_id":"PSMB","i_lat":-6.263214,"i_long":106.851577},{"transit":false,"is_transit":false,"i_long":106.85449,"distance":824,"i_lat":-6.255332,"line":2,"station_id":"DRN","time":2,"station_name":"Duren Kalibata"},{"distance":1546,"is_transit":false,"line":2,"i_lat":-6.242512,"time":3,"station_name":"Cawang","i_long":106.856607,"station_id":"CW","transit":false},{"i_lat":-6.226659,"i_long":106.857948,"station_id":"TEB","is_transit":false,"line":2,"station_name":"Tebet","transit":false,"distance":1230,"time":2},{"time":4,"station_name":"Manggarai","transit":true,"i_lat":-6.209883,"line":2,"station_id":"MRI","is_transit":true,"i_long":106.84912,"distance":2610},{"distance":1275,"time":2,"is_transit":false,"station_name":"Matraman","i_lat":-6.212485,"i_long":106.858896,"line":1,"transit":false,"station_id":"MTR"},{"transit":false,"i_lat":-6.215091,"station_name":"Jatinegara","time":8,"is_transit":false,"station_id":"JNG","distance":1377,"i_long":106.86807400000001,"line":1},{"i_long":106.899548,"is_transit":false,"line":1,"i_lat":-6.2135,"distance":3395,"transit":false,"station_name":"Klender","station_id":"KLD","time":3},{"time":2,"i_lat":-6.215568,"station_name":"Buaran","distance":3100,"transit":false,"is_transit":false,"station_id":"BUA","i_long":106.922662,"line":1},{"is_transit":false,"station_id":"KLDB","line":1,"transit":false,"i_long":106.939679,"station_name":"Klenderbaru","time":1,"distance":1305,"i_lat":-6.217455},{"station_name":"Cakung","station_id":"CUK","is_transit":false,"distance":1385,"i_long":106.951283,"i_lat":-6.219053,"time":8,"transit":false,"line":1},{"station_name":"Kranji","station_id":"KRI","distance":3097,"transit":false,"time":3,"i_lat":-6.224515,"i_long":106.977657,"line":1,"is_transit":false},{"distance":2520,"i_lat":-6.236616,"station_id":"BKS","line":1,"transit":false,"is_transit":false,"i_long":106.997013,"time":4,"station_name":"Bekasi"},{"transit":false,"station_id":"BKST","is_transit":false,"time":2,"station_name":"Bekasi Timur","i_lat":-6.248029,"i_long":107.016735,"line":1,"distance":2368},{"transit":false,"distance":4460,"i_lat":-6.258864,"time":7,"i_long":107.055722,"is_transit":false,"line":1,"station_id":"TB","station_name":"Tambun"},{"line":1,"distance":3420,"station_name":"Cibitung","station_id":"CIT","time":3,"i_long":107.083084,"is_transit":false,"i_lat":-6.261877,"transit":false}],[{"station_name":"Pasar Minggu","line":2,"transit":false,"station_id":"PSM","time":0,"distance":0,"i_lat":-6.2842400000000005,"is_transit":false,"i_long":106.843999},{"line":2,"station_name":"Pasar Minggu Baru","time":2,"i_long":106.851577,"station_id":"PSMB","transit":false,"is_transit":false,"distance":2380,"i_lat":-6.263214},{"station_id":"DRN","is_transit":false,"i_lat":-6.255332,"distance":824,"station_name":"Duren Kalibata","line":2,"time":2,"transit":false,"i_long":106.85449},{"transit":false,"i_lat":-6.242512,"i_long":106.856607,"station_name":"Cawang","line":2,"station_id":"CW","distance":1546,"is_transit":false,"time":3},{"transit":false,"station_id":"TEB","i_lat":-6.226659,"station_name":"Tebet","is_transit":false,"i_long":106.857948,"line":2,"distance":1230,"time":2},{"is_transit":true,"time":4,"distance":2610,"i_lat":-6.209883,"i_long":106.84912,"station_id":"MRI","line":2,"station_name":"Manggarai","transit":true},{"i_lat":-6.202263,"transit":false,"time":4,"distance":3186,"line":1,"station_id":"SUD","is_transit":false,"station_name":"Sudirman","i_long":106.822649},{"transit":false,"station_id":"SUDB","i_lat":-6.201433,"is_transit":false,"i_long":106.819881,"line":1,"station_name":"Sudirman Baru","time":1,"distance":280},{"station_id":"KAT","i_long":106.816351,"is_transit":false,"time":1,"line":1,"i_lat":-6.20132,"distance":471,"transit":false,"station_name":"Karet"},{"transit":false,"is_transit":false,"distance":2029,"i_lat":-6.185545,"line":1,"i_long":106.811091,"station_name":"Tanah Abang","station_id":"THB","time":5},{"time":8,"transit":false,"is_transit":false,"station_name":"Duri","distance":3632,"i_long":106.800832,"line":1,"i_lat":-6.155215,"station_id":"DU"},{"i_lat":-6.144674,"is_transit":false,"station_name":"Angke","line":1,"transit":false,"distance":1230,"time":4,"i_long":106.79867,"station_id":"AK"},{"is_transit":true,"distance":4102,"transit":true,"i_lat":-6.132549,"i_long":106.826365,"line":4,"time":9,"station_id":"KPB","station_name":"Kampung Bandan"},{"transit":false,"station_name":"Rajawali","station_id":"RJW","is_transit":false,"time":3,"distance":1444,"i_long":106.836569,"line":11,"i_lat":-6.14505},{"i_lat":-6.161728,"transit":false,"distance":1901,"time":5,"station_id":"KMO","is_transit":false,"line":11,"i_long":106.839204,"station_name":"Kemayoran"},{"line":11,"i_long":106.84368,"station_name":"Pasar Senen","station_id":"PSE","time":4,"distance":1436,"transit":false,"i_lat":-6.174784,"is_transit":false},{"i_long":106.850107,"time":8,"line":11,"i_lat":-6.185975,"station_name":"Gang Sentiong","distance":1567,"is_transit":false,"station_id":"GST","transit":false},{"station_id":"KMT","time":1,"line":11,"i_lat":-6.193792,"station_name":"Kramat","transit":false,"distance":973,"i_long":106.855437,"is_transit":false},{"is_transit":false,"i_lat":-6.209188,"i_long":106.861737,"line":11,"station_id":"POK","distance":1829,"transit":false,"time":2,"station_name":"Pondok Jati"},{"time":9,"distance":1236,"station_id":"JNG","i_long":106.86807400000001,"line":1,"is_transit":true,"station_name":"Jatinegara","transit":true,"i_lat":-6.215091},{"is_transit":false,"line":1,"station_name":"Klender","station_id":"KLD","transit":false,"i_lat":-6.2135,"time":3,"distance":3395,"i_long":106.899548},{"station_id":"BUA","is_transit":false,"i_long":106.922662,"i_lat":-6.215568,"line":1,"station_name":"Buaran","distance":3100,"transit":false,"time":2},{"i_long":106.939679,"station_name":"Klenderbaru","time":1,"line":1,"station_id":"KLDB","is_transit":false,"i_lat":-6.217455,"transit":false,"distance":1305},{"station_id":"CUK","transit":false,"is_transit":false,"time":8,"distance":1385,"i_long":106.951283,"station_name":"Cakung","i_lat":-6.219053,"line":1},{"time":3,"line":1,"i_lat":-6.224515,"i_long":106.977657,"is_transit":false,"transit":false,"station_id":"KRI","station_name":"Kranji","distance":3097},{"is_transit":false,"i_long":106.997013,"transit":false,"i_lat":-6.236616,"time":4,"line":1,"station_name":"Bekasi","station_id":"BKS","distance":2520},{"transit":false,"time":2,"station_name":"Bekasi Timur","is_transit":false,"distance":2368,"line":1,"i_lat":-6.248029,"station_id":"BKST","i_long":107.016735},{"transit":false,"time":7,"is_transit":false,"i_lat":-6.258864,"i_long":107.055722,"line":1,"station_id":"TB","distance":4460,"station_name":"Tambun"},{"station_id":"CIT","station_name":"Cibitung","distance":3420,"i_lat":-6.261877,"is_transit":false,"transit":false,"i_long":107.083084,"time":3,"line":1}],[{"station_id":"PSM","station_name":"Pasar Minggu","i_long":106.843999,"line":2,"transit":false,"time":0,"distance":0,"is_transit":false,"i_lat":-6.2842400000000005},{"time":2,"station_id":"PSMB","transit":false,"is_transit":false,"distance":2380,"i_long":106.851577,"line":2,"station_name":"Pasar Minggu Baru","i_lat":-6.263214},{"i_long":106.85449,"station_id":"DRN","line":2,"transit":false,"station_name":"Duren Kalibata","is_transit":false,"time":2,"distance":824,"i_lat":-6.255332},{"is_transit":false,"station_id":"CW","i_lat":-6.242512,"i_long":106.856607,"transit":false,"time":3,"line":2,"distance":1546,"station_name":"Cawang"},{"station_id":"TEB","is_transit":false,"transit":false,"i_lat":-6.226659,"time":2,"station_name":"Tebet","line":2,"i_long":106.857948,"distance":1230},{"distance":2610,"line":2,"is_transit":false,"i_lat":-6.209883,"i_long":106.84912,"transit":false,"station_name":"Manggarai","time":4,"station_id":"MRI"},{"line":2,"transit":false,"i_long":106.840169,"time":4,"station_id":"CKI","station_name":"Cikini","distance":1590,"i_lat":-6.198556,"is_transit":false},{"station_name":"Gondangdia","is_transit":false,"line":2,"distance":1750,"i_lat":-6.186295,"station_id":"GDD","transit":false,"time":3,"i_long":106.832183},{"station_name":"Juanda","i_lat":-6.166716,"i_long":106.828284,"time":4,"line":2,"distance":2015,"station_id":"JUA","is_transit":false,"transit":false},{"i_lat":-6.160725,"is_transit":false,"distance":1149,"transit":false,"station_name":"Sawah Besar","station_id":"SW","line":2,"i_long":106.827103,"time":2},{"transit":false,"distance":906,"i_long":106.82482,"line":2,"station_id":"MGB","station_name":"Manggabesar","time":2,"is_transit":false,"i_lat":-6.149769},{"distance":1080,"i_lat":-6.141205,"line":2,"station_id":"JAY","station_name":"Jayakarta","is_transit":false,"transit":false,"i_long":106.820901,"time":2},{"time":4,"i_long":106.812439,"line":2,"station_id":"JAKK","i_lat":-6.137569,"transit":true,"distance":1264,"station_name":"Jakarta Kota","is_transit":true},{"i_lat":-6.132549,"station_name":"Kampung Bandan","is_transit":true,"i_long":106.826365,"line":4,"distance":1364,"transit":true,"station_id":"KPB","time":3},{"station_id":"RJW","line":11,"transit":false,"i_lat":-6.14505,"time":3,"i_long":106.836569,"is_transit":false,"station_name":"Rajawali","distance":1444},{"station_name":"Kemayoran","time":5,"i_long":106.839204,"station_id":"KMO","transit":false,"is_transit":false,"distance":1901,"line":11,"i_lat":-6.161728},{"transit":false,"distance":1436,"i_long":106.84368,"i_lat":-6.174784,"station_id":"PSE","is_transit":false,"line":11,"station_name":"Pasar Senen","time":4},{"is_transit":false,"transit":false,"station_id":"GST","time":8,"station_name":"Gang Sentiong","i_lat":-6.185975,"line":11,"distance":1567,"i_long":106.850107},{"transit":false,"time":1,"station_name":"Kramat","i_long":106.855437,"distance":973,"line":11,"is_transit":false,"station_id":"KMT","i_lat":-6.193792},{"transit":false,"station_id":"POK","is_transit":false,"i_lat":-6.209188,"distance":1829,"station_name":"Pondok Jati","time":2,"i_long":106.861737,"line":11},{"station_id":"JNG","is_transit":true,"time":9,"station_name":"Jatinegara","distance":1236,"i_lat":-6.215091,"i_long":106.86807400000001,"transit":true,"line":1},{"station_name":"Klender","i_long":106.899548,"transit":false,"line":1,"time":3,"distance":3395,"is_transit":false,"station_id":"KLD","i_lat":-6.2135},{"station_name":"Buaran","transit":false,"distance":3100,"is_transit":false,"i_lat":-6.215568,"i_long":106.922662,"time":2,"line":1,"station_id":"BUA"},{"i_lat":-6.217455,"transit":false,"is_transit":false,"station_id":"KLDB","time":1,"distance":1305,"station_name":"Klenderbaru","i_long":106.939679,"line":1},{"line":1,"station_name":"Cakung","station_id":"CUK","i_lat":-6.219053,"transit":false,"distance":1385,"time":8,"i_long":106.951283,"is_transit":false},{"is_transit":false,"distance":3097,"i_lat":-6.224515,"i_long":106.977657,"time":3,"line":1,"station_id":"KRI","transit":false,"station_name":"Kranji"},{"time":4,"distance":2520,"transit":false,"i_long":106.997013,"line":1,"station_id":"BKS","i_lat":-6.236616,"station_name":"Bekasi","is_transit":false},{"line":1,"time":2,"i_lat":-6.248029,"i_long":107.016735,"distance":2368,"transit":false,"is_transit":false,"station_name":"Bekasi Timur","station_id":"BKST"},{"station_name":"Tambun","line":1,"i_long":107.055722,"transit":false,"time":7,"station_id":"TB","is_transit":false,"distance":4460,"i_lat":-6.258864},{"i_lat":-6.261877,"is_transit":false,"i_long":107.083084,"distance":3420,"station_name":"Cibitung","station_id":"CIT","line":1,"time":3,"transit":false}]]}