{"data":[[{"distance":0,"is_transit":false,"transit":false,"line":2,"time":0,"station_id":"PSM","station_name":"Pasar Minggu","i_long":106.843999,"i_lat":-6.2842400000000005},{"i_lat":-6.263214,"line":2,"station_id":"PSMB","is_transit":false,"i_long":106.851577,"transit":false,"station_name":"Pasar Minggu Baru","time":2,"distance":2380},{"time":2,"is_transit":false,"distance":824,"station_id":"DRN","station_name":"Duren Kalibata","i_lat":-6.255332,"line":0,"i_long":106.85449,"transit":false},{"i_lat":-6.242512,"i_long":106.856607,"distance":1546,"station_id":"CW","station_name":"Cawang","is_transit":false,"transit":false,"line":0,"time":3},{"transit":false,"time":2,"i_long":106.857948,"station_id":"TEB","station_name":"Tebet","i_lat":-6.226659,"line":2,"distance":1230,"is_transit":false},{"is_transit":true,"station_id":"MRI","distance":2610,"i_lat":-6.209883,"i_long":106.84912,"transit":true,"station_name":"Manggarai","time":4,"line":0},{"distance":1275,"station_id":"MTR","line":1,"i_lat":-6.212485,"is_transit":false,"transit":false,"time":2,"i_long":106.858896,"station_name":"Matraman"},{"is_transit":true,"transit":false,"distance":1377,"i_long":106.86807400000001,"time":8,"line":0,"station_name":"Jatinegara","station_id":"JNG","i_lat":-6.215091},{"transit":false,"time":3,"i_long":106.899548,"line":1,"distance":3395,"station_id":"KLD","is_transit":false,"station_name":"Klender","i_lat":-6.2135},{"line":0,"i_lat":-6.215568,"station_name":"Buaran","transit":false,"station_id":"BUA","is_transit":false,"distance":3100,"time":2,"i_long":106.922662},{"is_transit":false,"line":1,"station_id":"KLDB","i_long":106.939679,"transit":false,"time":1,"i_lat":-6.217455,"distance":1305,"station_name":"Klenderbaru"},{"line":0,"time":8,"i_lat":-6.219053,"is_transit":false,"transit":false,"station_id":"CUK","distance":1385,"i_long":106.951283,"station_name":"Cakung"},{"transit":false,"line":1,"distance":3097,"time":3,"i_lat":-6.224515,"i_long":106.977657,"station_id":"KRI","is_transit":false,"station_name":"Kranji"},{"station_name":"Bekasi","time":4,"station_id":"BKS","is_transit":false,"transit":false,"i_lat":-6.236616,"line":0,"i_long":106.997013,"distance":2520},{"i_lat":-6.248029,"line":0,"transit":false,"i_long":107.016735,"distance":2368,"station_id":"BKST","time":2,"is_transit":false,"station_name":"Bekasi Timur"},{"time":7,"station_id":"TB","station_name":"Tambun","i_long":107.055722,"is_transit":false,"distance":4460,"transit":false,"i_lat":-6.258864,"line":1},{"is_transit":false,"distance":3420,"i_long":107.083084,"line":0,"transit":false,"i_lat":-6.261877,"time":3,"station_name":"Cibitung","station_id":"CIT"}],[{"time":0,"distance":0,"transit":false,"station_id":"PSM","i_lat":-6.2842400000000005,"i_long":106.843999,"station_name":"Pasar Minggu","is_transit":false,"line":2},{"i_lat":-6.263214,"is_transit":false,"transit":false,"line":2,"station_name":"Pasar Minggu Baru","distance":2380,"i_long":106.851577,"time":2,"station_id":"PSMB"},{"station_name":"Duren Kalibata","transit":false,"distance":824,"line":0,"is_transit":false,"time":2,"i_lat":-6.255332,"station_id":"DRN","i_long":106.85449},{"station_id":"CW","transit":false,"time":3,"i_lat":-6.242512,"line":0,"is_transit":false,"i_long":106.856607,"station_name":"Cawang","distance":1546},{"distance":1230,"station_id":"TEB","i_long":106.857948,"line":2,"station_name":"Tebet","i_lat":-6.226659,"time":2,"transit":false,"is_transit":false},{"station_name":"Manggarai","distance":2610,"station_id":"MRI","transit":true,"is_transit":true,"i_lat":-6.209883,"line":0,"i_long":106.84912,"time":4},{"time":4,"i_long":106.822649,"is_transit":false,"transit":false,"distance":3186,"station_name":"Sudirman","i_lat":-6.202263,"line":1,"station_id":"SUD"},{"is_transit":false,"station_name":"Sudirman Baru","i_lat":-6.201433,"i_long":106.819881,"line":1,"distance":280,"time":1,"station_id":"SUDB","transit":false},{"is_transit":false,"i_long":106.816351,"distance":471,"station_name":"Karet","i_lat":-6.20132,"time":1,"station_id":"KAT","line":1,"transit":false},{"distance":2029,"time":5,"i_lat":-6.185545,"transit":false,"line":1,"is_transit":true,"i_long":106.811091,"station_name":"Tanah Abang","station_id":"THB"},{"station_id":"DU","is_transit":true,"line":1,"time":8,"station_name":"Duri","i_long":106.800832,"transit":true,"i_lat":-6.155215,"distance":3632},{"i_lat":-6.144674,"i_long":106.79867,"station_name":"Angke","is_transit":false,"transit":false,"time":4,"line":0,"station_id":"AK","distance":1230},{"station_name":"Kampung Bandan","i_long":106.826365,"line":0,"transit":true,"i_lat":-6.132549,"station_id":"KPB","is_transit":true,"distance":4102,"time":9},{"station_name":"Rajawali","i_long":106.836569,"i_lat":-6.14505,"distance":1444,"station_id":"RJW","is_transit":false,"line":11,"time":3,"transit":false},{"is_transit":false,"transit":false,"station_id":"KMO","time":5,"line":11,"i_lat":-6.161728,"i_long":106.839204,"station_name":"Kemayoran","distance":1901},{"transit":false,"time":4,"line":11,"distance":1436,"station_id":"PSE","is_transit":false,"i_lat":-6.174784,"station_name":"Pasar Senen","i_long":106.84368},{"station_id":"GST","i_long":106.850107,"line":11,"time":8,"distance":1567,"i_lat":-6.185975,"station_name":"Gang Sentiong","is_transit":false,"transit":false},{"distance":973,"time":1,"station_name":"Kramat","i_lat":-6.193792,"line":11,"is_transit":false,"station_id":"KMT","transit":false,"i_long":106.855437},{"i_lat":-6.209188,"time":2,"station_id":"POK","is_transit":false,"i_long":106.861737,"station_name":"Pondok Jati","line":11,"distance":1829,"transit":false},{"is_transit":true,"i_lat":-6.215091,"station_name":"Jatinegara","line":0,"transit":true,"time":9,"station_id":"JNG","i_long":106.86807400000001,"distance":1236},{"is_transit":false,"time":3,"line":1,"station_id":"KLD","transit":false,"i_long":106.899548,"distance":3395,"i_lat":-6.2135,"station_name":"Klender"},{"time":2,"transit":false,"is_transit":false,"station_id":"BUA","i_long":106.922662,"line":0,"station_name":"Buaran","i_lat":-6.215568,"distance":3100},{"transit":false,"i_lat":-6.217455,"distance":1305,"line":1,"is_transit":false,"station_name":"Klenderbaru","i_long":106.939679,"station_id":"KLDB","time":1},{"i_lat":-6.219053,"time":8,"transit":false,"line":0,"i_long":106.951283,"is_transit":false,"station_id":"CUK","station_name":"Cakung","distance":1385},{"distance":3097,"station_name":"Kranji","is_transit":false,"line":1,"i_lat":-6.224515,"i_long":106.977657,"transit":false,"station_id":"KRI","time":3},{"line":0,"time":4,"i_lat":-6.236616,"is_transit":false,"transit":false,"station_name":"Bekasi","distance":2520,"i_long":106.997013,"station_id":"BKS"},{"transit":false,"time":2,"distance":2368,"station_id":"BKST","station_name":"Bekasi Timur","i_long":107.016735,"line":0,"is_transit":false,"i_lat":-6.248029},{"transit":false,"line":1,"time":7,"station_id":"TB","is_transit":false,"station_name":"Tambun","i_lat":-6.258864,"i_long":107.055722,"distance":4460},{"station_name":"Cibitung","distance":3420,"i_long":107.083084,"i_lat":-6.261877,"line":0,"time":3,"station_id":"CIT","transit":false,"is_transit":false}],[{"line":2,"transit":false,"i_lat":-6.2842400000000005,"station_id":"PSM","time":0,"distance":0,"is_transit":false,"station_name":"Pasar Minggu","i_long":106.843999},{"is_transit":false,"station_id":"PSMB","time":2,"line":2,"distance":2380,"station_name":"Pasar Minggu Baru","transit":false,"i_long":106.851577,"i_lat":-6.263214},{"transit":false,"station_name":"Duren Kalibata","is_transit":false,"time":2,"i_lat":-6.255332,"line":0,"distance":824,"i_long":106.85449,"station_id":"DRN"},{"transit":false,"is_transit":false,"station_name":"Cawang","i_long":106.856607,"distance":1546,"line":0,"station_id":"CW","i_lat":-6.242512,"time":3},{"distance":1230,"time":2,"station_name":"Tebet","is_transit":false,"i_lat":-6.226659,"i_long":106.857948,"transit":false,"station_id":"TEB","line":2},{"station_name":"Manggarai","line":0,"i_long":106.84912,"station_id":"MRI","transit":true,"time":4,"is_transit":true,"i_lat":-6.209883,"distance":2610},{"transit":false,"line":0,"distance":1590,"time":4,"station_id":"CKI","station_name":"Cikini","i_lat":-6.198556,"i_long":106.840169,"is_transit":false},{"line":2,"distance":1750,"station_id":"GDD","i_long":106.832183,"is_transit":false,"i_lat":-6.186295,"station_name":"Gondangdia","transit":false,"time":3},{"i_lat":-6.166716,"line":2,"distance":2015,"station_name":"Juanda","transit":false,"i_long":106.828284,"is_transit":false,"time":4,"station_id":"JUA"},{"time":2,"i_lat":-6.160725,"i_long":106.827103,"distance":1149,"is_transit":false,"transit":false,"line":2,"station_id":"SW","station_name":"Sawah Besar"},{"i_long":106.82482,"distance":906,"transit":false,"line":2,"station_id":"MGB","is_transit":false,"station_name":"Manggabesar","time":2,"i_lat":-6.149769},{"station_name":"Jayakarta","i_lat":-6.141205,"i_long":106.820901,"station_id":"JAY","transit":false,"line":7,"is_transit":false,"time":2,"distance":1080},{"station_name":"Jakarta Kota","station_id":"JAKK","time":4,"i_lat":-6.137569,"i_long":106.812439,"distance":1264,"line":0,"is_transit":true,"transit":true},{"distance":1364,"line":0,"is_transit":true,"station_name":"Kampung Bandan","time":3,"i_long":106.826365,"transit":true,"station_id":"KPB","i_lat":-6.132549},{"is_transit":false,"transit":false,"station_name":"Rajawali","time":3,"distance":1444,"i_long":106.836569,"station_id":"RJW","i_lat":-6.14505,"line":11},{"is_transit":false,"station_id":"KMO","time":5,"i_long":106.839204,"transit":false,"station_name":"Kemayoran","i_lat":-6.161728,"line":11,"distance":1901},{"station_name":"Pasar Senen","transit":false,"i_lat":-6.174784,"line":11,"is_transit":false,"i_long":106.84368,"time":4,"station_id":"PSE","distance":1436},{"station_name":"Gang Sentiong","distance":1567,"is_transit":false,"time":8,"i_lat":-6.185975,"i_long":106.850107,"line":11,"station_id":"GST","transit":false},{"i_lat":-6.193792,"station_name":"Kramat","distance":973,"i_long":106.855437,"is_transit":false,"station_id":"KMT","transit":false,"line":11,"time":1},{"i_lat":-6.209188,"station_name":"Pondok Jati","distance":1829,"station_id":"POK","is_transit":false,"time":2,"line":11,"i_long":106.861737,"transit":false},{"distance":1236,"line":0,"i_long":106.86807400000001,"station_name":"Jatinegara","station_id":"JNG","transit":true,"is_transit":true,"time":9,"i_lat":-6.215091},{"time":3,"line":1,"i_long":106.899548,"i_lat":-6.2135,"transit":false,"station_name":"Klender","is_transit":false,"station_id":"KLD","distance":3395},{"i_long":106.922662,"line":0,"station_name":"Buaran","distance":3100,"transit":false,"is_transit":false,"time":2,"i_lat":-6.215568,"station_id":"BUA"},{"distance":1305,"transit":false,"i_long":106.939679,"station_id":"KLDB","station_name":"Klenderbaru","time":1,"i_lat":-6.217455,"line":1,"is_transit":false},{"i_long":106.951283,"distance":1385,"is_transit":false,"time":8,"transit":false,"station_id":"CUK","station_name":"Cakung","i_lat":-6.219053,"line":0},{"transit":false,"line":1,"i_lat":-6.224515,"is_transit":false,"time":3,"station_id":"KRI","station_name":"Kranji","distance":3097,"i_long":106.977657},{"is_transit":false,"i_long":106.997013,"line":0,"station_name":"Bekasi","distance":2520,"i_lat":-6.236616,"transit":false,"time":4,"station_id":"BKS"},{"line":0,"i_long":107.016735,"distance":2368,"station_name":"Bekasi Timur","i_lat":-6.248029,"transit":false,"is_transit":false,"station_id":"BKST","time":2},{"i_lat":-6.258864,"line":1,"station_id":"TB","station_name":"Tambun","transit":false,"i_long":107.055722,"distance":4460,"is_transit":false,"time":7},{"i_long":107.083084,"time":3,"line":0,"station_name":"Cibitung","distance":3420,"is_transit":false,"station_id":"CIT","transit":false,"i_lat":-6.261877}]]}