{"data":[[{"distance":0,"station_id":"PSM","is_transit":false,"line":2,"transit":false,"station_name":"Pasar Minggu","i_lat":-6.2842400000000005,"i_long":106.843999,"time":0},{"i_lat":-6.263214,"station_name":"Pasar Minggu Baru","transit":false,"distance":2380,"station_id":"PSMB","i_long":106.851577,"time":2,"line":2,"is_transit":false},{"transit":false,"station_id":"DRN","station_name":"Duren Kalibata","time":2,"is_transit":false,"i_lat":-6.255332,"distance":824,"i_long":106.85449,"line":2},{"time":3,"transit":false,"station_name":"Cawang","i_long":106.856607,"i_lat":-6.242512,"is_transit":false,"distance":1546,"station_id":"CW","line":2},{"is_transit":false,"transit":false,"time":2,"i_lat":-6.226659,"i_long":106.857948,"distance":1230,"station_id":"TEB","line":2,"station_name":"Tebet"},{"station_id":"MRI","transit":true,"is_transit":true,"time":4,"distance":2610,"i_lat":-6.209883,"i_long":106.84912,"station_name":"Manggarai","line":2},{"i_lat":-6.202263,"is_transit":false,"transit":false,"time":4,"distance":3186,"station_id":"SUD","line":1,"station_name":"Sudirman","i_long":106.822649},{"station_id":"SUDB","is_transit":false,"distance":280,"i_long":106.819881,"i_lat":-6.201433,"transit":false,"time":1,"line":1,"station_name":"Sudirman Baru"},{"station_id":"KAT","time":1,"i_lat":-6.20132,"is_transit":false,"line":1,"station_name":"Karet","transit":false,"distance":471,"i_long":106.816351},{"time":5,"i_long":106.811091,"line":1,"station_name":"Tanah Abang","is_transit":true,"transit":true,"station_id":"THB","distance":2029,"i_lat":-6.185545},{"i_long":106.79689,"line":6,"station_id":"PLM","distance":3191,"station_name":"Palmerah","time":6,"transit":false,"i_lat":-6.207404,"is_transit":false},{"i_lat":-6.237242,"transit":false,"time":7,"station_name":"Kebayoran","line":6,"distance":3737,"i_long":106.780334,"station_id":"KBY","is_transit":false},{"station_id":"PDJ","line":6,"distance":6218,"transit":false,"i_lat":-6.276362,"is_transit":false,"station_name":"Pondokranji","time":8,"i_long":106.74273},{"is_transit":false,"time":3,"station_id":"JMU","transit":false,"station_name":"Jurangmangu","i_lat":-6.288927,"distance":2179,"i_long":106.728916,"line":6},{"is_transit":false,"transit":false,"distance":1994,"station_id":"SDM","line":6,"i_long":106.712277,"i_lat":-6.296963,"station_name":"Sudimara","time":4},{"station_name":"Rawa Buntu","is_transit":false,"distance":4566,"i_lat":-6.314823,"line":6,"station_id":"RU","i_long":106.675475,"time":6,"transit":false}],[{"i_long":106.843999,"line":2,"station_name":"Pasar Minggu","is_transit":false,"time":0,"distance":0,"i_lat":-6.2842400000000005,"transit":false,"station_id":"PSM"},{"station_id":"PSMB","is_transit":false,"time":2,"station_name":"Pasar Minggu Baru","i_lat":-6.263214,"line":2,"distance":2380,"i_long":106.851577,"transit":false},{"station_name":"Duren Kalibata","i_lat":-6.255332,"i_long":106.85449,"transit":false,"station_id":"DRN","time":2,"is_transit":false,"line":2,"distance":824},{"is_transit":false,"i_long":106.856607,"station_name":"Cawang","line":2,"i_lat":-6.242512,"station_id":"CW","time":3,"distance":1546,"transit":false},{"i_lat":-6.226659,"is_transit":false,"station_id":"TEB","line":2,"i_long":106.857948,"station_name":"Tebet","transit":false,"time":2,"distance":1230},{"time":4,"transit":false,"is_transit":false,"i_lat":-6.209883,"i_long":106.84912,"station_id":"MRI","line":2,"distance":2610,"station_name":"Manggarai"},{"transit":false,"i_long":106.840169,"i_lat":-6.198556,"is_transit":false,"time":4,"line":2,"station_name":"Cikini","station_id":"CKI","distance":1590},{"transit":false,"station_id":"GDD","line":2,"i_long":106.832183,"i_lat":-6.186295,"distance":1750,"is_transit":false,"time":3,"station_name":"Gondangdia"},{"i_lat":-6.166716,"station_id":"JUA","time":4,"i_long":106.828284,"transit":false,"station_name":"Juanda","is_transit":false,"distance":2015,"line":2},{"transit":false,"station_id":"SW","i_lat":-6.160725,"distance":1149,"line":2,"i_long":106.827103,"time":2,"station_name":"Sawah Besar","is_transit":false},{"time":2,"transit":false,"i_long":106.82482,"i_lat":-6.149769,"line":2,"station_name":"Manggabesar","is_transit":false,"station_id":"MGB","distance":906},{"distance":1080,"station_id":"JAY","transit":false,"is_transit":false,"i_lat":-6.141205,"time":2,"line":2,"station_name":"Jayakarta","i_long":106.820901},{"i_long":106.812439,"transit":true,"line":2,"time":4,"distance":1264,"i_lat":-6.137569,"station_name":"Jakarta Kota","station_id":"JAKK","is_transit":true},{"line":4,"time":3,"i_lat":-6.132549,"transit":true,"i_long":106.826365,"is_transit":true,"station_name":"Kampung Bandan","station_id":"KPB","distance":1364},{"is_transit":false,"distance":4102,"station_id":"AK","station_name":"Angke","time":9,"i_lat":-6.144674,"i_long":106.79867,"line":1,"transit":false},{"transit":false,"time":4,"station_id":"DU","station_name":"Duri","is_transit":false,"distance":1230,"i_lat":-6.155215,"i_long":106.800832,"line":1},{"distance":3632,"time":8,"i_lat":-6.185545,"station_id":"THB","transit":true,"line":1,"i_long":106.811091,"is_transit":true,"station_name":"Tanah Abang"},{"i_long":106.79689,"is_transit":false,"station_id":"PLM","line":6,"transit":false,"distance":3191,"i_lat":-6.207404,"time":6,"station_name":"Palmerah"},{"station_id":"KBY","is_transit":false,"line":6,"time":7,"distance":3737,"transit":false,"station_name":"Kebayoran","i_lat":-6.237242,"i_long":106.780334},{"line":6,"time":8,"station_name":"Pondokranji","transit":false,"is_transit":false,"station_id":"PDJ","i_lat":-6.276362,"i_long":106.74273,"distance":6218},{"i_lat":-6.288927,"time":3,"station_name":"Jurangmangu","line":6,"is_transit":false,"station_id":"JMU","distance":2179,"transit":false,"i_long":106.728916},{"distance":1994,"station_id":"SDM","i_lat":-6.296963,"time":4,"transit":false,"station_name":"Sudimara","is_transit":false,"i_long":106.712277,"line":6},{"station_id":"RU","time":6,"transit":false,"i_lat":-6.314823,"distance":4566,"i_long":106.675475,"station_name":"Rawa Buntu","line":6,"is_transit":false}],[{"station_name":"Pasar Minggu","i_lat":-6.2842400000000005,"distance":0,"i_long":106.843999,"station_id":"PSM","line":2,"time":0,"is_transit":false,"transit":false},{"is_transit":false,"transit":false,"i_long":106.851577,"i_lat":-6.263214,"station_name":"Pasar Minggu Baru","station_id":"PSMB","time":2,"distance":2380,"line":2},{"transit":false,"station_name":"Duren Kalibata","time":2,"distance":824,"is_transit":false,"station_id":"DRN","i_long":106.85449,"line":2,"i_lat":-6.255332},{"station_name":"Cawang","time":3,"i_long":106.856607,"line":2,"transit":false,"station_id":"CW","is_transit":false,"i_lat":-6.242512,"distance":1546},{"transit":false,"is_transit":false,"time":2,"station_name":"Tebet","i_lat":-6.226659,"i_long":106.857948,"distance":1230,"station_id":"TEB","line":2},{"is_transit":true,"transit":true,"station_name":"Manggarai","distance":2610,"i_long":106.84912,"station_id":"MRI","time":4,"i_lat":-6.209883,"line":2},{"is_transit":false,"time":2,"station_id":"MTR","transit":false,"distance":1275,"i_lat":-6.212485,"station_name":"Matraman","i_long":106.858896,"line":1},{"i_lat":-6.215091,"transit":true,"station_name":"Jatinegara","time":8,"i_long":106.86807400000001,"line":1,"station_id":"JNG","is_transit":true,"distance":1377},{"i_lat":-6.209188,"station_name":"Pondok Jati","distance":1236,"i_long":106.861737,"transit":false,"station_id":"POK","time":2,"is_transit":false,"line":11},{"is_transit":false,"transit":false,"i_long":106.855437,"station_id":"KMT","time":2,"line":11,"i_lat":-6.193792,"station_name":"Kramat","distance":1829},{"i_lat":-6.185975,"line":11,"time":1,"transit":false,"station_name":"Gang Sentiong","is_transit":false,"station_id":"GST","i_long":106.850107,"distance":973},{"is_transit":false,"station_name":"Pasar Senen","distance":1567,"i_long":106.84368,"transit":false,"station_id":"PSE","time":8,"i_lat":-6.174784,"line":11},{"transit":false,"i_lat":-6.161728,"station_name":"Kemayoran","station_id":"KMO","time":4,"distance":1436,"i_long":106.839204,"is_transit":false,"line":11},{"i_lat":-6.14505,"station_id":"RJW","transit":false,"i_long":106.836569,"distance":1901,"station_name":"Rajawali","is_transit":false,"time":5,"line":11},{"i_lat":-6.132549,"station_name":"Kampung Bandan","is_transit":true,"time":3,"line":4,"station_id":"KPB","transit":true,"distance":1444,"i_long":106.826365},{"time":9,"distance":4102,"transit":false,"i_long":106.79867,"station_id":"AK","i_lat":-6.144674,"station_name":"Angke","line":1,"is_transit":false},{"transit":false,"is_transit":false,"distance":1230,"i_long":106.800832,"i_lat":-6.155215,"time":4,"station_id":"DU","station_name":"Duri","line":1},{"distance":3632,"i_long":106.811091,"is_transit":true,"line":1,"station_name":"Tanah Abang","station_id":"THB","i_lat":-6.185545,"transit":true,"time":8},{"i_long":106.79689,"time":6,"line":6,"transit":false,"station_name":"Palmerah","station_id":"PLM","distance":3191,"i_lat":-6.207404,"is_transit":false},{"transit":false,"station_name":"Kebayoran","is_transit":false,"line":6,"time":7,"i_long":106.780334,"station_id":"KBY","distance":3737,"i_lat":-6.237242},{"i_long":106.74273,"is_transit":false,"time":8,"i_lat":-6.276362,"station_id":"PDJ","station_name":"Pondokranji","transit":false,"distance":6218,"line":6},{"transit":false,"station_name":"Jurangmangu","station_id":"JMU","time":3,"i_long":106.728916,"is_transit":false,"distance":2179,"line":6,"i_lat":-6.288927},{"transit":false,"line":6,"is_transit":false,"i_lat":-6.296963,"station_id":"SDM","distance":1994,"station_name":"Sudimara","time":4,"i_long":106.712277},{"i_lat":-6.314823,"time":6,"i_long":106.675475,"is_transit":false,"transit":false,"station_name":"Rawa Buntu","station_id":"RU","line":6,"distance":4566}]]}