{"data":[[{"distance":0,"station_name":"Pasar Minggu","station_id":"PSM","i_lat":-6.2842400000000005,"i_long":106.843999,"transit":false,"line":2,"time":0,"is_transit":false},{"distance":2380,"i_long":106.851577,"station_id":"PSMB","transit":false,"time":2,"i_lat":-6.263214,"is_transit":false,"station_name":"Pasar Minggu Baru","line":2},{"transit":false,"i_long":106.85449,"station_id":"DRN","is_transit":false,"i_lat":-6.255332,"line":2,"station_name":"Duren Kalibata","distance":824,"time":2},{"i_lat":-6.242512,"transit":false,"station_name":"Cawang","distance":1546,"i_long":106.856607,"time":3,"station_id":"CW","is_transit":false,"line":2},{"time":2,"i_long":106.857948,"distance":1230,"is_transit":false,"transit":false,"station_id":"TEB","i_lat":-6.226659,"line":2,"station_name":"Tebet"},{"i_lat":-6.209883,"time":4,"station_id":"MRI","transit":false,"station_name":"Manggarai","i_long":106.84912,"distance":2610,"line":2,"is_transit":false},{"distance":1590,"time":4,"is_transit":false,"station_id":"CKI","i_long":106.840169,"i_lat":-6.198556,"transit":false,"station_name":"Cikini","line":2},{"time":3,"line":2,"station_id":"GDD","is_transit":false,"transit":false,"station_name":"Gondangdia","i_lat":-6.186295,"distance":1750,"i_long":106.832183},{"i_long":106.828284,"i_lat":-6.166716,"station_id":"JUA","is_transit":false,"time":4,"station_name":"Juanda","distance":2015,"transit":false,"line":2},{"is_transit":false,"time":2,"transit":false,"station_name":"Sawah Besar","distance":1149,"line":2,"i_lat":-6.160725,"i_long":106.827103,"station_id":"SW"},{"line":2,"time":2,"transit":false,"is_transit":false,"station_name":"Manggabesar","station_id":"MGB","distance":906,"i_long":106.82482,"i_lat":-6.149769},{"transit":false,"station_name":"Jayakarta","i_lat":-6.141205,"line":2,"is_transit":false,"distance":1080,"time":2,"station_id":"JAY","i_long":106.820901},{"is_transit":false,"i_long":106.812439,"distance":1264,"transit":false,"station_name":"Jakarta Kota","station_id":"JAKK","time":4,"line":2,"i_lat":-6.137569}],[{"distance":0,"station_id":"PSM","is_transit":false,"line":2,"transit":false,"station_name":"Pasar Minggu","i_lat":-6.2842400000000005,"i_long":106.843999,"time":0},{"distance":2380,"station_id":"PSMB","is_transit":false,"time":2,"transit":false,"i_lat":-6.263214,"i_long":106.851577,"line":2,"station_name":"Pasar Minggu Baru"},{"distance":824,"time":2,"is_transit":false,"transit":false,"station_id":"DRN","i_long":106.85449,"i_lat":-6.255332,"line":2,"station_name":"Duren Kalibata"},{"station_name":"Cawang","transit":false,"distance":1546,"i_long":106.856607,"time":3,"is_transit":false,"i_lat":-6.242512,"line":2,"station_id":"CW"},{"station_name":"Tebet","station_id":"TEB","line":2,"i_long":106.857948,"time":2,"distance":1230,"i_lat":-6.226659,"is_transit":false,"transit":false},{"i_lat":-6.209883,"i_long":106.84912,"line":2,"time":4,"station_id":"MRI","transit":true,"is_transit":true,"station_name":"Manggarai","distance":2610},{"line":1,"i_lat":-6.202263,"transit":false,"distance":3186,"station_id":"SUD","station_name":"Sudirman","time":4,"is_transit":false,"i_long":106.822649},{"i_lat":-6.201433,"i_long":106.819881,"time":1,"distance":280,"station_id":"SUDB","transit":false,"station_name":"Sudirman Baru","is_transit":false,"line":1},{"station_id":"KAT","i_lat":-6.20132,"i_long":106.816351,"transit":false,"distance":471,"line":1,"station_name":"Karet","time":1,"is_transit":false},{"distance":2029,"is_transit":false,"station_id":"THB","line":1,"i_lat":-6.185545,"transit":false,"station_name":"Tanah Abang","time":5,"i_long":106.811091},{"distance":3632,"i_lat":-6.155215,"i_long":106.800832,"station_id":"DU","station_name":"Duri","line":1,"is_transit":false,"time":8,"transit":false},{"is_transit":false,"station_name":"Angke","transit":false,"i_lat":-6.144674,"line":1,"time":4,"station_id":"AK","distance":1230,"i_long":106.79867},{"time":9,"i_long":106.826365,"station_id":"KPB","station_name":"Kampung Bandan","transit":true,"line":4,"distance":4102,"is_transit":true,"i_lat":-6.132549},{"i_lat":-6.137569,"transit":false,"line":2,"station_id":"JAKK","is_transit":false,"distance":1364,"i_long":106.812439,"time":3,"station_name":"Jakarta Kota"}],[{"line":2,"transit":false,"station_id":"PSM","station_name":"Pasar Minggu","i_long":106.843999,"time":0,"is_transit":false,"distance":0,"i_lat":-6.2842400000000005},{"distance":2380,"station_id":"PSMB","is_transit":false,"station_name":"Pasar Minggu Baru","i_long":106.851577,"i_lat":-6.263214,"transit":false,"time":2,"line":2},{"time":2,"distance":824,"i_long":106.85449,"station_name":"Duren Kalibata","i_lat":-6.255332,"is_transit":false,"line":2,"station_id":"DRN","transit":false},{"i_lat":-6.242512,"i_long":106.856607,"line":2,"distance":1546,"time":3,"transit":false,"is_transit":false,"station_name":"Cawang","station_id":"CW"},{"station_name":"Tebet","line":2,"distance":1230,"time":2,"i_lat":-6.226659,"transit":false,"station_id":"TEB","i_long":106.857948,"is_transit":false},{"line":2,"distance":2610,"time":4,"transit":true,"is_transit":true,"station_name":"Manggarai","i_lat":-6.209883,"station_id":"MRI","i_long":106.84912},{"is_transit":false,"station_id":"MTR","time":2,"i_lat":-6.212485,"transit":false,"distance":1275,"line":1,"station_name":"Matraman","i_long":106.858896},{"station_id":"JNG","line":1,"i_long":106.86807400000001,"is_transit":true,"transit":true,"i_lat":-6.215091,"distance":1377,"time":8,"station_name":"Jatinegara"},{"station_id":"POK","i_lat":-6.209188,"i_long":106.861737,"distance":1236,"is_transit":false,"transit":false,"time":2,"station_name":"Pondok Jati","line":11},{"time":2,"station_name":"Kramat","transit":false,"station_id":"KMT","i_lat":-6.193792,"i_long":106.855437,"is_transit":false,"line":11,"distance":1829},{"distance":973,"transit":false,"i_long":106.850107,"time":1,"line":11,"is_transit":false,"station_name":"Gang Sentiong","station_id":"GST","i_lat":-6.185975},{"time":8,"is_transit":false,"transit":false,"station_name":"Pasar Senen","station_id":"PSE","i_lat":-6.174784,"i_long":106.84368,"line":11,"distance":1567},{"station_name":"Kemayoran","is_transit":false,"distance":1436,"i_long":106.839204,"i_lat":-6.161728,"line":11,"station_id":"KMO","time":4,"transit":false},{"i_lat":-6.14505,"line":11,"time":5,"transit":false,"i_long":106.836569,"station_id":"RJW","station_name":"Rajawali","distance":1901,"is_transit":false},{"station_id":"KPB","is_transit":true,"line":4,"time":3,"i_lat":-6.132549,"station_name":"Kampung Bandan","distance":1444,"i_long":106.826365,"transit":true},{"station_name":"Jakarta Kota","time":3,"station_id":"JAKK","i_long":106.812439,"i_lat":-6.137569,"line":2,"distance":1364,"is_transit":false,"transit":false}]]}