{"data":[[{"station_id":"PSM","distance":0,"transit":false,"i_long":106.843999,"line":2,"is_transit":false,"time":0,"station_name":"Pasar Minggu","i_lat":-6.2842400000000005},{"i_lat":-6.263214,"i_long":106.851577,"is_transit":false,"time":2,"station_name":"Pasar Minggu Baru","distance":2380,"line":2,"station_id":"PSMB","transit":false},{"line":2,"time":2,"i_long":106.85449,"station_id":"DRN","is_transit":false,"station_name":"Duren Kalibata","transit":false,"i_lat":-6.255332,"distance":824},{"is_transit":false,"i_lat":-6.242512,"time":3,"station_name":"Cawang","transit":false,"i_long":106.856607,"station_id":"CW","line":2,"distance":1546},{"station_name":"Tebet","line":2,"i_lat":-6.226659,"i_long":106.857948,"is_transit":false,"station_id":"TEB","transit":false,"distance":1230,"time":2},{"station_name":"Manggarai","i_lat":-6.209883,"is_transit":true,"line":2,"distance":2610,"station_id":"MRI","time":4,"transit":true,"i_long":106.84912},{"i_long":106.822649,"line":1,"station_name":"Sudirman","is_transit":false,"i_lat":-6.202263,"time":4,"station_id":"SUD","distance":3186,"transit":false},{"is_transit":false,"station_name":"Sudirman Baru","transit":false,"time":1,"i_long":106.819881,"distance":280,"station_id":"SUDB","line":1,"i_lat":-6.201433},{"time":1,"i_long":106.816351,"station_id":"KAT","i_lat":-6.20132,"is_transit":false,"transit":false,"distance":471,"station_name":"Karet","line":1},{"distance":2029,"time":5,"i_long":106.811091,"station_name":"Tanah Abang","line":1,"station_id":"THB","is_transit":true,"transit":true,"i_lat":-6.185545},{"station_name":"Palmerah","distance":3191,"station_id":"PLM","is_transit":false,"line":6,"time":6,"transit":false,"i_lat":-6.207404,"i_long":106.79689},{"station_name":"Kebayoran","i_long":106.780334,"line":6,"transit":false,"time":7,"station_id":"KBY","is_transit":false,"distance":3737,"i_lat":-6.237242},{"is_transit":false,"time":8,"station_id":"PDJ","station_name":"Pondokranji","transit":false,"i_long":106.74273,"line":6,"i_lat":-6.276362,"distance":6218},{"time":3,"is_transit":false,"station_id":"JMU","station_name":"Jurangmangu","i_lat":-6.288927,"i_long":106.728916,"distance":2179,"transit":false,"line":6},{"transit":false,"line":6,"station_id":"SDM","time":4,"i_lat":-6.296963,"distance":1994,"i_long":106.712277,"is_transit":false,"station_name":"Sudimara"},{"station_id":"RU","i_lat":-6.314823,"is_transit":false,"station_name":"Rawa Buntu","transit":false,"distance":4566,"i_long":106.675475,"time":6,"line":6},{"station_id":"SRP","i_lat":-6.319871,"transit":false,"is_transit":false,"distance":2413,"station_name":"Serpong","line":6,"i_long":106.66566,"time":4},{"time":4,"station_name":"Cisauk","is_transit":false,"distance":1784,"transit":false,"i_long":106.640411,"station_id":"CSK","i_lat":-6.32484,"line":3}],[{"time":0,"distance":0,"is_transit":false,"transit":false,"i_long":106.843999,"line":2,"station_name":"Pasar Minggu","station_id":"PSM","i_lat":-6.2842400000000005},{"transit":false,"station_id":"PSMB","i_lat":-6.263214,"time":2,"line":2,"distance":2380,"is_transit":false,"station_name":"Pasar Minggu Baru","i_long":106.851577},{"i_lat":-6.255332,"distance":824,"i_long":106.85449,"time":2,"is_transit":false,"transit":false,"station_id":"DRN","line":2,"station_name":"Duren Kalibata"},{"line":2,"is_transit":false,"i_lat":-6.242512,"i_long":106.856607,"transit":false,"distance":1546,"station_id":"CW","time":3,"station_name":"Cawang"},{"transit":false,"is_transit":false,"i_lat":-6.226659,"line":2,"station_name":"Tebet","station_id":"TEB","time":2,"i_long":106.857948,"distance":1230},{"time":4,"is_transit":false,"transit":false,"distance":2610,"station_id":"MRI","i_lat":-6.209883,"line":2,"i_long":106.84912,"station_name":"Manggarai"},{"i_long":106.840169,"line":2,"station_id":"CKI","i_lat":-6.198556,"is_transit":false,"transit":false,"station_name":"Cikini","time":4,"distance":1590},{"station_id":"GDD","is_transit":false,"transit":false,"line":2,"i_long":106.832183,"distance":1750,"station_name":"Gondangdia","i_lat":-6.186295,"time":3},{"time":4,"line":2,"transit":false,"station_name":"Juanda","distance":2015,"is_transit":false,"station_id":"JUA","i_long":106.828284,"i_lat":-6.166716},{"station_name":"Sawah Besar","i_lat":-6.160725,"line":2,"i_long":106.827103,"time":2,"transit":false,"is_transit":false,"station_id":"SW","distance":1149},{"station_id":"MGB","i_long":106.82482,"time":2,"line":2,"transit":false,"i_lat":-6.149769,"distance":906,"is_transit":false,"station_name":"Manggabesar"},{"i_lat":-6.141205,"transit":false,"is_transit":false,"time":2,"i_long":106.820901,"station_id":"JAY","station_name":"Jayakarta","distance":1080,"line":2},{"i_lat":-6.137569,"distance":1264,"line":2,"station_name":"Jakarta Kota","is_transit":true,"transit":true,"time":4,"i_long":106.812439,"station_id":"JAKK"},{"distance":1364,"i_long":106.826365,"is_transit":true,"line":4,"transit":true,"i_lat":-6.132549,"station_id":"KPB","time":3,"station_name":"Kampung Bandan"},{"is_transit":false,"transit":false,"station_id":"AK","distance":4102,"i_long":106.79867,"time":9,"station_name":"Angke","i_lat":-6.144674,"line":1},{"transit":false,"station_name":"Duri","i_lat":-6.155215,"time":4,"is_transit":false,"station_id":"DU","line":1,"distance":1230,"i_long":106.800832},{"line":1,"transit":true,"station_name":"Tanah Abang","distance":3632,"station_id":"THB","is_transit":true,"i_long":106.811091,"i_lat":-6.185545,"time":8},{"i_lat":-6.207404,"time":6,"distance":3191,"is_transit":false,"station_id":"PLM","transit":false,"station_name":"Palmerah","i_long":106.79689,"line":6},{"is_transit":false,"station_name":"Kebayoran","station_id":"KBY","i_lat":-6.237242,"line":6,"distance":3737,"time":7,"i_long":106.780334,"transit":false},{"station_name":"Pondokranji","time":8,"is_transit":false,"station_id":"PDJ","i_lat":-6.276362,"i_long":106.74273,"distance":6218,"transit":false,"line":6},{"station_name":"Jurangmangu","line":6,"station_id":"JMU","i_long":106.728916,"time":3,"is_transit":false,"distance":2179,"i_lat":-6.288927,"transit":false},{"is_transit":false,"i_long":106.712277,"i_lat":-6.296963,"distance":1994,"time":4,"transit":false,"station_name":"Sudimara","station_id":"SDM","line":6},{"i_lat":-6.314823,"i_long":106.675475,"time":6,"distance":4566,"line":6,"is_transit":false,"transit":false,"station_name":"Rawa Buntu","station_id":"RU"},{"station_id":"SRP","i_lat":-6.319871,"distance":2413,"transit":false,"station_name":"Serpong","line":6,"i_long":106.66566,"time":4,"is_transit":false},{"is_transit":false,"station_name":"Cisauk","i_long":106.640411,"i_lat":-6.32484,"time":4,"line":3,"transit":false,"distance":1784,"station_id":"CSK"}],[{"line":2,"distance":0,"is_transit":false,"time":0,"station_id":"PSM","i_long":106.843999,"i_lat":-6.2842400000000005,"transit":false,"station_name":"Pasar Minggu"},{"line":2,"i_long":106.851577,"time":2,"is_transit":false,"i_lat":-6.263214,"distance":2380,"station_name":"Pasar Minggu Baru","transit":false,"station_id":"PSMB"},{"time":2,"station_id":"DRN","i_lat":-6.255332,"transit":false,"station_name":"Duren Kalibata","i_long":106.85449,"is_transit":false,"line":2,"distance":824},{"station_name":"Cawang","transit":false,"is_transit":false,"distance":1546,"time":3,"station_id":"CW","i_lat":-6.242512,"i_long":106.856607,"line":2},{"line":2,"transit":false,"station_id":"TEB","time":2,"distance":1230,"station_name":"Tebet","i_lat":-6.226659,"i_long":106.857948,"is_transit":false},{"station_id":"MRI","i_long":106.84912,"station_name":"Manggarai","line":2,"is_transit":true,"distance":2610,"i_lat":-6.209883,"time":4,"transit":true},{"transit":false,"i_lat":-6.212485,"time":2,"station_id":"MTR","station_name":"Matraman","i_long":106.858896,"is_transit":false,"distance":1275,"line":1},{"line":1,"station_id":"JNG","i_lat":-6.215091,"transit":true,"is_transit":true,"station_name":"Jatinegara","i_long":106.86807400000001,"time":8,"distance":1377},{"transit":false,"i_long":106.861737,"is_transit":false,"distance":1236,"station_name":"Pondok Jati","time":2,"station_id":"POK","i_lat":-6.209188,"line":11},{"distance":1829,"is_transit":false,"time":2,"transit":false,"station_name":"Kramat","line":11,"station_id":"KMT","i_lat":-6.193792,"i_long":106.855437},{"line":11,"is_transit":false,"transit":false,"i_long":106.850107,"station_id":"GST","i_lat":-6.185975,"distance":973,"station_name":"Gang Sentiong","time":1},{"line":11,"i_lat":-6.174784,"time":8,"station_name":"Pasar Senen","distance":1567,"i_long":106.84368,"station_id":"PSE","transit":false,"is_transit":false},{"station_id":"KMO","i_lat":-6.161728,"transit":false,"distance":1436,"line":11,"time":4,"i_long":106.839204,"is_transit":false,"station_name":"Kemayoran"},{"is_transit":false,"i_lat":-6.14505,"station_name":"Rajawali","i_long":106.836569,"line":11,"time":5,"transit":false,"station_id":"RJW","distance":1901},{"station_name":"Kampung Bandan","station_id":"KPB","i_long":106.826365,"distance":1444,"transit":true,"i_lat":-6.132549,"time":3,"line":4,"is_transit":true},{"station_name":"Angke","transit":false,"line":1,"i_long":106.79867,"distance":4102,"is_transit":false,"i_lat":-6.144674,"time":9,"station_id":"AK"},{"distance":1230,"time":4,"station_name":"Duri","is_transit":false,"transit":false,"i_lat":-6.155215,"i_long":106.800832,"station_id":"DU","line":1},{"time":8,"is_transit":true,"station_name":"Tanah Abang","i_long":106.811091,"distance":3632,"transit":true,"i_lat":-6.185545,"line":1,"station_id":"THB"},{"i_long":106.79689,"time":6,"i_lat":-6.207404,"distance":3191,"station_name":"Palmerah","station_id":"PLM","line":6,"is_transit":false,"transit":false},{"i_lat":-6.237242,"line":6,"distance":3737,"time":7,"is_transit":false,"station_name":"Kebayoran","transit":false,"i_long":106.780334,"station_id":"KBY"},{"i_lat":-6.276362,"time":8,"is_transit":false,"station_name":"Pondokranji","transit":false,"distance":6218,"station_id":"PDJ","i_long":106.74273,"line":6},{"transit":false,"station_name":"Jurangmangu","line":6,"i_long":106.728916,"is_transit":false,"distance":2179,"station_id":"JMU","i_lat":-6.288927,"time":3},{"i_long":106.712277,"station_name":"Sudimara","distance":1994,"i_lat":-6.296963,"line":6,"transit":false,"station_id":"SDM","is_transit":false,"time":4},{"station_id":"RU","distance":4566,"is_transit":false,"i_long":106.675475,"station_name":"Rawa Buntu","i_lat":-6.314823,"line":6,"time":6,"transit":false},{"station_name":"Serpong","line":6,"is_transit":false,"transit":false,"i_lat":-6.319871,"i_long":106.66566,"time":4,"station_id":"SRP","distance":2413},{"time":4,"distance":1784,"line":3,"station_id":"CSK","i_long":106.640411,"transit":false,"is_transit":false,"station_name":"Cisauk","i_lat":-6.32484}]]}