{"data":[[{"station_id":"PSM","is_transit":false,"station_name":"Pasar Minggu","i_lat":-6.2842400000000005,"time":0,"distance":0,"transit":false,"i_long":106.843999,"line":2},{"line":2,"i_lat":-6.263214,"is_transit":false,"time":2,"transit":false,"station_name":"Pasar Minggu Baru","distance":2380,"i_long":106.851577,"station_id":"PSMB"},{"i_lat":-6.255332,"station_name":"Duren Kalibata","time":2,"is_transit":false,"distance":824,"line":2,"transit":false,"i_long":106.85449,"station_id":"DRN"},{"i_lat":-6.242512,"line":2,"distance":1546,"transit":false,"time":3,"station_id":"CW","i_long":106.856607,"station_name":"Cawang","is_transit":false},{"distance":1230,"time":2,"station_name":"Tebet","transit":false,"i_lat":-6.226659,"line":2,"station_id":"TEB","i_long":106.857948,"is_transit":false},{"time":4,"transit":false,"i_lat":-6.209883,"is_transit":false,"distance":2610,"i_long":106.84912,"station_id":"MRI","station_name":"Manggarai","line":2},{"station_id":"CKI","i_long":106.840169,"time":4,"distance":1590,"line":2,"station_name":"Cikini","is_transit":false,"transit":false,"i_lat":-6.198556}],[{"is_transit":false,"transit":false,"station_id":"PSM","i_lat":-6.2842400000000005,"line":2,"station_name":"Pasar Minggu","i_long":106.843999,"time":0,"distance":0},{"transit":false,"i_long":106.851577,"station_name":"Pasar Minggu Baru","line":2,"distance":2380,"i_lat":-6.263214,"time":2,"is_transit":false,"station_id":"PSMB"},{"transit":false,"line":2,"distance":824,"i_lat":-6.255332,"i_long":106.85449,"station_name":"Duren Kalibata","station_id":"DRN","is_transit":false,"time":2},{"is_transit":false,"time":3,"station_id":"CW","line":2,"transit":false,"i_long":106.856607,"i_lat":-6.242512,"station_name":"Cawang","distance":1546},{"station_name":"Tebet","i_lat":-6.226659,"line":2,"distance":1230,"station_id":"TEB","is_transit":false,"time":2,"transit":false,"i_long":106.857948},{"station_name":"Manggarai","distance":2610,"i_long":106.84912,"time":4,"station_id":"MRI","transit":true,"line":2,"is_transit":true,"i_lat":-6.209883},{"time":4,"transit":false,"line":1,"station_name":"Sudirman","i_lat":-6.202263,"station_id":"SUD","i_long":106.822649,"distance":3186,"is_transit":false},{"distance":280,"is_transit":false,"i_lat":-6.201433,"line":1,"i_long":106.819881,"time":1,"station_name":"Sudirman Baru","station_id":"SUDB","transit":false},{"transit":false,"line":1,"time":1,"is_transit":false,"i_long":106.816351,"station_name":"Karet","distance":471,"i_lat":-6.20132,"station_id":"KAT"},{"i_lat":-6.185545,"i_long":106.811091,"time":5,"station_name":"Tanah Abang","distance":2029,"station_id":"THB","line":1,"transit":false,"is_transit":false},{"is_transit":false,"i_long":106.800832,"line":1,"station_id":"DU","transit":false,"time":8,"distance":3632,"i_lat":-6.155215,"station_name":"Duri"},{"station_id":"AK","is_transit":false,"i_lat":-6.144674,"transit":false,"distance":1230,"time":4,"station_name":"Angke","i_long":106.79867,"line":1},{"i_long":106.826365,"is_transit":true,"line":4,"station_name":"Kampung Bandan","i_lat":-6.132549,"station_id":"KPB","time":9,"distance":4102,"transit":true},{"i_long":106.812439,"station_id":"JAKK","transit":true,"station_name":"Jakarta Kota","line":2,"distance":1364,"is_transit":true,"time":3,"i_lat":-6.137569},{"station_name":"Jayakarta","i_long":106.820901,"transit":false,"station_id":"JAY","i_lat":-6.141205,"distance":1264,"is_transit":false,"time":4,"line":2},{"time":2,"i_long":106.82482,"is_transit":false,"distance":1080,"transit":false,"station_id":"MGB","line":2,"i_lat":-6.149769,"station_name":"Manggabesar"},{"i_lat":-6.160725,"station_name":"Sawah Besar","line":2,"distance":906,"station_id":"SW","i_long":106.827103,"transit":false,"time":2,"is_transit":false},{"time":2,"distance":1149,"is_transit":false,"transit":false,"station_id":"JUA","i_long":106.828284,"i_lat":-6.166716,"station_name":"Juanda","line":2},{"transit":false,"station_id":"GDD","i_lat":-6.186295,"i_long":106.832183,"is_transit":false,"distance":2015,"station_name":"Gondangdia","time":4,"line":2},{"i_lat":-6.198556,"line":2,"transit":false,"time":3,"station_id":"CKI","i_long":106.840169,"distance":1750,"station_name":"Cikini","is_transit":false}],[{"station_id":"PSM","line":2,"time":0,"distance":0,"station_name":"Pasar Minggu","transit":false,"is_transit":false,"i_lat":-6.2842400000000005,"i_long":106.843999},{"is_transit":false,"station_id":"PSMB","i_lat":-6.263214,"distance":2380,"time":2,"transit":false,"station_name":"Pasar Minggu Baru","i_long":106.851577,"line":2},{"is_transit":false,"transit":false,"station_name":"Duren Kalibata","i_lat":-6.255332,"i_long":106.85449,"time":2,"station_id":"DRN","distance":824,"line":2},{"is_transit":false,"transit":false,"i_long":106.856607,"distance":1546,"station_id":"CW","i_lat":-6.242512,"line":2,"time":3,"station_name":"Cawang"},{"station_id":"TEB","time":2,"distance":1230,"i_lat":-6.226659,"is_transit":false,"line":2,"station_name":"Tebet","i_long":106.857948,"transit":false},{"line":2,"transit":true,"station_name":"Manggarai","station_id":"MRI","i_lat":-6.209883,"is_transit":true,"time":4,"distance":2610,"i_long":106.84912},{"time":2,"transit":false,"station_name":"Matraman","i_long":106.858896,"line":1,"station_id":"MTR","distance":1275,"is_transit":false,"i_lat":-6.212485},{"i_lat":-6.215091,"transit":true,"station_name":"Jatinegara","distance":1377,"time":8,"station_id":"JNG","i_long":106.86807400000001,"line":1,"is_transit":true},{"time":2,"station_id":"POK","i_lat":-6.209188,"line":11,"distance":1236,"station_name":"Pondok Jati","transit":false,"is_transit":false,"i_long":106.861737},{"i_lat":-6.193792,"distance":1829,"station_id":"KMT","is_transit":false,"line":11,"i_long":106.855437,"station_name":"Kramat","time":2,"transit":false},{"distance":973,"station_name":"Gang Sentiong","is_transit":false,"i_lat":-6.185975,"station_id":"GST","i_long":106.850107,"line":11,"time":1,"transit":false},{"station_name":"Pasar Senen","station_id":"PSE","distance":1567,"i_lat":-6.174784,"time":8,"line":11,"is_transit":false,"transit":false,"i_long":106.84368},{"distance":1436,"station_name":"Kemayoran","station_id":"KMO","time":4,"is_transit":false,"transit":false,"i_lat":-6.161728,"i_long":106.839204,"line":11},{"line":11,"time":5,"transit":false,"station_name":"Rajawali","distance":1901,"i_long":106.836569,"is_transit":false,"i_lat":-6.14505,"station_id":"RJW"},{"i_long":106.826365,"station_id":"KPB","time":3,"line":4,"transit":true,"station_name":"Kampung Bandan","i_lat":-6.132549,"is_transit":true,"distance":1444},{"station_name":"Jakarta Kota","is_transit":true,"time":3,"station_id":"JAKK","transit":true,"distance":1364,"i_long":106.812439,"i_lat":-6.137569,"line":2},{"distance":1264,"station_name":"Jayakarta","transit":false,"is_transit":false,"station_id":"JAY","i_long":106.820901,"i_lat":-6.141205,"time":4,"line":2},{"transit":false,"time":2,"station_id":"MGB","distance":1080,"line":2,"i_long":106.82482,"station_name":"Manggabesar","is_transit":false,"i_lat":-6.149769},{"transit":false,"time":2,"is_transit":false,"station_name":"Sawah Besar","i_lat":-6.160725,"station_id":"SW","distance":906,"i_long":106.827103,"line":2},{"station_name":"Juanda","station_id":"JUA","distance":1149,"i_lat":-6.166716,"is_transit":false,"line":2,"i_long":106.828284,"transit":false,"time":2},{"line":2,"i_lat":-6.186295,"time":4,"station_name":"Gondangdia","transit":false,"station_id":"GDD","i_long":106.832183,"is_transit":false,"distance":2015},{"station_id":"CKI","transit":false,"time":3,"line":2,"i_lat":-6.198556,"i_long":106.840169,"is_transit":false,"distance":1750,"station_name":"Cikini"}]]}