{"data":[[{"is_transit":false,"i_lat":-6.2842400000000005,"station_id":"PSM","distance":0,"time":0,"i_long":106.843999,"transit":false,"line":2,"station_name":"Pasar Minggu"},{"station_id":"TNT","is_transit":false,"station_name":"Tanjung Barat","transit":false,"i_long":106.838896,"line":2,"i_lat":-6.3080680000000005,"time":4,"distance":2820},{"time":3,"line":2,"is_transit":false,"transit":false,"station_name":"Lenteng Agung","i_lat":-6.330363,"distance":2671,"i_long":106.832616,"station_id":"LNA"},{"transit":false,"i_long":106.834175,"line":2,"distance":1029,"i_lat":-6.339291,"is_transit":false,"station_id":"UP","time":2,"station_name":"Univ. Pancasila"},{"i_lat":-6.360749,"i_long":106.831474,"is_transit":false,"distance":2264,"station_name":"Univ. Indonesia","line":2,"time":3,"station_id":"UI","transit":false},{"station_name":"Pondok Cina","i_long":106.831114,"is_transit":false,"time":2,"transit":false,"station_id":"POC","i_lat":-6.369073,"line":2,"distance":1109},{"distance":2727,"is_transit":false,"transit":false,"time":4,"station_name":"Depokbaru","i_long":106.819451,"line":2,"station_id":"DPB","i_lat":-6.391065},{"is_transit":false,"station_name":"Depok","time":3,"i_long":106.816926,"line":2,"i_lat":-6.405256,"distance":1584,"station_id":"DP","transit":false},{"is_transit":false,"line":2,"station_id":"CTA","i_long":106.800298,"station_name":"Citayam","i_lat":-6.448811,"distance":5084,"transit":false,"time":6}]]}