{"data":[[{"station_name":"Pasar Minggu","station_id":"PSM","is_transit":false,"transit":false,"i_lat":-6.2842400000000005,"distance":0,"line":2,"i_long":106.843999,"time":0},{"station_name":"Tanjung Barat","is_transit":false,"i_lat":-6.3080680000000005,"time":4,"i_long":106.838896,"line":2,"station_id":"TNT","distance":2820,"transit":false},{"i_lat":-6.330363,"transit":false,"is_transit":false,"time":3,"distance":2671,"station_name":"Lenteng Agung","i_long":106.832616,"station_id":"LNA","line":2},{"transit":false,"line":2,"i_lat":-6.339291,"i_long":106.834175,"station_id":"UP","distance":1029,"time":2,"is_transit":false,"station_name":"Univ. Pancasila"},{"transit":false,"station_name":"Univ. Indonesia","time":3,"line":2,"station_id":"UI","i_lat":-6.360749,"i_long":106.831474,"distance":2264,"is_transit":false},{"is_transit":false,"i_lat":-6.369073,"distance":1109,"i_long":106.831114,"line":2,"station_id":"POC","transit":false,"time":2,"station_name":"Pondok Cina"},{"i_lat":-6.391065,"station_id":"DPB","i_long":106.819451,"distance":2727,"transit":false,"time":4,"station_name":"Depokbaru","is_transit":false,"line":2},{"transit":false,"is_transit":false,"line":2,"station_id":"DP","station_name":"Depok","i_long":106.816926,"time":3,"i_lat":-6.405256,"distance":1584},{"station_id":"CTA","i_lat":-6.448811,"is_transit":true,"time":6,"i_long":106.800298,"distance":5084,"line":2,"station_name":"Citayam","transit":true},{"time":0,"line":21,"i_long":106.824374,"is_transit":false,"transit":false,"distance":0,"station_id":"PDRG","station_name":"Pondok Rajeg","i_lat":-6.460735},{"i_lat":-6.46424,"time":0,"distance":0,"station_id":"CBN","is_transit":false,"i_long":106.851978,"station_name":"Cibinong","line":21,"transit":false}]]}