{"data":[[{"is_transit":false,"line":2,"transit":false,"station_name":"Pasar Minggu","time":0,"i_long":106.843999,"i_lat":-6.2842400000000005,"station_id":"PSM","distance":0},{"transit":false,"is_transit":false,"time":2,"i_lat":-6.263214,"station_name":"Pasar Minggu Baru","line":2,"distance":2380,"station_id":"PSMB","i_long":106.851577},{"transit":false,"is_transit":false,"i_long":106.85449,"station_id":"DRN","i_lat":-6.255332,"time":2,"distance":824,"line":2,"station_name":"Duren Kalibata"},{"transit":false,"is_transit":false,"station_name":"Cawang","i_lat":-6.242512,"line":2,"distance":1546,"station_id":"CW","time":3,"i_long":106.856607},{"transit":false,"distance":1230,"i_lat":-6.226659,"is_transit":false,"station_id":"TEB","time":2,"i_long":106.857948,"station_name":"Tebet","line":2},{"station_name":"Manggarai","transit":true,"line":2,"i_lat":-6.209883,"i_long":106.84912,"time":4,"distance":2610,"is_transit":true,"station_id":"MRI"},{"i_lat":-6.212485,"station_name":"Matraman","transit":false,"station_id":"MTR","is_transit":false,"i_long":106.858896,"time":2,"distance":1275,"line":1}],[{"transit":false,"station_id":"PSM","is_transit":false,"i_long":106.843999,"station_name":"Pasar Minggu","distance":0,"i_lat":-6.2842400000000005,"line":2,"time":0},{"i_lat":-6.263214,"time":2,"is_transit":false,"i_long":106.851577,"line":2,"station_name":"Pasar Minggu Baru","distance":2380,"station_id":"PSMB","transit":false},{"station_id":"DRN","time":2,"i_long":106.85449,"is_transit":false,"transit":false,"station_name":"Duren Kalibata","distance":824,"i_lat":-6.255332,"line":2},{"is_transit":false,"station_id":"CW","station_name":"Cawang","line":2,"transit":false,"time":3,"i_lat":-6.242512,"i_long":106.856607,"distance":1546},{"i_long":106.857948,"station_id":"TEB","is_transit":false,"i_lat":-6.226659,"line":2,"station_name":"Tebet","transit":false,"time":2,"distance":1230},{"is_transit":true,"i_long":106.84912,"station_id":"MRI","i_lat":-6.209883,"station_name":"Manggarai","transit":true,"time":4,"distance":2610,"line":2},{"time":4,"line":1,"transit":false,"station_id":"SUD","distance":3186,"station_name":"Sudirman","i_long":106.822649,"i_lat":-6.202263,"is_transit":false},{"distance":280,"transit":false,"is_transit":false,"i_lat":-6.201433,"line":1,"station_name":"Sudirman Baru","i_long":106.819881,"time":1,"station_id":"SUDB"},{"station_id":"KAT","station_name":"Karet","time":1,"distance":471,"is_transit":false,"i_lat":-6.20132,"i_long":106.816351,"line":1,"transit":false},{"i_lat":-6.185545,"i_long":106.811091,"distance":2029,"time":5,"line":1,"station_id":"THB","is_transit":false,"transit":false,"station_name":"Tanah Abang"},{"transit":false,"i_long":106.800832,"station_id":"DU","i_lat":-6.155215,"distance":3632,"time":8,"station_name":"Duri","is_transit":false,"line":1},{"i_lat":-6.144674,"line":1,"time":4,"distance":1230,"transit":false,"is_transit":false,"station_name":"Angke","i_long":106.79867,"station_id":"AK"},{"i_long":106.826365,"line":4,"station_id":"KPB","station_name":"Kampung Bandan","transit":true,"time":9,"distance":4102,"i_lat":-6.132549,"is_transit":true},{"i_lat":-6.14505,"transit":false,"distance":1444,"is_transit":false,"time":3,"line":11,"station_id":"RJW","station_name":"Rajawali","i_long":106.836569},{"station_id":"KMO","is_transit":false,"i_lat":-6.161728,"i_long":106.839204,"line":11,"time":5,"distance":1901,"transit":false,"station_name":"Kemayoran"},{"distance":1436,"is_transit":false,"station_id":"PSE","station_name":"Pasar Senen","line":11,"time":4,"transit":false,"i_lat":-6.174784,"i_long":106.84368},{"transit":false,"i_long":106.850107,"time":8,"is_transit":false,"station_name":"Gang Sentiong","line":11,"i_lat":-6.185975,"station_id":"GST","distance":1567},{"line":11,"is_transit":false,"distance":973,"station_id":"KMT","time":1,"station_name":"Kramat","i_lat":-6.193792,"i_long":106.855437,"transit":false},{"i_long":106.861737,"transit":false,"i_lat":-6.209188,"station_id":"POK","distance":1829,"time":2,"station_name":"Pondok Jati","line":11,"is_transit":false},{"time":9,"station_id":"JNG","is_transit":true,"line":1,"distance":1236,"i_long":106.86807400000001,"transit":true,"i_lat":-6.215091,"station_name":"Jatinegara"},{"transit":false,"station_name":"Matraman","is_transit":false,"line":1,"distance":1377,"i_lat":-6.212485,"station_id":"MTR","i_long":106.858896,"time":2}],[{"line":2,"station_name":"Pasar Minggu","is_transit":false,"transit":false,"i_lat":-6.2842400000000005,"station_id":"PSM","i_long":106.843999,"time":0,"distance":0},{"is_transit":false,"i_lat":-6.263214,"transit":false,"line":2,"station_id":"PSMB","distance":2380,"i_long":106.851577,"station_name":"Pasar Minggu Baru","time":2},{"i_long":106.85449,"line":2,"is_transit":false,"distance":824,"i_lat":-6.255332,"time":2,"transit":false,"station_id":"DRN","station_name":"Duren Kalibata"},{"distance":1546,"i_lat":-6.242512,"station_name":"Cawang","i_long":106.856607,"time":3,"line":2,"station_id":"CW","transit":false,"is_transit":false},{"station_id":"TEB","i_lat":-6.226659,"transit":false,"station_name":"Tebet","distance":1230,"i_long":106.857948,"line":2,"is_transit":false,"time":2},{"i_lat":-6.209883,"transit":false,"is_transit":false,"time":4,"station_name":"Manggarai","station_id":"MRI","distance":2610,"i_long":106.84912,"line":2},{"line":2,"time":4,"transit":false,"i_lat":-6.198556,"is_transit":false,"station_name":"Cikini","distance":1590,"station_id":"CKI","i_long":106.840169},{"station_id":"GDD","station_name":"Gondangdia","distance":1750,"line":2,"time":3,"is_transit":false,"i_long":106.832183,"i_lat":-6.186295,"transit":false},{"time":4,"station_id":"JUA","station_name":"Juanda","line":2,"i_lat":-6.166716,"transit":false,"is_transit":false,"i_long":106.828284,"distance":2015},{"time":2,"station_id":"SW","transit":false,"station_name":"Sawah Besar","distance":1149,"is_transit":false,"i_long":106.827103,"i_lat":-6.160725,"line":2},{"transit":false,"i_lat":-6.149769,"distance":906,"i_long":106.82482,"station_name":"Manggabesar","is_transit":false,"time":2,"station_id":"MGB","line":2},{"line":2,"time":2,"i_long":106.820901,"transit":false,"station_name":"Jayakarta","i_lat":-6.141205,"distance":1080,"station_id":"JAY","is_transit":false},{"is_transit":true,"transit":true,"i_long":106.812439,"distance":1264,"station_id":"JAKK","i_lat":-6.137569,"line":2,"station_name":"Jakarta Kota","time":4},{"station_id":"KPB","line":4,"distance":1364,"i_long":106.826365,"is_transit":true,"time":3,"i_lat":-6.132549,"transit":true,"station_name":"Kampung Bandan"},{"is_transit":false,"distance":1444,"i_long":106.836569,"i_lat":-6.14505,"transit":false,"time":3,"station_name":"Rajawali","line":11,"station_id":"RJW"},{"station_id":"KMO","is_transit":false,"transit":false,"station_name":"Kemayoran","distance":1901,"i_lat":-6.161728,"i_long":106.839204,"time":5,"line":11},{"is_transit":false,"line":11,"station_name":"Pasar Senen","i_long":106.84368,"station_id":"PSE","transit":false,"time":4,"i_lat":-6.174784,"distance":1436},{"station_name":"Gang Sentiong","time":8,"i_lat":-6.185975,"transit":false,"i_long":106.850107,"line":11,"is_transit":false,"station_id":"GST","distance":1567},{"is_transit":false,"i_lat":-6.193792,"station_id":"KMT","time":1,"distance":973,"transit":false,"line":11,"i_long":106.855437,"station_name":"Kramat"},{"is_transit":false,"distance":1829,"time":2,"i_long":106.861737,"transit":false,"station_id":"POK","line":11,"station_name":"Pondok Jati","i_lat":-6.209188},{"line":1,"distance":1236,"i_lat":-6.215091,"is_transit":true,"transit":true,"station_name":"Jatinegara","station_id":"JNG","time":9,"i_long":106.86807400000001},{"station_name":"Matraman","transit":false,"i_long":106.858896,"line":1,"distance":1377,"station_id":"MTR","i_lat":-6.212485,"time":2,"is_transit":false}]]}