{"data":[[{"station_id":"PSM","line":2,"i_lat":-6.2842400000000005,"i_long":106.843999,"distance":0,"transit":false,"station_name":"Pasar Minggu","is_transit":false,"time":0},{"is_transit":false,"transit":false,"distance":2380,"i_lat":-6.263214,"time":2,"i_long":106.851577,"station_id":"PSMB","station_name":"Pasar Minggu Baru","line":2},{"line":0,"i_long":106.85449,"distance":824,"time":2,"station_id":"DRN","is_transit":false,"station_name":"Duren Kalibata","transit":false,"i_lat":-6.255332},{"time":3,"i_lat":-6.242512,"line":0,"i_long":106.856607,"station_name":"Cawang","distance":1546,"is_transit":false,"station_id":"CW","transit":false},{"station_id":"TEB","distance":1230,"time":2,"is_transit":false,"station_name":"Tebet","line":2,"i_long":106.857948,"i_lat":-6.226659,"transit":false},{"time":4,"transit":true,"i_long":106.84912,"station_id":"MRI","station_name":"Manggarai","i_lat":-6.209883,"distance":2610,"is_transit":true,"line":0},{"distance":3186,"is_transit":false,"i_lat":-6.202263,"line":1,"time":4,"station_name":"Sudirman","i_long":106.822649,"station_id":"SUD","transit":false},{"station_name":"Sudirman Baru","station_id":"SUDB","i_long":106.819881,"time":1,"distance":280,"transit":false,"i_lat":-6.201433,"is_transit":false,"line":1},{"is_transit":false,"i_lat":-6.20132,"time":1,"station_id":"KAT","station_name":"Karet","distance":471,"transit":false,"i_long":106.816351,"line":1},{"distance":2029,"station_name":"Tanah Abang","time":5,"transit":false,"i_long":106.811091,"line":1,"i_lat":-6.185545,"station_id":"THB","is_transit":true},{"station_name":"Duri","line":1,"i_lat":-6.155215,"transit":true,"station_id":"DU","is_transit":true,"distance":3632,"time":8,"i_long":106.800832},{"station_name":"Grogol","is_transit":false,"transit":false,"i_lat":-6.162021,"station_id":"GGL","i_long":106.788277,"line":5,"time":3,"distance":1700},{"transit":false,"is_transit":false,"line":5,"distance":2036,"station_id":"PSG","i_long":106.771379,"i_lat":-6.161433,"station_name":"Pesing","time":2},{"i_lat":-6.1587309999999995,"time":2,"station_id":"TKO","distance":1614,"station_name":"Taman Kota","i_long":106.756522,"is_transit":false,"transit":false,"line":5},{"station_id":"BOI","i_long":106.737035,"line":0,"i_lat":-6.159876,"station_name":"Bojongindah","is_transit":false,"transit":false,"distance":2334,"time":2},{"station_name":"Rawa Buaya","line":5,"transit":false,"i_lat":-6.162758,"station_id":"RW","distance":1152,"i_long":106.723064,"is_transit":false,"time":4},{"station_name":"Kalideres","transit":false,"time":3,"distance":2504,"i_long":106.701612,"line":5,"i_lat":-6.166068,"is_transit":false,"station_id":"KDS"},{"station_name":"Poris","is_transit":false,"station_id":"PI","time":3,"transit":false,"i_lat":-6.169933,"i_long":106.679458,"line":5,"distance":2548},{"line":0,"transit":false,"distance":1834,"i_long":106.665036,"time":3,"i_lat":-6.171811,"is_transit":false,"station_name":"Batuceper","station_id":"BPR"},{"i_long":106.64657,"distance":2028,"station_name":"Tanah Tinggi","line":5,"is_transit":false,"station_id":"TTI","time":3,"i_lat":-6.17331,"transit":false}],[{"transit":false,"station_id":"PSM","station_name":"Pasar Minggu","is_transit":false,"time":0,"line":2,"i_lat":-6.2842400000000005,"i_long":106.843999,"distance":0},{"transit":false,"line":2,"distance":2380,"time":2,"station_name":"Pasar Minggu Baru","i_long":106.851577,"station_id":"PSMB","i_lat":-6.263214,"is_transit":false},{"i_lat":-6.255332,"station_id":"DRN","i_long":106.85449,"distance":824,"is_transit":false,"time":2,"line":0,"station_name":"Duren Kalibata","transit":false},{"is_transit":false,"station_id":"CW","i_long":106.856607,"distance":1546,"transit":false,"station_name":"Cawang","time":3,"i_lat":-6.242512,"line":0},{"i_lat":-6.226659,"i_long":106.857948,"distance":1230,"is_transit":false,"line":2,"time":2,"station_id":"TEB","transit":false,"station_name":"Tebet"},{"i_long":106.84912,"line":0,"station_id":"MRI","station_name":"Manggarai","distance":2610,"transit":true,"is_transit":true,"time":4,"i_lat":-6.209883},{"i_long":106.840169,"transit":false,"distance":1590,"is_transit":false,"i_lat":-6.198556,"station_id":"CKI","line":0,"station_name":"Cikini","time":4},{"station_id":"GDD","i_long":106.832183,"is_transit":false,"i_lat":-6.186295,"time":3,"station_name":"Gondangdia","line":2,"transit":false,"distance":1750},{"transit":false,"station_id":"JUA","line":2,"time":4,"is_transit":false,"i_long":106.828284,"i_lat":-6.166716,"distance":2015,"station_name":"Juanda"},{"is_transit":false,"distance":1149,"station_name":"Sawah Besar","transit":false,"i_lat":-6.160725,"i_long":106.827103,"time":2,"line":2,"station_id":"SW"},{"i_lat":-6.149769,"line":2,"is_transit":false,"i_long":106.82482,"transit":false,"distance":906,"station_id":"MGB","station_name":"Manggabesar","time":2},{"distance":1080,"time":2,"station_name":"Jayakarta","station_id":"JAY","i_long":106.820901,"is_transit":false,"line":7,"transit":false,"i_lat":-6.141205},{"distance":1264,"station_id":"JAKK","line":0,"is_transit":true,"time":4,"i_lat":-6.137569,"i_long":106.812439,"station_name":"Jakarta Kota","transit":true},{"station_id":"KPB","line":0,"distance":1364,"i_lat":-6.132549,"is_transit":true,"transit":false,"time":3,"i_long":106.826365,"station_name":"Kampung Bandan"},{"distance":4102,"station_name":"Angke","time":9,"line":0,"i_lat":-6.144674,"transit":false,"station_id":"AK","is_transit":false,"i_long":106.79867},{"i_long":106.800832,"station_id":"DU","is_transit":true,"station_name":"Duri","distance":1230,"transit":true,"i_lat":-6.155215,"line":1,"time":4},{"station_id":"GGL","is_transit":false,"i_long":106.788277,"distance":1700,"transit":false,"time":3,"i_lat":-6.162021,"station_name":"Grogol","line":5},{"line":5,"station_id":"PSG","transit":false,"distance":2036,"i_lat":-6.161433,"is_transit":false,"station_name":"Pesing","time":2,"i_long":106.771379},{"station_id":"TKO","station_name":"Taman Kota","transit":false,"time":2,"line":5,"i_lat":-6.1587309999999995,"is_transit":false,"distance":1614,"i_long":106.756522},{"is_transit":false,"i_long":106.737035,"station_name":"Bojongindah","time":2,"i_lat":-6.159876,"distance":2334,"station_id":"BOI","transit":false,"line":0},{"time":4,"is_transit":false,"distance":1152,"i_lat":-6.162758,"station_name":"Rawa Buaya","i_long":106.723064,"station_id":"RW","transit":false,"line":5},{"transit":false,"distance":2504,"is_transit":false,"station_id":"KDS","time":3,"i_long":106.701612,"line":5,"station_name":"Kalideres","i_lat":-6.166068},{"distance":2548,"station_name":"Poris","i_long":106.679458,"line":5,"station_id":"PI","transit":false,"time":3,"is_transit":false,"i_lat":-6.169933},{"i_lat":-6.171811,"station_id":"BPR","is_transit":false,"i_long":106.665036,"distance":1834,"station_name":"Batuceper","transit":false,"time":3,"line":0},{"is_transit":false,"transit":false,"station_name":"Tanah Tinggi","time":3,"i_lat":-6.17331,"station_id":"TTI","i_long":106.64657,"line":5,"distance":2028}],[{"station_name":"Pasar Minggu","is_transit":false,"station_id":"PSM","time":0,"i_lat":-6.2842400000000005,"line":2,"transit":false,"i_long":106.843999,"distance":0},{"is_transit":false,"station_name":"Pasar Minggu Baru","time":2,"line":2,"i_lat":-6.263214,"distance":2380,"station_id":"PSMB","i_long":106.851577,"transit":false},{"distance":824,"time":2,"transit":false,"station_name":"Duren Kalibata","is_transit":false,"i_long":106.85449,"line":0,"i_lat":-6.255332,"station_id":"DRN"},{"i_lat":-6.242512,"distance":1546,"station_name":"Cawang","transit":false,"i_long":106.856607,"line":0,"is_transit":false,"time":3,"station_id":"CW"},{"i_long":106.857948,"station_id":"TEB","station_name":"Tebet","transit":false,"i_lat":-6.226659,"line":2,"distance":1230,"is_transit":false,"time":2},{"station_id":"MRI","line":0,"time":4,"i_long":106.84912,"is_transit":true,"station_name":"Manggarai","transit":true,"i_lat":-6.209883,"distance":2610},{"transit":false,"i_long":106.858896,"time":2,"distance":1275,"station_name":"Matraman","station_id":"MTR","i_lat":-6.212485,"is_transit":false,"line":1},{"time":8,"station_name":"Jatinegara","distance":1377,"transit":true,"i_lat":-6.215091,"line":0,"is_transit":true,"i_long":106.86807400000001,"station_id":"JNG"},{"i_lat":-6.209188,"station_id":"POK","is_transit":false,"time":2,"i_long":106.861737,"distance":1236,"line":11,"transit":false,"station_name":"Pondok Jati"},{"transit":false,"distance":1829,"line":11,"time":2,"i_lat":-6.193792,"station_id":"KMT","i_long":106.855437,"is_transit":false,"station_name":"Kramat"},{"station_name":"Gang Sentiong","transit":false,"is_transit":false,"time":1,"i_lat":-6.185975,"line":11,"distance":973,"station_id":"GST","i_long":106.850107},{"transit":false,"i_long":106.84368,"station_id":"PSE","station_name":"Pasar Senen","distance":1567,"is_transit":false,"line":11,"time":8,"i_lat":-6.174784},{"i_lat":-6.161728,"station_name":"Kemayoran","time":4,"transit":false,"station_id":"KMO","distance":1436,"is_transit":false,"line":11,"i_long":106.839204},{"is_transit":false,"time":5,"transit":false,"station_name":"Rajawali","i_lat":-6.14505,"i_long":106.836569,"station_id":"RJW","distance":1901,"line":11},{"transit":true,"i_long":106.826365,"i_lat":-6.132549,"is_transit":true,"line":0,"distance":1444,"station_id":"KPB","station_name":"Kampung Bandan","time":3},{"line":0,"distance":4102,"is_transit":false,"time":9,"i_long":106.79867,"station_id":"AK","station_name":"Angke","transit":false,"i_lat":-6.144674},{"is_transit":true,"station_id":"DU","i_lat":-6.155215,"transit":true,"time":4,"station_name":"Duri","line":1,"distance":1230,"i_long":106.800832},{"i_lat":-6.162021,"station_id":"GGL","is_transit":false,"i_long":106.788277,"line":5,"station_name":"Grogol","transit":false,"distance":1700,"time":3},{"i_long":106.771379,"is_transit":false,"time":2,"station_name":"Pesing","transit":false,"i_lat":-6.161433,"station_id":"PSG","distance":2036,"line":5},{"line":5,"transit":false,"station_id":"TKO","distance":1614,"station_name":"Taman Kota","time":2,"is_transit":false,"i_long":106.756522,"i_lat":-6.1587309999999995},{"station_name":"Bojongindah","line":0,"time":2,"transit":false,"i_lat":-6.159876,"is_transit":false,"station_id":"BOI","i_long":106.737035,"distance":2334},{"is_transit":false,"distance":1152,"line":5,"station_id":"RW","station_name":"Rawa Buaya","time":4,"i_long":106.723064,"transit":false,"i_lat":-6.162758},{"distance":2504,"station_name":"Kalideres","i_long":106.701612,"i_lat":-6.166068,"is_transit":false,"station_id":"KDS","line":5,"transit":false,"time":3},{"line":5,"transit":false,"time":3,"i_lat":-6.169933,"station_name":"Poris","i_long":106.679458,"is_transit":false,"station_id":"PI","distance":2548},{"distance":1834,"line":0,"station_id":"BPR","station_name":"Batuceper","time":3,"i_long":106.665036,"is_transit":false,"transit":false,"i_lat":-6.171811},{"station_name":"Tanah Tinggi","i_lat":-6.17331,"station_id":"TTI","line":5,"time":3,"distance":2028,"transit":false,"i_long":106.64657,"is_transit":false}]]}