{"data":[[{"station_name":"Pasar Minggu","i_long":106.843999,"station_id":"PSM","time":0,"distance":0,"i_lat":-6.2842400000000005,"transit":false,"is_transit":false,"line":2},{"station_name":"Pasar Minggu Baru","is_transit":false,"distance":2380,"i_long":106.851577,"time":2,"line":2,"i_lat":-6.263214,"transit":false,"station_id":"PSMB"},{"line":2,"i_long":106.85449,"station_id":"DRN","transit":false,"i_lat":-6.255332,"time":2,"distance":824,"is_transit":false,"station_name":"Duren Kalibata"},{"station_id":"CW","is_transit":false,"station_name":"Cawang","transit":false,"i_lat":-6.242512,"line":2,"distance":1546,"i_long":106.856607,"time":3},{"is_transit":false,"transit":false,"station_id":"TEB","station_name":"Tebet","i_long":106.857948,"time":2,"distance":1230,"i_lat":-6.226659,"line":2},{"distance":2610,"station_name":"Manggarai","time":4,"station_id":"MRI","i_long":106.84912,"transit":true,"is_transit":true,"i_lat":-6.209883,"line":2},{"line":1,"distance":3186,"i_lat":-6.202263,"is_transit":false,"time":4,"station_name":"Sudirman","station_id":"SUD","i_long":106.822649,"transit":false},{"line":1,"station_id":"SUDB","transit":false,"station_name":"Sudirman Baru","distance":280,"i_lat":-6.201433,"is_transit":false,"i_long":106.819881,"time":1},{"time":1,"distance":471,"transit":false,"station_id":"KAT","is_transit":false,"i_long":106.816351,"i_lat":-6.20132,"line":1,"station_name":"Karet"},{"i_lat":-6.185545,"transit":false,"station_id":"THB","distance":2029,"time":5,"i_long":106.811091,"station_name":"Tanah Abang","is_transit":false,"line":1},{"line":1,"distance":3632,"station_id":"DU","time":8,"is_transit":true,"transit":true,"station_name":"Duri","i_lat":-6.155215,"i_long":106.800832},{"distance":1700,"i_long":106.788277,"station_name":"Grogol","i_lat":-6.162021,"transit":false,"time":3,"is_transit":false,"station_id":"GGL","line":5},{"is_transit":false,"line":5,"time":2,"station_id":"PSG","distance":2036,"i_lat":-6.161433,"transit":false,"station_name":"Pesing","i_long":106.771379},{"transit":false,"station_name":"Taman Kota","time":2,"line":5,"is_transit":false,"i_lat":-6.1587309999999995,"i_long":106.756522,"station_id":"TKO","distance":1614},{"line":5,"i_long":106.737035,"is_transit":false,"time":2,"station_id":"BOI","station_name":"Bojongindah","i_lat":-6.159876,"transit":false,"distance":2334},{"station_name":"Rawa Buaya","i_long":106.723064,"i_lat":-6.162758,"distance":1152,"line":5,"time":4,"transit":false,"is_transit":false,"station_id":"RW"},{"line":5,"station_name":"Kalideres","time":3,"is_transit":false,"i_lat":-6.166068,"distance":2504,"i_long":106.701612,"station_id":"KDS","transit":false},{"station_id":"PI","distance":2548,"transit":false,"station_name":"Poris","time":3,"line":5,"i_long":106.679458,"is_transit":false,"i_lat":-6.169933},{"station_name":"Batuceper","distance":1834,"i_lat":-6.171811,"station_id":"BPR","transit":false,"time":3,"i_long":106.665036,"line":5,"is_transit":false},{"i_lat":-6.17331,"station_id":"TTI","time":3,"transit":false,"line":5,"station_name":"Tanah Tinggi","is_transit":false,"i_long":106.64657,"distance":2028}],[{"time":0,"transit":false,"station_name":"Pasar Minggu","line":2,"station_id":"PSM","i_long":106.843999,"i_lat":-6.2842400000000005,"is_transit":false,"distance":0},{"transit":false,"i_lat":-6.263214,"station_id":"PSMB","is_transit":false,"line":2,"time":2,"station_name":"Pasar Minggu Baru","distance":2380,"i_long":106.851577},{"station_id":"DRN","i_long":106.85449,"i_lat":-6.255332,"station_name":"Duren Kalibata","is_transit":false,"distance":824,"transit":false,"time":2,"line":2},{"time":3,"is_transit":false,"distance":1546,"i_long":106.856607,"line":2,"station_name":"Cawang","transit":false,"station_id":"CW","i_lat":-6.242512},{"i_long":106.857948,"line":2,"transit":false,"station_id":"TEB","distance":1230,"is_transit":false,"time":2,"station_name":"Tebet","i_lat":-6.226659},{"is_transit":false,"distance":2610,"transit":false,"i_long":106.84912,"station_id":"MRI","station_name":"Manggarai","i_lat":-6.209883,"line":2,"time":4},{"station_id":"CKI","distance":1590,"is_transit":false,"station_name":"Cikini","transit":false,"time":4,"i_lat":-6.198556,"i_long":106.840169,"line":2},{"distance":1750,"i_lat":-6.186295,"line":2,"station_name":"Gondangdia","i_long":106.832183,"transit":false,"time":3,"station_id":"GDD","is_transit":false},{"i_lat":-6.166716,"transit":false,"is_transit":false,"distance":2015,"i_long":106.828284,"station_id":"JUA","time":4,"line":2,"station_name":"Juanda"},{"transit":false,"is_transit":false,"line":2,"i_long":106.827103,"i_lat":-6.160725,"station_name":"Sawah Besar","station_id":"SW","distance":1149,"time":2},{"station_id":"MGB","is_transit":false,"i_lat":-6.149769,"station_name":"Manggabesar","time":2,"distance":906,"i_long":106.82482,"transit":false,"line":2},{"station_id":"JAY","line":2,"i_lat":-6.141205,"is_transit":false,"i_long":106.820901,"station_name":"Jayakarta","distance":1080,"transit":false,"time":2},{"is_transit":true,"station_id":"JAKK","distance":1264,"time":4,"line":2,"i_long":106.812439,"transit":true,"i_lat":-6.137569,"station_name":"Jakarta Kota"},{"station_name":"Kampung Bandan","i_lat":-6.132549,"line":4,"transit":true,"distance":1364,"station_id":"KPB","time":3,"i_long":106.826365,"is_transit":true},{"time":9,"distance":4102,"station_name":"Angke","i_long":106.79867,"station_id":"AK","is_transit":false,"line":1,"i_lat":-6.144674,"transit":false},{"line":1,"transit":true,"is_transit":true,"station_id":"DU","i_lat":-6.155215,"i_long":106.800832,"station_name":"Duri","distance":1230,"time":4},{"transit":false,"station_id":"GGL","time":3,"line":5,"station_name":"Grogol","is_transit":false,"distance":1700,"i_lat":-6.162021,"i_long":106.788277},{"station_name":"Pesing","time":2,"is_transit":false,"distance":2036,"transit":false,"station_id":"PSG","i_lat":-6.161433,"i_long":106.771379,"line":5},{"i_lat":-6.1587309999999995,"transit":false,"i_long":106.756522,"time":2,"distance":1614,"station_name":"Taman Kota","is_transit":false,"station_id":"TKO","line":5},{"distance":2334,"transit":false,"station_name":"Bojongindah","time":2,"station_id":"BOI","is_transit":false,"i_lat":-6.159876,"i_long":106.737035,"line":5},{"line":5,"distance":1152,"transit":false,"i_long":106.723064,"i_lat":-6.162758,"station_id":"RW","is_transit":false,"station_name":"Rawa Buaya","time":4},{"is_transit":false,"time":3,"i_lat":-6.166068,"i_long":106.701612,"station_name":"Kalideres","transit":false,"station_id":"KDS","distance":2504,"line":5},{"distance":2548,"transit":false,"station_name":"Poris","i_lat":-6.169933,"i_long":106.679458,"time":3,"line":5,"station_id":"PI","is_transit":false},{"time":3,"transit":false,"station_name":"Batuceper","line":5,"station_id":"BPR","is_transit":false,"distance":1834,"i_lat":-6.171811,"i_long":106.665036},{"is_transit":false,"line":5,"i_lat":-6.17331,"station_name":"Tanah Tinggi","distance":2028,"transit":false,"i_long":106.64657,"station_id":"TTI","time":3}],[{"station_name":"Pasar Minggu","i_long":106.843999,"time":0,"station_id":"PSM","is_transit":false,"distance":0,"line":2,"i_lat":-6.2842400000000005,"transit":false},{"line":2,"transit":false,"station_id":"PSMB","i_long":106.851577,"station_name":"Pasar Minggu Baru","is_transit":false,"time":2,"i_lat":-6.263214,"distance":2380},{"line":2,"station_name":"Duren Kalibata","distance":824,"transit":false,"is_transit":false,"i_lat":-6.255332,"station_id":"DRN","time":2,"i_long":106.85449},{"transit":false,"is_transit":false,"line":2,"station_name":"Cawang","time":3,"i_lat":-6.242512,"i_long":106.856607,"distance":1546,"station_id":"CW"},{"distance":1230,"i_lat":-6.226659,"transit":false,"is_transit":false,"line":2,"i_long":106.857948,"time":2,"station_name":"Tebet","station_id":"TEB"},{"distance":2610,"station_name":"Manggarai","is_transit":true,"i_lat":-6.209883,"line":2,"i_long":106.84912,"transit":true,"station_id":"MRI","time":4},{"station_name":"Matraman","i_lat":-6.212485,"line":1,"i_long":106.858896,"transit":false,"time":2,"is_transit":false,"distance":1275,"station_id":"MTR"},{"station_id":"JNG","line":1,"is_transit":true,"transit":true,"i_long":106.86807400000001,"station_name":"Jatinegara","time":8,"distance":1377,"i_lat":-6.215091},{"i_lat":-6.209188,"line":11,"distance":1236,"station_name":"Pondok Jati","time":2,"transit":false,"i_long":106.861737,"station_id":"POK","is_transit":false},{"transit":false,"station_name":"Kramat","is_transit":false,"distance":1829,"i_long":106.855437,"i_lat":-6.193792,"station_id":"KMT","time":2,"line":11},{"station_name":"Gang Sentiong","i_long":106.850107,"line":11,"is_transit":false,"station_id":"GST","transit":false,"distance":973,"time":1,"i_lat":-6.185975},{"transit":false,"line":11,"station_name":"Pasar Senen","station_id":"PSE","distance":1567,"is_transit":false,"i_lat":-6.174784,"i_long":106.84368,"time":8},{"i_lat":-6.161728,"transit":false,"i_long":106.839204,"time":4,"station_id":"KMO","station_name":"Kemayoran","is_transit":false,"line":11,"distance":1436},{"station_id":"RJW","station_name":"Rajawali","is_transit":false,"line":11,"time":5,"i_lat":-6.14505,"distance":1901,"i_long":106.836569,"transit":false},{"is_transit":true,"transit":true,"line":4,"i_lat":-6.132549,"time":3,"i_long":106.826365,"station_id":"KPB","station_name":"Kampung Bandan","distance":1444},{"transit":false,"station_name":"Angke","station_id":"AK","is_transit":false,"distance":4102,"i_long":106.79867,"time":9,"line":1,"i_lat":-6.144674},{"station_id":"DU","i_lat":-6.155215,"i_long":106.800832,"line":1,"time":4,"transit":true,"station_name":"Duri","is_transit":true,"distance":1230},{"transit":false,"distance":1700,"station_name":"Grogol","station_id":"GGL","i_lat":-6.162021,"i_long":106.788277,"is_transit":false,"line":5,"time":3},{"is_transit":false,"line":5,"i_lat":-6.161433,"time":2,"distance":2036,"station_id":"PSG","i_long":106.771379,"transit":false,"station_name":"Pesing"},{"station_name":"Taman Kota","i_lat":-6.1587309999999995,"line":5,"transit":false,"i_long":106.756522,"time":2,"distance":1614,"station_id":"TKO","is_transit":false},{"i_lat":-6.159876,"i_long":106.737035,"is_transit":false,"line":5,"transit":false,"station_id":"BOI","station_name":"Bojongindah","distance":2334,"time":2},{"is_transit":false,"i_lat":-6.162758,"time":4,"station_id":"RW","line":5,"i_long":106.723064,"transit":false,"station_name":"Rawa Buaya","distance":1152},{"transit":false,"station_name":"Kalideres","i_long":106.701612,"i_lat":-6.166068,"distance":2504,"station_id":"KDS","time":3,"line":5,"is_transit":false},{"transit":false,"station_name":"Poris","station_id":"PI","is_transit":false,"i_lat":-6.169933,"time":3,"distance":2548,"line":5,"i_long":106.679458},{"station_name":"Batuceper","i_long":106.665036,"line":5,"i_lat":-6.171811,"distance":1834,"is_transit":false,"station_id":"BPR","transit":false,"time":3},{"i_lat":-6.17331,"transit":false,"station_id":"TTI","time":3,"i_long":106.64657,"distance":2028,"is_transit":false,"line":5,"station_name":"Tanah Tinggi"}]]}