{"data":[[{"distance":0,"transit":false,"i_lat":-6.2842400000000005,"time":0,"is_transit":false,"station_id":"PSM","line":2,"i_long":106.843999,"station_name":"Pasar Minggu"},{"line":2,"is_transit":false,"i_long":106.838896,"transit":false,"station_name":"Tanjung Barat","distance":2820,"time":4,"i_lat":-6.3080680000000005,"station_id":"TNT"},{"i_long":106.832616,"time":3,"transit":false,"station_name":"Lenteng Agung","station_id":"LNA","line":2,"distance":2671,"is_transit":false,"i_lat":-6.330363},{"station_name":"Univ. Pancasila","i_long":106.834175,"distance":1029,"is_transit":false,"line":2,"time":2,"transit":false,"station_id":"UP","i_lat":-6.339291},{"line":2,"station_name":"Univ. Indonesia","is_transit":false,"time":3,"distance":2264,"transit":false,"station_id":"UI","i_lat":-6.360749,"i_long":106.831474},{"time":2,"station_name":"Pondok Cina","is_transit":false,"i_long":106.831114,"transit":false,"i_lat":-6.369073,"line":2,"station_id":"POC","distance":1109},{"is_transit":false,"transit":false,"time":4,"i_lat":-6.391065,"distance":2727,"station_name":"Depokbaru","line":2,"station_id":"DPB","i_long":106.819451},{"station_id":"DP","i_lat":-6.405256,"distance":1584,"time":3,"line":2,"is_transit":false,"station_name":"Depok","i_long":106.816926,"transit":false},{"i_long":106.800298,"transit":false,"i_lat":-6.448811,"line":2,"station_id":"CTA","is_transit":false,"station_name":"Citayam","time":6,"distance":5084}]]}