{"data":[[{"station_name":"Pasar Minggu","time":0,"transit":false,"distance":0,"i_lat":-6.2842400000000005,"is_transit":false,"i_long":106.843999,"line":2,"station_id":"PSM"},{"is_transit":false,"line":2,"time":2,"i_lat":-6.263214,"station_name":"Pasar Minggu Baru","transit":false,"distance":2380,"station_id":"PSMB","i_long":106.851577},{"is_transit":false,"time":2,"transit":false,"station_id":"DRN","i_long":106.85449,"line":2,"station_name":"Duren Kalibata","i_lat":-6.255332,"distance":824},{"line":2,"distance":1546,"station_id":"CW","station_name":"Cawang","i_lat":-6.242512,"time":3,"i_long":106.856607,"is_transit":false,"transit":false},{"transit":false,"is_transit":false,"i_long":106.857948,"station_name":"Tebet","time":2,"distance":1230,"station_id":"TEB","i_lat":-6.226659,"line":2},{"line":2,"station_id":"MRI","transit":true,"is_transit":true,"time":4,"station_name":"Manggarai","distance":2610,"i_lat":-6.209883,"i_long":106.84912},{"i_long":106.822649,"transit":false,"station_name":"Sudirman","i_lat":-6.202263,"station_id":"SUD","line":1,"time":4,"is_transit":false,"distance":3186},{"i_lat":-6.201433,"i_long":106.819881,"line":1,"distance":280,"station_name":"Sudirman Baru","time":1,"transit":false,"station_id":"SUDB","is_transit":false},{"station_name":"Karet","i_lat":-6.20132,"distance":471,"time":1,"transit":false,"i_long":106.816351,"is_transit":false,"line":1,"station_id":"KAT"},{"station_id":"THB","line":1,"distance":2029,"i_lat":-6.185545,"is_transit":true,"transit":true,"station_name":"Tanah Abang","i_long":106.811091,"time":5},{"i_lat":-6.207404,"transit":false,"distance":3191,"station_id":"PLM","i_long":106.79689,"is_transit":false,"time":6,"line":6,"station_name":"Palmerah"},{"is_transit":false,"i_long":106.780334,"transit":false,"line":6,"distance":3737,"time":7,"station_name":"Kebayoran","station_id":"KBY","i_lat":-6.237242},{"distance":6218,"station_id":"PDJ","line":6,"is_transit":false,"i_lat":-6.276362,"time":8,"transit":false,"i_long":106.74273,"station_name":"Pondokranji"},{"is_transit":false,"transit":false,"time":3,"i_lat":-6.288927,"station_name":"Jurangmangu","i_long":106.728916,"distance":2179,"station_id":"JMU","line":6},{"transit":false,"i_lat":-6.296963,"is_transit":false,"station_name":"Sudimara","station_id":"SDM","i_long":106.712277,"line":6,"time":4,"distance":1994},{"station_name":"Rawa Buntu","time":6,"station_id":"RU","i_lat":-6.314823,"line":6,"transit":false,"is_transit":false,"i_long":106.675475,"distance":4566}],[{"station_name":"Pasar Minggu","line":2,"is_transit":false,"distance":0,"i_lat":-6.2842400000000005,"i_long":106.843999,"time":0,"transit":false,"station_id":"PSM"},{"is_transit":false,"i_lat":-6.263214,"transit":false,"station_name":"Pasar Minggu Baru","distance":2380,"i_long":106.851577,"line":2,"time":2,"station_id":"PSMB"},{"distance":824,"time":2,"transit":false,"station_name":"Duren Kalibata","i_lat":-6.255332,"station_id":"DRN","i_long":106.85449,"is_transit":false,"line":2},{"line":2,"time":3,"transit":false,"is_transit":false,"i_lat":-6.242512,"i_long":106.856607,"station_id":"CW","station_name":"Cawang","distance":1546},{"i_lat":-6.226659,"i_long":106.857948,"line":2,"station_name":"Tebet","transit":false,"time":2,"distance":1230,"station_id":"TEB","is_transit":false},{"line":2,"is_transit":false,"i_long":106.84912,"station_id":"MRI","i_lat":-6.209883,"distance":2610,"station_name":"Manggarai","transit":false,"time":4},{"station_id":"CKI","transit":false,"line":2,"time":4,"is_transit":false,"station_name":"Cikini","i_lat":-6.198556,"distance":1590,"i_long":106.840169},{"is_transit":false,"distance":1750,"i_lat":-6.186295,"i_long":106.832183,"time":3,"line":2,"station_name":"Gondangdia","station_id":"GDD","transit":false},{"transit":false,"station_id":"JUA","is_transit":false,"station_name":"Juanda","i_lat":-6.166716,"line":2,"time":4,"distance":2015,"i_long":106.828284},{"time":2,"station_id":"SW","is_transit":false,"transit":false,"station_name":"Sawah Besar","line":2,"i_lat":-6.160725,"distance":1149,"i_long":106.827103},{"line":2,"is_transit":false,"station_id":"MGB","transit":false,"station_name":"Manggabesar","time":2,"distance":906,"i_long":106.82482,"i_lat":-6.149769},{"i_lat":-6.141205,"time":2,"line":2,"is_transit":false,"station_name":"Jayakarta","station_id":"JAY","transit":false,"distance":1080,"i_long":106.820901},{"i_long":106.812439,"station_name":"Jakarta Kota","is_transit":true,"time":4,"transit":true,"station_id":"JAKK","i_lat":-6.137569,"line":2,"distance":1264},{"line":4,"is_transit":true,"distance":1364,"station_name":"Kampung Bandan","i_long":106.826365,"transit":true,"i_lat":-6.132549,"station_id":"KPB","time":3},{"transit":false,"distance":4102,"is_transit":false,"i_long":106.79867,"station_id":"AK","time":9,"i_lat":-6.144674,"line":1,"station_name":"Angke"},{"is_transit":false,"station_id":"DU","station_name":"Duri","i_lat":-6.155215,"time":4,"transit":false,"i_long":106.800832,"line":1,"distance":1230},{"distance":3632,"i_lat":-6.185545,"line":1,"is_transit":true,"i_long":106.811091,"transit":true,"station_id":"THB","station_name":"Tanah Abang","time":8},{"is_transit":false,"station_id":"PLM","distance":3191,"station_name":"Palmerah","i_lat":-6.207404,"line":6,"transit":false,"i_long":106.79689,"time":6},{"i_lat":-6.237242,"station_id":"KBY","distance":3737,"line":6,"station_name":"Kebayoran","transit":false,"i_long":106.780334,"time":7,"is_transit":false},{"i_long":106.74273,"is_transit":false,"transit":false,"distance":6218,"station_id":"PDJ","line":6,"time":8,"station_name":"Pondokranji","i_lat":-6.276362},{"time":3,"i_lat":-6.288927,"is_transit":false,"i_long":106.728916,"distance":2179,"station_id":"JMU","transit":false,"line":6,"station_name":"Jurangmangu"},{"i_long":106.712277,"station_id":"SDM","i_lat":-6.296963,"line":6,"distance":1994,"transit":false,"time":4,"station_name":"Sudimara","is_transit":false},{"distance":4566,"station_name":"Rawa Buntu","i_long":106.675475,"station_id":"RU","line":6,"time":6,"i_lat":-6.314823,"transit":false,"is_transit":false}],[{"station_id":"PSM","line":2,"i_long":106.843999,"is_transit":false,"time":0,"station_name":"Pasar Minggu","transit":false,"distance":0,"i_lat":-6.2842400000000005},{"time":2,"is_transit":false,"transit":false,"distance":2380,"station_id":"PSMB","station_name":"Pasar Minggu Baru","i_lat":-6.263214,"i_long":106.851577,"line":2},{"line":2,"station_name":"Duren Kalibata","i_lat":-6.255332,"distance":824,"i_long":106.85449,"is_transit":false,"station_id":"DRN","time":2,"transit":false},{"transit":false,"distance":1546,"i_lat":-6.242512,"is_transit":false,"station_name":"Cawang","i_long":106.856607,"station_id":"CW","time":3,"line":2},{"station_id":"TEB","transit":false,"station_name":"Tebet","line":2,"distance":1230,"time":2,"is_transit":false,"i_long":106.857948,"i_lat":-6.226659},{"station_name":"Manggarai","transit":true,"station_id":"MRI","i_lat":-6.209883,"is_transit":true,"i_long":106.84912,"time":4,"distance":2610,"line":2},{"station_name":"Matraman","station_id":"MTR","i_lat":-6.212485,"time":2,"line":1,"transit":false,"i_long":106.858896,"is_transit":false,"distance":1275},{"is_transit":true,"distance":1377,"i_long":106.86807400000001,"line":1,"time":8,"station_id":"JNG","station_name":"Jatinegara","transit":true,"i_lat":-6.215091},{"i_lat":-6.209188,"station_name":"Pondok Jati","line":11,"i_long":106.861737,"is_transit":false,"distance":1236,"time":2,"transit":false,"station_id":"POK"},{"i_long":106.855437,"transit":false,"distance":1829,"station_name":"Kramat","station_id":"KMT","is_transit":false,"line":11,"time":2,"i_lat":-6.193792},{"time":1,"station_name":"Gang Sentiong","line":11,"is_transit":false,"i_lat":-6.185975,"transit":false,"i_long":106.850107,"station_id":"GST","distance":973},{"distance":1567,"time":8,"i_lat":-6.174784,"i_long":106.84368,"line":11,"station_name":"Pasar Senen","station_id":"PSE","transit":false,"is_transit":false},{"station_name":"Kemayoran","line":11,"is_transit":false,"distance":1436,"transit":false,"station_id":"KMO","i_long":106.839204,"i_lat":-6.161728,"time":4},{"transit":false,"line":11,"station_name":"Rajawali","i_long":106.836569,"i_lat":-6.14505,"distance":1901,"station_id":"RJW","is_transit":false,"time":5},{"station_name":"Kampung Bandan","is_transit":true,"i_lat":-6.132549,"i_long":106.826365,"distance":1444,"station_id":"KPB","transit":true,"line":4,"time":3},{"station_name":"Angke","i_lat":-6.144674,"line":1,"is_transit":false,"time":9,"i_long":106.79867,"distance":4102,"transit":false,"station_id":"AK"},{"is_transit":false,"station_name":"Duri","time":4,"distance":1230,"i_lat":-6.155215,"line":1,"station_id":"DU","i_long":106.800832,"transit":false},{"distance":3632,"station_id":"THB","i_long":106.811091,"transit":true,"i_lat":-6.185545,"station_name":"Tanah Abang","line":1,"time":8,"is_transit":true},{"i_long":106.79689,"distance":3191,"station_name":"Palmerah","i_lat":-6.207404,"station_id":"PLM","is_transit":false,"line":6,"time":6,"transit":false},{"line":6,"transit":false,"station_name":"Kebayoran","i_lat":-6.237242,"is_transit":false,"i_long":106.780334,"station_id":"KBY","time":7,"distance":3737},{"distance":6218,"station_name":"Pondokranji","i_long":106.74273,"line":6,"is_transit":false,"transit":false,"time":8,"i_lat":-6.276362,"station_id":"PDJ"},{"is_transit":false,"station_name":"Jurangmangu","time":3,"transit":false,"i_long":106.728916,"line":6,"i_lat":-6.288927,"distance":2179,"station_id":"JMU"},{"time":4,"station_name":"Sudimara","station_id":"SDM","i_long":106.712277,"distance":1994,"is_transit":false,"i_lat":-6.296963,"line":6,"transit":false},{"line":6,"station_name":"Rawa Buntu","is_transit":false,"distance":4566,"station_id":"RU","time":6,"i_long":106.675475,"transit":false,"i_lat":-6.314823}]]}