{"data":[[{"line":2,"station_name":"Pasar Minggu","is_transit":false,"time":0,"i_lat":-6.2842400000000005,"station_id":"PSM","distance":0,"transit":false,"i_long":106.843999},{"i_lat":-6.263214,"station_name":"Pasar Minggu Baru","station_id":"PSMB","distance":2380,"is_transit":false,"time":2,"i_long":106.851577,"transit":false,"line":2},{"distance":824,"time":2,"i_lat":-6.255332,"transit":false,"i_long":106.85449,"line":0,"station_id":"DRN","is_transit":false,"station_name":"Duren Kalibata"},{"transit":false,"time":3,"i_lat":-6.242512,"line":0,"is_transit":false,"i_long":106.856607,"station_id":"CW","station_name":"Cawang","distance":1546},{"i_long":106.857948,"station_name":"Tebet","is_transit":false,"i_lat":-6.226659,"station_id":"TEB","time":2,"line":2,"distance":1230,"transit":false},{"i_lat":-6.209883,"distance":2610,"transit":true,"station_id":"MRI","line":0,"station_name":"Manggarai","time":4,"is_transit":true,"i_long":106.84912},{"station_id":"SUD","i_long":106.822649,"distance":3186,"line":1,"station_name":"Sudirman","transit":false,"time":4,"i_lat":-6.202263,"is_transit":false},{"i_lat":-6.201433,"line":1,"i_long":106.819881,"distance":280,"station_id":"SUDB","station_name":"Sudirman Baru","transit":false,"time":1,"is_transit":false},{"transit":false,"station_id":"KAT","station_name":"Karet","is_transit":false,"distance":471,"i_lat":-6.20132,"time":1,"i_long":106.816351,"line":1},{"i_lat":-6.185545,"station_id":"THB","line":1,"time":5,"i_long":106.811091,"distance":2029,"transit":false,"station_name":"Tanah Abang","is_transit":true},{"station_id":"DU","distance":3632,"is_transit":true,"transit":true,"time":8,"i_lat":-6.155215,"i_long":106.800832,"line":1,"station_name":"Duri"},{"i_lat":-6.144674,"distance":1230,"i_long":106.79867,"transit":false,"station_id":"AK","is_transit":false,"station_name":"Angke","line":0,"time":4}],[{"station_id":"PSM","distance":0,"station_name":"Pasar Minggu","line":2,"time":0,"is_transit":false,"i_lat":-6.2842400000000005,"i_long":106.843999,"transit":false},{"transit":false,"i_lat":-6.263214,"line":2,"is_transit":false,"i_long":106.851577,"station_name":"Pasar Minggu Baru","distance":2380,"station_id":"PSMB","time":2},{"i_long":106.85449,"line":0,"distance":824,"time":2,"i_lat":-6.255332,"station_id":"DRN","station_name":"Duren Kalibata","is_transit":false,"transit":false},{"line":0,"distance":1546,"is_transit":false,"station_name":"Cawang","station_id":"CW","transit":false,"time":3,"i_lat":-6.242512,"i_long":106.856607},{"i_long":106.857948,"line":2,"distance":1230,"i_lat":-6.226659,"is_transit":false,"station_id":"TEB","transit":false,"time":2,"station_name":"Tebet"},{"transit":true,"i_long":106.84912,"distance":2610,"station_id":"MRI","station_name":"Manggarai","time":4,"line":0,"is_transit":true,"i_lat":-6.209883},{"is_transit":false,"transit":false,"i_lat":-6.198556,"distance":1590,"time":4,"i_long":106.840169,"station_id":"CKI","line":0,"station_name":"Cikini"},{"station_id":"GDD","time":3,"i_lat":-6.186295,"is_transit":false,"i_long":106.832183,"line":2,"transit":false,"distance":1750,"station_name":"Gondangdia"},{"i_lat":-6.166716,"transit":false,"line":2,"is_transit":false,"time":4,"i_long":106.828284,"station_name":"Juanda","station_id":"JUA","distance":2015},{"time":2,"i_long":106.827103,"is_transit":false,"line":2,"station_name":"Sawah Besar","transit":false,"distance":1149,"station_id":"SW","i_lat":-6.160725},{"is_transit":false,"station_id":"MGB","i_lat":-6.149769,"i_long":106.82482,"line":2,"time":2,"distance":906,"station_name":"Manggabesar","transit":false},{"is_transit":false,"time":2,"i_lat":-6.141205,"line":7,"station_id":"JAY","transit":false,"station_name":"Jayakarta","distance":1080,"i_long":106.820901},{"line":0,"station_name":"Jakarta Kota","time":4,"i_long":106.812439,"station_id":"JAKK","distance":1264,"i_lat":-6.137569,"is_transit":true,"transit":true},{"i_lat":-6.132549,"i_long":106.826365,"line":0,"transit":false,"is_transit":true,"station_id":"KPB","station_name":"Kampung Bandan","time":3,"distance":1364},{"transit":false,"distance":4102,"i_lat":-6.144674,"is_transit":false,"station_id":"AK","i_long":106.79867,"time":9,"line":0,"station_name":"Angke"}],[{"i_lat":-6.2842400000000005,"time":0,"station_name":"Pasar Minggu","line":2,"i_long":106.843999,"distance":0,"transit":false,"is_transit":false,"station_id":"PSM"},{"station_id":"PSMB","transit":false,"station_name":"Pasar Minggu Baru","time":2,"i_lat":-6.263214,"line":2,"i_long":106.851577,"distance":2380,"is_transit":false},{"distance":824,"transit":false,"time":2,"is_transit":false,"station_name":"Duren Kalibata","station_id":"DRN","i_lat":-6.255332,"i_long":106.85449,"line":0},{"i_lat":-6.242512,"line":0,"station_name":"Cawang","station_id":"CW","distance":1546,"is_transit":false,"transit":false,"i_long":106.856607,"time":3},{"line":2,"distance":1230,"is_transit":false,"station_name":"Tebet","transit":false,"i_lat":-6.226659,"i_long":106.857948,"station_id":"TEB","time":2},{"is_transit":true,"line":0,"station_id":"MRI","distance":2610,"i_lat":-6.209883,"i_long":106.84912,"transit":true,"station_name":"Manggarai","time":4},{"line":1,"i_lat":-6.212485,"station_id":"MTR","is_transit":false,"station_name":"Matraman","transit":false,"i_long":106.858896,"time":2,"distance":1275},{"line":0,"i_lat":-6.215091,"station_id":"JNG","station_name":"Jatinegara","time":8,"distance":1377,"is_transit":true,"transit":true,"i_long":106.86807400000001},{"is_transit":false,"transit":false,"i_long":106.861737,"line":11,"station_name":"Pondok Jati","time":2,"distance":1236,"station_id":"POK","i_lat":-6.209188},{"line":11,"i_lat":-6.193792,"i_long":106.855437,"is_transit":false,"time":2,"distance":1829,"station_id":"KMT","transit":false,"station_name":"Kramat"},{"line":11,"i_lat":-6.185975,"is_transit":false,"transit":false,"distance":973,"time":1,"i_long":106.850107,"station_name":"Gang Sentiong","station_id":"GST"},{"distance":1567,"transit":false,"time":8,"station_name":"Pasar Senen","line":11,"station_id":"PSE","i_lat":-6.174784,"i_long":106.84368,"is_transit":false},{"distance":1436,"transit":false,"time":4,"i_long":106.839204,"line":11,"station_name":"Kemayoran","station_id":"KMO","is_transit":false,"i_lat":-6.161728},{"time":5,"transit":false,"i_long":106.836569,"i_lat":-6.14505,"is_transit":false,"station_id":"RJW","distance":1901,"station_name":"Rajawali","line":11},{"time":3,"distance":1444,"i_lat":-6.132549,"line":0,"transit":true,"station_id":"KPB","is_transit":true,"station_name":"Kampung Bandan","i_long":106.826365},{"line":0,"is_transit":false,"station_name":"Angke","transit":false,"distance":4102,"time":9,"station_id":"AK","i_lat":-6.144674,"i_long":106.79867}]]}