{"data":[[{"station_id":"PSM","transit":false,"distance":0,"is_transit":false,"time":0,"line":2,"station_name":"Pasar Minggu","i_long":106.843999,"i_lat":-6.2842400000000005},{"transit":false,"line":2,"station_id":"PSMB","i_lat":-6.263214,"station_name":"Pasar Minggu Baru","time":2,"is_transit":false,"i_long":106.851577,"distance":2380},{"transit":false,"station_name":"Duren Kalibata","time":2,"is_transit":false,"station_id":"DRN","i_lat":-6.255332,"i_long":106.85449,"line":0,"distance":824},{"is_transit":false,"i_long":106.856607,"line":0,"station_id":"CW","time":3,"station_name":"Cawang","i_lat":-6.242512,"transit":false,"distance":1546},{"distance":1230,"is_transit":false,"time":2,"i_lat":-6.226659,"i_long":106.857948,"station_id":"TEB","transit":false,"station_name":"Tebet","line":2},{"distance":2610,"is_transit":true,"i_lat":-6.209883,"i_long":106.84912,"transit":true,"time":4,"line":0,"station_name":"Manggarai","station_id":"MRI"},{"i_lat":-6.202263,"station_id":"SUD","time":4,"distance":3186,"transit":false,"i_long":106.822649,"line":1,"is_transit":false,"station_name":"Sudirman"},{"time":1,"line":1,"distance":280,"station_name":"Sudirman Baru","transit":false,"i_long":106.819881,"i_lat":-6.201433,"is_transit":false,"station_id":"SUDB"},{"line":1,"is_transit":false,"i_long":106.816351,"distance":471,"station_id":"KAT","transit":false,"station_name":"Karet","time":1,"i_lat":-6.20132},{"station_id":"THB","distance":2029,"i_lat":-6.185545,"i_long":106.811091,"time":5,"is_transit":true,"transit":false,"station_name":"Tanah Abang","line":1},{"transit":true,"station_id":"DU","time":8,"i_lat":-6.155215,"i_long":106.800832,"is_transit":true,"station_name":"Duri","line":1,"distance":3632},{"is_transit":false,"station_name":"Angke","station_id":"AK","i_lat":-6.144674,"i_long":106.79867,"time":4,"transit":false,"line":0,"distance":1230},{"is_transit":true,"station_id":"KPB","time":9,"transit":false,"line":0,"i_lat":-6.132549,"i_long":106.826365,"station_name":"Kampung Bandan","distance":4102}],[{"distance":0,"is_transit":false,"i_long":106.843999,"i_lat":-6.2842400000000005,"transit":false,"station_id":"PSM","time":0,"line":2,"station_name":"Pasar Minggu"},{"station_id":"PSMB","i_lat":-6.263214,"is_transit":false,"station_name":"Pasar Minggu Baru","distance":2380,"transit":false,"i_long":106.851577,"time":2,"line":2},{"distance":824,"i_lat":-6.255332,"station_id":"DRN","is_transit":false,"time":2,"i_long":106.85449,"transit":false,"station_name":"Duren Kalibata","line":0},{"time":3,"transit":false,"i_lat":-6.242512,"i_long":106.856607,"station_name":"Cawang","line":0,"is_transit":false,"station_id":"CW","distance":1546},{"line":2,"i_lat":-6.226659,"is_transit":false,"time":2,"station_id":"TEB","station_name":"Tebet","transit":false,"i_long":106.857948,"distance":1230},{"station_id":"MRI","transit":true,"time":4,"is_transit":true,"distance":2610,"i_long":106.84912,"station_name":"Manggarai","i_lat":-6.209883,"line":0},{"transit":false,"time":4,"i_long":106.840169,"is_transit":false,"line":0,"station_name":"Cikini","i_lat":-6.198556,"distance":1590,"station_id":"CKI"},{"i_long":106.832183,"transit":false,"station_id":"GDD","line":2,"station_name":"Gondangdia","time":3,"is_transit":false,"i_lat":-6.186295,"distance":1750},{"transit":false,"is_transit":false,"distance":2015,"station_name":"Juanda","time":4,"i_lat":-6.166716,"station_id":"JUA","i_long":106.828284,"line":2},{"distance":1149,"i_lat":-6.160725,"line":2,"station_id":"SW","is_transit":false,"transit":false,"time":2,"i_long":106.827103,"station_name":"Sawah Besar"},{"is_transit":false,"station_id":"MGB","i_long":106.82482,"time":2,"i_lat":-6.149769,"line":2,"transit":false,"distance":906,"station_name":"Manggabesar"},{"station_name":"Jayakarta","time":2,"station_id":"JAY","distance":1080,"transit":false,"is_transit":false,"i_lat":-6.141205,"i_long":106.820901,"line":7},{"is_transit":true,"i_lat":-6.137569,"time":4,"line":0,"distance":1264,"i_long":106.812439,"transit":true,"station_name":"Jakarta Kota","station_id":"JAKK"},{"transit":false,"time":3,"is_transit":true,"distance":1364,"i_lat":-6.132549,"line":0,"station_id":"KPB","station_name":"Kampung Bandan","i_long":106.826365}],[{"is_transit":false,"time":0,"line":2,"station_name":"Pasar Minggu","transit":false,"station_id":"PSM","distance":0,"i_lat":-6.2842400000000005,"i_long":106.843999},{"station_id":"PSMB","transit":false,"station_name":"Pasar Minggu Baru","is_transit":false,"time":2,"i_long":106.851577,"distance":2380,"i_lat":-6.263214,"line":2},{"distance":824,"is_transit":false,"station_id":"DRN","time":2,"line":0,"station_name":"Duren Kalibata","i_lat":-6.255332,"transit":false,"i_long":106.85449},{"line":0,"transit":false,"station_id":"CW","time":3,"is_transit":false,"station_name":"Cawang","i_lat":-6.242512,"i_long":106.856607,"distance":1546},{"is_transit":false,"station_id":"TEB","i_lat":-6.226659,"station_name":"Tebet","line":2,"i_long":106.857948,"time":2,"transit":false,"distance":1230},{"i_lat":-6.209883,"station_id":"MRI","distance":2610,"is_transit":true,"transit":true,"time":4,"line":0,"station_name":"Manggarai","i_long":106.84912},{"is_transit":false,"station_name":"Matraman","time":2,"i_long":106.858896,"transit":false,"station_id":"MTR","line":1,"distance":1275,"i_lat":-6.212485},{"station_name":"Jatinegara","transit":true,"time":8,"station_id":"JNG","line":0,"i_long":106.86807400000001,"is_transit":true,"i_lat":-6.215091,"distance":1377},{"station_id":"POK","time":2,"is_transit":false,"transit":false,"line":11,"station_name":"Pondok Jati","distance":1236,"i_lat":-6.209188,"i_long":106.861737},{"time":2,"is_transit":false,"station_id":"KMT","distance":1829,"i_lat":-6.193792,"transit":false,"line":11,"i_long":106.855437,"station_name":"Kramat"},{"time":1,"is_transit":false,"i_long":106.850107,"transit":false,"distance":973,"line":11,"station_name":"Gang Sentiong","station_id":"GST","i_lat":-6.185975},{"transit":false,"distance":1567,"is_transit":false,"station_name":"Pasar Senen","line":11,"i_long":106.84368,"time":8,"station_id":"PSE","i_lat":-6.174784},{"i_long":106.839204,"is_transit":false,"line":11,"station_id":"KMO","station_name":"Kemayoran","distance":1436,"time":4,"i_lat":-6.161728,"transit":false},{"time":5,"line":11,"station_name":"Rajawali","is_transit":false,"transit":false,"i_long":106.836569,"i_lat":-6.14505,"distance":1901,"station_id":"RJW"},{"i_long":106.826365,"transit":false,"line":0,"time":3,"distance":1444,"station_id":"KPB","i_lat":-6.132549,"station_name":"Kampung Bandan","is_transit":true}]]}