{"data":[[{"i_long":106.843999,"station_name":"Pasar Minggu","station_id":"PSM","time":0,"transit":false,"distance":0,"is_transit":false,"i_lat":-6.2842400000000005,"line":2},{"transit":false,"i_long":106.851577,"distance":2380,"station_id":"PSMB","line":2,"is_transit":false,"station_name":"Pasar Minggu Baru","i_lat":-6.263214,"time":2},{"station_id":"DRN","transit":false,"is_transit":false,"i_lat":-6.255332,"i_long":106.85449,"distance":824,"line":2,"time":2,"station_name":"Duren Kalibata"},{"station_name":"Cawang","distance":1546,"is_transit":false,"station_id":"CW","transit":false,"time":3,"i_long":106.856607,"line":2,"i_lat":-6.242512},{"is_transit":false,"transit":false,"i_long":106.857948,"time":2,"station_id":"TEB","i_lat":-6.226659,"line":2,"distance":1230,"station_name":"Tebet"},{"station_name":"Manggarai","line":2,"is_transit":true,"time":4,"transit":true,"distance":2610,"i_lat":-6.209883,"i_long":106.84912,"station_id":"MRI"},{"i_long":106.822649,"line":1,"distance":3186,"transit":false,"time":4,"i_lat":-6.202263,"station_id":"SUD","is_transit":false,"station_name":"Sudirman"},{"station_id":"SUDB","distance":280,"i_lat":-6.201433,"line":1,"is_transit":false,"i_long":106.819881,"transit":false,"station_name":"Sudirman Baru","time":1},{"station_name":"Karet","is_transit":false,"i_long":106.816351,"station_id":"KAT","line":1,"time":1,"i_lat":-6.20132,"transit":false,"distance":471},{"station_id":"THB","distance":2029,"line":1,"is_transit":true,"station_name":"Tanah Abang","time":5,"i_long":106.811091,"i_lat":-6.185545,"transit":true},{"distance":3191,"station_name":"Palmerah","i_lat":-6.207404,"transit":false,"time":6,"i_long":106.79689,"line":6,"station_id":"PLM","is_transit":false},{"time":7,"i_long":106.780334,"station_name":"Kebayoran","is_transit":false,"distance":3737,"i_lat":-6.237242,"transit":false,"station_id":"KBY","line":6},{"station_name":"Pondokranji","transit":false,"line":6,"is_transit":false,"station_id":"PDJ","i_lat":-6.276362,"time":8,"distance":6218,"i_long":106.74273},{"time":3,"station_name":"Jurangmangu","transit":false,"line":6,"station_id":"JMU","is_transit":false,"distance":2179,"i_lat":-6.288927,"i_long":106.728916},{"is_transit":false,"transit":false,"i_lat":-6.296963,"distance":1994,"station_name":"Sudimara","time":4,"i_long":106.712277,"line":6,"station_id":"SDM"},{"distance":4566,"time":6,"station_id":"RU","i_lat":-6.314823,"i_long":106.675475,"station_name":"Rawa Buntu","transit":false,"line":6,"is_transit":false},{"time":4,"distance":2413,"line":6,"transit":false,"i_long":106.66566,"is_transit":false,"station_id":"SRP","i_lat":-6.319871,"station_name":"Serpong"},{"line":3,"station_id":"CSK","transit":false,"i_lat":-6.32484,"is_transit":false,"i_long":106.640411,"distance":1784,"time":4,"station_name":"Cisauk"},{"time":4,"line":3,"station_id":"CC","station_name":"Cicayur","i_long":106.617853,"transit":false,"is_transit":false,"i_lat":-6.329547,"distance":2519},{"station_id":"PRP","i_lat":-6.3441410000000005,"transit":false,"station_name":"Parung Panjang","line":6,"time":8,"i_long":106.568863,"is_transit":false,"distance":5968},{"i_lat":-6.354349,"line":3,"transit":false,"distance":7025,"is_transit":false,"station_id":"CJT","station_name":"Cilejit","time":9,"i_long":106.508482},{"is_transit":false,"line":0,"station_name":"Daru","i_long":106.491338,"station_id":"DAR","i_lat":-6.338021,"time":6,"transit":false,"distance":2675},{"i_long":106.460812,"line":6,"station_id":"TEJ","time":5,"transit":false,"is_transit":false,"i_lat":-6.327251,"station_name":"Tenjo","distance":3902}],[{"i_lat":-6.2842400000000005,"station_id":"PSM","time":0,"distance":0,"line":2,"station_name":"Pasar Minggu","is_transit":false,"i_long":106.843999,"transit":false},{"is_transit":false,"station_name":"Pasar Minggu Baru","i_long":106.851577,"time":2,"i_lat":-6.263214,"distance":2380,"line":2,"station_id":"PSMB","transit":false},{"is_transit":false,"line":2,"i_long":106.85449,"transit":false,"station_id":"DRN","i_lat":-6.255332,"distance":824,"time":2,"station_name":"Duren Kalibata"},{"station_name":"Cawang","station_id":"CW","is_transit":false,"distance":1546,"i_lat":-6.242512,"transit":false,"i_long":106.856607,"time":3,"line":2},{"distance":1230,"i_long":106.857948,"line":2,"i_lat":-6.226659,"time":2,"transit":false,"station_name":"Tebet","is_transit":false,"station_id":"TEB"},{"time":4,"is_transit":false,"distance":2610,"line":2,"station_name":"Manggarai","station_id":"MRI","transit":false,"i_lat":-6.209883,"i_long":106.84912},{"is_transit":false,"i_lat":-6.198556,"station_id":"CKI","i_long":106.840169,"distance":1590,"time":4,"station_name":"Cikini","line":2,"transit":false},{"i_long":106.832183,"time":3,"line":2,"station_name":"Gondangdia","station_id":"GDD","i_lat":-6.186295,"is_transit":false,"distance":1750,"transit":false},{"distance":2015,"station_name":"Juanda","station_id":"JUA","transit":false,"i_long":106.828284,"i_lat":-6.166716,"line":2,"is_transit":false,"time":4},{"transit":false,"i_lat":-6.160725,"i_long":106.827103,"station_name":"Sawah Besar","line":2,"station_id":"SW","time":2,"is_transit":false,"distance":1149},{"line":2,"distance":906,"station_id":"MGB","station_name":"Manggabesar","time":2,"transit":false,"is_transit":false,"i_lat":-6.149769,"i_long":106.82482},{"station_name":"Jayakarta","i_lat":-6.141205,"is_transit":false,"station_id":"JAY","time":2,"transit":false,"distance":1080,"line":2,"i_long":106.820901},{"distance":1264,"i_lat":-6.137569,"i_long":106.812439,"time":4,"station_name":"Jakarta Kota","line":2,"is_transit":true,"station_id":"JAKK","transit":true},{"station_id":"KPB","is_transit":true,"transit":true,"distance":1364,"line":4,"station_name":"Kampung Bandan","i_lat":-6.132549,"i_long":106.826365,"time":3},{"station_id":"AK","is_transit":false,"time":9,"i_long":106.79867,"distance":4102,"transit":false,"i_lat":-6.144674,"line":1,"station_name":"Angke"},{"time":4,"i_long":106.800832,"station_id":"DU","line":1,"station_name":"Duri","transit":false,"i_lat":-6.155215,"distance":1230,"is_transit":false},{"transit":true,"is_transit":true,"station_name":"Tanah Abang","station_id":"THB","distance":3632,"i_lat":-6.185545,"i_long":106.811091,"line":1,"time":8},{"i_lat":-6.207404,"transit":false,"station_id":"PLM","i_long":106.79689,"time":6,"distance":3191,"is_transit":false,"line":6,"station_name":"Palmerah"},{"station_id":"KBY","transit":false,"i_lat":-6.237242,"i_long":106.780334,"time":7,"station_name":"Kebayoran","is_transit":false,"distance":3737,"line":6},{"time":8,"distance":6218,"i_lat":-6.276362,"i_long":106.74273,"line":6,"station_id":"PDJ","transit":false,"station_name":"Pondokranji","is_transit":false},{"i_long":106.728916,"is_transit":false,"line":6,"time":3,"i_lat":-6.288927,"distance":2179,"station_id":"JMU","station_name":"Jurangmangu","transit":false},{"station_id":"SDM","transit":false,"distance":1994,"i_lat":-6.296963,"line":6,"station_name":"Sudimara","time":4,"is_transit":false,"i_long":106.712277},{"station_id":"RU","i_long":106.675475,"line":6,"station_name":"Rawa Buntu","i_lat":-6.314823,"time":6,"distance":4566,"is_transit":false,"transit":false},{"line":6,"time":4,"i_long":106.66566,"is_transit":false,"station_name":"Serpong","station_id":"SRP","transit":false,"distance":2413,"i_lat":-6.319871},{"transit":false,"station_id":"CSK","i_long":106.640411,"line":3,"is_transit":false,"time":4,"station_name":"Cisauk","distance":1784,"i_lat":-6.32484},{"station_id":"CC","i_long":106.617853,"station_name":"Cicayur","is_transit":false,"transit":false,"distance":2519,"time":4,"line":3,"i_lat":-6.329547},{"line":6,"distance":5968,"is_transit":false,"i_long":106.568863,"transit":false,"station_name":"Parung Panjang","i_lat":-6.3441410000000005,"time":8,"station_id":"PRP"},{"line":3,"distance":7025,"time":9,"station_id":"CJT","transit":false,"station_name":"Cilejit","is_transit":false,"i_lat":-6.354349,"i_long":106.508482},{"line":0,"transit":false,"station_name":"Daru","i_lat":-6.338021,"distance":2675,"station_id":"DAR","i_long":106.491338,"is_transit":false,"time":6},{"station_name":"Tenjo","distance":3902,"station_id":"TEJ","time":5,"i_long":106.460812,"i_lat":-6.327251,"is_transit":false,"transit":false,"line":6}],[{"i_long":106.843999,"station_name":"Pasar Minggu","is_transit":false,"i_lat":-6.2842400000000005,"line":2,"transit":false,"distance":0,"station_id":"PSM","time":0},{"distance":2380,"line":2,"i_long":106.851577,"time":2,"station_id":"PSMB","i_lat":-6.263214,"transit":false,"station_name":"Pasar Minggu Baru","is_transit":false},{"station_name":"Duren Kalibata","i_lat":-6.255332,"station_id":"DRN","transit":false,"line":2,"i_long":106.85449,"is_transit":false,"distance":824,"time":2},{"station_id":"CW","i_lat":-6.242512,"transit":false,"is_transit":false,"time":3,"station_name":"Cawang","distance":1546,"line":2,"i_long":106.856607},{"distance":1230,"line":2,"station_name":"Tebet","i_lat":-6.226659,"station_id":"TEB","i_long":106.857948,"time":2,"is_transit":false,"transit":false},{"station_id":"MRI","time":4,"i_lat":-6.209883,"transit":true,"i_long":106.84912,"is_transit":true,"distance":2610,"station_name":"Manggarai","line":2},{"line":1,"transit":false,"station_id":"MTR","is_transit":false,"time":2,"distance":1275,"i_lat":-6.212485,"i_long":106.858896,"station_name":"Matraman"},{"transit":true,"station_name":"Jatinegara","is_transit":true,"station_id":"JNG","distance":1377,"i_lat":-6.215091,"time":8,"i_long":106.86807400000001,"line":1},{"line":11,"transit":false,"station_name":"Pondok Jati","time":2,"i_lat":-6.209188,"i_long":106.861737,"distance":1236,"station_id":"POK","is_transit":false},{"station_name":"Kramat","station_id":"KMT","i_long":106.855437,"line":11,"distance":1829,"transit":false,"i_lat":-6.193792,"time":2,"is_transit":false},{"station_id":"GST","distance":973,"station_name":"Gang Sentiong","is_transit":false,"i_long":106.850107,"transit":false,"time":1,"line":11,"i_lat":-6.185975},{"distance":1567,"station_name":"Pasar Senen","is_transit":false,"transit":false,"station_id":"PSE","time":8,"i_long":106.84368,"i_lat":-6.174784,"line":11},{"i_lat":-6.161728,"line":11,"transit":false,"is_transit":false,"distance":1436,"station_id":"KMO","i_long":106.839204,"station_name":"Kemayoran","time":4},{"station_id":"RJW","is_transit":false,"i_lat":-6.14505,"station_name":"Rajawali","time":5,"transit":false,"line":11,"i_long":106.836569,"distance":1901},{"distance":1444,"is_transit":true,"i_long":106.826365,"station_name":"Kampung Bandan","station_id":"KPB","transit":true,"time":3,"line":4,"i_lat":-6.132549},{"transit":false,"is_transit":false,"time":9,"station_name":"Angke","distance":4102,"station_id":"AK","i_long":106.79867,"line":1,"i_lat":-6.144674},{"line":1,"station_name":"Duri","is_transit":false,"transit":false,"time":4,"i_lat":-6.155215,"station_id":"DU","distance":1230,"i_long":106.800832},{"is_transit":true,"i_lat":-6.185545,"transit":true,"time":8,"station_id":"THB","station_name":"Tanah Abang","distance":3632,"line":1,"i_long":106.811091},{"station_name":"Palmerah","i_lat":-6.207404,"distance":3191,"i_long":106.79689,"is_transit":false,"transit":false,"line":6,"time":6,"station_id":"PLM"},{"i_lat":-6.237242,"line":6,"transit":false,"is_transit":false,"distance":3737,"i_long":106.780334,"station_name":"Kebayoran","station_id":"KBY","time":7},{"distance":6218,"transit":false,"station_name":"Pondokranji","i_long":106.74273,"station_id":"PDJ","is_transit":false,"i_lat":-6.276362,"line":6,"time":8},{"i_long":106.728916,"i_lat":-6.288927,"station_id":"JMU","line":6,"station_name":"Jurangmangu","transit":false,"time":3,"is_transit":false,"distance":2179},{"transit":false,"is_transit":false,"station_id":"SDM","time":4,"i_long":106.712277,"line":6,"station_name":"Sudimara","i_lat":-6.296963,"distance":1994},{"station_name":"Rawa Buntu","i_long":106.675475,"line":6,"is_transit":false,"distance":4566,"i_lat":-6.314823,"transit":false,"station_id":"RU","time":6},{"i_lat":-6.319871,"transit":false,"is_transit":false,"distance":2413,"line":6,"station_name":"Serpong","time":4,"i_long":106.66566,"station_id":"SRP"},{"is_transit":false,"i_long":106.640411,"distance":1784,"station_id":"CSK","i_lat":-6.32484,"time":4,"line":3,"transit":false,"station_name":"Cisauk"},{"station_name":"Cicayur","is_transit":false,"transit":false,"distance":2519,"i_lat":-6.329547,"i_long":106.617853,"line":3,"time":4,"station_id":"CC"},{"i_lat":-6.3441410000000005,"station_name":"Parung Panjang","time":8,"station_id":"PRP","i_long":106.568863,"line":6,"is_transit":false,"transit":false,"distance":5968},{"station_id":"CJT","station_name":"Cilejit","time":9,"transit":false,"is_transit":false,"i_lat":-6.354349,"line":3,"distance":7025,"i_long":106.508482},{"i_lat":-6.338021,"time":6,"is_transit":false,"i_long":106.491338,"line":0,"transit":false,"station_name":"Daru","distance":2675,"station_id":"DAR"},{"i_lat":-6.327251,"time":5,"i_long":106.460812,"is_transit":false,"station_id":"TEJ","transit":false,"station_name":"Tenjo","line":6,"distance":3902}]]}