{"data":[[{"i_long":106.843999,"distance":0,"is_transit":false,"transit":false,"time":0,"line":2,"station_id":"PSM","i_lat":-6.2842400000000005,"station_name":"Pasar Minggu"},{"i_long":106.851577,"station_name":"Pasar Minggu Baru","is_transit":false,"station_id":"PSMB","line":2,"transit":false,"i_lat":-6.263214,"time":2,"distance":2380},{"station_id":"DRN","i_lat":-6.255332,"time":2,"distance":824,"is_transit":false,"transit":false,"i_long":106.85449,"line":0,"station_name":"Duren Kalibata"},{"station_id":"CW","i_long":106.856607,"distance":1546,"transit":false,"line":0,"time":3,"i_lat":-6.242512,"station_name":"Cawang","is_transit":false},{"i_long":106.857948,"transit":false,"distance":1230,"time":2,"line":2,"station_id":"TEB","station_name":"Tebet","is_transit":false,"i_lat":-6.226659},{"time":4,"station_id":"MRI","line":0,"station_name":"Manggarai","is_transit":true,"i_long":106.84912,"distance":2610,"i_lat":-6.209883,"transit":true},{"transit":false,"i_lat":-6.212485,"line":1,"is_transit":false,"station_name":"Matraman","distance":1275,"station_id":"MTR","i_long":106.858896,"time":2},{"i_long":106.86807400000001,"station_id":"JNG","station_name":"Jatinegara","i_lat":-6.215091,"distance":1377,"line":0,"transit":false,"is_transit":true,"time":8},{"line":1,"is_transit":false,"distance":3395,"i_long":106.899548,"transit":false,"station_name":"Klender","station_id":"KLD","time":3,"i_lat":-6.2135},{"is_transit":false,"distance":3100,"station_id":"BUA","i_lat":-6.215568,"i_long":106.922662,"transit":false,"line":0,"station_name":"Buaran","time":2},{"line":1,"station_name":"Klenderbaru","is_transit":false,"transit":false,"time":1,"station_id":"KLDB","i_lat":-6.217455,"distance":1305,"i_long":106.939679},{"line":0,"station_name":"Cakung","transit":false,"time":8,"station_id":"CUK","i_lat":-6.219053,"is_transit":false,"i_long":106.951283,"distance":1385},{"station_name":"Kranji","line":1,"distance":3097,"transit":false,"time":3,"i_lat":-6.224515,"i_long":106.977657,"is_transit":false,"station_id":"KRI"},{"transit":false,"station_id":"BKS","time":4,"i_lat":-6.236616,"i_long":106.997013,"distance":2520,"line":0,"is_transit":false,"station_name":"Bekasi"},{"line":0,"i_long":107.016735,"i_lat":-6.248029,"station_id":"BKST","time":2,"is_transit":false,"transit":false,"distance":2368,"station_name":"Bekasi Timur"},{"time":7,"i_long":107.055722,"distance":4460,"station_id":"TB","is_transit":false,"line":1,"i_lat":-6.258864,"station_name":"Tambun","transit":false},{"time":3,"station_name":"Cibitung","transit":false,"i_lat":-6.261877,"is_transit":false,"distance":3420,"station_id":"CIT","line":0,"i_long":107.083084},{"transit":false,"i_lat":-6.262938,"is_transit":false,"station_id":"TLM","distance":2800,"station_name":"Metland Telaga Murni","time":2,"i_long":107.093313,"line":1}],[{"i_long":106.843999,"distance":0,"station_name":"Pasar Minggu","line":2,"time":0,"transit":false,"station_id":"PSM","is_transit":false,"i_lat":-6.2842400000000005},{"i_lat":-6.263214,"i_long":106.851577,"distance":2380,"line":2,"station_name":"Pasar Minggu Baru","transit":false,"is_transit":false,"station_id":"PSMB","time":2},{"station_id":"DRN","transit":false,"i_lat":-6.255332,"i_long":106.85449,"station_name":"Duren Kalibata","distance":824,"line":0,"is_transit":false,"time":2},{"is_transit":false,"transit":false,"time":3,"i_lat":-6.242512,"station_id":"CW","line":0,"distance":1546,"i_long":106.856607,"station_name":"Cawang"},{"station_name":"Tebet","i_lat":-6.226659,"distance":1230,"transit":false,"line":2,"time":2,"is_transit":false,"station_id":"TEB","i_long":106.857948},{"i_lat":-6.209883,"time":4,"is_transit":true,"distance":2610,"station_id":"MRI","station_name":"Manggarai","i_long":106.84912,"transit":true,"line":0},{"transit":false,"station_name":"Sudirman","i_long":106.822649,"i_lat":-6.202263,"is_transit":false,"time":4,"station_id":"SUD","distance":3186,"line":1},{"line":1,"i_long":106.819881,"distance":280,"station_name":"Sudirman Baru","i_lat":-6.201433,"transit":false,"is_transit":false,"station_id":"SUDB","time":1},{"i_lat":-6.20132,"line":1,"station_id":"KAT","station_name":"Karet","transit":false,"i_long":106.816351,"distance":471,"is_transit":false,"time":1},{"i_long":106.811091,"time":5,"line":1,"station_name":"Tanah Abang","distance":2029,"is_transit":true,"station_id":"THB","transit":false,"i_lat":-6.185545},{"station_name":"Duri","transit":true,"is_transit":true,"station_id":"DU","i_long":106.800832,"distance":3632,"time":8,"i_lat":-6.155215,"line":1},{"i_lat":-6.144674,"station_name":"Angke","time":4,"line":0,"station_id":"AK","transit":false,"i_long":106.79867,"is_transit":false,"distance":1230},{"transit":true,"time":9,"station_id":"KPB","station_name":"Kampung Bandan","i_lat":-6.132549,"i_long":106.826365,"line":0,"is_transit":true,"distance":4102},{"distance":1444,"line":11,"i_long":106.836569,"transit":false,"station_name":"Rajawali","i_lat":-6.14505,"time":3,"is_transit":false,"station_id":"RJW"},{"time":5,"distance":1901,"is_transit":false,"transit":false,"i_long":106.839204,"station_name":"Kemayoran","station_id":"KMO","i_lat":-6.161728,"line":11},{"i_lat":-6.174784,"line":11,"is_transit":false,"distance":1436,"station_id":"PSE","transit":false,"i_long":106.84368,"time":4,"station_name":"Pasar Senen"},{"i_lat":-6.185975,"station_id":"GST","transit":false,"is_transit":false,"distance":1567,"i_long":106.850107,"line":11,"time":8,"station_name":"Gang Sentiong"},{"station_id":"KMT","station_name":"Kramat","i_long":106.855437,"transit":false,"i_lat":-6.193792,"distance":973,"line":11,"time":1,"is_transit":false},{"i_lat":-6.209188,"line":11,"i_long":106.861737,"distance":1829,"station_id":"POK","station_name":"Pondok Jati","transit":false,"time":2,"is_transit":false},{"time":9,"station_name":"Jatinegara","distance":1236,"i_lat":-6.215091,"line":0,"transit":true,"is_transit":true,"i_long":106.86807400000001,"station_id":"JNG"},{"is_transit":false,"station_name":"Klender","time":3,"i_lat":-6.2135,"transit":false,"station_id":"KLD","distance":3395,"line":1,"i_long":106.899548},{"station_id":"BUA","station_name":"Buaran","transit":false,"line":0,"is_transit":false,"distance":3100,"time":2,"i_long":106.922662,"i_lat":-6.215568},{"distance":1305,"i_long":106.939679,"is_transit":false,"transit":false,"i_lat":-6.217455,"line":1,"station_name":"Klenderbaru","time":1,"station_id":"KLDB"},{"i_long":106.951283,"station_id":"CUK","transit":false,"is_transit":false,"line":0,"time":8,"distance":1385,"station_name":"Cakung","i_lat":-6.219053},{"station_name":"Kranji","line":1,"i_long":106.977657,"station_id":"KRI","i_lat":-6.224515,"distance":3097,"is_transit":false,"transit":false,"time":3},{"is_transit":false,"station_id":"BKS","station_name":"Bekasi","i_lat":-6.236616,"i_long":106.997013,"line":0,"distance":2520,"transit":false,"time":4},{"station_name":"Bekasi Timur","transit":false,"distance":2368,"is_transit":false,"station_id":"BKST","time":2,"line":0,"i_long":107.016735,"i_lat":-6.248029},{"transit":false,"line":1,"distance":4460,"i_lat":-6.258864,"time":7,"i_long":107.055722,"station_id":"TB","station_name":"Tambun","is_transit":false},{"time":3,"distance":3420,"line":0,"station_id":"CIT","i_long":107.083084,"transit":false,"station_name":"Cibitung","is_transit":false,"i_lat":-6.261877},{"line":1,"station_name":"Metland Telaga Murni","station_id":"TLM","time":2,"is_transit":false,"i_lat":-6.262938,"distance":2800,"transit":false,"i_long":107.093313}],[{"station_name":"Pasar Minggu","line":2,"i_long":106.843999,"is_transit":false,"station_id":"PSM","time":0,"transit":false,"i_lat":-6.2842400000000005,"distance":0},{"transit":false,"station_id":"PSMB","is_transit":false,"i_long":106.851577,"station_name":"Pasar Minggu Baru","line":2,"time":2,"distance":2380,"i_lat":-6.263214},{"transit":false,"distance":824,"is_transit":false,"i_lat":-6.255332,"station_id":"DRN","time":2,"i_long":106.85449,"line":0,"station_name":"Duren Kalibata"},{"i_lat":-6.242512,"i_long":106.856607,"station_id":"CW","station_name":"Cawang","is_transit":false,"time":3,"transit":false,"distance":1546,"line":0},{"line":2,"transit":false,"time":2,"distance":1230,"is_transit":false,"station_id":"TEB","station_name":"Tebet","i_long":106.857948,"i_lat":-6.226659},{"is_transit":true,"station_name":"Manggarai","line":0,"i_long":106.84912,"i_lat":-6.209883,"time":4,"distance":2610,"transit":true,"station_id":"MRI"},{"transit":false,"time":4,"line":0,"station_id":"CKI","station_name":"Cikini","i_long":106.840169,"is_transit":false,"i_lat":-6.198556,"distance":1590},{"i_long":106.832183,"time":3,"station_id":"GDD","distance":1750,"is_transit":false,"i_lat":-6.186295,"transit":false,"station_name":"Gondangdia","line":2},{"is_transit":false,"station_name":"Juanda","station_id":"JUA","time":4,"transit":false,"distance":2015,"i_long":106.828284,"line":2,"i_lat":-6.166716},{"line":2,"station_id":"SW","i_long":106.827103,"distance":1149,"time":2,"i_lat":-6.160725,"station_name":"Sawah Besar","transit":false,"is_transit":false},{"transit":false,"i_lat":-6.149769,"distance":906,"is_transit":false,"station_id":"MGB","i_long":106.82482,"station_name":"Manggabesar","time":2,"line":2},{"distance":1080,"station_id":"JAY","time":2,"i_lat":-6.141205,"transit":false,"line":7,"is_transit":false,"station_name":"Jayakarta","i_long":106.820901},{"transit":true,"station_name":"Jakarta Kota","distance":1264,"i_lat":-6.137569,"time":4,"i_long":106.812439,"station_id":"JAKK","line":0,"is_transit":true},{"time":3,"station_id":"KPB","i_lat":-6.132549,"i_long":106.826365,"transit":true,"distance":1364,"line":0,"is_transit":true,"station_name":"Kampung Bandan"},{"transit":false,"distance":1444,"is_transit":false,"time":3,"i_lat":-6.14505,"i_long":106.836569,"line":11,"station_id":"RJW","station_name":"Rajawali"},{"line":11,"is_transit":false,"i_long":106.839204,"i_lat":-6.161728,"distance":1901,"station_id":"KMO","transit":false,"station_name":"Kemayoran","time":5},{"station_id":"PSE","distance":1436,"is_transit":false,"transit":false,"time":4,"i_long":106.84368,"line":11,"station_name":"Pasar Senen","i_lat":-6.174784},{"distance":1567,"station_id":"GST","is_transit":false,"station_name":"Gang Sentiong","transit":false,"i_lat":-6.185975,"i_long":106.850107,"line":11,"time":8},{"i_long":106.855437,"transit":false,"line":11,"station_name":"Kramat","is_transit":false,"station_id":"KMT","i_lat":-6.193792,"distance":973,"time":1},{"is_transit":false,"station_name":"Pondok Jati","line":11,"distance":1829,"i_lat":-6.209188,"transit":false,"station_id":"POK","time":2,"i_long":106.861737},{"transit":true,"station_id":"JNG","is_transit":true,"distance":1236,"i_long":106.86807400000001,"time":9,"i_lat":-6.215091,"line":0,"station_name":"Jatinegara"},{"is_transit":false,"i_lat":-6.2135,"i_long":106.899548,"transit":false,"line":1,"station_id":"KLD","distance":3395,"time":3,"station_name":"Klender"},{"transit":false,"time":2,"is_transit":false,"i_long":106.922662,"distance":3100,"line":0,"station_name":"Buaran","station_id":"BUA","i_lat":-6.215568},{"station_name":"Klenderbaru","distance":1305,"i_lat":-6.217455,"is_transit":false,"line":1,"i_long":106.939679,"transit":false,"time":1,"station_id":"KLDB"},{"is_transit":false,"station_name":"Cakung","i_lat":-6.219053,"line":0,"station_id":"CUK","transit":false,"time":8,"i_long":106.951283,"distance":1385},{"station_id":"KRI","transit":false,"distance":3097,"i_lat":-6.224515,"is_transit":false,"i_long":106.977657,"station_name":"Kranji","line":1,"time":3},{"station_name":"Bekasi","station_id":"BKS","is_transit":false,"distance":2520,"time":4,"i_lat":-6.236616,"transit":false,"line":0,"i_long":106.997013},{"i_lat":-6.248029,"distance":2368,"station_name":"Bekasi Timur","time":2,"station_id":"BKST","i_long":107.016735,"is_transit":false,"transit":false,"line":0},{"station_name":"Tambun","time":7,"station_id":"TB","i_lat":-6.258864,"is_transit":false,"transit":false,"i_long":107.055722,"line":1,"distance":4460},{"is_transit":false,"transit":false,"time":3,"distance":3420,"station_name":"Cibitung","line":0,"i_long":107.083084,"station_id":"CIT","i_lat":-6.261877},{"time":2,"station_name":"Metland Telaga Murni","transit":false,"line":1,"station_id":"TLM","distance":2800,"is_transit":false,"i_long":107.093313,"i_lat":-6.262938}]]}