{"data":[[{"i_lat":-6.2842400000000005,"distance":0,"i_long":106.843999,"station_id":"PSM","is_transit":false,"line":2,"time":0,"station_name":"Pasar Minggu","transit":false},{"line":2,"time":2,"distance":2380,"i_long":106.851577,"station_id":"PSMB","station_name":"Pasar Minggu Baru","is_transit":false,"transit":false,"i_lat":-6.263214},{"is_transit":false,"transit":false,"station_id":"DRN","station_name":"Duren Kalibata","distance":824,"i_lat":-6.255332,"time":2,"i_long":106.85449,"line":2},{"station_name":"Cawang","is_transit":false,"i_long":106.856607,"line":2,"time":3,"station_id":"CW","distance":1546,"transit":false,"i_lat":-6.242512},{"is_transit":false,"transit":false,"line":2,"station_id":"TEB","station_name":"Tebet","i_long":106.857948,"i_lat":-6.226659,"time":2,"distance":1230},{"station_id":"MRI","line":2,"i_lat":-6.209883,"transit":false,"i_long":106.84912,"is_transit":false,"distance":2610,"time":4,"station_name":"Manggarai"},{"time":4,"i_lat":-6.198556,"is_transit":false,"line":2,"station_name":"Cikini","i_long":106.840169,"distance":1590,"transit":false,"station_id":"CKI"},{"station_name":"Gondangdia","line":2,"transit":false,"distance":1750,"is_transit":false,"i_lat":-6.186295,"time":3,"station_id":"GDD","i_long":106.832183},{"distance":2015,"line":2,"time":4,"station_id":"JUA","is_transit":false,"transit":false,"i_lat":-6.166716,"station_name":"Juanda","i_long":106.828284},{"is_transit":false,"i_long":106.827103,"time":2,"transit":false,"distance":1149,"station_name":"Sawah Besar","station_id":"SW","line":2,"i_lat":-6.160725},{"line":2,"transit":false,"time":2,"station_id":"MGB","is_transit":false,"distance":906,"i_lat":-6.149769,"i_long":106.82482,"station_name":"Manggabesar"},{"distance":1080,"time":2,"i_long":106.820901,"transit":false,"is_transit":false,"station_name":"Jayakarta","station_id":"JAY","i_lat":-6.141205,"line":2},{"station_id":"JAKK","station_name":"Jakarta Kota","transit":false,"i_lat":-6.137569,"is_transit":false,"i_long":106.812439,"time":4,"distance":1264,"line":2}],[{"i_lat":-6.2842400000000005,"i_long":106.843999,"line":2,"transit":false,"time":0,"distance":0,"is_transit":false,"station_name":"Pasar Minggu","station_id":"PSM"},{"i_long":106.851577,"i_lat":-6.263214,"is_transit":false,"distance":2380,"line":2,"transit":false,"station_name":"Pasar Minggu Baru","station_id":"PSMB","time":2},{"station_id":"DRN","distance":824,"is_transit":false,"transit":false,"time":2,"i_lat":-6.255332,"i_long":106.85449,"line":2,"station_name":"Duren Kalibata"},{"is_transit":false,"i_lat":-6.242512,"station_name":"Cawang","line":2,"i_long":106.856607,"distance":1546,"station_id":"CW","time":3,"transit":false},{"i_long":106.857948,"is_transit":false,"time":2,"line":2,"distance":1230,"station_name":"Tebet","transit":false,"station_id":"TEB","i_lat":-6.226659},{"distance":2610,"is_transit":true,"i_lat":-6.209883,"transit":true,"station_id":"MRI","i_long":106.84912,"time":4,"line":2,"station_name":"Manggarai"},{"distance":3186,"station_name":"Sudirman","i_lat":-6.202263,"i_long":106.822649,"is_transit":false,"transit":false,"time":4,"station_id":"SUD","line":1},{"i_long":106.819881,"i_lat":-6.201433,"station_name":"Sudirman Baru","distance":280,"is_transit":false,"time":1,"station_id":"SUDB","line":1,"transit":false},{"station_id":"KAT","time":1,"i_lat":-6.20132,"i_long":106.816351,"station_name":"Karet","transit":false,"is_transit":false,"line":1,"distance":471},{"transit":false,"station_name":"Tanah Abang","i_long":106.811091,"station_id":"THB","line":1,"time":5,"distance":2029,"is_transit":false,"i_lat":-6.185545},{"station_name":"Duri","transit":false,"distance":3632,"is_transit":false,"i_long":106.800832,"line":1,"i_lat":-6.155215,"time":8,"station_id":"DU"},{"station_name":"Angke","transit":false,"is_transit":false,"time":4,"station_id":"AK","line":1,"distance":1230,"i_long":106.79867,"i_lat":-6.144674},{"station_name":"Kampung Bandan","is_transit":true,"i_lat":-6.132549,"line":4,"i_long":106.826365,"transit":true,"time":9,"distance":4102,"station_id":"KPB"},{"i_lat":-6.137569,"line":2,"station_id":"JAKK","is_transit":false,"transit":false,"time":3,"station_name":"Jakarta Kota","distance":1364,"i_long":106.812439}],[{"distance":0,"line":2,"time":0,"i_lat":-6.2842400000000005,"transit":false,"is_transit":false,"i_long":106.843999,"station_id":"PSM","station_name":"Pasar Minggu"},{"station_id":"PSMB","distance":2380,"station_name":"Pasar Minggu Baru","is_transit":false,"transit":false,"i_lat":-6.263214,"i_long":106.851577,"line":2,"time":2},{"station_id":"DRN","is_transit":false,"time":2,"transit":false,"i_lat":-6.255332,"line":2,"station_name":"Duren Kalibata","distance":824,"i_long":106.85449},{"is_transit":false,"line":2,"station_id":"CW","i_lat":-6.242512,"distance":1546,"transit":false,"i_long":106.856607,"time":3,"station_name":"Cawang"},{"distance":1230,"i_lat":-6.226659,"is_transit":false,"transit":false,"i_long":106.857948,"station_id":"TEB","station_name":"Tebet","line":2,"time":2},{"time":4,"line":2,"station_id":"MRI","distance":2610,"station_name":"Manggarai","is_transit":true,"transit":true,"i_lat":-6.209883,"i_long":106.84912},{"transit":false,"station_id":"MTR","station_name":"Matraman","i_long":106.858896,"distance":1275,"is_transit":false,"i_lat":-6.212485,"line":1,"time":2},{"is_transit":true,"station_name":"Jatinegara","distance":1377,"time":8,"transit":true,"i_lat":-6.215091,"i_long":106.86807400000001,"line":1,"station_id":"JNG"},{"station_name":"Pondok Jati","distance":1236,"transit":false,"time":2,"station_id":"POK","is_transit":false,"line":11,"i_lat":-6.209188,"i_long":106.861737},{"time":2,"i_lat":-6.193792,"line":11,"station_name":"Kramat","i_long":106.855437,"distance":1829,"station_id":"KMT","transit":false,"is_transit":false},{"line":11,"distance":973,"is_transit":false,"station_name":"Gang Sentiong","station_id":"GST","i_lat":-6.185975,"time":1,"i_long":106.850107,"transit":false},{"time":8,"station_name":"Pasar Senen","station_id":"PSE","line":11,"is_transit":false,"transit":false,"i_long":106.84368,"distance":1567,"i_lat":-6.174784},{"time":4,"station_id":"KMO","station_name":"Kemayoran","i_lat":-6.161728,"line":11,"i_long":106.839204,"distance":1436,"is_transit":false,"transit":false},{"station_id":"RJW","station_name":"Rajawali","i_lat":-6.14505,"time":5,"distance":1901,"line":11,"is_transit":false,"transit":false,"i_long":106.836569},{"i_lat":-6.132549,"distance":1444,"is_transit":true,"transit":true,"line":4,"i_long":106.826365,"time":3,"station_id":"KPB","station_name":"Kampung Bandan"},{"line":2,"distance":1364,"i_long":106.812439,"i_lat":-6.137569,"station_name":"Jakarta Kota","transit":false,"station_id":"JAKK","is_transit":false,"time":3}]]}