{"data":[[{"line":2,"i_lat":-6.2842400000000005,"distance":0,"is_transit":false,"transit":false,"i_long":106.843999,"station_id":"PSM","time":0,"station_name":"Pasar Minggu"},{"transit":false,"is_transit":false,"station_id":"PSMB","station_name":"Pasar Minggu Baru","line":2,"distance":2380,"i_long":106.851577,"time":2,"i_lat":-6.263214},{"line":2,"is_transit":false,"distance":824,"station_name":"Duren Kalibata","station_id":"DRN","i_lat":-6.255332,"time":2,"transit":false,"i_long":106.85449},{"transit":false,"time":3,"station_id":"CW","i_lat":-6.242512,"i_long":106.856607,"line":2,"is_transit":false,"distance":1546,"station_name":"Cawang"},{"is_transit":false,"distance":1230,"i_long":106.857948,"time":2,"transit":false,"station_name":"Tebet","line":2,"i_lat":-6.226659,"station_id":"TEB"},{"transit":true,"station_id":"MRI","time":4,"i_lat":-6.209883,"i_long":106.84912,"line":2,"distance":2610,"is_transit":true,"station_name":"Manggarai"},{"station_name":"Matraman","is_transit":false,"i_lat":-6.212485,"i_long":106.858896,"time":2,"transit":false,"station_id":"MTR","distance":1275,"line":1},{"is_transit":false,"i_lat":-6.215091,"station_id":"JNG","transit":false,"station_name":"Jatinegara","line":1,"time":8,"distance":1377,"i_long":106.86807400000001},{"station_name":"Klender","i_long":106.899548,"line":1,"distance":3395,"time":3,"station_id":"KLD","transit":false,"i_lat":-6.2135,"is_transit":false},{"time":2,"station_id":"BUA","i_lat":-6.215568,"station_name":"Buaran","is_transit":false,"i_long":106.922662,"line":1,"distance":3100,"transit":false},{"distance":1305,"i_lat":-6.217455,"line":1,"is_transit":false,"time":1,"transit":false,"i_long":106.939679,"station_id":"KLDB","station_name":"Klenderbaru"},{"line":1,"station_id":"CUK","is_transit":false,"station_name":"Cakung","transit":false,"i_long":106.951283,"distance":1385,"time":8,"i_lat":-6.219053},{"i_lat":-6.224515,"transit":false,"distance":3097,"station_name":"Kranji","station_id":"KRI","is_transit":false,"time":3,"i_long":106.977657,"line":1},{"distance":2520,"transit":false,"is_transit":false,"station_name":"Bekasi","i_long":106.997013,"station_id":"BKS","i_lat":-6.236616,"time":4,"line":1},{"line":1,"i_long":107.016735,"time":2,"distance":2368,"is_transit":false,"transit":false,"station_name":"Bekasi Timur","station_id":"BKST","i_lat":-6.248029},{"station_id":"TB","i_lat":-6.258864,"line":1,"distance":4460,"is_transit":false,"i_long":107.055722,"station_name":"Tambun","transit":false,"time":7},{"line":1,"distance":3420,"i_lat":-6.261877,"station_id":"CIT","transit":false,"time":3,"i_long":107.083084,"station_name":"Cibitung","is_transit":false},{"station_name":"Metland Telaga Murni","is_transit":false,"i_lat":-6.262938,"time":2,"i_long":107.093313,"station_id":"TLM","transit":false,"line":1,"distance":2800}],[{"distance":0,"is_transit":false,"time":0,"station_id":"PSM","i_lat":-6.2842400000000005,"transit":false,"station_name":"Pasar Minggu","i_long":106.843999,"line":2},{"station_id":"PSMB","transit":false,"station_name":"Pasar Minggu Baru","i_long":106.851577,"line":2,"i_lat":-6.263214,"is_transit":false,"time":2,"distance":2380},{"station_name":"Duren Kalibata","i_lat":-6.255332,"line":2,"distance":824,"station_id":"DRN","i_long":106.85449,"is_transit":false,"transit":false,"time":2},{"i_lat":-6.242512,"i_long":106.856607,"station_id":"CW","line":2,"transit":false,"is_transit":false,"time":3,"distance":1546,"station_name":"Cawang"},{"time":2,"is_transit":false,"distance":1230,"i_lat":-6.226659,"line":2,"station_name":"Tebet","transit":false,"station_id":"TEB","i_long":106.857948},{"line":2,"station_id":"MRI","i_lat":-6.209883,"distance":2610,"transit":true,"is_transit":true,"i_long":106.84912,"time":4,"station_name":"Manggarai"},{"time":4,"distance":3186,"transit":false,"station_id":"SUD","is_transit":false,"i_lat":-6.202263,"station_name":"Sudirman","line":1,"i_long":106.822649},{"transit":false,"is_transit":false,"line":1,"i_lat":-6.201433,"station_name":"Sudirman Baru","station_id":"SUDB","distance":280,"i_long":106.819881,"time":1},{"station_id":"KAT","time":1,"distance":471,"i_lat":-6.20132,"transit":false,"line":1,"is_transit":false,"i_long":106.816351,"station_name":"Karet"},{"station_name":"Tanah Abang","station_id":"THB","i_long":106.811091,"i_lat":-6.185545,"is_transit":false,"time":5,"distance":2029,"transit":false,"line":1},{"i_long":106.800832,"transit":false,"station_name":"Duri","time":8,"distance":3632,"i_lat":-6.155215,"is_transit":false,"line":1,"station_id":"DU"},{"is_transit":false,"distance":1230,"time":4,"station_id":"AK","i_lat":-6.144674,"transit":false,"line":1,"i_long":106.79867,"station_name":"Angke"},{"station_id":"KPB","line":4,"distance":4102,"transit":true,"station_name":"Kampung Bandan","time":9,"is_transit":true,"i_lat":-6.132549,"i_long":106.826365},{"time":3,"station_name":"Rajawali","i_long":106.836569,"distance":1444,"line":11,"i_lat":-6.14505,"station_id":"RJW","is_transit":false,"transit":false},{"i_lat":-6.161728,"is_transit":false,"station_id":"KMO","station_name":"Kemayoran","time":5,"distance":1901,"line":11,"i_long":106.839204,"transit":false},{"i_lat":-6.174784,"line":11,"distance":1436,"is_transit":false,"station_id":"PSE","transit":false,"i_long":106.84368,"station_name":"Pasar Senen","time":4},{"transit":false,"is_transit":false,"station_id":"GST","distance":1567,"line":11,"time":8,"station_name":"Gang Sentiong","i_long":106.850107,"i_lat":-6.185975},{"is_transit":false,"station_id":"KMT","line":11,"distance":973,"i_lat":-6.193792,"transit":false,"time":1,"i_long":106.855437,"station_name":"Kramat"},{"distance":1829,"is_transit":false,"i_lat":-6.209188,"station_name":"Pondok Jati","i_long":106.861737,"station_id":"POK","line":11,"time":2,"transit":false},{"distance":1236,"line":1,"station_name":"Jatinegara","i_lat":-6.215091,"is_transit":true,"i_long":106.86807400000001,"time":9,"transit":true,"station_id":"JNG"},{"station_name":"Klender","i_long":106.899548,"is_transit":false,"time":3,"distance":3395,"line":1,"i_lat":-6.2135,"transit":false,"station_id":"KLD"},{"time":2,"distance":3100,"line":1,"station_name":"Buaran","transit":false,"is_transit":false,"i_long":106.922662,"i_lat":-6.215568,"station_id":"BUA"},{"transit":false,"distance":1305,"i_lat":-6.217455,"line":1,"station_name":"Klenderbaru","station_id":"KLDB","is_transit":false,"i_long":106.939679,"time":1},{"station_name":"Cakung","station_id":"CUK","i_long":106.951283,"time":8,"i_lat":-6.219053,"line":1,"distance":1385,"transit":false,"is_transit":false},{"i_lat":-6.224515,"station_id":"KRI","is_transit":false,"time":3,"distance":3097,"line":1,"i_long":106.977657,"station_name":"Kranji","transit":false},{"is_transit":false,"i_lat":-6.236616,"line":1,"i_long":106.997013,"station_id":"BKS","transit":false,"station_name":"Bekasi","distance":2520,"time":4},{"station_id":"BKST","is_transit":false,"time":2,"station_name":"Bekasi Timur","distance":2368,"i_lat":-6.248029,"line":1,"i_long":107.016735,"transit":false},{"station_id":"TB","line":1,"transit":false,"is_transit":false,"i_long":107.055722,"station_name":"Tambun","distance":4460,"i_lat":-6.258864,"time":7},{"station_name":"Cibitung","transit":false,"station_id":"CIT","distance":3420,"is_transit":false,"i_long":107.083084,"i_lat":-6.261877,"time":3,"line":1},{"line":1,"is_transit":false,"i_long":107.093313,"distance":2800,"time":2,"station_name":"Metland Telaga Murni","i_lat":-6.262938,"station_id":"TLM","transit":false}],[{"station_name":"Pasar Minggu","i_lat":-6.2842400000000005,"transit":false,"i_long":106.843999,"line":2,"station_id":"PSM","distance":0,"time":0,"is_transit":false},{"line":2,"station_id":"PSMB","transit":false,"distance":2380,"is_transit":false,"station_name":"Pasar Minggu Baru","time":2,"i_lat":-6.263214,"i_long":106.851577},{"transit":false,"station_id":"DRN","is_transit":false,"i_lat":-6.255332,"distance":824,"time":2,"line":2,"station_name":"Duren Kalibata","i_long":106.85449},{"line":2,"station_id":"CW","distance":1546,"i_lat":-6.242512,"is_transit":false,"station_name":"Cawang","i_long":106.856607,"time":3,"transit":false},{"line":2,"transit":false,"distance":1230,"i_lat":-6.226659,"i_long":106.857948,"station_name":"Tebet","time":2,"station_id":"TEB","is_transit":false},{"distance":2610,"i_long":106.84912,"station_id":"MRI","line":2,"transit":false,"is_transit":false,"i_lat":-6.209883,"time":4,"station_name":"Manggarai"},{"time":4,"transit":false,"line":2,"is_transit":false,"i_lat":-6.198556,"station_name":"Cikini","i_long":106.840169,"station_id":"CKI","distance":1590},{"i_long":106.832183,"transit":false,"distance":1750,"is_transit":false,"station_name":"Gondangdia","i_lat":-6.186295,"line":2,"time":3,"station_id":"GDD"},{"is_transit":false,"time":4,"i_long":106.828284,"distance":2015,"station_id":"JUA","transit":false,"i_lat":-6.166716,"line":2,"station_name":"Juanda"},{"is_transit":false,"transit":false,"distance":1149,"line":2,"station_id":"SW","time":2,"i_lat":-6.160725,"i_long":106.827103,"station_name":"Sawah Besar"},{"i_long":106.82482,"time":2,"station_name":"Manggabesar","station_id":"MGB","distance":906,"is_transit":false,"i_lat":-6.149769,"line":2,"transit":false},{"distance":1080,"i_long":106.820901,"i_lat":-6.141205,"is_transit":false,"transit":false,"time":2,"station_name":"Jayakarta","line":2,"station_id":"JAY"},{"i_lat":-6.137569,"time":4,"transit":true,"is_transit":true,"station_id":"JAKK","line":2,"station_name":"Jakarta Kota","distance":1264,"i_long":106.812439},{"distance":1364,"transit":true,"station_name":"Kampung Bandan","i_long":106.826365,"i_lat":-6.132549,"line":4,"is_transit":true,"station_id":"KPB","time":3},{"station_id":"RJW","i_lat":-6.14505,"line":11,"transit":false,"i_long":106.836569,"time":3,"distance":1444,"station_name":"Rajawali","is_transit":false},{"station_id":"KMO","line":11,"transit":false,"distance":1901,"is_transit":false,"time":5,"i_lat":-6.161728,"i_long":106.839204,"station_name":"Kemayoran"},{"time":4,"is_transit":false,"station_id":"PSE","station_name":"Pasar Senen","transit":false,"distance":1436,"i_lat":-6.174784,"i_long":106.84368,"line":11},{"i_lat":-6.185975,"i_long":106.850107,"line":11,"is_transit":false,"time":8,"station_name":"Gang Sentiong","transit":false,"distance":1567,"station_id":"GST"},{"station_name":"Kramat","station_id":"KMT","is_transit":false,"time":1,"line":11,"i_lat":-6.193792,"distance":973,"transit":false,"i_long":106.855437},{"transit":false,"station_name":"Pondok Jati","time":2,"i_lat":-6.209188,"station_id":"POK","distance":1829,"line":11,"i_long":106.861737,"is_transit":false},{"is_transit":true,"i_long":106.86807400000001,"distance":1236,"station_id":"JNG","line":1,"time":9,"i_lat":-6.215091,"transit":true,"station_name":"Jatinegara"},{"is_transit":false,"i_lat":-6.2135,"i_long":106.899548,"transit":false,"line":1,"station_name":"Klender","time":3,"distance":3395,"station_id":"KLD"},{"time":2,"distance":3100,"station_id":"BUA","station_name":"Buaran","i_lat":-6.215568,"line":1,"i_long":106.922662,"transit":false,"is_transit":false},{"is_transit":false,"transit":false,"distance":1305,"i_long":106.939679,"line":1,"time":1,"station_name":"Klenderbaru","station_id":"KLDB","i_lat":-6.217455},{"is_transit":false,"i_long":106.951283,"i_lat":-6.219053,"time":8,"line":1,"distance":1385,"transit":false,"station_name":"Cakung","station_id":"CUK"},{"time":3,"distance":3097,"station_name":"Kranji","transit":false,"i_long":106.977657,"line":1,"station_id":"KRI","is_transit":false,"i_lat":-6.224515},{"transit":false,"station_id":"BKS","i_lat":-6.236616,"i_long":106.997013,"is_transit":false,"station_name":"Bekasi","time":4,"distance":2520,"line":1},{"transit":false,"i_long":107.016735,"time":2,"i_lat":-6.248029,"station_id":"BKST","line":1,"station_name":"Bekasi Timur","distance":2368,"is_transit":false},{"i_lat":-6.258864,"line":1,"station_id":"TB","is_transit":false,"i_long":107.055722,"time":7,"transit":false,"station_name":"Tambun","distance":4460},{"i_long":107.083084,"station_id":"CIT","distance":3420,"line":1,"station_name":"Cibitung","is_transit":false,"transit":false,"time":3,"i_lat":-6.261877},{"station_id":"TLM","station_name":"Metland Telaga Murni","distance":2800,"i_lat":-6.262938,"i_long":107.093313,"line":1,"is_transit":false,"time":2,"transit":false}]]}