{"data":[[{"is_transit":false,"distance":0,"i_lat":-6.2842400000000005,"i_long":106.843999,"station_name":"Pasar Minggu","transit":false,"station_id":"PSM","time":0,"line":2},{"line":2,"is_transit":false,"station_name":"Pasar Minggu Baru","station_id":"PSMB","transit":false,"distance":2380,"i_lat":-6.263214,"time":2,"i_long":106.851577},{"station_name":"Duren Kalibata","station_id":"DRN","distance":824,"i_lat":-6.255332,"is_transit":false,"line":2,"time":2,"i_long":106.85449,"transit":false},{"line":2,"transit":false,"station_name":"Cawang","is_transit":false,"station_id":"CW","time":3,"distance":1546,"i_long":106.856607,"i_lat":-6.242512},{"line":2,"transit":false,"is_transit":false,"i_lat":-6.226659,"time":2,"i_long":106.857948,"station_id":"TEB","distance":1230,"station_name":"Tebet"},{"station_name":"Manggarai","line":2,"station_id":"MRI","time":4,"transit":true,"distance":2610,"i_lat":-6.209883,"i_long":106.84912,"is_transit":true},{"is_transit":false,"transit":false,"i_lat":-6.202263,"i_long":106.822649,"station_id":"SUD","distance":3186,"line":1,"station_name":"Sudirman","time":4},{"station_name":"Sudirman Baru","transit":false,"time":1,"station_id":"SUDB","distance":280,"i_lat":-6.201433,"is_transit":false,"i_long":106.819881,"line":1},{"transit":false,"is_transit":false,"i_lat":-6.20132,"station_name":"Karet","station_id":"KAT","distance":471,"i_long":106.816351,"line":1,"time":1},{"time":5,"station_name":"Tanah Abang","station_id":"THB","line":1,"is_transit":false,"distance":2029,"i_lat":-6.185545,"i_long":106.811091,"transit":false},{"time":8,"i_lat":-6.155215,"i_long":106.800832,"transit":true,"line":1,"station_id":"DU","station_name":"Duri","is_transit":true,"distance":3632},{"line":5,"station_id":"GGL","station_name":"Grogol","time":3,"is_transit":false,"i_long":106.788277,"i_lat":-6.162021,"distance":1700,"transit":false},{"i_lat":-6.161433,"transit":false,"time":2,"station_id":"PSG","distance":2036,"i_long":106.771379,"is_transit":false,"station_name":"Pesing","line":5},{"station_id":"TKO","station_name":"Taman Kota","transit":false,"is_transit":false,"time":2,"distance":1614,"i_lat":-6.1587309999999995,"i_long":106.756522,"line":5},{"distance":2334,"i_long":106.737035,"line":5,"station_name":"Bojongindah","transit":false,"station_id":"BOI","is_transit":false,"time":2,"i_lat":-6.159876},{"station_name":"Rawa Buaya","i_long":106.723064,"is_transit":false,"transit":false,"time":4,"distance":1152,"i_lat":-6.162758,"line":5,"station_id":"RW"},{"distance":2504,"transit":false,"i_long":106.701612,"station_id":"KDS","i_lat":-6.166068,"line":5,"station_name":"Kalideres","is_transit":false,"time":3},{"i_long":106.679458,"transit":false,"station_name":"Poris","time":3,"i_lat":-6.169933,"line":5,"is_transit":false,"distance":2548,"station_id":"PI"},{"is_transit":false,"station_id":"BPR","transit":false,"i_lat":-6.171811,"time":3,"station_name":"Batuceper","distance":1834,"i_long":106.665036,"line":5}],[{"i_long":106.843999,"line":2,"is_transit":false,"time":0,"distance":0,"i_lat":-6.2842400000000005,"transit":false,"station_id":"PSM","station_name":"Pasar Minggu"},{"transit":false,"station_id":"PSMB","line":2,"is_transit":false,"time":2,"i_long":106.851577,"i_lat":-6.263214,"station_name":"Pasar Minggu Baru","distance":2380},{"transit":false,"is_transit":false,"i_long":106.85449,"time":2,"station_id":"DRN","line":2,"i_lat":-6.255332,"station_name":"Duren Kalibata","distance":824},{"transit":false,"is_transit":false,"line":2,"station_id":"CW","i_lat":-6.242512,"distance":1546,"i_long":106.856607,"time":3,"station_name":"Cawang"},{"time":2,"distance":1230,"station_name":"Tebet","station_id":"TEB","is_transit":false,"i_lat":-6.226659,"transit":false,"i_long":106.857948,"line":2},{"i_long":106.84912,"i_lat":-6.209883,"transit":false,"distance":2610,"station_name":"Manggarai","is_transit":false,"line":2,"station_id":"MRI","time":4},{"station_name":"Cikini","distance":1590,"station_id":"CKI","line":2,"time":4,"i_long":106.840169,"transit":false,"is_transit":false,"i_lat":-6.198556},{"i_long":106.832183,"transit":false,"station_name":"Gondangdia","time":3,"station_id":"GDD","i_lat":-6.186295,"line":2,"is_transit":false,"distance":1750},{"transit":false,"station_id":"JUA","station_name":"Juanda","is_transit":false,"time":4,"i_long":106.828284,"line":2,"distance":2015,"i_lat":-6.166716},{"i_lat":-6.160725,"station_id":"SW","distance":1149,"i_long":106.827103,"line":2,"station_name":"Sawah Besar","transit":false,"is_transit":false,"time":2},{"station_id":"MGB","i_long":106.82482,"time":2,"line":2,"station_name":"Manggabesar","distance":906,"transit":false,"i_lat":-6.149769,"is_transit":false},{"transit":false,"line":2,"is_transit":false,"time":2,"station_id":"JAY","distance":1080,"station_name":"Jayakarta","i_lat":-6.141205,"i_long":106.820901},{"time":4,"is_transit":true,"station_name":"Jakarta Kota","station_id":"JAKK","i_long":106.812439,"transit":true,"line":2,"i_lat":-6.137569,"distance":1264},{"distance":1364,"transit":true,"time":3,"station_id":"KPB","station_name":"Kampung Bandan","is_transit":true,"i_lat":-6.132549,"i_long":106.826365,"line":4},{"distance":4102,"time":9,"station_name":"Angke","i_lat":-6.144674,"transit":false,"station_id":"AK","i_long":106.79867,"line":1,"is_transit":false},{"time":4,"i_lat":-6.155215,"i_long":106.800832,"line":1,"transit":true,"distance":1230,"station_id":"DU","is_transit":true,"station_name":"Duri"},{"station_name":"Grogol","transit":false,"i_long":106.788277,"line":5,"time":3,"i_lat":-6.162021,"station_id":"GGL","is_transit":false,"distance":1700},{"station_id":"PSG","station_name":"Pesing","distance":2036,"i_long":106.771379,"time":2,"transit":false,"i_lat":-6.161433,"is_transit":false,"line":5},{"distance":1614,"i_lat":-6.1587309999999995,"station_id":"TKO","line":5,"i_long":106.756522,"is_transit":false,"station_name":"Taman Kota","time":2,"transit":false},{"station_name":"Bojongindah","is_transit":false,"line":5,"station_id":"BOI","time":2,"i_long":106.737035,"distance":2334,"i_lat":-6.159876,"transit":false},{"transit":false,"line":5,"distance":1152,"station_name":"Rawa Buaya","is_transit":false,"i_lat":-6.162758,"i_long":106.723064,"station_id":"RW","time":4},{"distance":2504,"i_lat":-6.166068,"time":3,"transit":false,"station_id":"KDS","is_transit":false,"station_name":"Kalideres","i_long":106.701612,"line":5},{"i_long":106.679458,"is_transit":false,"time":3,"i_lat":-6.169933,"transit":false,"station_id":"PI","line":5,"station_name":"Poris","distance":2548},{"distance":1834,"is_transit":false,"station_name":"Batuceper","i_lat":-6.171811,"i_long":106.665036,"station_id":"BPR","time":3,"line":5,"transit":false}],[{"station_name":"Pasar Minggu","is_transit":false,"line":2,"station_id":"PSM","i_long":106.843999,"time":0,"distance":0,"transit":false,"i_lat":-6.2842400000000005},{"station_id":"PSMB","distance":2380,"station_name":"Pasar Minggu Baru","is_transit":false,"time":2,"line":2,"transit":false,"i_lat":-6.263214,"i_long":106.851577},{"line":2,"station_name":"Duren Kalibata","distance":824,"i_long":106.85449,"is_transit":false,"station_id":"DRN","transit":false,"time":2,"i_lat":-6.255332},{"distance":1546,"i_long":106.856607,"transit":false,"station_name":"Cawang","line":2,"i_lat":-6.242512,"station_id":"CW","time":3,"is_transit":false},{"i_lat":-6.226659,"station_id":"TEB","is_transit":false,"line":2,"time":2,"i_long":106.857948,"station_name":"Tebet","distance":1230,"transit":false},{"line":2,"i_long":106.84912,"transit":true,"is_transit":true,"time":4,"station_name":"Manggarai","station_id":"MRI","distance":2610,"i_lat":-6.209883},{"line":1,"time":2,"transit":false,"station_id":"MTR","station_name":"Matraman","distance":1275,"i_long":106.858896,"is_transit":false,"i_lat":-6.212485},{"i_lat":-6.215091,"i_long":106.86807400000001,"time":8,"line":1,"is_transit":true,"distance":1377,"station_id":"JNG","transit":true,"station_name":"Jatinegara"},{"transit":false,"is_transit":false,"station_id":"POK","distance":1236,"time":2,"i_lat":-6.209188,"i_long":106.861737,"station_name":"Pondok Jati","line":11},{"is_transit":false,"transit":false,"line":11,"station_name":"Kramat","station_id":"KMT","i_lat":-6.193792,"time":2,"distance":1829,"i_long":106.855437},{"transit":false,"station_name":"Gang Sentiong","time":1,"line":11,"i_long":106.850107,"i_lat":-6.185975,"station_id":"GST","is_transit":false,"distance":973},{"time":8,"i_lat":-6.174784,"station_id":"PSE","station_name":"Pasar Senen","is_transit":false,"transit":false,"i_long":106.84368,"line":11,"distance":1567},{"i_lat":-6.161728,"time":4,"transit":false,"station_id":"KMO","is_transit":false,"station_name":"Kemayoran","distance":1436,"i_long":106.839204,"line":11},{"i_long":106.836569,"i_lat":-6.14505,"time":5,"is_transit":false,"distance":1901,"line":11,"transit":false,"station_id":"RJW","station_name":"Rajawali"},{"i_long":106.826365,"line":4,"station_name":"Kampung Bandan","i_lat":-6.132549,"station_id":"KPB","is_transit":true,"transit":true,"distance":1444,"time":3},{"i_lat":-6.144674,"transit":false,"station_id":"AK","i_long":106.79867,"station_name":"Angke","is_transit":false,"time":9,"distance":4102,"line":1},{"transit":true,"line":1,"station_name":"Duri","is_transit":true,"time":4,"distance":1230,"i_lat":-6.155215,"i_long":106.800832,"station_id":"DU"},{"i_long":106.788277,"line":5,"transit":false,"station_id":"GGL","is_transit":false,"time":3,"distance":1700,"station_name":"Grogol","i_lat":-6.162021},{"i_long":106.771379,"i_lat":-6.161433,"station_id":"PSG","time":2,"transit":false,"distance":2036,"station_name":"Pesing","line":5,"is_transit":false},{"station_name":"Taman Kota","station_id":"TKO","line":5,"transit":false,"i_long":106.756522,"distance":1614,"i_lat":-6.1587309999999995,"time":2,"is_transit":false},{"transit":false,"is_transit":false,"time":2,"i_long":106.737035,"station_name":"Bojongindah","station_id":"BOI","line":5,"i_lat":-6.159876,"distance":2334},{"i_lat":-6.162758,"i_long":106.723064,"transit":false,"station_name":"Rawa Buaya","time":4,"distance":1152,"is_transit":false,"station_id":"RW","line":5},{"time":3,"is_transit":false,"distance":2504,"transit":false,"station_id":"KDS","station_name":"Kalideres","line":5,"i_long":106.701612,"i_lat":-6.166068},{"time":3,"distance":2548,"i_lat":-6.169933,"station_name":"Poris","is_transit":false,"station_id":"PI","line":5,"i_long":106.679458,"transit":false},{"line":5,"station_id":"BPR","is_transit":false,"station_name":"Batuceper","transit":false,"i_long":106.665036,"distance":1834,"time":3,"i_lat":-6.171811}]]}