{"data":[[{"distance":0,"i_long":106.843999,"line":2,"time":0,"station_id":"PSM","is_transit":false,"station_name":"Pasar Minggu","transit":false,"i_lat":-6.2842400000000005},{"transit":false,"i_long":106.851577,"time":2,"is_transit":false,"station_id":"PSMB","distance":2380,"station_name":"Pasar Minggu Baru","i_lat":-6.263214,"line":2},{"station_name":"Duren Kalibata","i_lat":-6.255332,"line":2,"is_transit":false,"distance":824,"time":2,"station_id":"DRN","transit":false,"i_long":106.85449},{"station_id":"CW","i_lat":-6.242512,"time":3,"i_long":106.856607,"transit":false,"station_name":"Cawang","distance":1546,"is_transit":false,"line":2},{"station_id":"TEB","i_long":106.857948,"is_transit":false,"station_name":"Tebet","line":2,"time":2,"distance":1230,"transit":false,"i_lat":-6.226659},{"transit":true,"time":4,"station_id":"MRI","i_long":106.84912,"distance":2610,"station_name":"Manggarai","line":2,"i_lat":-6.209883,"is_transit":true},{"is_transit":false,"station_name":"Sudirman","distance":3186,"i_lat":-6.202263,"time":4,"line":1,"station_id":"SUD","transit":false,"i_long":106.822649},{"distance":280,"i_lat":-6.201433,"line":1,"station_name":"Sudirman Baru","station_id":"SUDB","time":1,"transit":false,"i_long":106.819881,"is_transit":false},{"i_lat":-6.20132,"time":1,"station_id":"KAT","station_name":"Karet","line":1,"transit":false,"distance":471,"is_transit":false,"i_long":106.816351},{"i_lat":-6.185545,"line":1,"station_name":"Tanah Abang","time":5,"i_long":106.811091,"distance":2029,"station_id":"THB","transit":false,"is_transit":false},{"station_name":"Duri","time":8,"line":1,"distance":3632,"i_long":106.800832,"transit":true,"i_lat":-6.155215,"is_transit":true,"station_id":"DU"},{"distance":1700,"is_transit":false,"i_lat":-6.162021,"transit":false,"station_name":"Grogol","line":5,"i_long":106.788277,"station_id":"GRG","time":3},{"station_name":"Pesing","line":5,"station_id":"PSG","distance":2036,"transit":false,"i_lat":-6.161433,"i_long":106.771379,"time":2,"is_transit":false},{"time":2,"station_name":"Taman Kota","is_transit":false,"line":5,"station_id":"TKO","distance":1614,"i_long":106.756522,"i_lat":-6.1587309999999995,"transit":false},{"distance":2334,"is_transit":false,"station_name":"Bojongindah","transit":false,"i_long":106.737035,"line":5,"time":2,"i_lat":-6.159876,"station_id":"BOI"},{"line":5,"distance":1152,"station_name":"Rawa Buaya","i_lat":-6.162758,"i_long":106.723064,"time":4,"transit":false,"station_id":"RW","is_transit":false},{"station_id":"KDS","i_lat":-6.166068,"station_name":"Kalideres","is_transit":false,"i_long":106.701612,"transit":false,"time":3,"distance":2504,"line":5},{"i_long":106.679458,"line":5,"transit":false,"time":3,"is_transit":false,"distance":2548,"station_name":"Poris","station_id":"PI","i_lat":-6.169933},{"distance":1834,"time":3,"transit":false,"station_id":"BPR","line":5,"i_long":106.665036,"station_name":"Batuceper","is_transit":false,"i_lat":-6.171811},{"station_name":"Tanah Tinggi","i_lat":-6.17331,"transit":false,"is_transit":false,"i_long":106.64657,"line":5,"station_id":"TTI","time":3,"distance":2028},{"time":3,"transit":false,"distance":1547,"station_name":"Tangerang","is_transit":false,"i_long":106.632761,"line":5,"i_lat":-6.176583,"station_id":"TNG"}],[{"line":2,"station_id":"PSM","is_transit":false,"time":0,"i_lat":-6.2842400000000005,"transit":false,"station_name":"Pasar Minggu","i_long":106.843999,"distance":0},{"transit":false,"distance":2380,"station_name":"Pasar Minggu Baru","is_transit":false,"station_id":"PSMB","line":2,"time":2,"i_lat":-6.263214,"i_long":106.851577},{"is_transit":false,"transit":false,"station_id":"DRN","time":2,"i_long":106.85449,"station_name":"Duren Kalibata","distance":824,"i_lat":-6.255332,"line":2},{"time":3,"i_lat":-6.242512,"station_id":"CW","transit":false,"i_long":106.856607,"line":2,"is_transit":false,"station_name":"Cawang","distance":1546},{"is_transit":false,"transit":false,"i_long":106.857948,"distance":1230,"i_lat":-6.226659,"time":2,"station_name":"Tebet","line":2,"station_id":"TEB"},{"station_name":"Manggarai","i_lat":-6.209883,"line":2,"time":4,"distance":2610,"is_transit":false,"station_id":"MRI","i_long":106.84912,"transit":false},{"station_id":"CKI","time":4,"i_lat":-6.198556,"is_transit":false,"station_name":"Cikini","i_long":106.840169,"transit":false,"distance":1590,"line":2},{"i_lat":-6.186295,"station_name":"Gondangdia","station_id":"GDD","time":3,"is_transit":false,"line":2,"i_long":106.832183,"distance":1750,"transit":false},{"station_name":"Juanda","transit":false,"line":2,"i_lat":-6.166716,"time":4,"distance":2015,"station_id":"JUA","is_transit":false,"i_long":106.828284},{"i_long":106.827103,"line":2,"is_transit":false,"station_name":"Sawah Besar","time":2,"i_lat":-6.160725,"distance":1149,"transit":false,"station_id":"SW"},{"distance":906,"time":2,"station_name":"Manggabesar","transit":false,"line":2,"i_long":106.82482,"station_id":"MGB","i_lat":-6.149769,"is_transit":false},{"i_long":106.820901,"station_id":"JAY","is_transit":false,"line":2,"transit":false,"time":2,"distance":1080,"station_name":"Jayakarta","i_lat":-6.141205},{"time":4,"is_transit":true,"station_name":"Jakarta Kota","station_id":"JAKK","i_long":106.812439,"i_lat":-6.137569,"distance":1264,"transit":true,"line":2},{"distance":1364,"is_transit":true,"station_id":"KPB","time":3,"station_name":"Kampung Bandan","i_long":106.826365,"transit":true,"i_lat":-6.132549,"line":4},{"is_transit":false,"distance":4102,"time":9,"transit":false,"i_lat":-6.144674,"i_long":106.79867,"line":1,"station_name":"Angke","station_id":"AK"},{"transit":true,"is_transit":true,"time":4,"i_lat":-6.155215,"station_id":"DU","station_name":"Duri","line":1,"distance":1230,"i_long":106.800832},{"station_name":"Grogol","i_long":106.788277,"station_id":"GRG","is_transit":false,"distance":1700,"line":5,"i_lat":-6.162021,"time":3,"transit":false},{"distance":2036,"time":2,"is_transit":false,"station_id":"PSG","transit":false,"i_lat":-6.161433,"station_name":"Pesing","line":5,"i_long":106.771379},{"transit":false,"i_lat":-6.1587309999999995,"station_id":"TKO","time":2,"distance":1614,"station_name":"Taman Kota","is_transit":false,"line":5,"i_long":106.756522},{"transit":false,"i_long":106.737035,"station_name":"Bojongindah","time":2,"station_id":"BOI","is_transit":false,"distance":2334,"i_lat":-6.159876,"line":5},{"line":5,"distance":1152,"station_name":"Rawa Buaya","transit":false,"i_long":106.723064,"time":4,"station_id":"RW","is_transit":false,"i_lat":-6.162758},{"i_lat":-6.166068,"transit":false,"station_id":"KDS","line":5,"time":3,"i_long":106.701612,"distance":2504,"is_transit":false,"station_name":"Kalideres"},{"line":5,"station_name":"Poris","distance":2548,"station_id":"PI","i_lat":-6.169933,"time":3,"i_long":106.679458,"is_transit":false,"transit":false},{"distance":1834,"time":3,"is_transit":false,"transit":false,"line":5,"i_long":106.665036,"station_name":"Batuceper","i_lat":-6.171811,"station_id":"BPR"},{"i_long":106.64657,"is_transit":false,"time":3,"distance":2028,"i_lat":-6.17331,"transit":false,"station_id":"TTI","line":5,"station_name":"Tanah Tinggi"},{"i_lat":-6.176583,"i_long":106.632761,"transit":false,"distance":1547,"line":5,"station_name":"Tangerang","station_id":"TNG","time":3,"is_transit":false}],[{"distance":0,"line":2,"station_id":"PSM","station_name":"Pasar Minggu","time":0,"i_lat":-6.2842400000000005,"is_transit":false,"transit":false,"i_long":106.843999},{"time":2,"distance":2380,"i_lat":-6.263214,"station_id":"PSMB","station_name":"Pasar Minggu Baru","transit":false,"i_long":106.851577,"is_transit":false,"line":2},{"is_transit":false,"i_long":106.85449,"station_name":"Duren Kalibata","transit":false,"distance":824,"i_lat":-6.255332,"time":2,"line":2,"station_id":"DRN"},{"is_transit":false,"transit":false,"i_lat":-6.242512,"distance":1546,"station_name":"Cawang","time":3,"i_long":106.856607,"line":2,"station_id":"CW"},{"time":2,"transit":false,"station_name":"Tebet","station_id":"TEB","i_long":106.857948,"line":2,"distance":1230,"is_transit":false,"i_lat":-6.226659},{"transit":true,"line":2,"time":4,"station_name":"Manggarai","distance":2610,"i_long":106.84912,"i_lat":-6.209883,"is_transit":true,"station_id":"MRI"},{"is_transit":false,"time":2,"station_id":"MTR","line":1,"station_name":"Matraman","i_lat":-6.212485,"distance":1275,"transit":false,"i_long":106.858896},{"distance":1377,"i_lat":-6.215091,"transit":true,"station_name":"Jatinegara","station_id":"JNG","i_long":106.86807400000001,"line":1,"is_transit":true,"time":8},{"transit":false,"is_transit":false,"i_lat":-6.209188,"station_id":"POK","i_long":106.861737,"distance":1236,"line":11,"station_name":"Pondok Jati","time":2},{"is_transit":false,"distance":1829,"station_name":"Kramat","i_long":106.855437,"i_lat":-6.193792,"station_id":"KMT","time":2,"transit":false,"line":11},{"line":11,"i_long":106.850107,"station_id":"GST","station_name":"Gang Sentiong","i_lat":-6.185975,"is_transit":false,"transit":false,"time":1,"distance":973},{"line":11,"transit":false,"time":8,"station_id":"PSE","distance":1567,"i_long":106.84368,"i_lat":-6.174784,"station_name":"Pasar Senen","is_transit":false},{"station_name":"Kemayoran","is_transit":false,"transit":false,"station_id":"KMO","i_long":106.839204,"line":11,"time":4,"distance":1436,"i_lat":-6.161728},{"transit":false,"is_transit":false,"i_lat":-6.14505,"station_name":"Rajawali","station_id":"RJW","time":5,"i_long":106.836569,"line":11,"distance":1901},{"i_lat":-6.132549,"distance":1444,"line":4,"station_name":"Kampung Bandan","i_long":106.826365,"is_transit":true,"station_id":"KPB","time":3,"transit":true},{"station_id":"AK","time":9,"station_name":"Angke","distance":4102,"transit":false,"i_lat":-6.144674,"i_long":106.79867,"is_transit":false,"line":1},{"is_transit":true,"line":1,"time":4,"distance":1230,"station_id":"DU","i_lat":-6.155215,"station_name":"Duri","transit":true,"i_long":106.800832},{"line":5,"i_long":106.788277,"transit":false,"station_id":"GRG","i_lat":-6.162021,"station_name":"Grogol","distance":1700,"is_transit":false,"time":3},{"distance":2036,"station_name":"Pesing","transit":false,"station_id":"PSG","i_long":106.771379,"line":5,"i_lat":-6.161433,"time":2,"is_transit":false},{"time":2,"line":5,"i_lat":-6.1587309999999995,"station_id":"TKO","i_long":106.756522,"transit":false,"is_transit":false,"distance":1614,"station_name":"Taman Kota"},{"i_lat":-6.159876,"is_transit":false,"transit":false,"station_name":"Bojongindah","distance":2334,"station_id":"BOI","time":2,"line":5,"i_long":106.737035},{"transit":false,"distance":1152,"i_lat":-6.162758,"i_long":106.723064,"time":4,"station_name":"Rawa Buaya","station_id":"RW","is_transit":false,"line":5},{"transit":false,"i_long":106.701612,"is_transit":false,"distance":2504,"i_lat":-6.166068,"station_name":"Kalideres","line":5,"time":3,"station_id":"KDS"},{"time":3,"is_transit":false,"station_name":"Poris","i_lat":-6.169933,"transit":false,"station_id":"PI","distance":2548,"i_long":106.679458,"line":5},{"transit":false,"is_transit":false,"line":5,"time":3,"station_id":"BPR","distance":1834,"i_lat":-6.171811,"station_name":"Batuceper","i_long":106.665036},{"is_transit":false,"line":5,"station_name":"Tanah Tinggi","transit":false,"time":3,"distance":2028,"i_lat":-6.17331,"i_long":106.64657,"station_id":"TTI"},{"is_transit":false,"time":3,"station_id":"TNG","i_lat":-6.176583,"i_long":106.632761,"transit":false,"line":5,"distance":1547,"station_name":"Tangerang"}]]}