{"data":[[{"distance":0,"transit":false,"is_transit":false,"i_long":106.843999,"line":2,"station_name":"Pasar Minggu","time":0,"i_lat":-6.2842400000000005,"station_id":"PSM"},{"line":2,"is_transit":false,"station_name":"Pasar Minggu Baru","i_lat":-6.263214,"station_id":"PSMB","i_long":106.851577,"distance":2380,"time":2,"transit":false},{"i_lat":-6.255332,"line":2,"station_name":"Duren Kalibata","distance":824,"is_transit":false,"time":2,"i_long":106.85449,"transit":false,"station_id":"DRN"},{"distance":1546,"station_name":"Cawang","station_id":"CW","transit":false,"line":2,"i_lat":-6.242512,"is_transit":false,"time":3,"i_long":106.856607},{"station_name":"Tebet","line":2,"is_transit":false,"transit":false,"i_lat":-6.226659,"time":2,"distance":1230,"station_id":"TEB","i_long":106.857948},{"i_lat":-6.209883,"station_name":"Manggarai","transit":true,"station_id":"MRI","distance":2610,"time":4,"line":2,"i_long":106.84912,"is_transit":true},{"i_long":106.822649,"is_transit":false,"line":1,"time":4,"distance":3186,"i_lat":-6.202263,"transit":false,"station_name":"Sudirman","station_id":"SUD"},{"station_name":"Sudirman Baru","time":1,"is_transit":false,"i_lat":-6.201433,"station_id":"SUDB","distance":280,"i_long":106.819881,"line":1,"transit":false},{"transit":false,"time":1,"distance":471,"line":1,"i_long":106.816351,"station_id":"KAT","i_lat":-6.20132,"is_transit":false,"station_name":"Karet"},{"i_long":106.811091,"is_transit":false,"transit":false,"time":5,"distance":2029,"line":1,"station_name":"Tanah Abang","station_id":"THB","i_lat":-6.185545},{"transit":false,"time":8,"distance":3632,"station_id":"DU","station_name":"Duri","is_transit":false,"line":1,"i_lat":-6.155215,"i_long":106.800832},{"time":4,"distance":1230,"station_id":"AK","i_long":106.79867,"transit":false,"i_lat":-6.144674,"line":1,"is_transit":false,"station_name":"Angke"},{"i_long":106.826365,"line":4,"time":9,"distance":4102,"transit":false,"station_id":"KPB","i_lat":-6.132549,"station_name":"Kampung Bandan","is_transit":false}],[{"time":0,"is_transit":false,"transit":false,"station_id":"PSM","i_long":106.843999,"station_name":"Pasar Minggu","line":2,"distance":0,"i_lat":-6.2842400000000005},{"is_transit":false,"distance":2380,"time":2,"station_name":"Pasar Minggu Baru","line":2,"transit":false,"station_id":"PSMB","i_long":106.851577,"i_lat":-6.263214},{"line":2,"station_id":"DRN","time":2,"i_long":106.85449,"station_name":"Duren Kalibata","is_transit":false,"transit":false,"distance":824,"i_lat":-6.255332},{"distance":1546,"i_lat":-6.242512,"i_long":106.856607,"transit":false,"is_transit":false,"station_id":"CW","line":2,"station_name":"Cawang","time":3},{"station_name":"Tebet","station_id":"TEB","i_lat":-6.226659,"time":2,"transit":false,"i_long":106.857948,"is_transit":false,"distance":1230,"line":2},{"is_transit":false,"time":4,"station_id":"MRI","distance":2610,"line":2,"i_long":106.84912,"transit":false,"station_name":"Manggarai","i_lat":-6.209883},{"transit":false,"station_name":"Cikini","distance":1590,"time":4,"station_id":"CKI","i_lat":-6.198556,"i_long":106.840169,"line":2,"is_transit":false},{"line":2,"time":3,"transit":false,"station_id":"GDD","i_lat":-6.186295,"is_transit":false,"distance":1750,"station_name":"Gondangdia","i_long":106.832183},{"distance":2015,"is_transit":false,"time":4,"i_long":106.828284,"line":2,"i_lat":-6.166716,"station_name":"Juanda","transit":false,"station_id":"JUA"},{"transit":false,"station_name":"Sawah Besar","is_transit":false,"i_lat":-6.160725,"time":2,"i_long":106.827103,"station_id":"SW","distance":1149,"line":2},{"i_long":106.82482,"i_lat":-6.149769,"distance":906,"station_id":"MGB","time":2,"transit":false,"is_transit":false,"station_name":"Manggabesar","line":2},{"transit":false,"distance":1080,"i_lat":-6.141205,"station_name":"Jayakarta","is_transit":false,"i_long":106.820901,"station_id":"JAY","line":2,"time":2},{"i_lat":-6.137569,"distance":1264,"transit":true,"i_long":106.812439,"time":4,"station_name":"Jakarta Kota","line":2,"is_transit":true,"station_id":"JAKK"},{"time":3,"i_lat":-6.132549,"transit":false,"i_long":106.826365,"station_name":"Kampung Bandan","station_id":"KPB","is_transit":false,"line":4,"distance":1364}],[{"station_id":"PSM","i_long":106.843999,"transit":false,"station_name":"Pasar Minggu","time":0,"is_transit":false,"i_lat":-6.2842400000000005,"line":2,"distance":0},{"is_transit":false,"station_name":"Pasar Minggu Baru","time":2,"i_lat":-6.263214,"transit":false,"distance":2380,"line":2,"i_long":106.851577,"station_id":"PSMB"},{"i_lat":-6.255332,"line":2,"transit":false,"is_transit":false,"station_name":"Duren Kalibata","time":2,"station_id":"DRN","i_long":106.85449,"distance":824},{"i_lat":-6.242512,"station_name":"Cawang","is_transit":false,"i_long":106.856607,"transit":false,"line":2,"station_id":"CW","time":3,"distance":1546},{"transit":false,"station_id":"TEB","is_transit":false,"distance":1230,"line":2,"time":2,"i_long":106.857948,"station_name":"Tebet","i_lat":-6.226659},{"station_id":"MRI","distance":2610,"i_lat":-6.209883,"station_name":"Manggarai","is_transit":true,"line":2,"transit":true,"i_long":106.84912,"time":4},{"is_transit":false,"station_name":"Matraman","i_lat":-6.212485,"i_long":106.858896,"time":2,"distance":1275,"station_id":"MTR","transit":false,"line":1},{"transit":true,"time":8,"station_name":"Jatinegara","distance":1377,"i_lat":-6.215091,"is_transit":true,"station_id":"JNG","i_long":106.86807400000001,"line":1},{"distance":1236,"station_name":"Pondok Jati","i_lat":-6.209188,"station_id":"POK","time":2,"i_long":106.861737,"transit":false,"line":11,"is_transit":false},{"i_long":106.855437,"station_name":"Kramat","time":2,"station_id":"KMT","is_transit":false,"i_lat":-6.193792,"line":11,"distance":1829,"transit":false},{"distance":973,"time":1,"station_id":"GST","i_lat":-6.185975,"station_name":"Gang Sentiong","is_transit":false,"transit":false,"i_long":106.850107,"line":11},{"distance":1567,"i_long":106.84368,"transit":false,"station_id":"PSE","time":8,"station_name":"Pasar Senen","is_transit":false,"i_lat":-6.174784,"line":11},{"line":11,"station_name":"Kemayoran","i_long":106.839204,"time":4,"station_id":"KMO","transit":false,"distance":1436,"is_transit":false,"i_lat":-6.161728},{"transit":false,"station_name":"Rajawali","is_transit":false,"distance":1901,"time":5,"i_long":106.836569,"i_lat":-6.14505,"station_id":"RJW","line":11},{"station_name":"Kampung Bandan","time":3,"i_lat":-6.132549,"distance":1444,"line":4,"station_id":"KPB","i_long":106.826365,"transit":false,"is_transit":false}]]}