{"data":[[{"i_lat":-6.2842400000000005,"time":0,"i_long":106.843999,"distance":0,"station_name":"Pasar Minggu","station_id":"PSM","line":2,"is_transit":false,"transit":false},{"i_lat":-6.263214,"distance":2380,"station_name":"Pasar Minggu Baru","is_transit":false,"i_long":106.851577,"transit":false,"station_id":"PSMB","line":2,"time":2},{"transit":false,"line":2,"station_name":"Duren Kalibata","i_lat":-6.255332,"distance":824,"i_long":106.85449,"station_id":"DRN","is_transit":false,"time":2},{"station_id":"CW","time":3,"distance":1546,"is_transit":false,"station_name":"Cawang","i_lat":-6.242512,"i_long":106.856607,"transit":false,"line":2},{"i_lat":-6.226659,"station_id":"TEB","is_transit":false,"time":2,"transit":false,"station_name":"Tebet","line":2,"distance":1230,"i_long":106.857948},{"is_transit":true,"line":2,"time":4,"station_id":"MRI","i_long":106.84912,"transit":true,"distance":2610,"station_name":"Manggarai","i_lat":-6.209883},{"time":2,"station_name":"Matraman","line":1,"transit":false,"i_long":106.858896,"i_lat":-6.212485,"distance":1275,"is_transit":false,"station_id":"MTR"},{"station_id":"JNG","is_transit":false,"i_lat":-6.215091,"line":1,"station_name":"Jatinegara","time":8,"distance":1377,"i_long":106.86807400000001,"transit":false},{"station_id":"KLD","line":1,"i_long":106.899548,"is_transit":false,"distance":3395,"transit":false,"i_lat":-6.2135,"time":3,"station_name":"Klender"},{"i_lat":-6.215568,"line":1,"is_transit":false,"time":2,"transit":false,"station_name":"Buaran","distance":3100,"i_long":106.922662,"station_id":"BUA"},{"transit":false,"i_long":106.939679,"station_id":"KLDB","i_lat":-6.217455,"time":1,"station_name":"Klenderbaru","line":1,"distance":1305,"is_transit":false},{"i_long":106.951283,"line":1,"is_transit":false,"time":8,"station_id":"CUK","transit":false,"station_name":"Cakung","distance":1385,"i_lat":-6.219053},{"transit":false,"line":1,"station_id":"KRI","station_name":"Kranji","i_lat":-6.224515,"is_transit":false,"distance":3097,"time":3,"i_long":106.977657},{"transit":false,"i_lat":-6.236616,"time":4,"station_name":"Bekasi","distance":2520,"station_id":"BKS","i_long":106.997013,"line":1,"is_transit":false},{"station_name":"Bekasi Timur","i_long":107.016735,"transit":false,"distance":2368,"time":2,"i_lat":-6.248029,"is_transit":false,"station_id":"BKST","line":1},{"i_lat":-6.258864,"time":7,"transit":false,"station_name":"Tambun","station_id":"TB","is_transit":false,"line":1,"distance":4460,"i_long":107.055722},{"i_long":107.083084,"distance":3420,"line":1,"time":3,"is_transit":false,"transit":false,"station_id":"CIT","station_name":"Cibitung","i_lat":-6.261877}],[{"time":0,"station_name":"Pasar Minggu","i_long":106.843999,"station_id":"PSM","i_lat":-6.2842400000000005,"transit":false,"is_transit":false,"line":2,"distance":0},{"time":2,"is_transit":false,"station_id":"PSMB","line":2,"station_name":"Pasar Minggu Baru","transit":false,"distance":2380,"i_lat":-6.263214,"i_long":106.851577},{"line":2,"transit":false,"station_id":"DRN","station_name":"Duren Kalibata","is_transit":false,"distance":824,"i_lat":-6.255332,"i_long":106.85449,"time":2},{"time":3,"transit":false,"station_name":"Cawang","is_transit":false,"i_long":106.856607,"station_id":"CW","distance":1546,"i_lat":-6.242512,"line":2},{"time":2,"station_name":"Tebet","station_id":"TEB","i_lat":-6.226659,"distance":1230,"transit":false,"i_long":106.857948,"line":2,"is_transit":false},{"i_lat":-6.209883,"i_long":106.84912,"distance":2610,"is_transit":true,"time":4,"station_id":"MRI","line":2,"transit":true,"station_name":"Manggarai"},{"line":1,"station_id":"SUD","transit":false,"time":4,"station_name":"Sudirman","is_transit":false,"distance":3186,"i_lat":-6.202263,"i_long":106.822649},{"is_transit":false,"distance":280,"station_name":"Sudirman Baru","line":1,"i_lat":-6.201433,"station_id":"SUDB","time":1,"i_long":106.819881,"transit":false},{"is_transit":false,"time":1,"station_name":"Karet","distance":471,"i_lat":-6.20132,"line":1,"transit":false,"i_long":106.816351,"station_id":"KAT"},{"station_id":"THB","line":1,"distance":2029,"is_transit":false,"transit":false,"i_long":106.811091,"time":5,"station_name":"Tanah Abang","i_lat":-6.185545},{"line":1,"station_name":"Duri","is_transit":false,"transit":false,"station_id":"DU","distance":3632,"i_long":106.800832,"i_lat":-6.155215,"time":8},{"line":1,"station_name":"Angke","station_id":"AK","distance":1230,"transit":false,"i_long":106.79867,"is_transit":false,"time":4,"i_lat":-6.144674},{"distance":4102,"i_lat":-6.132549,"i_long":106.826365,"line":4,"time":9,"station_name":"Kampung Bandan","is_transit":true,"transit":true,"station_id":"KPB"},{"transit":false,"distance":1444,"line":11,"is_transit":false,"station_id":"RJW","i_long":106.836569,"i_lat":-6.14505,"station_name":"Rajawali","time":3},{"station_id":"KMO","time":5,"i_lat":-6.161728,"line":11,"distance":1901,"is_transit":false,"transit":false,"station_name":"Kemayoran","i_long":106.839204},{"line":11,"transit":false,"distance":1436,"i_lat":-6.174784,"station_name":"Pasar Senen","time":4,"station_id":"PSE","i_long":106.84368,"is_transit":false},{"i_long":106.850107,"station_id":"GST","station_name":"Gang Sentiong","transit":false,"line":11,"time":8,"distance":1567,"i_lat":-6.185975,"is_transit":false},{"distance":973,"line":11,"time":1,"transit":false,"is_transit":false,"i_lat":-6.193792,"station_id":"KMT","i_long":106.855437,"station_name":"Kramat"},{"transit":false,"station_name":"Pondok Jati","time":2,"station_id":"POK","i_long":106.861737,"is_transit":false,"i_lat":-6.209188,"line":11,"distance":1829},{"line":1,"i_lat":-6.215091,"time":9,"distance":1236,"station_id":"JNG","transit":true,"is_transit":true,"station_name":"Jatinegara","i_long":106.86807400000001},{"i_long":106.899548,"station_id":"KLD","distance":3395,"transit":false,"is_transit":false,"i_lat":-6.2135,"station_name":"Klender","line":1,"time":3},{"i_long":106.922662,"time":2,"line":1,"transit":false,"station_id":"BUA","station_name":"Buaran","is_transit":false,"distance":3100,"i_lat":-6.215568},{"is_transit":false,"station_name":"Klenderbaru","time":1,"i_long":106.939679,"station_id":"KLDB","transit":false,"i_lat":-6.217455,"line":1,"distance":1305},{"transit":false,"i_lat":-6.219053,"station_name":"Cakung","line":1,"distance":1385,"time":8,"is_transit":false,"i_long":106.951283,"station_id":"CUK"},{"i_lat":-6.224515,"time":3,"station_id":"KRI","i_long":106.977657,"distance":3097,"line":1,"station_name":"Kranji","is_transit":false,"transit":false},{"i_lat":-6.236616,"transit":false,"distance":2520,"is_transit":false,"station_name":"Bekasi","i_long":106.997013,"station_id":"BKS","line":1,"time":4},{"station_id":"BKST","i_lat":-6.248029,"station_name":"Bekasi Timur","i_long":107.016735,"is_transit":false,"transit":false,"line":1,"time":2,"distance":2368},{"is_transit":false,"station_id":"TB","time":7,"station_name":"Tambun","transit":false,"i_lat":-6.258864,"i_long":107.055722,"distance":4460,"line":1},{"time":3,"distance":3420,"i_lat":-6.261877,"transit":false,"station_name":"Cibitung","is_transit":false,"station_id":"CIT","i_long":107.083084,"line":1}],[{"station_name":"Pasar Minggu","i_long":106.843999,"is_transit":false,"line":2,"distance":0,"i_lat":-6.2842400000000005,"time":0,"station_id":"PSM","transit":false},{"line":2,"transit":false,"i_lat":-6.263214,"time":2,"distance":2380,"station_name":"Pasar Minggu Baru","i_long":106.851577,"is_transit":false,"station_id":"PSMB"},{"station_id":"DRN","station_name":"Duren Kalibata","i_lat":-6.255332,"is_transit":false,"i_long":106.85449,"line":2,"transit":false,"time":2,"distance":824},{"transit":false,"line":2,"i_lat":-6.242512,"is_transit":false,"distance":1546,"i_long":106.856607,"station_name":"Cawang","station_id":"CW","time":3},{"transit":false,"is_transit":false,"line":2,"station_name":"Tebet","station_id":"TEB","i_lat":-6.226659,"i_long":106.857948,"time":2,"distance":1230},{"time":4,"distance":2610,"station_id":"MRI","i_lat":-6.209883,"transit":false,"station_name":"Manggarai","line":2,"i_long":106.84912,"is_transit":false},{"i_lat":-6.198556,"i_long":106.840169,"line":2,"time":4,"station_name":"Cikini","is_transit":false,"transit":false,"station_id":"CKI","distance":1590},{"distance":1750,"transit":false,"station_id":"GDD","time":3,"i_lat":-6.186295,"station_name":"Gondangdia","is_transit":false,"line":2,"i_long":106.832183},{"line":2,"station_id":"JUA","transit":false,"is_transit":false,"distance":2015,"time":4,"i_lat":-6.166716,"i_long":106.828284,"station_name":"Juanda"},{"i_lat":-6.160725,"time":2,"distance":1149,"is_transit":false,"station_id":"SW","station_name":"Sawah Besar","line":2,"i_long":106.827103,"transit":false},{"transit":false,"distance":906,"i_lat":-6.149769,"station_name":"Manggabesar","station_id":"MGB","time":2,"i_long":106.82482,"line":2,"is_transit":false},{"distance":1080,"station_id":"JAY","transit":false,"i_lat":-6.141205,"is_transit":false,"station_name":"Jayakarta","line":2,"time":2,"i_long":106.820901},{"transit":true,"time":4,"is_transit":true,"i_lat":-6.137569,"i_long":106.812439,"line":2,"station_name":"Jakarta Kota","station_id":"JAKK","distance":1264},{"i_long":106.826365,"time":3,"i_lat":-6.132549,"station_name":"Kampung Bandan","station_id":"KPB","distance":1364,"transit":true,"line":4,"is_transit":true},{"i_lat":-6.14505,"line":11,"i_long":106.836569,"is_transit":false,"distance":1444,"transit":false,"station_id":"RJW","time":3,"station_name":"Rajawali"},{"station_name":"Kemayoran","distance":1901,"time":5,"i_long":106.839204,"is_transit":false,"transit":false,"line":11,"station_id":"KMO","i_lat":-6.161728},{"station_name":"Pasar Senen","i_long":106.84368,"distance":1436,"i_lat":-6.174784,"is_transit":false,"transit":false,"line":11,"station_id":"PSE","time":4},{"i_long":106.850107,"is_transit":false,"station_name":"Gang Sentiong","distance":1567,"time":8,"station_id":"GST","i_lat":-6.185975,"line":11,"transit":false},{"transit":false,"time":1,"distance":973,"i_lat":-6.193792,"line":11,"i_long":106.855437,"is_transit":false,"station_name":"Kramat","station_id":"KMT"},{"i_long":106.861737,"station_id":"POK","transit":false,"i_lat":-6.209188,"station_name":"Pondok Jati","distance":1829,"time":2,"is_transit":false,"line":11},{"is_transit":true,"time":9,"i_long":106.86807400000001,"station_name":"Jatinegara","distance":1236,"transit":true,"i_lat":-6.215091,"station_id":"JNG","line":1},{"time":3,"transit":false,"station_id":"KLD","station_name":"Klender","is_transit":false,"i_lat":-6.2135,"distance":3395,"i_long":106.899548,"line":1},{"distance":3100,"i_lat":-6.215568,"station_name":"Buaran","is_transit":false,"i_long":106.922662,"time":2,"line":1,"station_id":"BUA","transit":false},{"is_transit":false,"distance":1305,"transit":false,"line":1,"i_lat":-6.217455,"time":1,"station_id":"KLDB","station_name":"Klenderbaru","i_long":106.939679},{"station_name":"Cakung","i_lat":-6.219053,"station_id":"CUK","transit":false,"distance":1385,"i_long":106.951283,"is_transit":false,"line":1,"time":8},{"line":1,"distance":3097,"time":3,"station_name":"Kranji","station_id":"KRI","transit":false,"i_long":106.977657,"is_transit":false,"i_lat":-6.224515},{"station_id":"BKS","transit":false,"line":1,"time":4,"is_transit":false,"station_name":"Bekasi","i_lat":-6.236616,"i_long":106.997013,"distance":2520},{"station_id":"BKST","distance":2368,"is_transit":false,"i_lat":-6.248029,"time":2,"i_long":107.016735,"line":1,"station_name":"Bekasi Timur","transit":false},{"distance":4460,"station_id":"TB","line":1,"i_long":107.055722,"station_name":"Tambun","time":7,"i_lat":-6.258864,"transit":false,"is_transit":false},{"distance":3420,"i_lat":-6.261877,"line":1,"time":3,"is_transit":false,"station_id":"CIT","transit":false,"i_long":107.083084,"station_name":"Cibitung"}]]}