{"data":[[{"distance":0,"i_lat":-6.2842400000000005,"station_name":"Pasar Minggu","i_long":106.843999,"is_transit":false,"station_id":"PSM","line":2,"time":0,"transit":false},{"line":2,"i_long":106.851577,"distance":2380,"station_id":"PSMB","i_lat":-6.263214,"transit":false,"is_transit":false,"station_name":"Pasar Minggu Baru","time":2},{"station_id":"DRN","line":0,"is_transit":false,"distance":824,"time":2,"i_long":106.85449,"station_name":"Duren Kalibata","i_lat":-6.255332,"transit":false},{"station_name":"Cawang","is_transit":false,"distance":1546,"i_lat":-6.242512,"line":0,"station_id":"CW","transit":false,"i_long":106.856607,"time":3},{"time":2,"station_id":"TEB","is_transit":false,"station_name":"Tebet","transit":false,"i_long":106.857948,"line":2,"distance":1230,"i_lat":-6.226659},{"line":0,"i_lat":-6.209883,"distance":2610,"station_name":"Manggarai","transit":true,"time":4,"i_long":106.84912,"is_transit":true,"station_id":"MRI"},{"i_lat":-6.202263,"i_long":106.822649,"is_transit":false,"distance":3186,"transit":false,"station_id":"SUD","time":4,"line":1,"station_name":"Sudirman"},{"distance":280,"i_lat":-6.201433,"transit":false,"line":1,"station_name":"Sudirman Baru","i_long":106.819881,"is_transit":false,"time":1,"station_id":"SUDB"},{"i_lat":-6.20132,"i_long":106.816351,"station_id":"KAT","distance":471,"time":1,"line":1,"station_name":"Karet","is_transit":false,"transit":false},{"i_lat":-6.185545,"line":1,"station_name":"Tanah Abang","distance":2029,"is_transit":true,"transit":true,"time":5,"i_long":106.811091,"station_id":"THB"},{"station_id":"PLM","i_long":106.79689,"transit":false,"line":6,"i_lat":-6.207404,"distance":3191,"is_transit":false,"station_name":"Palmerah","time":6},{"station_id":"KBY","i_lat":-6.237242,"line":6,"is_transit":false,"station_name":"Kebayoran","time":7,"i_long":106.780334,"distance":3737,"transit":false},{"time":8,"station_id":"PDJ","line":6,"distance":6218,"i_long":106.74273,"is_transit":false,"station_name":"Pondokranji","transit":false,"i_lat":-6.276362},{"i_long":106.728916,"distance":2179,"line":6,"transit":false,"is_transit":false,"time":3,"station_id":"JMU","station_name":"Jurangmangu","i_lat":-6.288927},{"station_id":"SDM","i_lat":-6.296963,"time":4,"i_long":106.712277,"distance":1994,"line":6,"transit":false,"is_transit":false,"station_name":"Sudimara"},{"distance":4566,"line":6,"is_transit":false,"station_id":"RU","transit":false,"i_lat":-6.314823,"i_long":106.675475,"time":6,"station_name":"Rawa Buntu"}],[{"i_long":106.843999,"station_id":"PSM","line":2,"time":0,"station_name":"Pasar Minggu","is_transit":false,"i_lat":-6.2842400000000005,"distance":0,"transit":false},{"distance":2380,"station_name":"Pasar Minggu Baru","i_long":106.851577,"i_lat":-6.263214,"transit":false,"time":2,"line":2,"is_transit":false,"station_id":"PSMB"},{"transit":false,"i_lat":-6.255332,"is_transit":false,"i_long":106.85449,"distance":824,"time":2,"line":0,"station_id":"DRN","station_name":"Duren Kalibata"},{"distance":1546,"i_long":106.856607,"transit":false,"is_transit":false,"time":3,"station_id":"CW","line":0,"station_name":"Cawang","i_lat":-6.242512},{"distance":1230,"station_id":"TEB","station_name":"Tebet","transit":false,"time":2,"i_lat":-6.226659,"i_long":106.857948,"line":2,"is_transit":false},{"station_id":"MRI","is_transit":true,"time":4,"line":0,"station_name":"Manggarai","distance":2610,"i_long":106.84912,"transit":true,"i_lat":-6.209883},{"i_lat":-6.198556,"station_id":"CKI","i_long":106.840169,"transit":false,"time":4,"is_transit":false,"station_name":"Cikini","line":0,"distance":1590},{"i_long":106.832183,"station_name":"Gondangdia","time":3,"station_id":"GDD","i_lat":-6.186295,"distance":1750,"is_transit":false,"transit":false,"line":2},{"station_name":"Juanda","i_long":106.828284,"line":2,"distance":2015,"station_id":"JUA","i_lat":-6.166716,"transit":false,"time":4,"is_transit":false},{"transit":false,"station_name":"Sawah Besar","i_lat":-6.160725,"station_id":"SW","distance":1149,"is_transit":false,"time":2,"line":2,"i_long":106.827103},{"transit":false,"is_transit":false,"i_lat":-6.149769,"station_name":"Manggabesar","distance":906,"station_id":"MGB","time":2,"i_long":106.82482,"line":2},{"station_id":"JAY","station_name":"Jayakarta","transit":false,"time":2,"is_transit":false,"distance":1080,"line":7,"i_lat":-6.141205,"i_long":106.820901},{"transit":true,"distance":1264,"is_transit":true,"i_lat":-6.137569,"i_long":106.812439,"line":0,"station_name":"Jakarta Kota","station_id":"JAKK","time":4},{"time":3,"line":0,"i_lat":-6.132549,"station_name":"Kampung Bandan","i_long":106.826365,"is_transit":true,"station_id":"KPB","distance":1364,"transit":false},{"station_id":"AK","station_name":"Angke","distance":4102,"i_long":106.79867,"i_lat":-6.144674,"is_transit":false,"transit":false,"time":9,"line":0},{"i_long":106.800832,"distance":1230,"is_transit":true,"station_name":"Duri","time":4,"transit":true,"i_lat":-6.155215,"line":1,"station_id":"DU"},{"distance":3632,"time":8,"i_lat":-6.185545,"station_id":"THB","i_long":106.811091,"is_transit":true,"transit":true,"station_name":"Tanah Abang","line":1},{"i_lat":-6.207404,"station_name":"Palmerah","is_transit":false,"station_id":"PLM","line":6,"transit":false,"i_long":106.79689,"distance":3191,"time":6},{"station_id":"KBY","distance":3737,"is_transit":false,"transit":false,"station_name":"Kebayoran","i_lat":-6.237242,"time":7,"i_long":106.780334,"line":6},{"line":6,"is_transit":false,"i_lat":-6.276362,"i_long":106.74273,"distance":6218,"time":8,"transit":false,"station_id":"PDJ","station_name":"Pondokranji"},{"line":6,"is_transit":false,"transit":false,"distance":2179,"time":3,"station_id":"JMU","station_name":"Jurangmangu","i_lat":-6.288927,"i_long":106.728916},{"i_long":106.712277,"is_transit":false,"station_name":"Sudimara","station_id":"SDM","transit":false,"i_lat":-6.296963,"distance":1994,"time":4,"line":6},{"line":6,"distance":4566,"station_id":"RU","station_name":"Rawa Buntu","time":6,"i_long":106.675475,"transit":false,"is_transit":false,"i_lat":-6.314823}],[{"distance":0,"station_id":"PSM","transit":false,"i_lat":-6.2842400000000005,"i_long":106.843999,"station_name":"Pasar Minggu","time":0,"is_transit":false,"line":2},{"transit":false,"distance":2380,"i_lat":-6.263214,"station_id":"PSMB","time":2,"is_transit":false,"i_long":106.851577,"line":2,"station_name":"Pasar Minggu Baru"},{"time":2,"i_lat":-6.255332,"distance":824,"line":0,"is_transit":false,"transit":false,"i_long":106.85449,"station_id":"DRN","station_name":"Duren Kalibata"},{"time":3,"distance":1546,"i_lat":-6.242512,"is_transit":false,"line":0,"station_id":"CW","station_name":"Cawang","i_long":106.856607,"transit":false},{"line":2,"transit":false,"station_name":"Tebet","time":2,"i_lat":-6.226659,"distance":1230,"station_id":"TEB","is_transit":false,"i_long":106.857948},{"line":0,"station_id":"MRI","station_name":"Manggarai","i_lat":-6.209883,"time":4,"i_long":106.84912,"is_transit":true,"distance":2610,"transit":true},{"distance":1275,"is_transit":false,"time":2,"i_lat":-6.212485,"i_long":106.858896,"station_id":"MTR","line":1,"station_name":"Matraman","transit":false},{"is_transit":true,"transit":true,"station_name":"Jatinegara","i_long":106.86807400000001,"line":0,"time":8,"i_lat":-6.215091,"distance":1377,"station_id":"JNG"},{"is_transit":false,"i_lat":-6.209188,"station_id":"POK","transit":false,"distance":1236,"station_name":"Pondok Jati","i_long":106.861737,"line":11,"time":2},{"is_transit":false,"transit":false,"time":2,"distance":1829,"station_id":"KMT","station_name":"Kramat","i_long":106.855437,"i_lat":-6.193792,"line":11},{"i_lat":-6.185975,"station_name":"Gang Sentiong","station_id":"GST","line":11,"time":1,"distance":973,"i_long":106.850107,"transit":false,"is_transit":false},{"station_id":"PSE","time":8,"transit":false,"is_transit":false,"station_name":"Pasar Senen","line":11,"i_long":106.84368,"i_lat":-6.174784,"distance":1567},{"is_transit":false,"station_name":"Kemayoran","transit":false,"line":11,"i_lat":-6.161728,"distance":1436,"station_id":"KMO","time":4,"i_long":106.839204},{"transit":false,"distance":1901,"station_name":"Rajawali","is_transit":false,"time":5,"i_long":106.836569,"i_lat":-6.14505,"station_id":"RJW","line":11},{"distance":1444,"i_long":106.826365,"station_id":"KPB","line":0,"time":3,"i_lat":-6.132549,"is_transit":true,"transit":true,"station_name":"Kampung Bandan"},{"is_transit":false,"distance":4102,"i_lat":-6.144674,"station_name":"Angke","transit":false,"line":0,"station_id":"AK","time":9,"i_long":106.79867},{"is_transit":true,"transit":true,"i_long":106.800832,"distance":1230,"line":1,"time":4,"i_lat":-6.155215,"station_id":"DU","station_name":"Duri"},{"transit":true,"station_name":"Tanah Abang","i_lat":-6.185545,"i_long":106.811091,"line":1,"is_transit":true,"station_id":"THB","distance":3632,"time":8},{"line":6,"station_id":"PLM","i_lat":-6.207404,"station_name":"Palmerah","distance":3191,"time":6,"is_transit":false,"i_long":106.79689,"transit":false},{"i_long":106.780334,"is_transit":false,"line":6,"distance":3737,"time":7,"station_name":"Kebayoran","station_id":"KBY","i_lat":-6.237242,"transit":false},{"is_transit":false,"station_id":"PDJ","distance":6218,"time":8,"i_long":106.74273,"station_name":"Pondokranji","transit":false,"line":6,"i_lat":-6.276362},{"time":3,"line":6,"station_name":"Jurangmangu","station_id":"JMU","transit":false,"i_long":106.728916,"is_transit":false,"distance":2179,"i_lat":-6.288927},{"i_long":106.712277,"station_id":"SDM","is_transit":false,"line":6,"time":4,"i_lat":-6.296963,"transit":false,"distance":1994,"station_name":"Sudimara"},{"time":6,"station_id":"RU","line":6,"station_name":"Rawa Buntu","is_transit":false,"transit":false,"distance":4566,"i_lat":-6.314823,"i_long":106.675475}]]}