{"data":[[{"station_id":"PSM","time":0,"distance":0,"transit":false,"is_transit":false,"station_name":"Pasar Minggu","i_lat":-6.2842400000000005,"i_long":106.843999,"line":2},{"station_name":"Pasar Minggu Baru","line":2,"i_lat":-6.263214,"transit":false,"distance":2380,"time":2,"is_transit":false,"station_id":"PSMB","i_long":106.851577},{"i_long":106.85449,"time":2,"line":0,"is_transit":false,"i_lat":-6.255332,"distance":824,"transit":false,"station_id":"DRN","station_name":"Duren Kalibata"},{"distance":1546,"station_id":"CW","transit":false,"line":0,"station_name":"Cawang","time":3,"i_lat":-6.242512,"i_long":106.856607,"is_transit":false},{"is_transit":false,"station_name":"Tebet","station_id":"TEB","i_lat":-6.226659,"i_long":106.857948,"line":2,"distance":1230,"time":2,"transit":false},{"time":4,"i_long":106.84912,"is_transit":true,"distance":2610,"station_name":"Manggarai","line":0,"transit":true,"station_id":"MRI","i_lat":-6.209883},{"station_name":"Sudirman","station_id":"SUD","line":1,"distance":3186,"i_lat":-6.202263,"is_transit":false,"time":4,"transit":false,"i_long":106.822649},{"i_long":106.819881,"line":1,"time":1,"is_transit":false,"station_name":"Sudirman Baru","transit":false,"distance":280,"station_id":"SUDB","i_lat":-6.201433},{"i_lat":-6.20132,"i_long":106.816351,"is_transit":false,"line":1,"station_id":"KAT","transit":false,"distance":471,"time":1,"station_name":"Karet"},{"line":1,"is_transit":true,"i_lat":-6.185545,"transit":true,"station_name":"Tanah Abang","distance":2029,"station_id":"THB","time":5,"i_long":106.811091},{"i_lat":-6.207404,"station_id":"PLM","time":6,"line":6,"transit":false,"is_transit":false,"i_long":106.79689,"distance":3191,"station_name":"Palmerah"},{"distance":3737,"time":7,"station_id":"KBY","station_name":"Kebayoran","line":6,"is_transit":false,"transit":false,"i_long":106.780334,"i_lat":-6.237242},{"i_long":106.74273,"is_transit":false,"distance":6218,"station_id":"PDJ","station_name":"Pondokranji","transit":false,"time":8,"line":6,"i_lat":-6.276362},{"is_transit":false,"time":3,"i_lat":-6.288927,"station_id":"JMU","i_long":106.728916,"line":6,"distance":2179,"transit":false,"station_name":"Jurangmangu"},{"transit":false,"time":4,"distance":1994,"is_transit":false,"i_lat":-6.296963,"i_long":106.712277,"line":6,"station_name":"Sudimara","station_id":"SDM"},{"transit":false,"station_id":"RU","distance":4566,"station_name":"Rawa Buntu","is_transit":false,"time":6,"i_lat":-6.314823,"line":6,"i_long":106.675475},{"time":4,"line":6,"is_transit":false,"transit":false,"i_lat":-6.319871,"station_name":"Serpong","i_long":106.66566,"station_id":"SRP","distance":2413},{"i_long":106.640411,"station_id":"CSK","distance":1784,"station_name":"Cisauk","i_lat":-6.32484,"line":0,"is_transit":false,"time":4,"transit":false}],[{"line":2,"i_long":106.843999,"time":0,"station_name":"Pasar Minggu","distance":0,"station_id":"PSM","transit":false,"i_lat":-6.2842400000000005,"is_transit":false},{"transit":false,"distance":2380,"is_transit":false,"station_id":"PSMB","i_lat":-6.263214,"time":2,"i_long":106.851577,"station_name":"Pasar Minggu Baru","line":2},{"station_id":"DRN","time":2,"transit":false,"distance":824,"i_lat":-6.255332,"line":0,"i_long":106.85449,"is_transit":false,"station_name":"Duren Kalibata"},{"distance":1546,"is_transit":false,"i_lat":-6.242512,"i_long":106.856607,"station_name":"Cawang","station_id":"CW","time":3,"line":0,"transit":false},{"is_transit":false,"distance":1230,"station_id":"TEB","transit":false,"time":2,"station_name":"Tebet","i_long":106.857948,"line":2,"i_lat":-6.226659},{"i_lat":-6.209883,"time":4,"i_long":106.84912,"line":0,"is_transit":true,"distance":2610,"station_name":"Manggarai","transit":true,"station_id":"MRI"},{"is_transit":false,"station_name":"Cikini","transit":false,"i_lat":-6.198556,"station_id":"CKI","distance":1590,"time":4,"i_long":106.840169,"line":0},{"station_name":"Gondangdia","station_id":"GDD","i_lat":-6.186295,"distance":1750,"is_transit":false,"transit":false,"time":3,"i_long":106.832183,"line":2},{"is_transit":false,"transit":false,"line":2,"distance":2015,"station_id":"JUA","i_lat":-6.166716,"station_name":"Juanda","i_long":106.828284,"time":4},{"distance":1149,"line":2,"transit":false,"time":2,"is_transit":false,"i_lat":-6.160725,"station_id":"SW","i_long":106.827103,"station_name":"Sawah Besar"},{"station_id":"MGB","i_lat":-6.149769,"i_long":106.82482,"transit":false,"is_transit":false,"distance":906,"time":2,"line":2,"station_name":"Manggabesar"},{"is_transit":false,"distance":1080,"station_name":"Jayakarta","i_long":106.820901,"i_lat":-6.141205,"station_id":"JAY","transit":false,"time":2,"line":7},{"distance":1264,"i_lat":-6.137569,"line":0,"is_transit":true,"time":4,"i_long":106.812439,"station_id":"JAKK","transit":true,"station_name":"Jakarta Kota"},{"time":3,"i_long":106.826365,"transit":false,"i_lat":-6.132549,"is_transit":true,"station_id":"KPB","line":0,"distance":1364,"station_name":"Kampung Bandan"},{"i_lat":-6.144674,"transit":false,"time":9,"station_id":"AK","station_name":"Angke","line":0,"i_long":106.79867,"is_transit":false,"distance":4102},{"station_id":"DU","transit":true,"distance":1230,"is_transit":true,"time":4,"line":1,"station_name":"Duri","i_long":106.800832,"i_lat":-6.155215},{"transit":true,"line":1,"station_id":"THB","i_lat":-6.185545,"station_name":"Tanah Abang","time":8,"is_transit":true,"i_long":106.811091,"distance":3632},{"transit":false,"distance":3191,"i_lat":-6.207404,"line":6,"station_name":"Palmerah","station_id":"PLM","time":6,"i_long":106.79689,"is_transit":false},{"time":7,"i_lat":-6.237242,"line":6,"i_long":106.780334,"is_transit":false,"station_name":"Kebayoran","distance":3737,"station_id":"KBY","transit":false},{"i_long":106.74273,"line":6,"time":8,"station_id":"PDJ","distance":6218,"is_transit":false,"station_name":"Pondokranji","transit":false,"i_lat":-6.276362},{"distance":2179,"station_name":"Jurangmangu","time":3,"transit":false,"i_lat":-6.288927,"is_transit":false,"i_long":106.728916,"line":6,"station_id":"JMU"},{"station_name":"Sudimara","time":4,"is_transit":false,"distance":1994,"transit":false,"i_lat":-6.296963,"i_long":106.712277,"line":6,"station_id":"SDM"},{"distance":4566,"i_lat":-6.314823,"station_name":"Rawa Buntu","transit":false,"time":6,"i_long":106.675475,"line":6,"is_transit":false,"station_id":"RU"},{"is_transit":false,"station_name":"Serpong","distance":2413,"transit":false,"i_lat":-6.319871,"station_id":"SRP","i_long":106.66566,"time":4,"line":6},{"distance":1784,"station_name":"Cisauk","transit":false,"is_transit":false,"time":4,"i_lat":-6.32484,"i_long":106.640411,"station_id":"CSK","line":0}],[{"i_lat":-6.2842400000000005,"transit":false,"station_name":"Pasar Minggu","time":0,"i_long":106.843999,"is_transit":false,"station_id":"PSM","line":2,"distance":0},{"distance":2380,"line":2,"is_transit":false,"i_lat":-6.263214,"time":2,"station_id":"PSMB","transit":false,"station_name":"Pasar Minggu Baru","i_long":106.851577},{"station_name":"Duren Kalibata","distance":824,"is_transit":false,"i_long":106.85449,"line":0,"transit":false,"time":2,"station_id":"DRN","i_lat":-6.255332},{"transit":false,"time":3,"i_long":106.856607,"line":0,"i_lat":-6.242512,"station_id":"CW","is_transit":false,"distance":1546,"station_name":"Cawang"},{"i_long":106.857948,"is_transit":false,"station_name":"Tebet","time":2,"station_id":"TEB","distance":1230,"transit":false,"i_lat":-6.226659,"line":2},{"distance":2610,"is_transit":true,"i_lat":-6.209883,"station_name":"Manggarai","station_id":"MRI","transit":true,"time":4,"line":0,"i_long":106.84912},{"line":1,"i_lat":-6.212485,"is_transit":false,"station_id":"MTR","transit":false,"i_long":106.858896,"station_name":"Matraman","time":2,"distance":1275},{"transit":true,"line":0,"is_transit":true,"time":8,"i_lat":-6.215091,"distance":1377,"i_long":106.86807400000001,"station_id":"JNG","station_name":"Jatinegara"},{"station_name":"Pondok Jati","i_lat":-6.209188,"distance":1236,"is_transit":false,"station_id":"POK","time":2,"line":11,"transit":false,"i_long":106.861737},{"transit":false,"time":2,"is_transit":false,"distance":1829,"station_name":"Kramat","i_lat":-6.193792,"station_id":"KMT","line":11,"i_long":106.855437},{"station_id":"GST","is_transit":false,"station_name":"Gang Sentiong","time":1,"line":11,"i_long":106.850107,"transit":false,"distance":973,"i_lat":-6.185975},{"station_id":"PSE","transit":false,"station_name":"Pasar Senen","distance":1567,"line":11,"i_long":106.84368,"is_transit":false,"i_lat":-6.174784,"time":8},{"station_id":"KMO","i_long":106.839204,"transit":false,"is_transit":false,"time":4,"station_name":"Kemayoran","distance":1436,"line":11,"i_lat":-6.161728},{"time":5,"i_long":106.836569,"distance":1901,"station_id":"RJW","is_transit":false,"transit":false,"station_name":"Rajawali","i_lat":-6.14505,"line":11},{"line":0,"transit":true,"time":3,"distance":1444,"is_transit":true,"station_id":"KPB","station_name":"Kampung Bandan","i_lat":-6.132549,"i_long":106.826365},{"transit":false,"station_id":"AK","line":0,"station_name":"Angke","distance":4102,"i_long":106.79867,"is_transit":false,"i_lat":-6.144674,"time":9},{"time":4,"is_transit":true,"transit":true,"distance":1230,"station_name":"Duri","line":1,"i_long":106.800832,"station_id":"DU","i_lat":-6.155215},{"transit":true,"line":1,"station_name":"Tanah Abang","i_long":106.811091,"distance":3632,"i_lat":-6.185545,"is_transit":true,"time":8,"station_id":"THB"},{"is_transit":false,"distance":3191,"station_id":"PLM","time":6,"i_long":106.79689,"station_name":"Palmerah","i_lat":-6.207404,"transit":false,"line":6},{"i_lat":-6.237242,"transit":false,"station_id":"KBY","line":6,"distance":3737,"i_long":106.780334,"station_name":"Kebayoran","is_transit":false,"time":7},{"is_transit":false,"distance":6218,"transit":false,"station_name":"Pondokranji","i_long":106.74273,"station_id":"PDJ","line":6,"time":8,"i_lat":-6.276362},{"station_name":"Jurangmangu","transit":false,"i_long":106.728916,"time":3,"line":6,"i_lat":-6.288927,"distance":2179,"station_id":"JMU","is_transit":false},{"i_long":106.712277,"station_name":"Sudimara","i_lat":-6.296963,"is_transit":false,"distance":1994,"station_id":"SDM","time":4,"line":6,"transit":false},{"station_id":"RU","time":6,"is_transit":false,"i_lat":-6.314823,"station_name":"Rawa Buntu","line":6,"distance":4566,"transit":false,"i_long":106.675475},{"i_long":106.66566,"i_lat":-6.319871,"line":6,"station_id":"SRP","station_name":"Serpong","distance":2413,"time":4,"is_transit":false,"transit":false},{"is_transit":false,"distance":1784,"station_name":"Cisauk","transit":false,"time":4,"line":0,"station_id":"CSK","i_lat":-6.32484,"i_long":106.640411}]]}