{"data":[[{"i_long":106.843999,"is_transit":false,"line":2,"station_id":"PSM","station_name":"Pasar Minggu","distance":0,"time":0,"i_lat":-6.2842400000000005,"transit":false},{"time":2,"line":2,"station_name":"Pasar Minggu Baru","is_transit":false,"transit":false,"i_long":106.851577,"i_lat":-6.263214,"distance":2380,"station_id":"PSMB"},{"i_long":106.85449,"transit":false,"line":0,"time":2,"distance":824,"station_id":"DRN","i_lat":-6.255332,"station_name":"Duren Kalibata","is_transit":false},{"transit":false,"is_transit":false,"station_id":"CW","i_long":106.856607,"i_lat":-6.242512,"line":0,"distance":1546,"time":3,"station_name":"Cawang"},{"i_lat":-6.226659,"i_long":106.857948,"distance":1230,"transit":false,"time":2,"station_id":"TEB","is_transit":false,"line":2,"station_name":"Tebet"},{"is_transit":true,"station_id":"MRI","transit":true,"time":4,"i_long":106.84912,"i_lat":-6.209883,"station_name":"Manggarai","distance":2610,"line":0},{"is_transit":false,"i_lat":-6.202263,"i_long":106.822649,"distance":3186,"station_name":"Sudirman","transit":false,"station_id":"SUD","time":4,"line":1},{"is_transit":false,"transit":false,"i_long":106.819881,"distance":280,"station_id":"SUDB","station_name":"Sudirman Baru","time":1,"line":1,"i_lat":-6.201433},{"time":1,"transit":false,"is_transit":false,"station_name":"Karet","distance":471,"i_lat":-6.20132,"station_id":"KAT","i_long":106.816351,"line":1},{"line":1,"station_id":"THB","is_transit":true,"distance":2029,"transit":false,"time":5,"i_long":106.811091,"i_lat":-6.185545,"station_name":"Tanah Abang"},{"is_transit":true,"time":8,"distance":3632,"i_lat":-6.155215,"i_long":106.800832,"station_id":"DU","station_name":"Duri","line":1,"transit":true},{"transit":false,"is_transit":false,"line":5,"distance":1700,"station_name":"Grogol","i_lat":-6.162021,"i_long":106.788277,"time":3,"station_id":"GGL"},{"line":5,"distance":2036,"i_lat":-6.161433,"station_id":"PSG","transit":false,"i_long":106.771379,"is_transit":false,"time":2,"station_name":"Pesing"},{"line":5,"i_long":106.756522,"i_lat":-6.1587309999999995,"distance":1614,"time":2,"station_name":"Taman Kota","station_id":"TKO","transit":false,"is_transit":false},{"i_long":106.737035,"i_lat":-6.159876,"line":0,"time":2,"station_name":"Bojongindah","transit":false,"distance":2334,"is_transit":false,"station_id":"BOI"},{"transit":false,"station_name":"Rawa Buaya","i_lat":-6.162758,"time":4,"is_transit":false,"line":5,"i_long":106.723064,"distance":1152,"station_id":"RW"},{"i_long":106.701612,"line":5,"i_lat":-6.166068,"is_transit":false,"distance":2504,"station_id":"KDS","station_name":"Kalideres","time":3,"transit":false},{"i_long":106.679458,"i_lat":-6.169933,"transit":false,"time":3,"is_transit":false,"distance":2548,"station_name":"Poris","station_id":"PI","line":5},{"distance":1834,"time":3,"i_long":106.665036,"line":0,"transit":false,"is_transit":false,"station_name":"Batuceper","station_id":"BPR","i_lat":-6.171811},{"i_lat":-6.17331,"transit":false,"distance":2028,"time":3,"line":5,"station_id":"TTI","station_name":"Tanah Tinggi","i_long":106.64657,"is_transit":false},{"time":3,"distance":1547,"transit":false,"i_lat":-6.176583,"station_id":"TNG","line":5,"station_name":"Tangerang","i_long":106.632761,"is_transit":false}],[{"transit":false,"time":0,"is_transit":false,"distance":0,"i_long":106.843999,"i_lat":-6.2842400000000005,"station_id":"PSM","line":2,"station_name":"Pasar Minggu"},{"station_id":"PSMB","station_name":"Pasar Minggu Baru","transit":false,"time":2,"i_long":106.851577,"i_lat":-6.263214,"distance":2380,"line":2,"is_transit":false},{"station_name":"Duren Kalibata","distance":824,"station_id":"DRN","transit":false,"time":2,"i_long":106.85449,"is_transit":false,"i_lat":-6.255332,"line":0},{"time":3,"line":0,"station_name":"Cawang","is_transit":false,"transit":false,"i_lat":-6.242512,"i_long":106.856607,"station_id":"CW","distance":1546},{"station_name":"Tebet","i_long":106.857948,"distance":1230,"station_id":"TEB","line":2,"time":2,"transit":false,"i_lat":-6.226659,"is_transit":false},{"transit":true,"i_long":106.84912,"is_transit":true,"distance":2610,"i_lat":-6.209883,"line":0,"station_name":"Manggarai","time":4,"station_id":"MRI"},{"station_id":"CKI","is_transit":false,"station_name":"Cikini","transit":false,"distance":1590,"time":4,"i_long":106.840169,"i_lat":-6.198556,"line":0},{"is_transit":false,"line":2,"distance":1750,"i_long":106.832183,"i_lat":-6.186295,"time":3,"station_name":"Gondangdia","transit":false,"station_id":"GDD"},{"station_name":"Juanda","transit":false,"distance":2015,"is_transit":false,"i_lat":-6.166716,"station_id":"JUA","line":2,"time":4,"i_long":106.828284},{"i_lat":-6.160725,"station_id":"SW","distance":1149,"station_name":"Sawah Besar","time":2,"line":2,"i_long":106.827103,"transit":false,"is_transit":false},{"transit":false,"time":2,"i_lat":-6.149769,"distance":906,"i_long":106.82482,"station_name":"Manggabesar","station_id":"MGB","line":2,"is_transit":false},{"time":2,"station_name":"Jayakarta","i_lat":-6.141205,"line":7,"transit":false,"is_transit":false,"station_id":"JAY","i_long":106.820901,"distance":1080},{"is_transit":true,"line":0,"time":4,"station_name":"Jakarta Kota","station_id":"JAKK","transit":true,"i_lat":-6.137569,"i_long":106.812439,"distance":1264},{"is_transit":true,"station_id":"KPB","time":3,"line":0,"transit":false,"station_name":"Kampung Bandan","i_lat":-6.132549,"distance":1364,"i_long":106.826365},{"transit":false,"time":9,"station_id":"AK","line":0,"is_transit":false,"i_long":106.79867,"distance":4102,"i_lat":-6.144674,"station_name":"Angke"},{"station_id":"DU","i_lat":-6.155215,"i_long":106.800832,"station_name":"Duri","distance":1230,"line":1,"is_transit":true,"transit":true,"time":4},{"station_id":"GGL","distance":1700,"is_transit":false,"transit":false,"time":3,"i_lat":-6.162021,"i_long":106.788277,"station_name":"Grogol","line":5},{"is_transit":false,"i_lat":-6.161433,"station_name":"Pesing","distance":2036,"station_id":"PSG","transit":false,"time":2,"line":5,"i_long":106.771379},{"station_id":"TKO","line":5,"station_name":"Taman Kota","i_lat":-6.1587309999999995,"distance":1614,"transit":false,"time":2,"i_long":106.756522,"is_transit":false},{"time":2,"is_transit":false,"transit":false,"station_name":"Bojongindah","i_long":106.737035,"station_id":"BOI","line":0,"i_lat":-6.159876,"distance":2334},{"is_transit":false,"transit":false,"line":5,"i_lat":-6.162758,"station_id":"RW","i_long":106.723064,"distance":1152,"time":4,"station_name":"Rawa Buaya"},{"is_transit":false,"line":5,"station_name":"Kalideres","distance":2504,"i_lat":-6.166068,"transit":false,"station_id":"KDS","time":3,"i_long":106.701612},{"line":5,"transit":false,"station_id":"PI","i_lat":-6.169933,"distance":2548,"time":3,"station_name":"Poris","is_transit":false,"i_long":106.679458},{"distance":1834,"time":3,"station_id":"BPR","i_lat":-6.171811,"is_transit":false,"station_name":"Batuceper","transit":false,"line":0,"i_long":106.665036},{"time":3,"i_long":106.64657,"line":5,"i_lat":-6.17331,"distance":2028,"station_id":"TTI","is_transit":false,"station_name":"Tanah Tinggi","transit":false},{"i_lat":-6.176583,"transit":false,"i_long":106.632761,"station_id":"TNG","is_transit":false,"time":3,"station_name":"Tangerang","distance":1547,"line":5}],[{"station_id":"PSM","is_transit":false,"time":0,"line":2,"distance":0,"station_name":"Pasar Minggu","i_long":106.843999,"i_lat":-6.2842400000000005,"transit":false},{"is_transit":false,"time":2,"i_long":106.851577,"distance":2380,"station_id":"PSMB","line":2,"station_name":"Pasar Minggu Baru","transit":false,"i_lat":-6.263214},{"distance":824,"station_name":"Duren Kalibata","i_lat":-6.255332,"transit":false,"line":0,"station_id":"DRN","is_transit":false,"time":2,"i_long":106.85449},{"time":3,"i_long":106.856607,"station_name":"Cawang","line":0,"is_transit":false,"distance":1546,"station_id":"CW","transit":false,"i_lat":-6.242512},{"line":2,"station_id":"TEB","time":2,"transit":false,"station_name":"Tebet","i_lat":-6.226659,"i_long":106.857948,"is_transit":false,"distance":1230},{"i_long":106.84912,"line":0,"is_transit":true,"distance":2610,"station_name":"Manggarai","i_lat":-6.209883,"station_id":"MRI","transit":true,"time":4},{"time":2,"line":1,"distance":1275,"station_name":"Matraman","station_id":"MTR","i_lat":-6.212485,"i_long":106.858896,"is_transit":false,"transit":false},{"is_transit":true,"time":8,"station_id":"JNG","line":0,"i_long":106.86807400000001,"distance":1377,"i_lat":-6.215091,"station_name":"Jatinegara","transit":true},{"transit":false,"distance":1236,"station_name":"Pondok Jati","is_transit":false,"time":2,"station_id":"POK","i_lat":-6.209188,"i_long":106.861737,"line":11},{"is_transit":false,"station_id":"KMT","time":2,"i_lat":-6.193792,"i_long":106.855437,"station_name":"Kramat","distance":1829,"transit":false,"line":11},{"line":11,"is_transit":false,"transit":false,"station_id":"GST","i_lat":-6.185975,"distance":973,"time":1,"station_name":"Gang Sentiong","i_long":106.850107},{"station_id":"PSE","i_long":106.84368,"is_transit":false,"station_name":"Pasar Senen","time":8,"i_lat":-6.174784,"line":11,"distance":1567,"transit":false},{"transit":false,"i_lat":-6.161728,"distance":1436,"i_long":106.839204,"line":11,"station_id":"KMO","time":4,"station_name":"Kemayoran","is_transit":false},{"time":5,"line":11,"i_long":106.836569,"is_transit":false,"station_name":"Rajawali","transit":false,"i_lat":-6.14505,"distance":1901,"station_id":"RJW"},{"is_transit":true,"transit":true,"i_lat":-6.132549,"line":0,"i_long":106.826365,"station_id":"KPB","distance":1444,"station_name":"Kampung Bandan","time":3},{"station_name":"Angke","line":0,"station_id":"AK","transit":false,"time":9,"i_lat":-6.144674,"distance":4102,"i_long":106.79867,"is_transit":false},{"i_long":106.800832,"line":1,"distance":1230,"station_id":"DU","station_name":"Duri","i_lat":-6.155215,"time":4,"is_transit":true,"transit":true},{"i_long":106.788277,"distance":1700,"station_id":"GGL","station_name":"Grogol","is_transit":false,"time":3,"i_lat":-6.162021,"line":5,"transit":false},{"distance":2036,"station_name":"Pesing","i_long":106.771379,"is_transit":false,"line":5,"station_id":"PSG","time":2,"i_lat":-6.161433,"transit":false},{"distance":1614,"is_transit":false,"transit":false,"station_id":"TKO","time":2,"i_lat":-6.1587309999999995,"i_long":106.756522,"line":5,"station_name":"Taman Kota"},{"distance":2334,"i_lat":-6.159876,"line":0,"station_name":"Bojongindah","i_long":106.737035,"station_id":"BOI","transit":false,"is_transit":false,"time":2},{"line":5,"station_name":"Rawa Buaya","i_long":106.723064,"distance":1152,"is_transit":false,"transit":false,"station_id":"RW","time":4,"i_lat":-6.162758},{"i_lat":-6.166068,"station_id":"KDS","transit":false,"i_long":106.701612,"distance":2504,"station_name":"Kalideres","time":3,"is_transit":false,"line":5},{"i_lat":-6.169933,"distance":2548,"is_transit":false,"line":5,"i_long":106.679458,"station_id":"PI","station_name":"Poris","transit":false,"time":3},{"transit":false,"distance":1834,"station_name":"Batuceper","i_lat":-6.171811,"is_transit":false,"station_id":"BPR","time":3,"line":0,"i_long":106.665036},{"time":3,"i_lat":-6.17331,"station_name":"Tanah Tinggi","station_id":"TTI","i_long":106.64657,"distance":2028,"transit":false,"is_transit":false,"line":5},{"transit":false,"station_id":"TNG","i_long":106.632761,"line":5,"is_transit":false,"i_lat":-6.176583,"time":3,"distance":1547,"station_name":"Tangerang"}]]}