{"data":[[{"is_transit":false,"i_long":106.843999,"station_id":"PSM","time":0,"station_name":"Pasar Minggu","line":2,"transit":false,"i_lat":-6.2842400000000005,"distance":0},{"i_lat":-6.263214,"is_transit":false,"station_name":"Pasar Minggu Baru","distance":2380,"transit":false,"time":2,"i_long":106.851577,"line":2,"station_id":"PSMB"},{"is_transit":false,"transit":false,"line":0,"time":2,"distance":824,"station_id":"DRN","i_lat":-6.255332,"i_long":106.85449,"station_name":"Duren Kalibata"},{"is_transit":false,"i_lat":-6.242512,"i_long":106.856607,"line":0,"station_name":"Cawang","transit":false,"distance":1546,"time":3,"station_id":"CW"},{"distance":1230,"station_name":"Tebet","line":2,"is_transit":false,"i_lat":-6.226659,"station_id":"TEB","transit":false,"time":2,"i_long":106.857948},{"is_transit":true,"time":4,"i_long":106.84912,"line":0,"i_lat":-6.209883,"transit":true,"distance":2610,"station_id":"MRI","station_name":"Manggarai"},{"i_long":106.840169,"distance":1590,"transit":false,"time":4,"station_name":"Cikini","is_transit":false,"i_lat":-6.198556,"line":0,"station_id":"CKI"},{"is_transit":false,"i_lat":-6.186295,"distance":1750,"i_long":106.832183,"station_id":"GDD","line":2,"transit":false,"time":3,"station_name":"Gondangdia"},{"is_transit":false,"station_id":"JUA","time":4,"i_long":106.828284,"transit":false,"station_name":"Juanda","distance":2015,"i_lat":-6.166716,"line":2},{"station_id":"SW","i_long":106.827103,"transit":false,"station_name":"Sawah Besar","i_lat":-6.160725,"line":2,"time":2,"distance":1149,"is_transit":false},{"i_lat":-6.149769,"station_id":"MGB","station_name":"Manggabesar","is_transit":false,"distance":906,"transit":false,"i_long":106.82482,"time":2,"line":2}],[{"station_name":"Pasar Minggu","time":0,"station_id":"PSM","is_transit":false,"distance":0,"transit":false,"i_long":106.843999,"i_lat":-6.2842400000000005,"line":2},{"station_name":"Pasar Minggu Baru","time":2,"station_id":"PSMB","transit":false,"distance":2380,"i_lat":-6.263214,"i_long":106.851577,"is_transit":false,"line":2},{"is_transit":false,"time":2,"i_lat":-6.255332,"i_long":106.85449,"line":0,"station_name":"Duren Kalibata","station_id":"DRN","distance":824,"transit":false},{"transit":false,"is_transit":false,"i_lat":-6.242512,"distance":1546,"line":0,"station_name":"Cawang","station_id":"CW","i_long":106.856607,"time":3},{"station_id":"TEB","station_name":"Tebet","transit":false,"time":2,"line":2,"distance":1230,"i_lat":-6.226659,"is_transit":false,"i_long":106.857948},{"i_lat":-6.209883,"i_long":106.84912,"is_transit":true,"line":0,"transit":true,"time":4,"distance":2610,"station_id":"MRI","station_name":"Manggarai"},{"is_transit":false,"i_long":106.822649,"station_name":"Sudirman","time":4,"station_id":"SUD","transit":false,"line":1,"distance":3186,"i_lat":-6.202263},{"is_transit":false,"transit":false,"time":1,"i_lat":-6.201433,"station_id":"SUDB","i_long":106.819881,"distance":280,"station_name":"Sudirman Baru","line":1},{"i_long":106.816351,"transit":false,"is_transit":false,"station_name":"Karet","i_lat":-6.20132,"distance":471,"station_id":"KAT","time":1,"line":1},{"is_transit":true,"time":5,"distance":2029,"station_name":"Tanah Abang","station_id":"THB","transit":false,"i_lat":-6.185545,"i_long":106.811091,"line":1},{"transit":true,"station_name":"Duri","is_transit":true,"distance":3632,"i_long":106.800832,"time":8,"i_lat":-6.155215,"station_id":"DU","line":1},{"station_name":"Angke","line":0,"transit":false,"time":4,"i_long":106.79867,"is_transit":false,"station_id":"AK","i_lat":-6.144674,"distance":1230},{"distance":4102,"transit":false,"station_name":"Kampung Bandan","time":9,"station_id":"KPB","i_long":106.826365,"i_lat":-6.132549,"line":0,"is_transit":true},{"i_long":106.812439,"i_lat":-6.137569,"station_id":"JAKK","distance":1364,"is_transit":true,"line":0,"transit":true,"station_name":"Jakarta Kota","time":3},{"station_name":"Jayakarta","time":4,"line":7,"transit":false,"i_long":106.820901,"station_id":"JAY","is_transit":false,"distance":1264,"i_lat":-6.141205},{"station_id":"MGB","transit":false,"line":2,"station_name":"Manggabesar","time":2,"is_transit":false,"i_lat":-6.149769,"i_long":106.82482,"distance":1080}],[{"line":2,"i_long":106.843999,"is_transit":false,"i_lat":-6.2842400000000005,"transit":false,"station_name":"Pasar Minggu","distance":0,"station_id":"PSM","time":0},{"transit":false,"i_lat":-6.263214,"distance":2380,"i_long":106.851577,"station_id":"PSMB","line":2,"time":2,"is_transit":false,"station_name":"Pasar Minggu Baru"},{"i_lat":-6.255332,"i_long":106.85449,"station_name":"Duren Kalibata","time":2,"distance":824,"transit":false,"is_transit":false,"line":0,"station_id":"DRN"},{"distance":1546,"time":3,"station_name":"Cawang","i_lat":-6.242512,"i_long":106.856607,"transit":false,"station_id":"CW","is_transit":false,"line":0},{"time":2,"i_lat":-6.226659,"station_name":"Tebet","distance":1230,"transit":false,"i_long":106.857948,"line":2,"station_id":"TEB","is_transit":false},{"station_id":"MRI","transit":true,"i_long":106.84912,"time":4,"line":0,"i_lat":-6.209883,"is_transit":true,"station_name":"Manggarai","distance":2610},{"station_name":"Matraman","transit":false,"time":2,"i_lat":-6.212485,"i_long":106.858896,"line":1,"distance":1275,"is_transit":false,"station_id":"MTR"},{"distance":1377,"i_long":106.86807400000001,"station_name":"Jatinegara","time":8,"transit":true,"is_transit":true,"i_lat":-6.215091,"line":0,"station_id":"JNG"},{"i_long":106.861737,"line":11,"time":2,"distance":1236,"is_transit":false,"transit":false,"station_id":"POK","station_name":"Pondok Jati","i_lat":-6.209188},{"i_long":106.855437,"is_transit":false,"station_name":"Kramat","station_id":"KMT","transit":false,"time":2,"distance":1829,"line":11,"i_lat":-6.193792},{"i_lat":-6.185975,"i_long":106.850107,"line":11,"transit":false,"station_name":"Gang Sentiong","distance":973,"is_transit":false,"station_id":"GST","time":1},{"i_lat":-6.174784,"i_long":106.84368,"station_id":"PSE","station_name":"Pasar Senen","time":8,"distance":1567,"is_transit":false,"line":11,"transit":false},{"station_id":"KMO","line":11,"i_lat":-6.161728,"i_long":106.839204,"distance":1436,"transit":false,"station_name":"Kemayoran","is_transit":false,"time":4},{"is_transit":false,"transit":false,"distance":1901,"i_lat":-6.14505,"time":5,"i_long":106.836569,"station_id":"RJW","station_name":"Rajawali","line":11},{"line":0,"i_long":106.826365,"distance":1444,"time":3,"station_id":"KPB","is_transit":true,"station_name":"Kampung Bandan","transit":true,"i_lat":-6.132549},{"time":3,"i_lat":-6.137569,"line":0,"i_long":106.812439,"station_name":"Jakarta Kota","distance":1364,"is_transit":true,"station_id":"JAKK","transit":true},{"station_id":"JAY","distance":1264,"time":4,"is_transit":false,"station_name":"Jayakarta","line":7,"i_long":106.820901,"i_lat":-6.141205,"transit":false},{"transit":false,"station_id":"MGB","station_name":"Manggabesar","i_lat":-6.149769,"line":2,"distance":1080,"is_transit":false,"time":2,"i_long":106.82482}]]}