{"data":[[{"time":0,"transit":false,"station_name":"Pasar Minggu","i_lat":-6.2842400000000005,"is_transit":false,"distance":0,"station_id":"PSM","i_long":106.843999,"line":2},{"station_name":"Pasar Minggu Baru","transit":false,"time":2,"distance":2380,"station_id":"PSMB","i_lat":-6.263214,"line":2,"is_transit":false,"i_long":106.851577},{"distance":824,"i_long":106.85449,"is_transit":false,"transit":false,"time":2,"station_name":"Duren Kalibata","station_id":"DRN","i_lat":-6.255332,"line":2},{"station_name":"Cawang","distance":1546,"i_long":106.856607,"time":3,"i_lat":-6.242512,"is_transit":false,"station_id":"CW","transit":false,"line":2},{"distance":1230,"line":2,"i_long":106.857948,"transit":false,"i_lat":-6.226659,"station_id":"TEB","time":2,"is_transit":false,"station_name":"Tebet"},{"station_name":"Manggarai","line":2,"i_lat":-6.209883,"is_transit":true,"distance":2610,"transit":true,"station_id":"MRI","i_long":106.84912,"time":4},{"station_name":"Matraman","i_lat":-6.212485,"i_long":106.858896,"line":1,"time":2,"station_id":"MTR","distance":1275,"transit":false,"is_transit":false},{"distance":1377,"i_lat":-6.215091,"station_id":"JNG","i_long":106.86807400000001,"line":1,"time":8,"is_transit":false,"transit":false,"station_name":"Jatinegara"},{"is_transit":false,"distance":3395,"time":3,"station_id":"KLD","line":1,"station_name":"Klender","i_long":106.899548,"transit":false,"i_lat":-6.2135},{"i_long":106.922662,"line":1,"transit":false,"distance":3100,"is_transit":false,"i_lat":-6.215568,"time":2,"station_name":"Buaran","station_id":"BUA"},{"station_id":"KLDB","is_transit":false,"station_name":"Klenderbaru","time":1,"i_long":106.939679,"line":1,"transit":false,"i_lat":-6.217455,"distance":1305},{"distance":1385,"is_transit":false,"transit":false,"i_lat":-6.219053,"i_long":106.951283,"time":8,"line":1,"station_name":"Cakung","station_id":"CUK"},{"i_lat":-6.224515,"i_long":106.977657,"transit":false,"station_id":"KRI","station_name":"Kranji","line":1,"distance":3097,"time":3,"is_transit":false},{"is_transit":false,"station_name":"Bekasi","distance":2520,"i_long":106.997013,"line":1,"transit":false,"i_lat":-6.236616,"time":4,"station_id":"BKS"},{"i_long":107.016735,"time":2,"distance":2368,"station_id":"BKST","is_transit":false,"transit":false,"station_name":"Bekasi Timur","i_lat":-6.248029,"line":1},{"transit":false,"time":7,"is_transit":false,"station_name":"Tambun","i_lat":-6.258864,"station_id":"TB","distance":4460,"line":1,"i_long":107.055722},{"is_transit":false,"line":1,"time":3,"station_id":"CIT","transit":false,"station_name":"Cibitung","i_lat":-6.261877,"distance":3420,"i_long":107.083084},{"distance":2800,"i_long":107.093313,"transit":false,"station_id":"TLM","line":1,"time":2,"is_transit":false,"station_name":"Metland Telaga Murni","i_lat":-6.262938}],[{"i_long":106.843999,"station_name":"Pasar Minggu","distance":0,"time":0,"transit":false,"i_lat":-6.2842400000000005,"line":2,"is_transit":false,"station_id":"PSM"},{"station_name":"Pasar Minggu Baru","i_long":106.851577,"line":2,"distance":2380,"time":2,"transit":false,"is_transit":false,"i_lat":-6.263214,"station_id":"PSMB"},{"station_name":"Duren Kalibata","is_transit":false,"station_id":"DRN","time":2,"transit":false,"i_long":106.85449,"distance":824,"line":2,"i_lat":-6.255332},{"station_name":"Cawang","i_lat":-6.242512,"line":2,"is_transit":false,"i_long":106.856607,"station_id":"CW","time":3,"distance":1546,"transit":false},{"distance":1230,"i_lat":-6.226659,"station_name":"Tebet","i_long":106.857948,"is_transit":false,"station_id":"TEB","time":2,"transit":false,"line":2},{"transit":true,"line":2,"station_name":"Manggarai","station_id":"MRI","i_long":106.84912,"distance":2610,"time":4,"is_transit":true,"i_lat":-6.209883},{"i_lat":-6.202263,"station_name":"Sudirman","i_long":106.822649,"time":4,"transit":false,"station_id":"SUD","line":1,"is_transit":false,"distance":3186},{"station_name":"Sudirman Baru","is_transit":false,"transit":false,"station_id":"SUDB","i_lat":-6.201433,"line":1,"time":1,"distance":280,"i_long":106.819881},{"i_long":106.816351,"time":1,"is_transit":false,"distance":471,"transit":false,"station_id":"KAT","station_name":"Karet","i_lat":-6.20132,"line":1},{"distance":2029,"i_long":106.811091,"line":1,"transit":false,"time":5,"station_name":"Tanah Abang","i_lat":-6.185545,"is_transit":false,"station_id":"THB"},{"time":8,"i_long":106.800832,"transit":false,"i_lat":-6.155215,"is_transit":false,"station_name":"Duri","line":1,"distance":3632,"station_id":"DU"},{"station_id":"AK","is_transit":false,"station_name":"Angke","time":4,"transit":false,"i_long":106.79867,"i_lat":-6.144674,"distance":1230,"line":1},{"station_name":"Kampung Bandan","i_long":106.826365,"is_transit":true,"time":9,"transit":true,"line":4,"station_id":"KPB","i_lat":-6.132549,"distance":4102},{"distance":1444,"is_transit":false,"time":3,"station_id":"RJW","i_long":106.836569,"line":11,"transit":false,"station_name":"Rajawali","i_lat":-6.14505},{"line":11,"station_name":"Kemayoran","transit":false,"i_long":106.839204,"distance":1901,"i_lat":-6.161728,"is_transit":false,"station_id":"KMO","time":5},{"line":11,"transit":false,"station_name":"Pasar Senen","is_transit":false,"i_lat":-6.174784,"i_long":106.84368,"distance":1436,"station_id":"PSE","time":4},{"i_lat":-6.185975,"line":11,"time":8,"i_long":106.850107,"is_transit":false,"distance":1567,"station_id":"GST","station_name":"Gang Sentiong","transit":false},{"transit":false,"station_id":"KMT","station_name":"Kramat","distance":973,"i_long":106.855437,"time":1,"is_transit":false,"i_lat":-6.193792,"line":11},{"distance":1829,"station_id":"POK","transit":false,"i_long":106.861737,"is_transit":false,"time":2,"i_lat":-6.209188,"line":11,"station_name":"Pondok Jati"},{"transit":true,"line":1,"is_transit":true,"station_id":"JNG","distance":1236,"i_lat":-6.215091,"i_long":106.86807400000001,"time":9,"station_name":"Jatinegara"},{"station_name":"Klender","station_id":"KLD","is_transit":false,"transit":false,"i_long":106.899548,"line":1,"distance":3395,"i_lat":-6.2135,"time":3},{"is_transit":false,"transit":false,"i_long":106.922662,"station_id":"BUA","i_lat":-6.215568,"time":2,"line":1,"distance":3100,"station_name":"Buaran"},{"station_id":"KLDB","time":1,"distance":1305,"is_transit":false,"transit":false,"line":1,"station_name":"Klenderbaru","i_long":106.939679,"i_lat":-6.217455},{"distance":1385,"transit":false,"is_transit":false,"station_name":"Cakung","i_lat":-6.219053,"time":8,"station_id":"CUK","line":1,"i_long":106.951283},{"station_name":"Kranji","transit":false,"is_transit":false,"i_long":106.977657,"station_id":"KRI","i_lat":-6.224515,"line":1,"time":3,"distance":3097},{"i_lat":-6.236616,"is_transit":false,"distance":2520,"station_name":"Bekasi","station_id":"BKS","line":1,"transit":false,"time":4,"i_long":106.997013},{"is_transit":false,"distance":2368,"time":2,"transit":false,"line":1,"station_name":"Bekasi Timur","station_id":"BKST","i_long":107.016735,"i_lat":-6.248029},{"station_id":"TB","station_name":"Tambun","i_lat":-6.258864,"distance":4460,"line":1,"transit":false,"is_transit":false,"time":7,"i_long":107.055722},{"distance":3420,"transit":false,"time":3,"i_long":107.083084,"station_name":"Cibitung","line":1,"i_lat":-6.261877,"is_transit":false,"station_id":"CIT"},{"line":1,"is_transit":false,"station_id":"TLM","distance":2800,"i_lat":-6.262938,"time":2,"station_name":"Metland Telaga Murni","i_long":107.093313,"transit":false}],[{"station_id":"PSM","distance":0,"transit":false,"i_lat":-6.2842400000000005,"is_transit":false,"line":2,"i_long":106.843999,"station_name":"Pasar Minggu","time":0},{"i_long":106.851577,"station_id":"PSMB","time":2,"line":2,"distance":2380,"transit":false,"is_transit":false,"i_lat":-6.263214,"station_name":"Pasar Minggu Baru"},{"i_lat":-6.255332,"station_name":"Duren Kalibata","station_id":"DRN","i_long":106.85449,"line":2,"time":2,"distance":824,"transit":false,"is_transit":false},{"i_lat":-6.242512,"time":3,"station_name":"Cawang","is_transit":false,"transit":false,"i_long":106.856607,"distance":1546,"line":2,"station_id":"CW"},{"transit":false,"i_lat":-6.226659,"i_long":106.857948,"line":2,"station_id":"TEB","time":2,"distance":1230,"station_name":"Tebet","is_transit":false},{"line":2,"is_transit":false,"time":4,"station_name":"Manggarai","distance":2610,"i_long":106.84912,"station_id":"MRI","transit":false,"i_lat":-6.209883},{"line":2,"i_lat":-6.198556,"distance":1590,"is_transit":false,"station_name":"Cikini","i_long":106.840169,"time":4,"station_id":"CKI","transit":false},{"station_name":"Gondangdia","line":2,"is_transit":false,"time":3,"distance":1750,"station_id":"GDD","i_lat":-6.186295,"transit":false,"i_long":106.832183},{"transit":false,"i_long":106.828284,"station_name":"Juanda","time":4,"i_lat":-6.166716,"is_transit":false,"line":2,"station_id":"JUA","distance":2015},{"i_long":106.827103,"time":2,"i_lat":-6.160725,"is_transit":false,"station_name":"Sawah Besar","distance":1149,"station_id":"SW","transit":false,"line":2},{"i_lat":-6.149769,"transit":false,"time":2,"distance":906,"i_long":106.82482,"is_transit":false,"line":2,"station_name":"Manggabesar","station_id":"MGB"},{"is_transit":false,"transit":false,"time":2,"i_long":106.820901,"station_name":"Jayakarta","distance":1080,"i_lat":-6.141205,"line":2,"station_id":"JAY"},{"line":2,"time":4,"i_lat":-6.137569,"station_name":"Jakarta Kota","is_transit":true,"station_id":"JAKK","distance":1264,"transit":true,"i_long":106.812439},{"station_id":"KPB","time":3,"line":4,"distance":1364,"is_transit":true,"station_name":"Kampung Bandan","transit":true,"i_lat":-6.132549,"i_long":106.826365},{"time":3,"line":11,"station_name":"Rajawali","distance":1444,"station_id":"RJW","i_long":106.836569,"i_lat":-6.14505,"transit":false,"is_transit":false},{"i_long":106.839204,"station_id":"KMO","time":5,"station_name":"Kemayoran","is_transit":false,"line":11,"i_lat":-6.161728,"distance":1901,"transit":false},{"i_lat":-6.174784,"station_name":"Pasar Senen","station_id":"PSE","distance":1436,"time":4,"transit":false,"i_long":106.84368,"is_transit":false,"line":11},{"i_long":106.850107,"line":11,"i_lat":-6.185975,"station_name":"Gang Sentiong","distance":1567,"is_transit":false,"transit":false,"time":8,"station_id":"GST"},{"i_long":106.855437,"station_id":"KMT","is_transit":false,"transit":false,"station_name":"Kramat","line":11,"time":1,"distance":973,"i_lat":-6.193792},{"line":11,"is_transit":false,"station_id":"POK","station_name":"Pondok Jati","i_lat":-6.209188,"distance":1829,"transit":false,"time":2,"i_long":106.861737},{"i_lat":-6.215091,"station_id":"JNG","station_name":"Jatinegara","time":9,"i_long":106.86807400000001,"line":1,"distance":1236,"is_transit":true,"transit":true},{"station_name":"Klender","distance":3395,"time":3,"transit":false,"line":1,"station_id":"KLD","i_long":106.899548,"i_lat":-6.2135,"is_transit":false},{"is_transit":false,"i_lat":-6.215568,"distance":3100,"i_long":106.922662,"line":1,"station_id":"BUA","station_name":"Buaran","time":2,"transit":false},{"i_lat":-6.217455,"line":1,"transit":false,"station_id":"KLDB","i_long":106.939679,"time":1,"station_name":"Klenderbaru","distance":1305,"is_transit":false},{"time":8,"line":1,"distance":1385,"station_id":"CUK","station_name":"Cakung","transit":false,"is_transit":false,"i_lat":-6.219053,"i_long":106.951283},{"is_transit":false,"station_id":"KRI","line":1,"i_lat":-6.224515,"station_name":"Kranji","distance":3097,"i_long":106.977657,"transit":false,"time":3},{"line":1,"time":4,"station_id":"BKS","i_lat":-6.236616,"station_name":"Bekasi","is_transit":false,"transit":false,"distance":2520,"i_long":106.997013},{"distance":2368,"station_id":"BKST","time":2,"i_lat":-6.248029,"i_long":107.016735,"is_transit":false,"line":1,"station_name":"Bekasi Timur","transit":false},{"line":1,"station_name":"Tambun","time":7,"transit":false,"is_transit":false,"distance":4460,"station_id":"TB","i_long":107.055722,"i_lat":-6.258864},{"station_id":"CIT","i_lat":-6.261877,"time":3,"transit":false,"i_long":107.083084,"distance":3420,"station_name":"Cibitung","line":1,"is_transit":false},{"is_transit":false,"i_lat":-6.262938,"i_long":107.093313,"transit":false,"distance":2800,"station_id":"TLM","station_name":"Metland Telaga Murni","time":2,"line":1}]]}