{"data":[[{"station_id":"PSM","transit":false,"line":2,"distance":0,"time":0,"i_lat":-6.2842400000000005,"is_transit":false,"station_name":"Pasar Minggu","i_long":106.843999},{"line":2,"transit":false,"i_lat":-6.263214,"distance":2380,"is_transit":false,"station_id":"PSMB","time":2,"i_long":106.851577,"station_name":"Pasar Minggu Baru"},{"i_lat":-6.255332,"distance":824,"time":2,"i_long":106.85449,"line":2,"transit":false,"station_id":"DRN","is_transit":false,"station_name":"Duren Kalibata"},{"i_long":106.856607,"time":3,"station_id":"CW","i_lat":-6.242512,"transit":false,"distance":1546,"is_transit":false,"station_name":"Cawang","line":2},{"i_long":106.857948,"line":2,"i_lat":-6.226659,"transit":false,"station_name":"Tebet","is_transit":false,"distance":1230,"time":2,"station_id":"TEB"},{"is_transit":false,"transit":false,"station_name":"Manggarai","i_lat":-6.209883,"line":2,"time":4,"station_id":"MRI","i_long":106.84912,"distance":2610},{"station_name":"Cikini","transit":false,"i_long":106.840169,"line":2,"distance":1590,"i_lat":-6.198556,"time":4,"station_id":"CKI","is_transit":false}],[{"line":2,"station_id":"PSM","i_lat":-6.2842400000000005,"i_long":106.843999,"distance":0,"transit":false,"is_transit":false,"station_name":"Pasar Minggu","time":0},{"time":2,"station_name":"Pasar Minggu Baru","i_long":106.851577,"distance":2380,"i_lat":-6.263214,"is_transit":false,"station_id":"PSMB","line":2,"transit":false},{"distance":824,"transit":false,"i_long":106.85449,"line":2,"time":2,"station_name":"Duren Kalibata","i_lat":-6.255332,"station_id":"DRN","is_transit":false},{"i_long":106.856607,"distance":1546,"is_transit":false,"transit":false,"i_lat":-6.242512,"station_id":"CW","line":2,"time":3,"station_name":"Cawang"},{"station_name":"Tebet","distance":1230,"transit":false,"line":2,"time":2,"is_transit":false,"station_id":"TEB","i_lat":-6.226659,"i_long":106.857948},{"i_long":106.84912,"line":2,"transit":true,"station_id":"MRI","station_name":"Manggarai","distance":2610,"i_lat":-6.209883,"is_transit":true,"time":4},{"transit":false,"station_id":"SUD","distance":3186,"i_lat":-6.202263,"line":1,"is_transit":false,"time":4,"i_long":106.822649,"station_name":"Sudirman"},{"line":1,"i_long":106.819881,"is_transit":false,"station_name":"Sudirman Baru","time":1,"transit":false,"distance":280,"station_id":"SUDB","i_lat":-6.201433},{"time":1,"i_long":106.816351,"distance":471,"station_name":"Karet","i_lat":-6.20132,"station_id":"KAT","line":1,"is_transit":false,"transit":false},{"i_lat":-6.185545,"distance":2029,"transit":false,"station_id":"THB","line":1,"i_long":106.811091,"is_transit":false,"time":5,"station_name":"Tanah Abang"},{"station_id":"DU","transit":false,"station_name":"Duri","line":1,"i_long":106.800832,"i_lat":-6.155215,"time":8,"is_transit":false,"distance":3632},{"time":4,"line":1,"transit":false,"i_lat":-6.144674,"distance":1230,"station_name":"Angke","station_id":"AK","i_long":106.79867,"is_transit":false},{"line":4,"time":9,"i_lat":-6.132549,"is_transit":true,"transit":true,"i_long":106.826365,"distance":4102,"station_id":"KPB","station_name":"Kampung Bandan"},{"station_name":"Jakarta Kota","time":3,"i_lat":-6.137569,"i_long":106.812439,"station_id":"JAKK","is_transit":true,"line":2,"distance":1364,"transit":true},{"time":4,"station_id":"JAY","is_transit":false,"station_name":"Jayakarta","distance":1264,"transit":false,"i_lat":-6.141205,"line":2,"i_long":106.820901},{"transit":false,"i_long":106.82482,"time":2,"line":2,"i_lat":-6.149769,"station_name":"Manggabesar","distance":1080,"station_id":"MGB","is_transit":false},{"time":2,"transit":false,"i_lat":-6.160725,"line":2,"i_long":106.827103,"is_transit":false,"station_id":"SW","station_name":"Sawah Besar","distance":906},{"is_transit":false,"station_name":"Juanda","transit":false,"distance":1149,"i_lat":-6.166716,"station_id":"JUA","time":2,"i_long":106.828284,"line":2},{"line":2,"station_id":"GDD","i_long":106.832183,"i_lat":-6.186295,"distance":2015,"is_transit":false,"station_name":"Gondangdia","time":4,"transit":false},{"i_long":106.840169,"station_id":"CKI","transit":false,"distance":1750,"i_lat":-6.198556,"station_name":"Cikini","is_transit":false,"time":3,"line":2}],[{"distance":0,"station_id":"PSM","station_name":"Pasar Minggu","transit":false,"time":0,"i_lat":-6.2842400000000005,"is_transit":false,"i_long":106.843999,"line":2},{"station_id":"PSMB","time":2,"station_name":"Pasar Minggu Baru","is_transit":false,"distance":2380,"i_lat":-6.263214,"transit":false,"i_long":106.851577,"line":2},{"station_name":"Duren Kalibata","transit":false,"i_lat":-6.255332,"station_id":"DRN","line":2,"distance":824,"is_transit":false,"i_long":106.85449,"time":2},{"station_name":"Cawang","station_id":"CW","transit":false,"is_transit":false,"i_long":106.856607,"distance":1546,"i_lat":-6.242512,"line":2,"time":3},{"station_id":"TEB","is_transit":false,"i_long":106.857948,"transit":false,"time":2,"i_lat":-6.226659,"line":2,"station_name":"Tebet","distance":1230},{"i_long":106.84912,"is_transit":true,"i_lat":-6.209883,"line":2,"station_name":"Manggarai","distance":2610,"station_id":"MRI","time":4,"transit":true},{"station_id":"MTR","i_long":106.858896,"is_transit":false,"distance":1275,"i_lat":-6.212485,"time":2,"station_name":"Matraman","transit":false,"line":1},{"station_name":"Jatinegara","distance":1377,"station_id":"JNG","time":8,"transit":true,"line":1,"is_transit":true,"i_lat":-6.215091,"i_long":106.86807400000001},{"is_transit":false,"i_lat":-6.209188,"i_long":106.861737,"line":11,"transit":false,"station_id":"POK","station_name":"Pondok Jati","distance":1236,"time":2},{"station_id":"KMT","line":11,"time":2,"transit":false,"is_transit":false,"i_lat":-6.193792,"i_long":106.855437,"distance":1829,"station_name":"Kramat"},{"i_long":106.850107,"time":1,"line":11,"is_transit":false,"distance":973,"i_lat":-6.185975,"station_id":"GST","transit":false,"station_name":"Gang Sentiong"},{"station_name":"Pasar Senen","is_transit":false,"i_long":106.84368,"i_lat":-6.174784,"distance":1567,"station_id":"PSE","transit":false,"time":8,"line":11},{"station_name":"Kemayoran","i_lat":-6.161728,"i_long":106.839204,"station_id":"KMO","distance":1436,"transit":false,"is_transit":false,"time":4,"line":11},{"distance":1901,"station_name":"Rajawali","time":5,"is_transit":false,"station_id":"RJW","i_lat":-6.14505,"line":11,"transit":false,"i_long":106.836569},{"station_name":"Kampung Bandan","station_id":"KPB","transit":true,"i_long":106.826365,"distance":1444,"time":3,"i_lat":-6.132549,"line":4,"is_transit":true},{"time":3,"station_name":"Jakarta Kota","distance":1364,"line":2,"is_transit":true,"i_lat":-6.137569,"transit":true,"i_long":106.812439,"station_id":"JAKK"},{"distance":1264,"station_id":"JAY","transit":false,"time":4,"is_transit":false,"line":2,"i_long":106.820901,"i_lat":-6.141205,"station_name":"Jayakarta"},{"i_long":106.82482,"line":2,"station_id":"MGB","transit":false,"time":2,"station_name":"Manggabesar","i_lat":-6.149769,"distance":1080,"is_transit":false},{"line":2,"i_lat":-6.160725,"is_transit":false,"i_long":106.827103,"station_name":"Sawah Besar","distance":906,"station_id":"SW","transit":false,"time":2},{"line":2,"i_long":106.828284,"station_id":"JUA","time":2,"is_transit":false,"station_name":"Juanda","distance":1149,"i_lat":-6.166716,"transit":false},{"station_id":"GDD","transit":false,"time":4,"i_long":106.832183,"station_name":"Gondangdia","is_transit":false,"distance":2015,"i_lat":-6.186295,"line":2},{"i_long":106.840169,"is_transit":false,"station_id":"CKI","transit":false,"distance":1750,"i_lat":-6.198556,"line":2,"station_name":"Cikini","time":3}]]}