{"data":[[{"station_id":"PSM","distance":0,"i_lat":-6.2842400000000005,"i_long":106.843999,"station_name":"Pasar Minggu","is_transit":false,"transit":false,"time":0,"line":2},{"transit":false,"station_name":"Pasar Minggu Baru","line":2,"i_lat":-6.263214,"is_transit":false,"time":2,"station_id":"PSMB","distance":2380,"i_long":106.851577},{"station_id":"DRN","is_transit":false,"line":0,"station_name":"Duren Kalibata","time":2,"transit":false,"distance":824,"i_lat":-6.255332,"i_long":106.85449},{"distance":1546,"i_lat":-6.242512,"line":0,"time":3,"station_name":"Cawang","station_id":"CW","is_transit":false,"transit":false,"i_long":106.856607},{"i_lat":-6.226659,"station_name":"Tebet","i_long":106.857948,"transit":false,"distance":1230,"line":2,"is_transit":false,"station_id":"TEB","time":2},{"station_name":"Manggarai","station_id":"MRI","line":0,"distance":2610,"transit":true,"i_long":106.84912,"is_transit":true,"time":4,"i_lat":-6.209883},{"is_transit":false,"station_id":"MTR","transit":false,"time":2,"station_name":"Matraman","i_lat":-6.212485,"i_long":106.858896,"line":1,"distance":1275},{"i_long":106.86807400000001,"station_name":"Jatinegara","line":0,"i_lat":-6.215091,"time":8,"is_transit":true,"distance":1377,"station_id":"JNG","transit":false},{"transit":false,"i_long":106.899548,"is_transit":false,"line":1,"distance":3395,"time":3,"i_lat":-6.2135,"station_id":"KLD","station_name":"Klender"},{"line":0,"station_id":"BUA","distance":3100,"is_transit":false,"transit":false,"time":2,"i_long":106.922662,"i_lat":-6.215568,"station_name":"Buaran"},{"station_name":"Klenderbaru","line":1,"station_id":"KLDB","transit":false,"is_transit":false,"i_long":106.939679,"distance":1305,"time":1,"i_lat":-6.217455},{"time":8,"line":0,"distance":1385,"transit":false,"i_lat":-6.219053,"i_long":106.951283,"station_id":"CUK","station_name":"Cakung","is_transit":false},{"distance":3097,"transit":false,"i_lat":-6.224515,"station_id":"KRI","i_long":106.977657,"time":3,"station_name":"Kranji","line":1,"is_transit":false},{"is_transit":false,"transit":false,"time":4,"distance":2520,"i_lat":-6.236616,"station_name":"Bekasi","i_long":106.997013,"line":0,"station_id":"BKS"},{"is_transit":false,"transit":false,"station_id":"BKST","line":0,"i_lat":-6.248029,"station_name":"Bekasi Timur","i_long":107.016735,"distance":2368,"time":2},{"is_transit":false,"station_name":"Tambun","transit":false,"time":7,"i_lat":-6.258864,"station_id":"TB","distance":4460,"i_long":107.055722,"line":1},{"is_transit":false,"i_long":107.083084,"i_lat":-6.261877,"station_id":"CIT","time":3,"station_name":"Cibitung","line":0,"transit":false,"distance":3420},{"i_lat":-6.262938,"distance":2800,"station_id":"TLM","transit":false,"station_name":"Metland Telaga Murni","line":1,"is_transit":false,"i_long":107.093313,"time":2},{"is_transit":false,"station_name":"Cikarang","transit":false,"station_id":"CKR","i_long":107.144613,"line":0,"i_lat":-6.2553149999999995,"distance":3689,"time":4}],[{"i_lat":-6.2842400000000005,"distance":0,"line":2,"is_transit":false,"station_name":"Pasar Minggu","time":0,"i_long":106.843999,"station_id":"PSM","transit":false},{"station_name":"Pasar Minggu Baru","is_transit":false,"i_lat":-6.263214,"time":2,"transit":false,"line":2,"station_id":"PSMB","distance":2380,"i_long":106.851577},{"line":0,"station_id":"DRN","station_name":"Duren Kalibata","time":2,"distance":824,"i_lat":-6.255332,"is_transit":false,"i_long":106.85449,"transit":false},{"time":3,"station_id":"CW","i_lat":-6.242512,"i_long":106.856607,"line":0,"station_name":"Cawang","transit":false,"is_transit":false,"distance":1546},{"transit":false,"station_name":"Tebet","time":2,"distance":1230,"is_transit":false,"line":2,"i_long":106.857948,"station_id":"TEB","i_lat":-6.226659},{"time":4,"i_lat":-6.209883,"is_transit":true,"station_id":"MRI","i_long":106.84912,"distance":2610,"transit":true,"line":0,"station_name":"Manggarai"},{"time":4,"distance":3186,"i_lat":-6.202263,"line":1,"is_transit":false,"i_long":106.822649,"station_name":"Sudirman","transit":false,"station_id":"SUD"},{"i_long":106.819881,"is_transit":false,"distance":280,"time":1,"line":1,"station_id":"SUDB","station_name":"Sudirman Baru","transit":false,"i_lat":-6.201433},{"i_long":106.816351,"i_lat":-6.20132,"transit":false,"station_name":"Karet","is_transit":false,"time":1,"distance":471,"station_id":"KAT","line":1},{"i_long":106.811091,"transit":false,"station_id":"THB","time":5,"is_transit":true,"distance":2029,"line":1,"i_lat":-6.185545,"station_name":"Tanah Abang"},{"line":1,"distance":3632,"station_name":"Duri","is_transit":true,"transit":true,"time":8,"i_lat":-6.155215,"i_long":106.800832,"station_id":"DU"},{"i_long":106.79867,"transit":false,"is_transit":false,"line":0,"i_lat":-6.144674,"distance":1230,"station_id":"AK","time":4,"station_name":"Angke"},{"time":9,"station_name":"Kampung Bandan","is_transit":true,"distance":4102,"i_lat":-6.132549,"i_long":106.826365,"station_id":"KPB","transit":true,"line":0},{"transit":false,"line":11,"station_name":"Rajawali","time":3,"i_lat":-6.14505,"distance":1444,"is_transit":false,"i_long":106.836569,"station_id":"RJW"},{"station_name":"Kemayoran","line":11,"transit":false,"time":5,"i_lat":-6.161728,"station_id":"KMO","distance":1901,"is_transit":false,"i_long":106.839204},{"i_long":106.84368,"station_name":"Pasar Senen","transit":false,"distance":1436,"is_transit":false,"i_lat":-6.174784,"line":11,"station_id":"PSE","time":4},{"time":8,"i_long":106.850107,"line":11,"is_transit":false,"station_id":"GST","transit":false,"i_lat":-6.185975,"distance":1567,"station_name":"Gang Sentiong"},{"station_name":"Kramat","i_long":106.855437,"i_lat":-6.193792,"is_transit":false,"transit":false,"time":1,"station_id":"KMT","distance":973,"line":11},{"line":11,"station_name":"Pondok Jati","time":2,"i_long":106.861737,"station_id":"POK","distance":1829,"i_lat":-6.209188,"transit":false,"is_transit":false},{"transit":true,"i_long":106.86807400000001,"distance":1236,"station_id":"JNG","station_name":"Jatinegara","i_lat":-6.215091,"line":0,"time":9,"is_transit":true},{"distance":3395,"line":1,"time":3,"i_long":106.899548,"is_transit":false,"station_name":"Klender","transit":false,"station_id":"KLD","i_lat":-6.2135},{"station_id":"BUA","transit":false,"distance":3100,"is_transit":false,"time":2,"station_name":"Buaran","line":0,"i_lat":-6.215568,"i_long":106.922662},{"station_name":"Klenderbaru","distance":1305,"transit":false,"station_id":"KLDB","i_lat":-6.217455,"line":1,"is_transit":false,"time":1,"i_long":106.939679},{"transit":false,"is_transit":false,"station_name":"Cakung","i_lat":-6.219053,"line":0,"station_id":"CUK","time":8,"distance":1385,"i_long":106.951283},{"line":1,"time":3,"i_long":106.977657,"distance":3097,"is_transit":false,"station_name":"Kranji","station_id":"KRI","transit":false,"i_lat":-6.224515},{"time":4,"i_long":106.997013,"line":0,"transit":false,"i_lat":-6.236616,"is_transit":false,"distance":2520,"station_name":"Bekasi","station_id":"BKS"},{"i_lat":-6.248029,"station_id":"BKST","line":0,"station_name":"Bekasi Timur","is_transit":false,"transit":false,"distance":2368,"time":2,"i_long":107.016735},{"i_lat":-6.258864,"transit":false,"i_long":107.055722,"station_id":"TB","distance":4460,"time":7,"line":1,"station_name":"Tambun","is_transit":false},{"line":0,"distance":3420,"is_transit":false,"station_id":"CIT","transit":false,"time":3,"i_lat":-6.261877,"station_name":"Cibitung","i_long":107.083084},{"distance":2800,"i_long":107.093313,"i_lat":-6.262938,"station_id":"TLM","station_name":"Metland Telaga Murni","transit":false,"line":1,"time":2,"is_transit":false},{"i_long":107.144613,"line":0,"is_transit":false,"i_lat":-6.2553149999999995,"transit":false,"time":4,"distance":3689,"station_id":"CKR","station_name":"Cikarang"}],[{"transit":false,"i_lat":-6.2842400000000005,"is_transit":false,"i_long":106.843999,"line":2,"distance":0,"station_name":"Pasar Minggu","station_id":"PSM","time":0},{"is_transit":false,"time":2,"line":2,"distance":2380,"station_id":"PSMB","transit":false,"i_lat":-6.263214,"i_long":106.851577,"station_name":"Pasar Minggu Baru"},{"is_transit":false,"i_long":106.85449,"station_name":"Duren Kalibata","transit":false,"time":2,"line":0,"distance":824,"station_id":"DRN","i_lat":-6.255332},{"station_name":"Cawang","is_transit":false,"distance":1546,"station_id":"CW","transit":false,"time":3,"i_lat":-6.242512,"i_long":106.856607,"line":0},{"line":2,"i_lat":-6.226659,"is_transit":false,"time":2,"i_long":106.857948,"distance":1230,"transit":false,"station_id":"TEB","station_name":"Tebet"},{"station_name":"Manggarai","line":0,"transit":true,"is_transit":true,"distance":2610,"station_id":"MRI","i_lat":-6.209883,"time":4,"i_long":106.84912},{"transit":false,"is_transit":false,"station_id":"CKI","time":4,"line":0,"distance":1590,"station_name":"Cikini","i_lat":-6.198556,"i_long":106.840169},{"station_id":"GDD","line":2,"transit":false,"time":3,"i_lat":-6.186295,"station_name":"Gondangdia","i_long":106.832183,"is_transit":false,"distance":1750},{"i_long":106.828284,"line":2,"transit":false,"station_id":"JUA","is_transit":false,"distance":2015,"time":4,"i_lat":-6.166716,"station_name":"Juanda"},{"is_transit":false,"i_lat":-6.160725,"distance":1149,"station_id":"SW","i_long":106.827103,"time":2,"station_name":"Sawah Besar","transit":false,"line":2},{"i_lat":-6.149769,"distance":906,"time":2,"station_name":"Manggabesar","station_id":"MGB","transit":false,"i_long":106.82482,"line":2,"is_transit":false},{"time":2,"distance":1080,"is_transit":false,"transit":false,"station_name":"Jayakarta","i_lat":-6.141205,"i_long":106.820901,"station_id":"JAY","line":7},{"station_id":"JAKK","station_name":"Jakarta Kota","line":0,"i_long":106.812439,"distance":1264,"transit":true,"is_transit":true,"time":4,"i_lat":-6.137569},{"line":0,"station_id":"KPB","station_name":"Kampung Bandan","distance":1364,"i_long":106.826365,"transit":true,"i_lat":-6.132549,"is_transit":true,"time":3},{"station_id":"RJW","is_transit":false,"station_name":"Rajawali","time":3,"i_long":106.836569,"line":11,"transit":false,"distance":1444,"i_lat":-6.14505},{"i_lat":-6.161728,"i_long":106.839204,"station_id":"KMO","distance":1901,"station_name":"Kemayoran","time":5,"line":11,"is_transit":false,"transit":false},{"i_lat":-6.174784,"distance":1436,"station_id":"PSE","time":4,"i_long":106.84368,"station_name":"Pasar Senen","transit":false,"line":11,"is_transit":false},{"time":8,"i_lat":-6.185975,"station_id":"GST","station_name":"Gang Sentiong","distance":1567,"i_long":106.850107,"transit":false,"line":11,"is_transit":false},{"transit":false,"station_name":"Kramat","i_long":106.855437,"time":1,"is_transit":false,"line":11,"distance":973,"i_lat":-6.193792,"station_id":"KMT"},{"station_name":"Pondok Jati","transit":false,"i_long":106.861737,"distance":1829,"is_transit":false,"station_id":"POK","time":2,"line":11,"i_lat":-6.209188},{"station_name":"Jatinegara","i_lat":-6.215091,"time":9,"is_transit":true,"distance":1236,"station_id":"JNG","i_long":106.86807400000001,"line":0,"transit":true},{"station_name":"Klender","i_long":106.899548,"i_lat":-6.2135,"transit":false,"line":1,"is_transit":false,"distance":3395,"station_id":"KLD","time":3},{"transit":false,"i_lat":-6.215568,"time":2,"is_transit":false,"station_name":"Buaran","line":0,"distance":3100,"i_long":106.922662,"station_id":"BUA"},{"time":1,"station_name":"Klenderbaru","line":1,"station_id":"KLDB","transit":false,"i_lat":-6.217455,"i_long":106.939679,"is_transit":false,"distance":1305},{"i_long":106.951283,"station_name":"Cakung","time":8,"transit":false,"station_id":"CUK","i_lat":-6.219053,"line":0,"distance":1385,"is_transit":false},{"i_lat":-6.224515,"line":1,"distance":3097,"time":3,"transit":false,"is_transit":false,"station_name":"Kranji","i_long":106.977657,"station_id":"KRI"},{"transit":false,"i_long":106.997013,"station_id":"BKS","station_name":"Bekasi","distance":2520,"line":0,"i_lat":-6.236616,"is_transit":false,"time":4},{"i_long":107.016735,"line":0,"time":2,"distance":2368,"is_transit":false,"station_id":"BKST","station_name":"Bekasi Timur","i_lat":-6.248029,"transit":false},{"station_name":"Tambun","station_id":"TB","distance":4460,"transit":false,"time":7,"line":1,"i_lat":-6.258864,"i_long":107.055722,"is_transit":false},{"station_id":"CIT","is_transit":false,"distance":3420,"station_name":"Cibitung","i_long":107.083084,"time":3,"transit":false,"i_lat":-6.261877,"line":0},{"line":1,"time":2,"is_transit":false,"distance":2800,"station_id":"TLM","station_name":"Metland Telaga Murni","i_lat":-6.262938,"transit":false,"i_long":107.093313},{"is_transit":false,"distance":3689,"transit":false,"line":0,"station_id":"CKR","i_long":107.144613,"i_lat":-6.2553149999999995,"station_name":"Cikarang","time":4}]]}