{"data":[[{"transit":false,"distance":0,"is_transit":false,"station_id":"PSM","i_long":106.843999,"line":2,"station_name":"Pasar Minggu","time":0,"i_lat":-6.2842400000000005},{"i_long":106.851577,"is_transit":false,"station_id":"PSMB","transit":false,"line":2,"time":2,"i_lat":-6.263214,"distance":2380,"station_name":"Pasar Minggu Baru"},{"line":2,"i_lat":-6.255332,"i_long":106.85449,"time":2,"station_id":"DRN","is_transit":false,"distance":824,"transit":false,"station_name":"Duren Kalibata"},{"station_id":"CW","station_name":"Cawang","i_lat":-6.242512,"is_transit":false,"i_long":106.856607,"distance":1546,"line":2,"transit":false,"time":3},{"station_name":"Tebet","station_id":"TEB","i_lat":-6.226659,"distance":1230,"time":2,"is_transit":false,"line":2,"transit":false,"i_long":106.857948},{"i_long":106.84912,"i_lat":-6.209883,"distance":2610,"station_name":"Manggarai","transit":false,"time":4,"is_transit":false,"line":2,"station_id":"MRI"},{"i_long":106.840169,"station_id":"CKI","transit":false,"is_transit":false,"time":4,"station_name":"Cikini","i_lat":-6.198556,"distance":1590,"line":2},{"distance":1750,"i_long":106.832183,"line":2,"station_name":"Gondangdia","is_transit":false,"time":3,"i_lat":-6.186295,"station_id":"GDD","transit":false},{"i_long":106.828284,"i_lat":-6.166716,"station_id":"JUA","line":2,"transit":false,"station_name":"Juanda","distance":2015,"is_transit":false,"time":4},{"is_transit":false,"time":2,"line":2,"distance":1149,"i_lat":-6.160725,"transit":false,"i_long":106.827103,"station_name":"Sawah Besar","station_id":"SW"},{"station_name":"Manggabesar","is_transit":false,"line":2,"transit":false,"distance":906,"time":2,"i_lat":-6.149769,"i_long":106.82482,"station_id":"MGB"}],[{"station_name":"Pasar Minggu","line":2,"time":0,"i_long":106.843999,"station_id":"PSM","distance":0,"is_transit":false,"transit":false,"i_lat":-6.2842400000000005},{"transit":false,"station_id":"PSMB","i_long":106.851577,"station_name":"Pasar Minggu Baru","distance":2380,"is_transit":false,"time":2,"i_lat":-6.263214,"line":2},{"station_name":"Duren Kalibata","time":2,"i_long":106.85449,"i_lat":-6.255332,"line":2,"transit":false,"distance":824,"is_transit":false,"station_id":"DRN"},{"station_id":"CW","i_lat":-6.242512,"distance":1546,"time":3,"is_transit":false,"transit":false,"i_long":106.856607,"station_name":"Cawang","line":2},{"line":2,"distance":1230,"is_transit":false,"transit":false,"station_name":"Tebet","i_lat":-6.226659,"time":2,"i_long":106.857948,"station_id":"TEB"},{"time":4,"is_transit":true,"i_long":106.84912,"line":2,"distance":2610,"station_id":"MRI","transit":true,"i_lat":-6.209883,"station_name":"Manggarai"},{"i_lat":-6.202263,"time":4,"is_transit":false,"station_name":"Sudirman","transit":false,"distance":3186,"line":1,"station_id":"SUD","i_long":106.822649},{"transit":false,"i_lat":-6.201433,"is_transit":false,"distance":280,"station_name":"Sudirman Baru","station_id":"SUDB","i_long":106.819881,"time":1,"line":1},{"transit":false,"i_lat":-6.20132,"station_id":"KAT","station_name":"Karet","is_transit":false,"distance":471,"time":1,"line":1,"i_long":106.816351},{"i_lat":-6.185545,"is_transit":false,"distance":2029,"station_name":"Tanah Abang","station_id":"THB","transit":false,"line":1,"i_long":106.811091,"time":5},{"station_name":"Duri","i_lat":-6.155215,"transit":false,"distance":3632,"is_transit":false,"i_long":106.800832,"station_id":"DU","line":1,"time":8},{"line":1,"distance":1230,"i_long":106.79867,"station_id":"AK","transit":false,"station_name":"Angke","is_transit":false,"time":4,"i_lat":-6.144674},{"line":4,"i_long":106.826365,"transit":true,"station_id":"KPB","distance":4102,"station_name":"Kampung Bandan","time":9,"is_transit":true,"i_lat":-6.132549},{"distance":1364,"time":3,"transit":true,"station_name":"Jakarta Kota","i_lat":-6.137569,"is_transit":true,"line":2,"station_id":"JAKK","i_long":106.812439},{"distance":1264,"station_name":"Jayakarta","i_lat":-6.141205,"is_transit":false,"station_id":"JAY","time":4,"transit":false,"i_long":106.820901,"line":2},{"station_name":"Manggabesar","is_transit":false,"station_id":"MGB","transit":false,"i_long":106.82482,"line":2,"distance":1080,"i_lat":-6.149769,"time":2}],[{"transit":false,"is_transit":false,"line":2,"i_long":106.843999,"distance":0,"time":0,"station_id":"PSM","station_name":"Pasar Minggu","i_lat":-6.2842400000000005},{"station_name":"Pasar Minggu Baru","is_transit":false,"station_id":"PSMB","line":2,"time":2,"transit":false,"i_lat":-6.263214,"i_long":106.851577,"distance":2380},{"i_long":106.85449,"i_lat":-6.255332,"is_transit":false,"distance":824,"station_name":"Duren Kalibata","station_id":"DRN","transit":false,"line":2,"time":2},{"station_id":"CW","station_name":"Cawang","i_long":106.856607,"is_transit":false,"transit":false,"line":2,"distance":1546,"i_lat":-6.242512,"time":3},{"i_long":106.857948,"is_transit":false,"station_name":"Tebet","distance":1230,"transit":false,"station_id":"TEB","line":2,"time":2,"i_lat":-6.226659},{"time":4,"is_transit":true,"transit":true,"i_long":106.84912,"distance":2610,"station_id":"MRI","station_name":"Manggarai","i_lat":-6.209883,"line":2},{"line":1,"i_long":106.858896,"is_transit":false,"station_name":"Matraman","distance":1275,"station_id":"MTR","transit":false,"time":2,"i_lat":-6.212485},{"is_transit":true,"transit":true,"i_long":106.86807400000001,"time":8,"i_lat":-6.215091,"line":1,"station_name":"Jatinegara","station_id":"JNG","distance":1377},{"line":11,"transit":false,"station_id":"POK","i_long":106.861737,"distance":1236,"time":2,"i_lat":-6.209188,"is_transit":false,"station_name":"Pondok Jati"},{"is_transit":false,"line":11,"i_lat":-6.193792,"i_long":106.855437,"station_name":"Kramat","distance":1829,"transit":false,"time":2,"station_id":"KMT"},{"station_id":"GST","time":1,"station_name":"Gang Sentiong","distance":973,"i_lat":-6.185975,"is_transit":false,"transit":false,"i_long":106.850107,"line":11},{"time":8,"station_id":"PSE","i_long":106.84368,"is_transit":false,"distance":1567,"station_name":"Pasar Senen","transit":false,"i_lat":-6.174784,"line":11},{"station_name":"Kemayoran","station_id":"KMO","transit":false,"i_lat":-6.161728,"i_long":106.839204,"distance":1436,"is_transit":false,"time":4,"line":11},{"is_transit":false,"distance":1901,"transit":false,"station_id":"RJW","i_lat":-6.14505,"station_name":"Rajawali","time":5,"i_long":106.836569,"line":11},{"i_long":106.826365,"line":4,"station_name":"Kampung Bandan","distance":1444,"is_transit":true,"time":3,"station_id":"KPB","transit":true,"i_lat":-6.132549},{"i_lat":-6.137569,"time":3,"transit":true,"is_transit":true,"i_long":106.812439,"line":2,"station_id":"JAKK","station_name":"Jakarta Kota","distance":1364},{"station_id":"JAY","distance":1264,"transit":false,"line":2,"i_lat":-6.141205,"is_transit":false,"station_name":"Jayakarta","time":4,"i_long":106.820901},{"i_lat":-6.149769,"time":2,"station_name":"Manggabesar","line":2,"i_long":106.82482,"transit":false,"distance":1080,"is_transit":false,"station_id":"MGB"}]]}