{"data":[[{"station_name":"Pasar Minggu","station_id":"PSM","transit":false,"i_long":106.843999,"time":0,"i_lat":-6.2842400000000005,"distance":0,"is_transit":false,"line":2},{"time":2,"is_transit":false,"transit":false,"station_id":"PSMB","station_name":"Pasar Minggu Baru","i_lat":-6.263214,"distance":2380,"i_long":106.851577,"line":2},{"i_lat":-6.255332,"i_long":106.85449,"station_name":"Duren Kalibata","distance":824,"station_id":"DRN","time":2,"transit":false,"is_transit":false,"line":0},{"i_lat":-6.242512,"distance":1546,"line":0,"station_name":"Cawang","i_long":106.856607,"station_id":"CW","transit":false,"is_transit":false,"time":3},{"transit":false,"time":2,"i_long":106.857948,"distance":1230,"is_transit":false,"i_lat":-6.226659,"line":2,"station_name":"Tebet","station_id":"TEB"},{"i_long":106.84912,"station_name":"Manggarai","is_transit":true,"line":0,"i_lat":-6.209883,"transit":true,"distance":2610,"station_id":"MRI","time":4},{"distance":3186,"line":1,"i_lat":-6.202263,"time":4,"transit":false,"i_long":106.822649,"station_id":"SUD","is_transit":false,"station_name":"Sudirman"},{"transit":false,"i_lat":-6.201433,"distance":280,"i_long":106.819881,"is_transit":false,"time":1,"station_name":"Sudirman Baru","station_id":"SUDB","line":1},{"station_name":"Karet","i_lat":-6.20132,"transit":false,"i_long":106.816351,"station_id":"KAT","time":1,"is_transit":false,"distance":471,"line":1},{"transit":true,"is_transit":true,"time":5,"i_long":106.811091,"station_id":"THB","i_lat":-6.185545,"line":1,"station_name":"Tanah Abang","distance":2029},{"distance":3191,"station_id":"PLM","transit":false,"station_name":"Palmerah","i_lat":-6.207404,"i_long":106.79689,"time":6,"is_transit":false,"line":6},{"is_transit":false,"line":6,"i_lat":-6.237242,"time":7,"transit":false,"station_id":"KBY","station_name":"Kebayoran","distance":3737,"i_long":106.780334},{"i_long":106.74273,"is_transit":false,"station_id":"PDJ","distance":6218,"transit":false,"time":8,"station_name":"Pondokranji","i_lat":-6.276362,"line":6},{"i_lat":-6.288927,"time":3,"distance":2179,"station_id":"JMU","line":6,"transit":false,"i_long":106.728916,"is_transit":false,"station_name":"Jurangmangu"},{"i_lat":-6.296963,"i_long":106.712277,"line":6,"time":4,"station_name":"Sudimara","is_transit":false,"distance":1994,"station_id":"SDM","transit":false},{"i_lat":-6.314823,"line":6,"is_transit":false,"station_id":"RU","station_name":"Rawa Buntu","i_long":106.675475,"distance":4566,"transit":false,"time":6},{"station_name":"Serpong","distance":2413,"transit":false,"i_long":106.66566,"i_lat":-6.319871,"line":6,"time":4,"station_id":"SRP","is_transit":false},{"distance":1784,"line":0,"is_transit":false,"time":4,"station_id":"CSK","station_name":"Cisauk","i_lat":-6.32484,"transit":false,"i_long":106.640411},{"i_long":106.617853,"is_transit":false,"distance":2519,"station_name":"Cicayur","line":0,"i_lat":-6.329547,"time":4,"station_id":"CC","transit":false},{"station_id":"PRP","station_name":"Parung Panjang","line":6,"is_transit":false,"i_long":106.568863,"distance":5968,"time":8,"transit":false,"i_lat":-6.3441410000000005},{"transit":false,"is_transit":false,"time":9,"station_name":"Cilejit","i_lat":-6.354349,"i_long":106.508482,"station_id":"CJT","distance":7025,"line":0},{"transit":false,"time":6,"distance":2675,"station_id":"DAR","station_name":"Daru","i_lat":-6.338021,"is_transit":false,"i_long":106.491338,"line":0}],[{"is_transit":false,"time":0,"line":2,"transit":false,"i_lat":-6.2842400000000005,"distance":0,"station_name":"Pasar Minggu","station_id":"PSM","i_long":106.843999},{"i_lat":-6.263214,"i_long":106.851577,"station_name":"Pasar Minggu Baru","time":2,"transit":false,"is_transit":false,"distance":2380,"line":2,"station_id":"PSMB"},{"i_lat":-6.255332,"distance":824,"station_id":"DRN","station_name":"Duren Kalibata","time":2,"is_transit":false,"line":0,"transit":false,"i_long":106.85449},{"transit":false,"station_id":"CW","line":0,"i_long":106.856607,"time":3,"is_transit":false,"station_name":"Cawang","i_lat":-6.242512,"distance":1546},{"line":2,"station_id":"TEB","transit":false,"is_transit":false,"i_lat":-6.226659,"station_name":"Tebet","time":2,"i_long":106.857948,"distance":1230},{"time":4,"i_lat":-6.209883,"line":0,"station_id":"MRI","distance":2610,"is_transit":true,"station_name":"Manggarai","transit":true,"i_long":106.84912},{"distance":1590,"i_lat":-6.198556,"station_name":"Cikini","transit":false,"time":4,"station_id":"CKI","i_long":106.840169,"is_transit":false,"line":0},{"distance":1750,"station_id":"GDD","station_name":"Gondangdia","time":3,"transit":false,"i_lat":-6.186295,"line":2,"is_transit":false,"i_long":106.832183},{"distance":2015,"i_lat":-6.166716,"station_name":"Juanda","station_id":"JUA","transit":false,"time":4,"line":2,"i_long":106.828284,"is_transit":false},{"transit":false,"i_long":106.827103,"distance":1149,"is_transit":false,"i_lat":-6.160725,"station_id":"SW","line":2,"time":2,"station_name":"Sawah Besar"},{"distance":906,"is_transit":false,"transit":false,"time":2,"line":2,"station_name":"Manggabesar","station_id":"MGB","i_lat":-6.149769,"i_long":106.82482},{"transit":false,"is_transit":false,"station_id":"JAY","i_long":106.820901,"line":7,"time":2,"distance":1080,"i_lat":-6.141205,"station_name":"Jayakarta"},{"i_lat":-6.137569,"i_long":106.812439,"distance":1264,"line":0,"station_id":"JAKK","is_transit":true,"station_name":"Jakarta Kota","transit":true,"time":4},{"distance":1364,"station_id":"KPB","line":0,"time":3,"is_transit":true,"transit":false,"i_lat":-6.132549,"i_long":106.826365,"station_name":"Kampung Bandan"},{"time":9,"line":0,"i_lat":-6.144674,"i_long":106.79867,"is_transit":false,"transit":false,"station_name":"Angke","distance":4102,"station_id":"AK"},{"station_name":"Duri","is_transit":true,"i_long":106.800832,"station_id":"DU","line":1,"i_lat":-6.155215,"transit":true,"time":4,"distance":1230},{"transit":true,"is_transit":true,"station_id":"THB","station_name":"Tanah Abang","i_long":106.811091,"line":1,"time":8,"i_lat":-6.185545,"distance":3632},{"i_lat":-6.207404,"transit":false,"i_long":106.79689,"line":6,"station_id":"PLM","is_transit":false,"distance":3191,"station_name":"Palmerah","time":6},{"time":7,"i_long":106.780334,"i_lat":-6.237242,"transit":false,"distance":3737,"is_transit":false,"station_id":"KBY","station_name":"Kebayoran","line":6},{"is_transit":false,"transit":false,"station_name":"Pondokranji","distance":6218,"station_id":"PDJ","i_lat":-6.276362,"line":6,"time":8,"i_long":106.74273},{"i_long":106.728916,"distance":2179,"line":6,"station_id":"JMU","station_name":"Jurangmangu","time":3,"is_transit":false,"transit":false,"i_lat":-6.288927},{"i_lat":-6.296963,"time":4,"is_transit":false,"transit":false,"i_long":106.712277,"station_id":"SDM","line":6,"station_name":"Sudimara","distance":1994},{"station_id":"RU","i_long":106.675475,"transit":false,"time":6,"i_lat":-6.314823,"distance":4566,"station_name":"Rawa Buntu","line":6,"is_transit":false},{"line":6,"station_id":"SRP","is_transit":false,"distance":2413,"time":4,"i_lat":-6.319871,"transit":false,"station_name":"Serpong","i_long":106.66566},{"i_long":106.640411,"transit":false,"time":4,"station_name":"Cisauk","distance":1784,"is_transit":false,"station_id":"CSK","line":0,"i_lat":-6.32484},{"is_transit":false,"line":0,"transit":false,"distance":2519,"time":4,"station_name":"Cicayur","station_id":"CC","i_lat":-6.329547,"i_long":106.617853},{"transit":false,"station_id":"PRP","line":6,"i_lat":-6.3441410000000005,"is_transit":false,"distance":5968,"time":8,"station_name":"Parung Panjang","i_long":106.568863},{"station_id":"CJT","time":9,"i_lat":-6.354349,"distance":7025,"transit":false,"i_long":106.508482,"is_transit":false,"line":0,"station_name":"Cilejit"},{"station_id":"DAR","i_lat":-6.338021,"i_long":106.491338,"is_transit":false,"station_name":"Daru","distance":2675,"time":6,"line":0,"transit":false}],[{"transit":false,"i_lat":-6.2842400000000005,"i_long":106.843999,"is_transit":false,"distance":0,"station_name":"Pasar Minggu","time":0,"line":2,"station_id":"PSM"},{"station_name":"Pasar Minggu Baru","station_id":"PSMB","is_transit":false,"i_lat":-6.263214,"line":2,"distance":2380,"time":2,"transit":false,"i_long":106.851577},{"i_lat":-6.255332,"is_transit":false,"station_id":"DRN","time":2,"distance":824,"i_long":106.85449,"transit":false,"station_name":"Duren Kalibata","line":0},{"is_transit":false,"line":0,"transit":false,"time":3,"station_name":"Cawang","station_id":"CW","distance":1546,"i_long":106.856607,"i_lat":-6.242512},{"station_name":"Tebet","i_lat":-6.226659,"is_transit":false,"time":2,"line":2,"i_long":106.857948,"transit":false,"distance":1230,"station_id":"TEB"},{"line":0,"i_long":106.84912,"is_transit":true,"transit":true,"station_id":"MRI","time":4,"i_lat":-6.209883,"distance":2610,"station_name":"Manggarai"},{"i_lat":-6.212485,"station_name":"Matraman","time":2,"is_transit":false,"i_long":106.858896,"transit":false,"distance":1275,"station_id":"MTR","line":1},{"station_id":"JNG","i_long":106.86807400000001,"line":0,"transit":true,"is_transit":true,"time":8,"distance":1377,"station_name":"Jatinegara","i_lat":-6.215091},{"distance":1236,"line":11,"time":2,"i_long":106.861737,"is_transit":false,"i_lat":-6.209188,"station_id":"POK","transit":false,"station_name":"Pondok Jati"},{"station_name":"Kramat","distance":1829,"is_transit":false,"station_id":"KMT","transit":false,"time":2,"i_lat":-6.193792,"line":11,"i_long":106.855437},{"transit":false,"i_long":106.850107,"station_name":"Gang Sentiong","line":11,"is_transit":false,"distance":973,"station_id":"GST","time":1,"i_lat":-6.185975},{"transit":false,"is_transit":false,"time":8,"i_lat":-6.174784,"station_id":"PSE","distance":1567,"i_long":106.84368,"line":11,"station_name":"Pasar Senen"},{"time":4,"station_name":"Kemayoran","is_transit":false,"i_long":106.839204,"station_id":"KMO","line":11,"transit":false,"i_lat":-6.161728,"distance":1436},{"i_lat":-6.14505,"distance":1901,"line":11,"transit":false,"time":5,"station_name":"Rajawali","i_long":106.836569,"station_id":"RJW","is_transit":false},{"station_id":"KPB","i_lat":-6.132549,"i_long":106.826365,"time":3,"line":0,"distance":1444,"is_transit":true,"transit":true,"station_name":"Kampung Bandan"},{"station_id":"AK","i_lat":-6.144674,"i_long":106.79867,"distance":4102,"is_transit":false,"station_name":"Angke","time":9,"transit":false,"line":0},{"station_id":"DU","i_lat":-6.155215,"is_transit":true,"line":1,"i_long":106.800832,"distance":1230,"station_name":"Duri","transit":true,"time":4},{"is_transit":true,"station_id":"THB","transit":true,"distance":3632,"time":8,"i_lat":-6.185545,"i_long":106.811091,"station_name":"Tanah Abang","line":1},{"transit":false,"station_id":"PLM","station_name":"Palmerah","is_transit":false,"time":6,"i_lat":-6.207404,"line":6,"distance":3191,"i_long":106.79689},{"transit":false,"station_name":"Kebayoran","distance":3737,"station_id":"KBY","is_transit":false,"line":6,"i_lat":-6.237242,"time":7,"i_long":106.780334},{"station_id":"PDJ","i_lat":-6.276362,"station_name":"Pondokranji","transit":false,"is_transit":false,"distance":6218,"time":8,"i_long":106.74273,"line":6},{"station_name":"Jurangmangu","line":6,"time":3,"distance":2179,"i_lat":-6.288927,"i_long":106.728916,"transit":false,"station_id":"JMU","is_transit":false},{"time":4,"line":6,"i_lat":-6.296963,"i_long":106.712277,"distance":1994,"is_transit":false,"station_id":"SDM","transit":false,"station_name":"Sudimara"},{"is_transit":false,"time":6,"station_name":"Rawa Buntu","transit":false,"i_lat":-6.314823,"i_long":106.675475,"distance":4566,"line":6,"station_id":"RU"},{"is_transit":false,"station_name":"Serpong","transit":false,"i_lat":-6.319871,"line":6,"distance":2413,"time":4,"station_id":"SRP","i_long":106.66566},{"time":4,"is_transit":false,"i_lat":-6.32484,"transit":false,"station_name":"Cisauk","i_long":106.640411,"line":0,"distance":1784,"station_id":"CSK"},{"time":4,"is_transit":false,"station_id":"CC","station_name":"Cicayur","transit":false,"i_lat":-6.329547,"i_long":106.617853,"distance":2519,"line":0},{"i_long":106.568863,"line":6,"distance":5968,"time":8,"is_transit":false,"station_id":"PRP","station_name":"Parung Panjang","transit":false,"i_lat":-6.3441410000000005},{"i_long":106.508482,"line":0,"distance":7025,"transit":false,"station_name":"Cilejit","time":9,"i_lat":-6.354349,"is_transit":false,"station_id":"CJT"},{"distance":2675,"i_long":106.491338,"line":0,"i_lat":-6.338021,"is_transit":false,"station_id":"DAR","station_name":"Daru","transit":false,"time":6}]]}