{"data":[[{"distance":0,"station_id":"PSM","time":0,"transit":false,"i_long":106.843999,"line":2,"station_name":"Pasar Minggu","i_lat":-6.2842400000000005,"is_transit":false},{"i_lat":-6.263214,"station_name":"Pasar Minggu Baru","transit":false,"line":2,"station_id":"PSMB","time":2,"distance":2380,"is_transit":false,"i_long":106.851577},{"i_long":106.85449,"transit":false,"i_lat":-6.255332,"line":2,"is_transit":false,"station_name":"Duren Kalibata","distance":824,"station_id":"DRN","time":2},{"time":3,"i_lat":-6.242512,"station_id":"CW","station_name":"Cawang","transit":false,"is_transit":false,"distance":1546,"i_long":106.856607,"line":2},{"is_transit":false,"station_id":"TEB","line":2,"i_lat":-6.226659,"i_long":106.857948,"distance":1230,"station_name":"Tebet","transit":false,"time":2},{"distance":2610,"station_id":"MRI","station_name":"Manggarai","is_transit":true,"transit":true,"i_long":106.84912,"i_lat":-6.209883,"line":2,"time":4},{"station_id":"SUD","line":1,"station_name":"Sudirman","i_lat":-6.202263,"distance":3186,"is_transit":false,"i_long":106.822649,"transit":false,"time":4},{"is_transit":false,"station_name":"Sudirman Baru","distance":280,"i_long":106.819881,"time":1,"station_id":"SUDB","i_lat":-6.201433,"transit":false,"line":1},{"distance":471,"time":1,"i_lat":-6.20132,"i_long":106.816351,"station_name":"Karet","station_id":"KAT","is_transit":false,"transit":false,"line":1},{"time":5,"i_lat":-6.185545,"is_transit":false,"transit":false,"line":1,"station_id":"THB","distance":2029,"station_name":"Tanah Abang","i_long":106.811091},{"time":8,"transit":false,"i_lat":-6.155215,"distance":3632,"i_long":106.800832,"station_name":"Duri","is_transit":false,"station_id":"DU","line":1},{"station_id":"AK","distance":1230,"station_name":"Angke","is_transit":false,"transit":false,"time":4,"i_long":106.79867,"line":1,"i_lat":-6.144674}],[{"time":0,"station_id":"PSM","station_name":"Pasar Minggu","i_lat":-6.2842400000000005,"transit":false,"distance":0,"line":2,"is_transit":false,"i_long":106.843999},{"station_id":"PSMB","time":2,"transit":false,"station_name":"Pasar Minggu Baru","i_lat":-6.263214,"i_long":106.851577,"is_transit":false,"line":2,"distance":2380},{"i_lat":-6.255332,"time":2,"i_long":106.85449,"distance":824,"transit":false,"line":2,"is_transit":false,"station_id":"DRN","station_name":"Duren Kalibata"},{"is_transit":false,"time":3,"i_long":106.856607,"distance":1546,"i_lat":-6.242512,"station_name":"Cawang","station_id":"CW","transit":false,"line":2},{"station_name":"Tebet","i_long":106.857948,"line":2,"time":2,"distance":1230,"station_id":"TEB","is_transit":false,"i_lat":-6.226659,"transit":false},{"station_name":"Manggarai","transit":false,"is_transit":false,"distance":2610,"i_lat":-6.209883,"i_long":106.84912,"time":4,"station_id":"MRI","line":2},{"line":2,"time":4,"i_lat":-6.198556,"distance":1590,"transit":false,"station_name":"Cikini","station_id":"CKI","i_long":106.840169,"is_transit":false},{"station_id":"GDD","station_name":"Gondangdia","transit":false,"i_lat":-6.186295,"line":2,"i_long":106.832183,"distance":1750,"is_transit":false,"time":3},{"distance":2015,"i_long":106.828284,"is_transit":false,"time":4,"station_id":"JUA","station_name":"Juanda","transit":false,"i_lat":-6.166716,"line":2},{"line":2,"distance":1149,"transit":false,"station_id":"SW","station_name":"Sawah Besar","time":2,"is_transit":false,"i_lat":-6.160725,"i_long":106.827103},{"i_lat":-6.149769,"station_id":"MGB","i_long":106.82482,"time":2,"distance":906,"station_name":"Manggabesar","is_transit":false,"transit":false,"line":2},{"is_transit":false,"distance":1080,"line":2,"time":2,"station_id":"JAY","station_name":"Jayakarta","i_long":106.820901,"transit":false,"i_lat":-6.141205},{"station_id":"JAKK","distance":1264,"line":2,"station_name":"Jakarta Kota","i_lat":-6.137569,"time":4,"transit":true,"i_long":106.812439,"is_transit":true},{"distance":1364,"station_id":"KPB","station_name":"Kampung Bandan","line":4,"i_long":106.826365,"is_transit":true,"transit":true,"i_lat":-6.132549,"time":3},{"i_long":106.79867,"station_name":"Angke","distance":4102,"transit":false,"line":1,"time":9,"station_id":"AK","i_lat":-6.144674,"is_transit":false}],[{"station_name":"Pasar Minggu","transit":false,"time":0,"station_id":"PSM","distance":0,"i_long":106.843999,"line":2,"i_lat":-6.2842400000000005,"is_transit":false},{"i_lat":-6.263214,"line":2,"distance":2380,"is_transit":false,"transit":false,"i_long":106.851577,"time":2,"station_name":"Pasar Minggu Baru","station_id":"PSMB"},{"station_id":"DRN","i_long":106.85449,"line":2,"transit":false,"i_lat":-6.255332,"distance":824,"time":2,"is_transit":false,"station_name":"Duren Kalibata"},{"is_transit":false,"transit":false,"i_lat":-6.242512,"time":3,"distance":1546,"station_name":"Cawang","station_id":"CW","i_long":106.856607,"line":2},{"line":2,"time":2,"station_name":"Tebet","i_lat":-6.226659,"station_id":"TEB","i_long":106.857948,"distance":1230,"transit":false,"is_transit":false},{"is_transit":true,"distance":2610,"i_long":106.84912,"line":2,"transit":true,"time":4,"station_id":"MRI","station_name":"Manggarai","i_lat":-6.209883},{"distance":1275,"is_transit":false,"station_name":"Matraman","time":2,"transit":false,"i_lat":-6.212485,"line":1,"station_id":"MTR","i_long":106.858896},{"time":8,"station_name":"Jatinegara","i_long":106.86807400000001,"i_lat":-6.215091,"line":1,"distance":1377,"transit":true,"is_transit":true,"station_id":"JNG"},{"line":11,"is_transit":false,"time":2,"distance":1236,"i_lat":-6.209188,"i_long":106.861737,"station_name":"Pondok Jati","station_id":"POK","transit":false},{"time":2,"is_transit":false,"i_long":106.855437,"station_name":"Kramat","station_id":"KMT","transit":false,"line":11,"i_lat":-6.193792,"distance":1829},{"station_name":"Gang Sentiong","distance":973,"time":1,"station_id":"GST","is_transit":false,"transit":false,"i_lat":-6.185975,"i_long":106.850107,"line":11},{"station_id":"PSE","is_transit":false,"distance":1567,"station_name":"Pasar Senen","transit":false,"i_long":106.84368,"i_lat":-6.174784,"line":11,"time":8},{"line":11,"i_long":106.839204,"time":4,"distance":1436,"station_id":"KMO","is_transit":false,"station_name":"Kemayoran","i_lat":-6.161728,"transit":false},{"line":11,"time":5,"i_long":106.836569,"station_id":"RJW","station_name":"Rajawali","distance":1901,"transit":false,"i_lat":-6.14505,"is_transit":false},{"distance":1444,"station_id":"KPB","transit":true,"station_name":"Kampung Bandan","i_lat":-6.132549,"time":3,"is_transit":true,"line":4,"i_long":106.826365},{"station_name":"Angke","is_transit":false,"i_long":106.79867,"station_id":"AK","transit":false,"i_lat":-6.144674,"line":1,"time":9,"distance":4102}]]}