{"data":[[{"distance":0,"line":2,"time":0,"transit":false,"station_id":"PSM","station_name":"Pasar Minggu","is_transit":false,"i_lat":-6.2842400000000005,"i_long":106.843999},{"i_long":106.838896,"time":4,"distance":2820,"line":2,"station_name":"Tanjung Barat","is_transit":false,"station_id":"TNT","i_lat":-6.3080680000000005,"transit":false},{"station_id":"LNA","is_transit":false,"station_name":"Lenteng Agung","transit":false,"distance":2671,"i_lat":-6.330363,"time":3,"line":2,"i_long":106.832616},{"station_name":"Univ. Pancasila","transit":false,"distance":1029,"station_id":"UP","i_lat":-6.339291,"i_long":106.834175,"line":2,"time":2,"is_transit":false},{"transit":false,"station_name":"Univ. Indonesia","is_transit":false,"line":2,"i_lat":-6.360749,"station_id":"UI","time":3,"i_long":106.831474,"distance":2264},{"is_transit":false,"time":2,"transit":false,"station_id":"POC","distance":1109,"i_long":106.831114,"line":2,"i_lat":-6.369073,"station_name":"Pondok Cina"},{"is_transit":false,"line":2,"time":4,"station_id":"DPB","transit":false,"i_lat":-6.391065,"i_long":106.819451,"distance":2727,"station_name":"Depokbaru"},{"line":2,"i_lat":-6.405256,"station_name":"Depok","transit":false,"i_long":106.816926,"distance":1584,"station_id":"DP","time":3,"is_transit":false},{"transit":true,"station_name":"Citayam","i_lat":-6.448811,"line":2,"i_long":106.800298,"distance":5084,"station_id":"CTA","is_transit":true,"time":6},{"distance":0,"station_id":"PDRG","station_name":"Pondok Rajeg","transit":false,"i_lat":-6.460735,"is_transit":false,"line":21,"i_long":106.824374,"time":0}]]}