{"data":[[{"transit":false,"time":0,"line":2,"distance":0,"is_transit":false,"i_long":106.843999,"station_name":"Pasar Minggu","i_lat":-6.2842400000000005,"station_id":"PSM"},{"transit":false,"station_id":"PSMB","i_long":106.851577,"distance":2380,"station_name":"Pasar Minggu Baru","is_transit":false,"i_lat":-6.263214,"line":2,"time":2},{"station_id":"DRN","time":2,"i_long":106.85449,"distance":824,"is_transit":false,"i_lat":-6.255332,"station_name":"Duren Kalibata","line":2,"transit":false},{"time":3,"is_transit":false,"station_id":"CW","i_long":106.856607,"station_name":"Cawang","i_lat":-6.242512,"line":2,"transit":false,"distance":1546},{"distance":1230,"station_id":"TEB","station_name":"Tebet","is_transit":false,"line":2,"i_lat":-6.226659,"transit":false,"i_long":106.857948,"time":2},{"distance":2610,"i_lat":-6.209883,"time":4,"is_transit":true,"line":2,"station_name":"Manggarai","i_long":106.84912,"station_id":"MRI","transit":true},{"i_lat":-6.212485,"time":2,"transit":false,"station_id":"MTR","i_long":106.858896,"distance":1275,"line":1,"is_transit":false,"station_name":"Matraman"},{"station_name":"Jatinegara","i_lat":-6.215091,"line":1,"i_long":106.86807400000001,"transit":false,"distance":1377,"is_transit":false,"time":8,"station_id":"JNG"},{"transit":false,"i_lat":-6.2135,"time":3,"line":1,"i_long":106.899548,"distance":3395,"is_transit":false,"station_id":"KLD","station_name":"Klender"},{"i_long":106.922662,"line":1,"station_name":"Buaran","is_transit":false,"time":2,"distance":3100,"station_id":"BUA","transit":false,"i_lat":-6.215568},{"time":1,"i_long":106.939679,"i_lat":-6.217455,"transit":false,"line":1,"station_id":"KLDB","distance":1305,"is_transit":false,"station_name":"Klenderbaru"},{"line":1,"station_name":"Cakung","time":8,"distance":1385,"i_lat":-6.219053,"i_long":106.951283,"station_id":"CUK","is_transit":false,"transit":false},{"time":3,"i_long":106.977657,"distance":3097,"transit":false,"line":1,"is_transit":false,"i_lat":-6.224515,"station_name":"Kranji","station_id":"KRI"},{"station_name":"Bekasi","is_transit":false,"transit":false,"distance":2520,"i_lat":-6.236616,"line":1,"time":4,"i_long":106.997013,"station_id":"BKS"},{"line":1,"i_long":107.016735,"i_lat":-6.248029,"distance":2368,"time":2,"transit":false,"is_transit":false,"station_id":"BKST","station_name":"Bekasi Timur"},{"i_long":107.055722,"line":1,"time":7,"station_id":"TB","station_name":"Tambun","i_lat":-6.258864,"transit":false,"is_transit":false,"distance":4460},{"line":1,"i_long":107.083084,"station_id":"CIT","distance":3420,"i_lat":-6.261877,"is_transit":false,"time":3,"station_name":"Cibitung","transit":false}],[{"i_long":106.843999,"time":0,"is_transit":false,"station_id":"PSM","station_name":"Pasar Minggu","distance":0,"line":2,"transit":false,"i_lat":-6.2842400000000005},{"i_lat":-6.263214,"is_transit":false,"distance":2380,"transit":false,"station_id":"PSMB","i_long":106.851577,"time":2,"line":2,"station_name":"Pasar Minggu Baru"},{"station_name":"Duren Kalibata","time":2,"station_id":"DRN","line":2,"is_transit":false,"i_lat":-6.255332,"i_long":106.85449,"transit":false,"distance":824},{"i_lat":-6.242512,"i_long":106.856607,"distance":1546,"station_name":"Cawang","is_transit":false,"time":3,"transit":false,"line":2,"station_id":"CW"},{"line":2,"transit":false,"station_name":"Tebet","i_lat":-6.226659,"station_id":"TEB","distance":1230,"i_long":106.857948,"time":2,"is_transit":false},{"transit":true,"i_long":106.84912,"time":4,"line":2,"is_transit":true,"distance":2610,"station_name":"Manggarai","i_lat":-6.209883,"station_id":"MRI"},{"distance":3186,"i_lat":-6.202263,"line":1,"station_name":"Sudirman","i_long":106.822649,"is_transit":false,"time":4,"station_id":"SUD","transit":false},{"distance":280,"i_lat":-6.201433,"station_name":"Sudirman Baru","i_long":106.819881,"time":1,"line":1,"is_transit":false,"station_id":"SUDB","transit":false},{"is_transit":false,"transit":false,"station_name":"Karet","time":1,"distance":471,"i_lat":-6.20132,"line":1,"i_long":106.816351,"station_id":"KAT"},{"is_transit":false,"station_name":"Tanah Abang","time":5,"transit":false,"i_lat":-6.185545,"station_id":"THB","i_long":106.811091,"distance":2029,"line":1},{"transit":false,"time":8,"is_transit":false,"station_id":"DU","i_lat":-6.155215,"line":1,"station_name":"Duri","i_long":106.800832,"distance":3632},{"i_lat":-6.144674,"time":4,"is_transit":false,"station_name":"Angke","i_long":106.79867,"station_id":"AK","distance":1230,"line":1,"transit":false},{"time":9,"station_name":"Kampung Bandan","line":4,"is_transit":true,"transit":true,"i_lat":-6.132549,"station_id":"KPB","distance":4102,"i_long":106.826365},{"transit":false,"i_long":106.836569,"station_name":"Rajawali","i_lat":-6.14505,"distance":1444,"time":3,"station_id":"RJW","line":11,"is_transit":false},{"station_name":"Kemayoran","line":11,"i_long":106.839204,"transit":false,"distance":1901,"station_id":"KMO","i_lat":-6.161728,"time":5,"is_transit":false},{"i_lat":-6.174784,"distance":1436,"station_id":"PSE","line":11,"i_long":106.84368,"time":4,"is_transit":false,"transit":false,"station_name":"Pasar Senen"},{"i_lat":-6.185975,"is_transit":false,"distance":1567,"station_id":"GST","station_name":"Gang Sentiong","i_long":106.850107,"line":11,"time":8,"transit":false},{"station_id":"KMT","distance":973,"i_lat":-6.193792,"line":11,"transit":false,"station_name":"Kramat","i_long":106.855437,"time":1,"is_transit":false},{"i_long":106.861737,"time":2,"transit":false,"line":11,"distance":1829,"station_id":"POK","i_lat":-6.209188,"is_transit":false,"station_name":"Pondok Jati"},{"line":1,"i_long":106.86807400000001,"transit":true,"station_name":"Jatinegara","station_id":"JNG","is_transit":true,"i_lat":-6.215091,"distance":1236,"time":9},{"i_lat":-6.2135,"distance":3395,"line":1,"station_id":"KLD","is_transit":false,"time":3,"transit":false,"station_name":"Klender","i_long":106.899548},{"i_lat":-6.215568,"station_name":"Buaran","i_long":106.922662,"line":1,"is_transit":false,"station_id":"BUA","transit":false,"time":2,"distance":3100},{"line":1,"is_transit":false,"time":1,"i_long":106.939679,"transit":false,"distance":1305,"station_id":"KLDB","station_name":"Klenderbaru","i_lat":-6.217455},{"is_transit":false,"transit":false,"time":8,"line":1,"station_name":"Cakung","distance":1385,"i_long":106.951283,"i_lat":-6.219053,"station_id":"CUK"},{"time":3,"station_id":"KRI","station_name":"Kranji","is_transit":false,"i_lat":-6.224515,"line":1,"distance":3097,"i_long":106.977657,"transit":false},{"time":4,"i_lat":-6.236616,"i_long":106.997013,"station_id":"BKS","station_name":"Bekasi","transit":false,"distance":2520,"line":1,"is_transit":false},{"i_lat":-6.248029,"is_transit":false,"distance":2368,"i_long":107.016735,"line":1,"station_name":"Bekasi Timur","station_id":"BKST","time":2,"transit":false},{"distance":4460,"i_long":107.055722,"i_lat":-6.258864,"station_id":"TB","station_name":"Tambun","is_transit":false,"time":7,"transit":false,"line":1},{"line":1,"distance":3420,"i_lat":-6.261877,"i_long":107.083084,"transit":false,"station_name":"Cibitung","time":3,"is_transit":false,"station_id":"CIT"}],[{"i_long":106.843999,"is_transit":false,"line":2,"transit":false,"station_id":"PSM","station_name":"Pasar Minggu","time":0,"i_lat":-6.2842400000000005,"distance":0},{"i_long":106.851577,"station_name":"Pasar Minggu Baru","is_transit":false,"i_lat":-6.263214,"line":2,"transit":false,"time":2,"station_id":"PSMB","distance":2380},{"time":2,"is_transit":false,"i_lat":-6.255332,"line":2,"station_name":"Duren Kalibata","transit":false,"distance":824,"i_long":106.85449,"station_id":"DRN"},{"station_name":"Cawang","i_lat":-6.242512,"transit":false,"is_transit":false,"line":2,"station_id":"CW","time":3,"distance":1546,"i_long":106.856607},{"station_id":"TEB","i_long":106.857948,"distance":1230,"station_name":"Tebet","i_lat":-6.226659,"is_transit":false,"transit":false,"time":2,"line":2},{"i_lat":-6.209883,"time":4,"is_transit":false,"distance":2610,"line":2,"i_long":106.84912,"transit":false,"station_id":"MRI","station_name":"Manggarai"},{"time":4,"transit":false,"station_id":"CKI","i_lat":-6.198556,"i_long":106.840169,"line":2,"station_name":"Cikini","is_transit":false,"distance":1590},{"i_lat":-6.186295,"is_transit":false,"line":2,"station_id":"GDD","time":3,"transit":false,"i_long":106.832183,"distance":1750,"station_name":"Gondangdia"},{"station_name":"Juanda","is_transit":false,"i_long":106.828284,"distance":2015,"line":2,"station_id":"JUA","time":4,"transit":false,"i_lat":-6.166716},{"station_id":"SW","time":2,"station_name":"Sawah Besar","distance":1149,"transit":false,"is_transit":false,"i_lat":-6.160725,"line":2,"i_long":106.827103},{"i_lat":-6.149769,"distance":906,"transit":false,"station_name":"Manggabesar","i_long":106.82482,"line":2,"time":2,"is_transit":false,"station_id":"MGB"},{"station_id":"JAY","time":2,"i_lat":-6.141205,"station_name":"Jayakarta","transit":false,"is_transit":false,"distance":1080,"i_long":106.820901,"line":2},{"transit":true,"station_name":"Jakarta Kota","is_transit":true,"distance":1264,"line":2,"i_lat":-6.137569,"station_id":"JAKK","i_long":106.812439,"time":4},{"is_transit":true,"station_id":"KPB","transit":true,"i_lat":-6.132549,"distance":1364,"station_name":"Kampung Bandan","line":4,"i_long":106.826365,"time":3},{"time":3,"station_id":"RJW","distance":1444,"is_transit":false,"i_long":106.836569,"transit":false,"i_lat":-6.14505,"line":11,"station_name":"Rajawali"},{"is_transit":false,"i_long":106.839204,"station_id":"KMO","distance":1901,"i_lat":-6.161728,"line":11,"transit":false,"station_name":"Kemayoran","time":5},{"station_name":"Pasar Senen","distance":1436,"i_lat":-6.174784,"time":4,"station_id":"PSE","transit":false,"i_long":106.84368,"line":11,"is_transit":false},{"station_id":"GST","time":8,"is_transit":false,"transit":false,"distance":1567,"station_name":"Gang Sentiong","i_long":106.850107,"i_lat":-6.185975,"line":11},{"line":11,"i_lat":-6.193792,"station_name":"Kramat","time":1,"is_transit":false,"transit":false,"distance":973,"i_long":106.855437,"station_id":"KMT"},{"i_lat":-6.209188,"i_long":106.861737,"line":11,"station_name":"Pondok Jati","transit":false,"distance":1829,"is_transit":false,"time":2,"station_id":"POK"},{"i_lat":-6.215091,"station_id":"JNG","station_name":"Jatinegara","transit":true,"line":1,"time":9,"is_transit":true,"distance":1236,"i_long":106.86807400000001},{"distance":3395,"i_long":106.899548,"station_id":"KLD","line":1,"i_lat":-6.2135,"transit":false,"is_transit":false,"time":3,"station_name":"Klender"},{"transit":false,"is_transit":false,"station_id":"BUA","distance":3100,"time":2,"i_lat":-6.215568,"station_name":"Buaran","i_long":106.922662,"line":1},{"i_lat":-6.217455,"line":1,"station_name":"Klenderbaru","time":1,"i_long":106.939679,"transit":false,"station_id":"KLDB","is_transit":false,"distance":1305},{"i_lat":-6.219053,"line":1,"i_long":106.951283,"time":8,"station_name":"Cakung","is_transit":false,"distance":1385,"transit":false,"station_id":"CUK"},{"station_id":"KRI","i_lat":-6.224515,"i_long":106.977657,"station_name":"Kranji","is_transit":false,"line":1,"time":3,"distance":3097,"transit":false},{"station_id":"BKS","distance":2520,"station_name":"Bekasi","i_long":106.997013,"line":1,"is_transit":false,"i_lat":-6.236616,"transit":false,"time":4},{"station_id":"BKST","is_transit":false,"i_lat":-6.248029,"transit":false,"distance":2368,"i_long":107.016735,"station_name":"Bekasi Timur","time":2,"line":1},{"time":7,"i_lat":-6.258864,"station_name":"Tambun","i_long":107.055722,"distance":4460,"is_transit":false,"line":1,"transit":false,"station_id":"TB"},{"line":1,"station_name":"Cibitung","time":3,"transit":false,"is_transit":false,"distance":3420,"station_id":"CIT","i_long":107.083084,"i_lat":-6.261877}]]}