{"data":[[{"i_lat":-6.2842400000000005,"station_id":"PSM","transit":false,"time":0,"is_transit":false,"i_long":106.843999,"station_name":"Pasar Minggu","distance":0,"line":2},{"transit":false,"station_name":"Pasar Minggu Baru","is_transit":false,"line":2,"i_long":106.851577,"time":2,"station_id":"PSMB","distance":2380,"i_lat":-6.263214},{"i_long":106.85449,"line":2,"station_name":"Duren Kalibata","station_id":"DRN","time":2,"is_transit":false,"distance":824,"i_lat":-6.255332,"transit":false},{"distance":1546,"i_long":106.856607,"time":3,"i_lat":-6.242512,"line":2,"transit":false,"is_transit":false,"station_name":"Cawang","station_id":"CW"},{"distance":1230,"time":2,"is_transit":false,"line":2,"station_name":"Tebet","station_id":"TEB","i_lat":-6.226659,"i_long":106.857948,"transit":false},{"distance":2610,"i_long":106.84912,"station_name":"Manggarai","station_id":"MRI","transit":true,"time":4,"line":2,"is_transit":true,"i_lat":-6.209883},{"station_name":"Sudirman","station_id":"SUD","transit":false,"time":4,"is_transit":false,"distance":3186,"i_lat":-6.202263,"line":1,"i_long":106.822649},{"distance":280,"i_long":106.819881,"line":1,"i_lat":-6.201433,"station_id":"SUDB","transit":false,"time":1,"station_name":"Sudirman Baru","is_transit":false},{"distance":471,"station_name":"Karet","i_lat":-6.20132,"transit":false,"is_transit":false,"i_long":106.816351,"time":1,"station_id":"KAT","line":1},{"i_lat":-6.185545,"i_long":106.811091,"station_name":"Tanah Abang","station_id":"THB","time":5,"line":1,"distance":2029,"is_transit":false,"transit":false},{"distance":3632,"time":8,"line":1,"i_lat":-6.155215,"station_id":"DU","station_name":"Duri","transit":false,"is_transit":false,"i_long":106.800832},{"is_transit":false,"time":4,"line":1,"distance":1230,"station_name":"Angke","station_id":"AK","transit":false,"i_lat":-6.144674,"i_long":106.79867}],[{"distance":0,"station_id":"PSM","transit":false,"time":0,"i_lat":-6.2842400000000005,"i_long":106.843999,"line":2,"is_transit":false,"station_name":"Pasar Minggu"},{"station_name":"Pasar Minggu Baru","is_transit":false,"i_long":106.851577,"station_id":"PSMB","time":2,"distance":2380,"transit":false,"i_lat":-6.263214,"line":2},{"distance":824,"i_lat":-6.255332,"i_long":106.85449,"line":2,"time":2,"station_id":"DRN","station_name":"Duren Kalibata","transit":false,"is_transit":false},{"station_id":"CW","time":3,"line":2,"station_name":"Cawang","is_transit":false,"i_lat":-6.242512,"i_long":106.856607,"transit":false,"distance":1546},{"i_lat":-6.226659,"station_id":"TEB","distance":1230,"transit":false,"station_name":"Tebet","line":2,"time":2,"is_transit":false,"i_long":106.857948},{"is_transit":false,"station_id":"MRI","distance":2610,"i_lat":-6.209883,"time":4,"transit":false,"i_long":106.84912,"station_name":"Manggarai","line":2},{"i_lat":-6.198556,"line":2,"station_id":"CKI","transit":false,"is_transit":false,"station_name":"Cikini","i_long":106.840169,"time":4,"distance":1590},{"i_lat":-6.186295,"transit":false,"station_id":"GDD","line":2,"distance":1750,"station_name":"Gondangdia","is_transit":false,"time":3,"i_long":106.832183},{"station_id":"JUA","distance":2015,"line":2,"transit":false,"station_name":"Juanda","time":4,"i_long":106.828284,"is_transit":false,"i_lat":-6.166716},{"i_lat":-6.160725,"time":2,"distance":1149,"transit":false,"station_name":"Sawah Besar","station_id":"SW","is_transit":false,"i_long":106.827103,"line":2},{"distance":906,"transit":false,"time":2,"line":2,"i_lat":-6.149769,"station_name":"Manggabesar","is_transit":false,"i_long":106.82482,"station_id":"MGB"},{"station_id":"JAY","transit":false,"is_transit":false,"station_name":"Jayakarta","distance":1080,"i_long":106.820901,"i_lat":-6.141205,"time":2,"line":2},{"distance":1264,"line":2,"i_long":106.812439,"transit":true,"time":4,"is_transit":true,"i_lat":-6.137569,"station_name":"Jakarta Kota","station_id":"JAKK"},{"line":4,"transit":true,"i_long":106.826365,"station_id":"KPB","station_name":"Kampung Bandan","time":3,"is_transit":true,"distance":1364,"i_lat":-6.132549},{"is_transit":false,"i_long":106.79867,"station_id":"AK","time":9,"distance":4102,"i_lat":-6.144674,"line":1,"transit":false,"station_name":"Angke"}],[{"station_name":"Pasar Minggu","station_id":"PSM","line":2,"i_long":106.843999,"is_transit":false,"transit":false,"distance":0,"time":0,"i_lat":-6.2842400000000005},{"time":2,"distance":2380,"is_transit":false,"i_long":106.851577,"i_lat":-6.263214,"station_id":"PSMB","line":2,"station_name":"Pasar Minggu Baru","transit":false},{"time":2,"is_transit":false,"station_name":"Duren Kalibata","i_lat":-6.255332,"distance":824,"line":2,"station_id":"DRN","transit":false,"i_long":106.85449},{"station_id":"CW","time":3,"i_long":106.856607,"station_name":"Cawang","transit":false,"distance":1546,"is_transit":false,"i_lat":-6.242512,"line":2},{"station_id":"TEB","transit":false,"is_transit":false,"time":2,"station_name":"Tebet","i_long":106.857948,"distance":1230,"i_lat":-6.226659,"line":2},{"station_id":"MRI","i_lat":-6.209883,"is_transit":true,"station_name":"Manggarai","distance":2610,"transit":true,"i_long":106.84912,"time":4,"line":2},{"station_id":"MTR","is_transit":false,"transit":false,"i_lat":-6.212485,"line":1,"distance":1275,"i_long":106.858896,"station_name":"Matraman","time":2},{"station_name":"Jatinegara","transit":true,"station_id":"JNG","time":8,"distance":1377,"is_transit":true,"i_lat":-6.215091,"line":1,"i_long":106.86807400000001},{"station_id":"POK","is_transit":false,"line":11,"time":2,"station_name":"Pondok Jati","distance":1236,"transit":false,"i_long":106.861737,"i_lat":-6.209188},{"station_name":"Kramat","transit":false,"is_transit":false,"i_long":106.855437,"time":2,"line":11,"distance":1829,"i_lat":-6.193792,"station_id":"KMT"},{"transit":false,"time":1,"station_id":"GST","is_transit":false,"distance":973,"i_lat":-6.185975,"station_name":"Gang Sentiong","line":11,"i_long":106.850107},{"transit":false,"is_transit":false,"i_long":106.84368,"distance":1567,"i_lat":-6.174784,"station_id":"PSE","station_name":"Pasar Senen","line":11,"time":8},{"i_lat":-6.161728,"is_transit":false,"i_long":106.839204,"line":11,"station_id":"KMO","transit":false,"station_name":"Kemayoran","time":4,"distance":1436},{"is_transit":false,"i_lat":-6.14505,"distance":1901,"station_id":"RJW","time":5,"transit":false,"station_name":"Rajawali","i_long":106.836569,"line":11},{"i_lat":-6.132549,"is_transit":true,"distance":1444,"transit":true,"station_name":"Kampung Bandan","time":3,"station_id":"KPB","i_long":106.826365,"line":4},{"transit":false,"distance":4102,"time":9,"i_lat":-6.144674,"station_name":"Angke","i_long":106.79867,"line":1,"station_id":"AK","is_transit":false}]]}