{"data":[[{"transit":false,"i_lat":-6.2842400000000005,"i_long":106.843999,"distance":0,"station_name":"Pasar Minggu","station_id":"PSM","time":0,"line":2,"is_transit":false},{"line":2,"i_lat":-6.263214,"time":2,"i_long":106.851577,"transit":false,"is_transit":false,"distance":2380,"station_id":"PSMB","station_name":"Pasar Minggu Baru"},{"is_transit":false,"transit":false,"station_id":"DRN","distance":824,"station_name":"Duren Kalibata","i_long":106.85449,"time":2,"i_lat":-6.255332,"line":2},{"station_name":"Cawang","i_lat":-6.242512,"is_transit":false,"i_long":106.856607,"station_id":"CW","distance":1546,"transit":false,"line":2,"time":3},{"distance":1230,"station_name":"Tebet","i_lat":-6.226659,"time":2,"transit":false,"i_long":106.857948,"line":2,"is_transit":false,"station_id":"TEB"},{"i_long":106.84912,"distance":2610,"i_lat":-6.209883,"time":4,"station_name":"Manggarai","line":2,"is_transit":true,"transit":true,"station_id":"MRI"},{"time":4,"distance":3186,"i_lat":-6.202263,"i_long":106.822649,"station_name":"Sudirman","is_transit":false,"line":1,"station_id":"SUD","transit":false},{"i_long":106.819881,"station_name":"Sudirman Baru","distance":280,"time":1,"is_transit":false,"line":1,"station_id":"SUDB","i_lat":-6.201433,"transit":false},{"station_name":"Karet","i_long":106.816351,"i_lat":-6.20132,"distance":471,"transit":false,"station_id":"KAT","time":1,"is_transit":false,"line":1},{"i_lat":-6.185545,"time":5,"transit":false,"is_transit":false,"distance":2029,"station_name":"Tanah Abang","i_long":106.811091,"station_id":"THB","line":1},{"i_lat":-6.155215,"distance":3632,"time":8,"station_id":"DU","transit":false,"line":1,"i_long":106.800832,"is_transit":false,"station_name":"Duri"},{"station_name":"Angke","line":1,"time":4,"i_long":106.79867,"transit":false,"station_id":"AK","i_lat":-6.144674,"is_transit":false,"distance":1230},{"distance":4102,"station_id":"KPB","is_transit":false,"transit":false,"station_name":"Kampung Bandan","i_lat":-6.132549,"line":4,"time":9,"i_long":106.826365}],[{"transit":false,"is_transit":false,"line":2,"distance":0,"station_name":"Pasar Minggu","i_long":106.843999,"time":0,"station_id":"PSM","i_lat":-6.2842400000000005},{"transit":false,"i_lat":-6.263214,"distance":2380,"time":2,"station_name":"Pasar Minggu Baru","i_long":106.851577,"station_id":"PSMB","is_transit":false,"line":2},{"is_transit":false,"station_name":"Duren Kalibata","i_long":106.85449,"time":2,"station_id":"DRN","distance":824,"transit":false,"i_lat":-6.255332,"line":2},{"is_transit":false,"transit":false,"line":2,"station_id":"CW","distance":1546,"station_name":"Cawang","i_lat":-6.242512,"time":3,"i_long":106.856607},{"i_lat":-6.226659,"i_long":106.857948,"line":2,"station_name":"Tebet","is_transit":false,"transit":false,"time":2,"distance":1230,"station_id":"TEB"},{"station_name":"Manggarai","is_transit":false,"transit":false,"i_long":106.84912,"time":4,"distance":2610,"i_lat":-6.209883,"station_id":"MRI","line":2},{"station_id":"CKI","transit":false,"time":4,"station_name":"Cikini","i_lat":-6.198556,"i_long":106.840169,"line":2,"distance":1590,"is_transit":false},{"distance":1750,"time":3,"is_transit":false,"transit":false,"station_id":"GDD","i_lat":-6.186295,"line":2,"station_name":"Gondangdia","i_long":106.832183},{"station_name":"Juanda","i_long":106.828284,"is_transit":false,"transit":false,"station_id":"JUA","distance":2015,"time":4,"i_lat":-6.166716,"line":2},{"is_transit":false,"distance":1149,"time":2,"station_name":"Sawah Besar","station_id":"SW","transit":false,"i_long":106.827103,"i_lat":-6.160725,"line":2},{"i_long":106.82482,"is_transit":false,"transit":false,"station_id":"MGB","line":2,"time":2,"i_lat":-6.149769,"distance":906,"station_name":"Manggabesar"},{"line":2,"transit":false,"station_name":"Jayakarta","time":2,"is_transit":false,"i_long":106.820901,"station_id":"JAY","distance":1080,"i_lat":-6.141205},{"is_transit":true,"i_lat":-6.137569,"i_long":106.812439,"station_id":"JAKK","station_name":"Jakarta Kota","transit":true,"line":2,"time":4,"distance":1264},{"station_name":"Kampung Bandan","i_long":106.826365,"i_lat":-6.132549,"station_id":"KPB","is_transit":false,"distance":1364,"time":3,"transit":false,"line":4}],[{"i_long":106.843999,"station_id":"PSM","is_transit":false,"time":0,"transit":false,"i_lat":-6.2842400000000005,"line":2,"station_name":"Pasar Minggu","distance":0},{"transit":false,"line":2,"is_transit":false,"time":2,"i_long":106.851577,"i_lat":-6.263214,"distance":2380,"station_id":"PSMB","station_name":"Pasar Minggu Baru"},{"station_id":"DRN","i_long":106.85449,"transit":false,"time":2,"station_name":"Duren Kalibata","is_transit":false,"i_lat":-6.255332,"distance":824,"line":2},{"line":2,"time":3,"is_transit":false,"distance":1546,"transit":false,"station_name":"Cawang","i_lat":-6.242512,"i_long":106.856607,"station_id":"CW"},{"time":2,"station_name":"Tebet","distance":1230,"is_transit":false,"station_id":"TEB","transit":false,"i_lat":-6.226659,"i_long":106.857948,"line":2},{"is_transit":true,"line":2,"time":4,"station_name":"Manggarai","distance":2610,"transit":true,"i_long":106.84912,"i_lat":-6.209883,"station_id":"MRI"},{"distance":1275,"time":2,"station_id":"MTR","station_name":"Matraman","i_lat":-6.212485,"i_long":106.858896,"transit":false,"line":1,"is_transit":false},{"distance":1377,"i_long":106.86807400000001,"transit":true,"line":1,"is_transit":true,"station_id":"JNG","station_name":"Jatinegara","i_lat":-6.215091,"time":8},{"station_id":"POK","station_name":"Pondok Jati","line":11,"is_transit":false,"i_lat":-6.209188,"distance":1236,"transit":false,"i_long":106.861737,"time":2},{"transit":false,"is_transit":false,"station_name":"Kramat","line":11,"i_long":106.855437,"distance":1829,"time":2,"i_lat":-6.193792,"station_id":"KMT"},{"distance":973,"i_long":106.850107,"i_lat":-6.185975,"line":11,"is_transit":false,"transit":false,"time":1,"station_id":"GST","station_name":"Gang Sentiong"},{"line":11,"distance":1567,"station_id":"PSE","transit":false,"is_transit":false,"station_name":"Pasar Senen","i_long":106.84368,"time":8,"i_lat":-6.174784},{"line":11,"i_long":106.839204,"distance":1436,"is_transit":false,"station_id":"KMO","station_name":"Kemayoran","i_lat":-6.161728,"transit":false,"time":4},{"line":11,"station_name":"Rajawali","i_lat":-6.14505,"time":5,"is_transit":false,"transit":false,"station_id":"RJW","i_long":106.836569,"distance":1901},{"transit":false,"time":3,"i_long":106.826365,"station_name":"Kampung Bandan","i_lat":-6.132549,"is_transit":false,"distance":1444,"station_id":"KPB","line":4}]]}