{"data":[[{"station_id":"PSM","distance":0,"time":0,"line":2,"is_transit":false,"station_name":"Pasar Minggu","i_lat":-6.2842400000000005,"i_long":106.843999,"transit":false},{"station_id":"PSMB","time":2,"distance":2380,"line":2,"transit":false,"i_lat":-6.263214,"i_long":106.851577,"station_name":"Pasar Minggu Baru","is_transit":false},{"is_transit":false,"station_name":"Duren Kalibata","line":2,"transit":false,"time":2,"i_lat":-6.255332,"distance":824,"station_id":"DRN","i_long":106.85449},{"i_long":106.856607,"line":2,"station_name":"Cawang","distance":1546,"is_transit":false,"time":3,"transit":false,"station_id":"CW","i_lat":-6.242512},{"i_lat":-6.226659,"transit":false,"station_name":"Tebet","i_long":106.857948,"station_id":"TEB","line":2,"time":2,"distance":1230,"is_transit":false},{"i_long":106.84912,"station_id":"MRI","is_transit":false,"distance":2610,"station_name":"Manggarai","transit":false,"i_lat":-6.209883,"line":2,"time":4},{"transit":false,"i_lat":-6.198556,"i_long":106.840169,"is_transit":false,"time":4,"station_name":"Cikini","distance":1590,"station_id":"CKI","line":2},{"i_long":106.832183,"line":2,"transit":false,"station_id":"GDD","station_name":"Gondangdia","time":3,"distance":1750,"is_transit":false,"i_lat":-6.186295},{"station_name":"Juanda","is_transit":false,"i_long":106.828284,"time":4,"transit":false,"station_id":"JUA","line":2,"distance":2015,"i_lat":-6.166716},{"transit":false,"station_name":"Sawah Besar","distance":1149,"time":2,"i_lat":-6.160725,"station_id":"SW","is_transit":false,"i_long":106.827103,"line":2},{"station_id":"MGB","is_transit":false,"i_lat":-6.149769,"transit":false,"line":2,"time":2,"distance":906,"i_long":106.82482,"station_name":"Manggabesar"},{"time":2,"i_long":106.820901,"transit":false,"station_name":"Jayakarta","distance":1080,"line":2,"i_lat":-6.141205,"station_id":"JAY","is_transit":false},{"station_id":"JAKK","is_transit":false,"time":4,"distance":1264,"i_long":106.812439,"transit":false,"station_name":"Jakarta Kota","line":2,"i_lat":-6.137569}],[{"is_transit":false,"line":2,"transit":false,"station_id":"PSM","distance":0,"station_name":"Pasar Minggu","time":0,"i_lat":-6.2842400000000005,"i_long":106.843999},{"i_long":106.851577,"station_id":"PSMB","line":2,"station_name":"Pasar Minggu Baru","time":2,"distance":2380,"transit":false,"i_lat":-6.263214,"is_transit":false},{"station_name":"Duren Kalibata","distance":824,"i_lat":-6.255332,"station_id":"DRN","is_transit":false,"time":2,"i_long":106.85449,"transit":false,"line":2},{"transit":false,"time":3,"i_lat":-6.242512,"distance":1546,"i_long":106.856607,"station_name":"Cawang","station_id":"CW","is_transit":false,"line":2},{"transit":false,"i_lat":-6.226659,"i_long":106.857948,"time":2,"station_name":"Tebet","line":2,"distance":1230,"station_id":"TEB","is_transit":false},{"transit":true,"is_transit":true,"distance":2610,"i_long":106.84912,"time":4,"i_lat":-6.209883,"line":2,"station_name":"Manggarai","station_id":"MRI"},{"transit":false,"time":4,"i_lat":-6.202263,"distance":3186,"station_name":"Sudirman","station_id":"SUD","i_long":106.822649,"is_transit":false,"line":1},{"i_lat":-6.201433,"i_long":106.819881,"station_id":"SUDB","transit":false,"distance":280,"is_transit":false,"line":1,"time":1,"station_name":"Sudirman Baru"},{"station_name":"Karet","i_lat":-6.20132,"distance":471,"line":1,"is_transit":false,"station_id":"KAT","transit":false,"time":1,"i_long":106.816351},{"is_transit":false,"station_name":"Tanah Abang","time":5,"distance":2029,"line":1,"i_long":106.811091,"transit":false,"station_id":"THB","i_lat":-6.185545},{"time":8,"i_long":106.800832,"station_id":"DU","distance":3632,"transit":false,"line":1,"i_lat":-6.155215,"is_transit":false,"station_name":"Duri"},{"time":4,"line":1,"station_id":"AK","is_transit":false,"transit":false,"station_name":"Angke","distance":1230,"i_lat":-6.144674,"i_long":106.79867},{"distance":4102,"is_transit":true,"transit":true,"i_lat":-6.132549,"line":4,"station_id":"KPB","i_long":106.826365,"time":9,"station_name":"Kampung Bandan"},{"transit":false,"station_name":"Jakarta Kota","is_transit":false,"line":2,"time":3,"station_id":"JAKK","i_lat":-6.137569,"i_long":106.812439,"distance":1364}],[{"i_lat":-6.2842400000000005,"time":0,"station_name":"Pasar Minggu","distance":0,"is_transit":false,"station_id":"PSM","i_long":106.843999,"line":2,"transit":false},{"station_name":"Pasar Minggu Baru","time":2,"distance":2380,"i_lat":-6.263214,"line":2,"i_long":106.851577,"station_id":"PSMB","is_transit":false,"transit":false},{"transit":false,"station_name":"Duren Kalibata","station_id":"DRN","is_transit":false,"time":2,"distance":824,"i_lat":-6.255332,"line":2,"i_long":106.85449},{"line":2,"transit":false,"is_transit":false,"i_lat":-6.242512,"station_name":"Cawang","distance":1546,"station_id":"CW","time":3,"i_long":106.856607},{"transit":false,"station_id":"TEB","is_transit":false,"i_long":106.857948,"time":2,"distance":1230,"i_lat":-6.226659,"station_name":"Tebet","line":2},{"transit":true,"time":4,"i_long":106.84912,"line":2,"station_name":"Manggarai","i_lat":-6.209883,"station_id":"MRI","distance":2610,"is_transit":true},{"is_transit":false,"i_lat":-6.212485,"transit":false,"i_long":106.858896,"time":2,"station_name":"Matraman","line":1,"station_id":"MTR","distance":1275},{"i_lat":-6.215091,"is_transit":true,"station_name":"Jatinegara","i_long":106.86807400000001,"line":1,"distance":1377,"transit":true,"station_id":"JNG","time":8},{"i_long":106.861737,"station_name":"Pondok Jati","transit":false,"i_lat":-6.209188,"station_id":"POK","line":11,"is_transit":false,"time":2,"distance":1236},{"transit":false,"i_lat":-6.193792,"time":2,"station_id":"KMT","is_transit":false,"distance":1829,"i_long":106.855437,"station_name":"Kramat","line":11},{"is_transit":false,"station_name":"Gang Sentiong","transit":false,"station_id":"GST","line":11,"i_lat":-6.185975,"time":1,"distance":973,"i_long":106.850107},{"station_id":"PSE","time":8,"i_long":106.84368,"station_name":"Pasar Senen","line":11,"distance":1567,"is_transit":false,"transit":false,"i_lat":-6.174784},{"distance":1436,"station_name":"Kemayoran","i_lat":-6.161728,"i_long":106.839204,"transit":false,"station_id":"KMO","time":4,"is_transit":false,"line":11},{"transit":false,"i_long":106.836569,"i_lat":-6.14505,"station_name":"Rajawali","station_id":"RJW","is_transit":false,"time":5,"line":11,"distance":1901},{"i_lat":-6.132549,"transit":true,"line":4,"is_transit":true,"distance":1444,"station_id":"KPB","i_long":106.826365,"station_name":"Kampung Bandan","time":3},{"line":2,"i_lat":-6.137569,"transit":false,"station_name":"Jakarta Kota","is_transit":false,"distance":1364,"time":3,"i_long":106.812439,"station_id":"JAKK"}]]}