{"data":[[{"station_name":"Pasar Minggu","is_transit":false,"transit":false,"station_id":"PSM","time":0,"i_lat":-6.2842400000000005,"i_long":106.843999,"line":2,"distance":0},{"time":2,"distance":2380,"is_transit":false,"i_lat":-6.263214,"i_long":106.851577,"transit":false,"station_id":"PSMB","station_name":"Pasar Minggu Baru","line":2},{"transit":false,"i_long":106.85449,"station_id":"DRN","line":2,"station_name":"Duren Kalibata","time":2,"is_transit":false,"i_lat":-6.255332,"distance":824},{"transit":false,"station_id":"CW","station_name":"Cawang","time":3,"is_transit":false,"distance":1546,"i_lat":-6.242512,"i_long":106.856607,"line":2},{"distance":1230,"station_id":"TEB","is_transit":false,"i_lat":-6.226659,"transit":false,"time":2,"i_long":106.857948,"station_name":"Tebet","line":2},{"time":4,"station_name":"Manggarai","distance":2610,"transit":true,"is_transit":true,"station_id":"MRI","i_long":106.84912,"i_lat":-6.209883,"line":2},{"i_long":106.822649,"i_lat":-6.202263,"transit":false,"distance":3186,"station_id":"SUD","is_transit":false,"line":1,"station_name":"Sudirman","time":4},{"transit":false,"station_id":"SUDB","time":1,"station_name":"Sudirman Baru","i_long":106.819881,"line":1,"distance":280,"i_lat":-6.201433,"is_transit":false},{"transit":false,"time":1,"station_id":"KAT","is_transit":false,"line":1,"distance":471,"i_lat":-6.20132,"station_name":"Karet","i_long":106.816351},{"line":1,"i_lat":-6.185545,"time":5,"transit":false,"station_name":"Tanah Abang","distance":2029,"is_transit":false,"i_long":106.811091,"station_id":"THB"},{"transit":false,"distance":3632,"is_transit":false,"i_long":106.800832,"line":1,"station_id":"DU","time":8,"station_name":"Duri","i_lat":-6.155215},{"transit":false,"is_transit":false,"i_lat":-6.144674,"station_name":"Angke","i_long":106.79867,"station_id":"AK","time":4,"line":1,"distance":1230}],[{"station_id":"PSM","distance":0,"i_long":106.843999,"i_lat":-6.2842400000000005,"line":2,"transit":false,"station_name":"Pasar Minggu","is_transit":false,"time":0},{"station_id":"PSMB","is_transit":false,"distance":2380,"i_long":106.851577,"line":2,"station_name":"Pasar Minggu Baru","i_lat":-6.263214,"time":2,"transit":false},{"station_name":"Duren Kalibata","is_transit":false,"i_long":106.85449,"distance":824,"station_id":"DRN","time":2,"i_lat":-6.255332,"line":2,"transit":false},{"transit":false,"station_name":"Cawang","time":3,"distance":1546,"i_lat":-6.242512,"i_long":106.856607,"line":2,"station_id":"CW","is_transit":false},{"time":2,"i_long":106.857948,"distance":1230,"station_id":"TEB","station_name":"Tebet","is_transit":false,"transit":false,"line":2,"i_lat":-6.226659},{"station_id":"MRI","station_name":"Manggarai","i_long":106.84912,"is_transit":false,"line":2,"i_lat":-6.209883,"transit":false,"distance":2610,"time":4},{"i_long":106.840169,"line":2,"time":4,"station_id":"CKI","distance":1590,"station_name":"Cikini","is_transit":false,"transit":false,"i_lat":-6.198556},{"i_long":106.832183,"time":3,"station_id":"GDD","is_transit":false,"station_name":"Gondangdia","line":2,"distance":1750,"i_lat":-6.186295,"transit":false},{"time":4,"station_name":"Juanda","distance":2015,"i_long":106.828284,"line":2,"i_lat":-6.166716,"station_id":"JUA","is_transit":false,"transit":false},{"time":2,"i_lat":-6.160725,"station_id":"SW","transit":false,"station_name":"Sawah Besar","distance":1149,"i_long":106.827103,"line":2,"is_transit":false},{"transit":false,"station_id":"MGB","line":2,"time":2,"station_name":"Manggabesar","is_transit":false,"distance":906,"i_lat":-6.149769,"i_long":106.82482},{"is_transit":false,"transit":false,"station_name":"Jayakarta","station_id":"JAY","distance":1080,"time":2,"i_long":106.820901,"i_lat":-6.141205,"line":2},{"i_long":106.812439,"line":2,"station_id":"JAKK","station_name":"Jakarta Kota","is_transit":true,"transit":true,"time":4,"i_lat":-6.137569,"distance":1264},{"line":4,"station_id":"KPB","distance":1364,"transit":true,"station_name":"Kampung Bandan","time":3,"i_lat":-6.132549,"i_long":106.826365,"is_transit":true},{"distance":4102,"station_id":"AK","time":9,"i_lat":-6.144674,"is_transit":false,"transit":false,"station_name":"Angke","line":1,"i_long":106.79867}],[{"station_name":"Pasar Minggu","station_id":"PSM","time":0,"i_long":106.843999,"is_transit":false,"transit":false,"distance":0,"line":2,"i_lat":-6.2842400000000005},{"time":2,"i_lat":-6.263214,"distance":2380,"station_name":"Pasar Minggu Baru","station_id":"PSMB","line":2,"transit":false,"i_long":106.851577,"is_transit":false},{"i_lat":-6.255332,"time":2,"distance":824,"station_id":"DRN","station_name":"Duren Kalibata","i_long":106.85449,"line":2,"transit":false,"is_transit":false},{"time":3,"i_long":106.856607,"transit":false,"line":2,"station_name":"Cawang","station_id":"CW","i_lat":-6.242512,"is_transit":false,"distance":1546},{"is_transit":false,"i_lat":-6.226659,"distance":1230,"transit":false,"time":2,"station_name":"Tebet","i_long":106.857948,"station_id":"TEB","line":2},{"i_lat":-6.209883,"distance":2610,"station_id":"MRI","i_long":106.84912,"station_name":"Manggarai","transit":true,"time":4,"is_transit":true,"line":2},{"i_lat":-6.212485,"station_id":"MTR","is_transit":false,"station_name":"Matraman","distance":1275,"time":2,"i_long":106.858896,"line":1,"transit":false},{"distance":1377,"station_id":"JNG","is_transit":true,"i_lat":-6.215091,"transit":true,"i_long":106.86807400000001,"station_name":"Jatinegara","line":1,"time":8},{"i_long":106.861737,"distance":1236,"is_transit":false,"time":2,"station_id":"POK","transit":false,"i_lat":-6.209188,"station_name":"Pondok Jati","line":11},{"i_long":106.855437,"i_lat":-6.193792,"station_name":"Kramat","distance":1829,"transit":false,"time":2,"station_id":"KMT","line":11,"is_transit":false},{"time":1,"station_id":"GST","is_transit":false,"i_long":106.850107,"station_name":"Gang Sentiong","transit":false,"i_lat":-6.185975,"distance":973,"line":11},{"line":11,"i_lat":-6.174784,"is_transit":false,"distance":1567,"station_id":"PSE","time":8,"i_long":106.84368,"transit":false,"station_name":"Pasar Senen"},{"i_long":106.839204,"distance":1436,"transit":false,"station_name":"Kemayoran","time":4,"line":11,"i_lat":-6.161728,"station_id":"KMO","is_transit":false},{"time":5,"distance":1901,"i_lat":-6.14505,"transit":false,"station_name":"Rajawali","i_long":106.836569,"is_transit":false,"line":11,"station_id":"RJW"},{"is_transit":true,"station_id":"KPB","i_lat":-6.132549,"distance":1444,"i_long":106.826365,"line":4,"station_name":"Kampung Bandan","time":3,"transit":true},{"i_long":106.79867,"i_lat":-6.144674,"line":1,"transit":false,"time":9,"station_name":"Angke","station_id":"AK","is_transit":false,"distance":4102}]]}