{"data":[[{"station_name":"Pasar Minggu","i_long":106.843999,"distance":0,"i_lat":-6.2842400000000005,"is_transit":false,"transit":false,"line":2,"station_id":"PSM","time":0},{"i_long":106.851577,"distance":2380,"time":2,"is_transit":false,"station_id":"PSMB","station_name":"Pasar Minggu Baru","line":2,"transit":false,"i_lat":-6.263214},{"distance":824,"i_long":106.85449,"station_name":"Duren Kalibata","time":2,"line":2,"station_id":"DRN","is_transit":false,"transit":false,"i_lat":-6.255332},{"i_long":106.856607,"station_name":"Cawang","time":3,"is_transit":false,"line":2,"distance":1546,"station_id":"CW","transit":false,"i_lat":-6.242512},{"i_long":106.857948,"distance":1230,"transit":false,"i_lat":-6.226659,"station_name":"Tebet","time":2,"station_id":"TEB","is_transit":false,"line":2},{"is_transit":true,"station_id":"MRI","transit":true,"i_lat":-6.209883,"i_long":106.84912,"line":2,"distance":2610,"time":4,"station_name":"Manggarai"},{"time":2,"station_id":"MTR","i_lat":-6.212485,"i_long":106.858896,"distance":1275,"is_transit":false,"station_name":"Matraman","line":1,"transit":false}],[{"transit":false,"line":2,"is_transit":false,"time":0,"station_name":"Pasar Minggu","station_id":"PSM","i_lat":-6.2842400000000005,"distance":0,"i_long":106.843999},{"i_lat":-6.263214,"distance":2380,"line":2,"is_transit":false,"time":2,"i_long":106.851577,"transit":false,"station_id":"PSMB","station_name":"Pasar Minggu Baru"},{"i_long":106.85449,"i_lat":-6.255332,"line":2,"time":2,"station_id":"DRN","distance":824,"transit":false,"station_name":"Duren Kalibata","is_transit":false},{"station_name":"Cawang","station_id":"CW","i_lat":-6.242512,"i_long":106.856607,"distance":1546,"is_transit":false,"line":2,"time":3,"transit":false},{"distance":1230,"station_name":"Tebet","is_transit":false,"i_lat":-6.226659,"station_id":"TEB","line":2,"time":2,"transit":false,"i_long":106.857948},{"i_long":106.84912,"time":4,"transit":true,"station_id":"MRI","is_transit":true,"station_name":"Manggarai","i_lat":-6.209883,"distance":2610,"line":2},{"time":4,"station_name":"Sudirman","i_lat":-6.202263,"i_long":106.822649,"transit":false,"station_id":"SUD","line":1,"is_transit":false,"distance":3186},{"transit":false,"station_id":"SUDB","station_name":"Sudirman Baru","i_lat":-6.201433,"distance":280,"time":1,"is_transit":false,"i_long":106.819881,"line":1},{"station_id":"KAT","station_name":"Karet","i_long":106.816351,"line":1,"is_transit":false,"i_lat":-6.20132,"time":1,"distance":471,"transit":false},{"line":1,"station_id":"THB","transit":false,"i_long":106.811091,"i_lat":-6.185545,"distance":2029,"is_transit":false,"station_name":"Tanah Abang","time":5},{"i_lat":-6.155215,"distance":3632,"time":8,"station_name":"Duri","transit":false,"i_long":106.800832,"is_transit":false,"station_id":"DU","line":1},{"i_lat":-6.144674,"is_transit":false,"station_name":"Angke","transit":false,"line":1,"station_id":"AK","time":4,"i_long":106.79867,"distance":1230},{"distance":4102,"station_id":"KPB","transit":true,"time":9,"station_name":"Kampung Bandan","i_lat":-6.132549,"line":4,"i_long":106.826365,"is_transit":true},{"is_transit":false,"transit":false,"station_name":"Rajawali","i_lat":-6.14505,"i_long":106.836569,"station_id":"RJW","line":11,"distance":1444,"time":3},{"transit":false,"time":5,"is_transit":false,"distance":1901,"station_id":"KMO","station_name":"Kemayoran","i_lat":-6.161728,"line":11,"i_long":106.839204},{"i_long":106.84368,"line":11,"distance":1436,"time":4,"station_id":"PSE","i_lat":-6.174784,"is_transit":false,"transit":false,"station_name":"Pasar Senen"},{"is_transit":false,"distance":1567,"transit":false,"i_lat":-6.185975,"i_long":106.850107,"station_id":"GST","time":8,"station_name":"Gang Sentiong","line":11},{"station_name":"Kramat","i_lat":-6.193792,"i_long":106.855437,"transit":false,"line":11,"station_id":"KMT","is_transit":false,"distance":973,"time":1},{"time":2,"is_transit":false,"station_id":"POK","transit":false,"distance":1829,"i_long":106.861737,"station_name":"Pondok Jati","i_lat":-6.209188,"line":11},{"i_long":106.86807400000001,"station_id":"JNG","distance":1236,"transit":true,"station_name":"Jatinegara","is_transit":true,"time":9,"i_lat":-6.215091,"line":1},{"is_transit":false,"time":2,"station_name":"Matraman","i_long":106.858896,"line":1,"transit":false,"distance":1377,"station_id":"MTR","i_lat":-6.212485}],[{"distance":0,"time":0,"i_lat":-6.2842400000000005,"line":2,"is_transit":false,"station_id":"PSM","station_name":"Pasar Minggu","i_long":106.843999,"transit":false},{"distance":2380,"i_lat":-6.263214,"i_long":106.851577,"line":2,"station_name":"Pasar Minggu Baru","station_id":"PSMB","is_transit":false,"time":2,"transit":false},{"distance":824,"station_name":"Duren Kalibata","i_lat":-6.255332,"line":2,"is_transit":false,"transit":false,"station_id":"DRN","i_long":106.85449,"time":2},{"transit":false,"i_long":106.856607,"distance":1546,"is_transit":false,"i_lat":-6.242512,"line":2,"station_name":"Cawang","station_id":"CW","time":3},{"i_lat":-6.226659,"distance":1230,"line":2,"station_name":"Tebet","i_long":106.857948,"is_transit":false,"time":2,"station_id":"TEB","transit":false},{"station_name":"Manggarai","is_transit":false,"distance":2610,"i_lat":-6.209883,"station_id":"MRI","transit":false,"time":4,"i_long":106.84912,"line":2},{"i_lat":-6.198556,"i_long":106.840169,"line":2,"time":4,"station_name":"Cikini","station_id":"CKI","distance":1590,"transit":false,"is_transit":false},{"station_id":"GDD","transit":false,"distance":1750,"is_transit":false,"time":3,"i_lat":-6.186295,"i_long":106.832183,"line":2,"station_name":"Gondangdia"},{"is_transit":false,"distance":2015,"transit":false,"line":2,"station_id":"JUA","time":4,"i_lat":-6.166716,"i_long":106.828284,"station_name":"Juanda"},{"i_long":106.827103,"i_lat":-6.160725,"line":2,"distance":1149,"station_id":"SW","is_transit":false,"transit":false,"station_name":"Sawah Besar","time":2},{"line":2,"distance":906,"is_transit":false,"transit":false,"station_name":"Manggabesar","time":2,"station_id":"MGB","i_lat":-6.149769,"i_long":106.82482},{"transit":false,"line":2,"station_id":"JAY","i_lat":-6.141205,"i_long":106.820901,"time":2,"is_transit":false,"distance":1080,"station_name":"Jayakarta"},{"line":2,"transit":true,"is_transit":true,"distance":1264,"time":4,"station_name":"Jakarta Kota","station_id":"JAKK","i_lat":-6.137569,"i_long":106.812439},{"station_id":"KPB","transit":true,"station_name":"Kampung Bandan","i_lat":-6.132549,"i_long":106.826365,"is_transit":true,"distance":1364,"time":3,"line":4},{"line":11,"time":3,"i_lat":-6.14505,"i_long":106.836569,"is_transit":false,"station_id":"RJW","transit":false,"station_name":"Rajawali","distance":1444},{"station_id":"KMO","station_name":"Kemayoran","i_lat":-6.161728,"i_long":106.839204,"transit":false,"time":5,"line":11,"distance":1901,"is_transit":false},{"transit":false,"station_id":"PSE","distance":1436,"time":4,"station_name":"Pasar Senen","i_lat":-6.174784,"is_transit":false,"line":11,"i_long":106.84368},{"i_long":106.850107,"time":8,"transit":false,"line":11,"is_transit":false,"distance":1567,"station_id":"GST","station_name":"Gang Sentiong","i_lat":-6.185975},{"distance":973,"station_id":"KMT","line":11,"time":1,"is_transit":false,"station_name":"Kramat","transit":false,"i_long":106.855437,"i_lat":-6.193792},{"i_long":106.861737,"is_transit":false,"i_lat":-6.209188,"line":11,"station_id":"POK","distance":1829,"transit":false,"time":2,"station_name":"Pondok Jati"},{"i_lat":-6.215091,"distance":1236,"line":1,"time":9,"station_name":"Jatinegara","transit":true,"i_long":106.86807400000001,"station_id":"JNG","is_transit":true},{"station_id":"MTR","station_name":"Matraman","transit":false,"distance":1377,"i_lat":-6.212485,"is_transit":false,"line":1,"time":2,"i_long":106.858896}]]}