{"data":[[{"is_transit":false,"line":2,"station_name":"Pasar Minggu","station_id":"PSM","transit":false,"i_lat":-6.2842400000000005,"time":0,"i_long":106.843999,"distance":0},{"distance":2820,"transit":false,"is_transit":false,"line":2,"i_long":106.838896,"i_lat":-6.3080680000000005,"time":4,"station_name":"Tanjung Barat","station_id":"TNT"},{"i_long":106.832616,"distance":2671,"is_transit":false,"station_name":"Lenteng Agung","station_id":"LNA","time":3,"i_lat":-6.330363,"transit":false,"line":2},{"station_name":"Univ. Pancasila","time":2,"i_long":106.834175,"i_lat":-6.339291,"transit":false,"station_id":"UP","line":2,"distance":1029,"is_transit":false},{"station_name":"Univ. Indonesia","i_lat":-6.360749,"distance":2264,"is_transit":false,"i_long":106.831474,"line":2,"station_id":"UI","transit":false,"time":3},{"station_id":"POC","station_name":"Pondok Cina","i_lat":-6.369073,"distance":1109,"time":2,"i_long":106.831114,"transit":false,"is_transit":false,"line":2},{"station_name":"Depokbaru","is_transit":false,"i_long":106.819451,"line":2,"time":4,"distance":2727,"station_id":"DPB","transit":false,"i_lat":-6.391065},{"i_lat":-6.405256,"station_name":"Depok","station_id":"DP","i_long":106.816926,"line":2,"time":3,"distance":1584,"is_transit":false,"transit":false},{"line":2,"is_transit":false,"i_long":106.800298,"time":6,"transit":false,"station_id":"CTA","distance":5084,"station_name":"Citayam","i_lat":-6.448811}]]}