{"data":[[{"is_transit":false,"time":0,"transit":false,"station_name":"Pasar Minggu","distance":0,"i_long":106.843999,"line":2,"station_id":"PSM","i_lat":-6.2842400000000005},{"i_long":106.851577,"line":2,"is_transit":false,"distance":2380,"station_id":"PSMB","station_name":"Pasar Minggu Baru","time":2,"transit":false,"i_lat":-6.263214},{"line":2,"is_transit":false,"transit":false,"i_long":106.85449,"distance":824,"i_lat":-6.255332,"station_id":"DRN","station_name":"Duren Kalibata","time":2},{"transit":false,"i_lat":-6.242512,"time":3,"distance":1546,"is_transit":false,"i_long":106.856607,"station_id":"CW","line":2,"station_name":"Cawang"},{"line":2,"i_lat":-6.226659,"station_name":"Tebet","distance":1230,"transit":false,"i_long":106.857948,"time":2,"station_id":"TEB","is_transit":false},{"transit":true,"distance":2610,"station_name":"Manggarai","i_lat":-6.209883,"is_transit":true,"line":2,"i_long":106.84912,"time":4,"station_id":"MRI"},{"i_lat":-6.202263,"is_transit":false,"transit":false,"line":1,"i_long":106.822649,"time":4,"station_id":"SUD","station_name":"Sudirman","distance":3186},{"station_id":"SUDB","distance":280,"i_long":106.819881,"time":1,"is_transit":false,"line":1,"transit":false,"i_lat":-6.201433,"station_name":"Sudirman Baru"},{"i_lat":-6.20132,"distance":471,"station_name":"Karet","station_id":"KAT","line":1,"is_transit":false,"transit":false,"time":1,"i_long":106.816351},{"is_transit":false,"line":1,"transit":false,"i_lat":-6.185545,"i_long":106.811091,"distance":2029,"time":5,"station_name":"Tanah Abang","station_id":"THB"},{"is_transit":true,"station_name":"Duri","i_long":106.800832,"time":8,"transit":true,"line":1,"distance":3632,"station_id":"DU","i_lat":-6.155215},{"distance":1700,"i_long":106.788277,"line":5,"i_lat":-6.162021,"station_name":"Grogol","station_id":"GGL","is_transit":false,"time":3,"transit":false},{"i_long":106.771379,"transit":false,"i_lat":-6.161433,"line":5,"station_id":"PSG","time":2,"is_transit":false,"station_name":"Pesing","distance":2036},{"i_long":106.756522,"station_name":"Taman Kota","time":2,"station_id":"TKO","distance":1614,"line":5,"is_transit":false,"transit":false,"i_lat":-6.1587309999999995},{"is_transit":false,"time":2,"station_id":"BOI","i_long":106.737035,"line":5,"transit":false,"i_lat":-6.159876,"station_name":"Bojongindah","distance":2334},{"station_id":"RW","distance":1152,"i_long":106.723064,"line":5,"i_lat":-6.162758,"time":4,"station_name":"Rawa Buaya","is_transit":false,"transit":false},{"station_name":"Kalideres","i_long":106.701612,"station_id":"KDS","i_lat":-6.166068,"is_transit":false,"line":5,"time":3,"distance":2504,"transit":false},{"station_id":"PI","i_long":106.679458,"transit":false,"line":5,"station_name":"Poris","i_lat":-6.169933,"time":3,"distance":2548,"is_transit":false}],[{"i_lat":-6.2842400000000005,"station_name":"Pasar Minggu","line":2,"i_long":106.843999,"is_transit":false,"time":0,"distance":0,"transit":false,"station_id":"PSM"},{"time":2,"i_long":106.851577,"station_id":"PSMB","i_lat":-6.263214,"distance":2380,"transit":false,"station_name":"Pasar Minggu Baru","line":2,"is_transit":false},{"line":2,"time":2,"i_lat":-6.255332,"station_name":"Duren Kalibata","distance":824,"transit":false,"station_id":"DRN","is_transit":false,"i_long":106.85449},{"station_name":"Cawang","station_id":"CW","i_long":106.856607,"transit":false,"is_transit":false,"i_lat":-6.242512,"line":2,"distance":1546,"time":3},{"distance":1230,"station_name":"Tebet","station_id":"TEB","transit":false,"i_lat":-6.226659,"i_long":106.857948,"time":2,"line":2,"is_transit":false},{"transit":false,"time":4,"station_id":"MRI","i_lat":-6.209883,"is_transit":false,"distance":2610,"line":2,"station_name":"Manggarai","i_long":106.84912},{"time":4,"station_name":"Cikini","is_transit":false,"distance":1590,"station_id":"CKI","transit":false,"i_long":106.840169,"line":2,"i_lat":-6.198556},{"is_transit":false,"i_lat":-6.186295,"i_long":106.832183,"time":3,"station_name":"Gondangdia","transit":false,"distance":1750,"line":2,"station_id":"GDD"},{"station_id":"JUA","i_long":106.828284,"transit":false,"time":4,"station_name":"Juanda","line":2,"distance":2015,"is_transit":false,"i_lat":-6.166716},{"transit":false,"time":2,"distance":1149,"station_id":"SW","i_lat":-6.160725,"i_long":106.827103,"station_name":"Sawah Besar","line":2,"is_transit":false},{"i_lat":-6.149769,"transit":false,"time":2,"i_long":106.82482,"is_transit":false,"distance":906,"station_name":"Manggabesar","line":2,"station_id":"MGB"},{"is_transit":false,"time":2,"distance":1080,"i_long":106.820901,"station_id":"JAY","i_lat":-6.141205,"transit":false,"line":2,"station_name":"Jayakarta"},{"distance":1264,"station_name":"Jakarta Kota","line":2,"time":4,"is_transit":true,"i_long":106.812439,"transit":true,"i_lat":-6.137569,"station_id":"JAKK"},{"i_lat":-6.132549,"i_long":106.826365,"station_name":"Kampung Bandan","transit":true,"distance":1364,"line":4,"station_id":"KPB","time":3,"is_transit":true},{"station_id":"AK","distance":4102,"line":1,"time":9,"is_transit":false,"i_lat":-6.144674,"i_long":106.79867,"station_name":"Angke","transit":false},{"distance":1230,"line":1,"i_long":106.800832,"time":4,"transit":true,"station_id":"DU","is_transit":true,"i_lat":-6.155215,"station_name":"Duri"},{"distance":1700,"i_lat":-6.162021,"i_long":106.788277,"line":5,"station_id":"GGL","time":3,"is_transit":false,"transit":false,"station_name":"Grogol"},{"line":5,"distance":2036,"station_id":"PSG","i_lat":-6.161433,"i_long":106.771379,"is_transit":false,"transit":false,"station_name":"Pesing","time":2},{"time":2,"station_name":"Taman Kota","line":5,"is_transit":false,"distance":1614,"i_lat":-6.1587309999999995,"transit":false,"station_id":"TKO","i_long":106.756522},{"station_name":"Bojongindah","distance":2334,"is_transit":false,"transit":false,"i_lat":-6.159876,"i_long":106.737035,"time":2,"line":5,"station_id":"BOI"},{"is_transit":false,"station_name":"Rawa Buaya","transit":false,"i_long":106.723064,"time":4,"distance":1152,"i_lat":-6.162758,"station_id":"RW","line":5},{"i_long":106.701612,"is_transit":false,"distance":2504,"time":3,"line":5,"station_id":"KDS","station_name":"Kalideres","i_lat":-6.166068,"transit":false},{"time":3,"station_id":"PI","transit":false,"line":5,"i_lat":-6.169933,"is_transit":false,"station_name":"Poris","i_long":106.679458,"distance":2548}],[{"i_lat":-6.2842400000000005,"station_id":"PSM","distance":0,"station_name":"Pasar Minggu","transit":false,"i_long":106.843999,"is_transit":false,"line":2,"time":0},{"distance":2380,"station_name":"Pasar Minggu Baru","i_long":106.851577,"station_id":"PSMB","time":2,"line":2,"is_transit":false,"i_lat":-6.263214,"transit":false},{"line":2,"station_id":"DRN","station_name":"Duren Kalibata","transit":false,"i_lat":-6.255332,"time":2,"i_long":106.85449,"is_transit":false,"distance":824},{"i_long":106.856607,"line":2,"station_id":"CW","is_transit":false,"i_lat":-6.242512,"distance":1546,"time":3,"transit":false,"station_name":"Cawang"},{"time":2,"transit":false,"i_lat":-6.226659,"is_transit":false,"i_long":106.857948,"station_id":"TEB","line":2,"station_name":"Tebet","distance":1230},{"line":2,"i_lat":-6.209883,"station_id":"MRI","is_transit":true,"time":4,"station_name":"Manggarai","distance":2610,"transit":true,"i_long":106.84912},{"station_name":"Matraman","transit":false,"time":2,"is_transit":false,"distance":1275,"i_lat":-6.212485,"line":1,"station_id":"MTR","i_long":106.858896},{"time":8,"i_long":106.86807400000001,"line":1,"station_id":"JNG","station_name":"Jatinegara","distance":1377,"transit":true,"is_transit":true,"i_lat":-6.215091},{"line":11,"transit":false,"i_long":106.861737,"distance":1236,"station_id":"POK","station_name":"Pondok Jati","i_lat":-6.209188,"is_transit":false,"time":2},{"station_id":"KMT","i_lat":-6.193792,"is_transit":false,"i_long":106.855437,"transit":false,"distance":1829,"line":11,"station_name":"Kramat","time":2},{"station_id":"GST","time":1,"distance":973,"station_name":"Gang Sentiong","line":11,"transit":false,"is_transit":false,"i_lat":-6.185975,"i_long":106.850107},{"time":8,"station_name":"Pasar Senen","transit":false,"line":11,"distance":1567,"i_lat":-6.174784,"i_long":106.84368,"is_transit":false,"station_id":"PSE"},{"is_transit":false,"transit":false,"i_lat":-6.161728,"station_name":"Kemayoran","i_long":106.839204,"station_id":"KMO","distance":1436,"line":11,"time":4},{"line":11,"is_transit":false,"station_id":"RJW","time":5,"station_name":"Rajawali","transit":false,"i_long":106.836569,"distance":1901,"i_lat":-6.14505},{"distance":1444,"station_id":"KPB","is_transit":true,"i_long":106.826365,"i_lat":-6.132549,"transit":true,"station_name":"Kampung Bandan","time":3,"line":4},{"station_id":"AK","i_long":106.79867,"is_transit":false,"transit":false,"station_name":"Angke","time":9,"distance":4102,"i_lat":-6.144674,"line":1},{"station_name":"Duri","is_transit":true,"line":1,"station_id":"DU","distance":1230,"transit":true,"i_long":106.800832,"time":4,"i_lat":-6.155215},{"station_id":"GGL","time":3,"transit":false,"i_long":106.788277,"distance":1700,"is_transit":false,"line":5,"station_name":"Grogol","i_lat":-6.162021},{"station_id":"PSG","time":2,"i_lat":-6.161433,"i_long":106.771379,"line":5,"distance":2036,"transit":false,"station_name":"Pesing","is_transit":false},{"i_lat":-6.1587309999999995,"is_transit":false,"station_name":"Taman Kota","distance":1614,"line":5,"i_long":106.756522,"time":2,"station_id":"TKO","transit":false},{"station_id":"BOI","station_name":"Bojongindah","is_transit":false,"transit":false,"line":5,"distance":2334,"time":2,"i_lat":-6.159876,"i_long":106.737035},{"station_name":"Rawa Buaya","distance":1152,"i_lat":-6.162758,"station_id":"RW","time":4,"transit":false,"is_transit":false,"line":5,"i_long":106.723064},{"transit":false,"i_lat":-6.166068,"line":5,"distance":2504,"i_long":106.701612,"station_name":"Kalideres","is_transit":false,"time":3,"station_id":"KDS"},{"time":3,"i_long":106.679458,"line":5,"station_name":"Poris","i_lat":-6.169933,"distance":2548,"is_transit":false,"station_id":"PI","transit":false}]]}