{"data":[[{"line":2,"i_long":106.843999,"station_id":"PSM","is_transit":false,"distance":0,"station_name":"Pasar Minggu","transit":false,"time":0,"i_lat":-6.2842400000000005},{"station_id":"PSMB","station_name":"Pasar Minggu Baru","i_lat":-6.263214,"transit":false,"is_transit":false,"distance":2380,"time":2,"line":2,"i_long":106.851577},{"is_transit":false,"line":2,"i_lat":-6.255332,"station_id":"DRN","i_long":106.85449,"station_name":"Duren Kalibata","time":2,"transit":false,"distance":824},{"i_long":106.856607,"i_lat":-6.242512,"is_transit":false,"station_id":"CW","time":3,"line":2,"distance":1546,"transit":false,"station_name":"Cawang"},{"is_transit":false,"time":2,"i_long":106.857948,"distance":1230,"station_id":"TEB","transit":false,"i_lat":-6.226659,"line":2,"station_name":"Tebet"},{"station_name":"Manggarai","transit":true,"time":4,"i_long":106.84912,"i_lat":-6.209883,"line":2,"station_id":"MRI","is_transit":true,"distance":2610},{"distance":3186,"time":4,"is_transit":false,"transit":false,"i_lat":-6.202263,"station_id":"SUD","line":1,"i_long":106.822649,"station_name":"Sudirman"},{"i_lat":-6.201433,"i_long":106.819881,"line":1,"station_name":"Sudirman Baru","is_transit":false,"station_id":"SUDB","time":1,"transit":false,"distance":280},{"distance":471,"station_name":"Karet","transit":false,"station_id":"KAT","i_long":106.816351,"time":1,"is_transit":false,"i_lat":-6.20132,"line":1},{"i_lat":-6.185545,"time":5,"station_name":"Tanah Abang","station_id":"THB","is_transit":true,"distance":2029,"transit":true,"i_long":106.811091,"line":1},{"line":6,"is_transit":false,"time":6,"station_name":"Palmerah","transit":false,"i_long":106.79689,"i_lat":-6.207404,"distance":3191,"station_id":"PLM"},{"i_lat":-6.237242,"line":6,"is_transit":false,"distance":3737,"station_id":"KBY","time":7,"station_name":"Kebayoran","i_long":106.780334,"transit":false},{"line":6,"station_name":"Pondokranji","is_transit":false,"station_id":"PDJ","i_long":106.74273,"transit":false,"time":8,"distance":6218,"i_lat":-6.276362},{"is_transit":false,"station_id":"JMU","i_lat":-6.288927,"station_name":"Jurangmangu","i_long":106.728916,"line":6,"transit":false,"distance":2179,"time":3},{"transit":false,"station_name":"Sudimara","i_long":106.712277,"station_id":"SDM","distance":1994,"i_lat":-6.296963,"line":6,"time":4,"is_transit":false},{"i_long":106.675475,"station_name":"Rawa Buntu","line":6,"distance":4566,"is_transit":false,"transit":false,"time":6,"station_id":"RU","i_lat":-6.314823},{"i_long":106.66566,"is_transit":false,"i_lat":-6.319871,"transit":false,"line":6,"distance":2413,"time":4,"station_id":"SRP","station_name":"Serpong"},{"i_long":106.640411,"time":4,"is_transit":false,"transit":false,"i_lat":-6.32484,"station_name":"Cisauk","distance":1784,"station_id":"CSK","line":3},{"distance":2519,"transit":false,"station_id":"CC","line":3,"time":4,"is_transit":false,"i_lat":-6.329547,"i_long":106.617853,"station_name":"Cicayur"},{"distance":5968,"is_transit":false,"transit":false,"i_lat":-6.3441410000000005,"station_id":"PRP","i_long":106.568863,"line":6,"time":8,"station_name":"Parung Panjang"},{"station_name":"Cilejit","is_transit":false,"i_lat":-6.354349,"distance":7025,"time":9,"station_id":"CJT","i_long":106.508482,"transit":false,"line":3},{"station_name":"Daru","is_transit":false,"i_lat":-6.338021,"distance":2675,"station_id":"DAR","time":6,"transit":false,"line":0,"i_long":106.491338},{"distance":3902,"line":6,"station_name":"Tenjo","i_long":106.460812,"time":5,"is_transit":false,"station_id":"TEJ","i_lat":-6.327251,"transit":false}],[{"distance":0,"line":2,"is_transit":false,"transit":false,"station_id":"PSM","i_lat":-6.2842400000000005,"i_long":106.843999,"time":0,"station_name":"Pasar Minggu"},{"time":2,"station_id":"PSMB","distance":2380,"i_lat":-6.263214,"station_name":"Pasar Minggu Baru","is_transit":false,"line":2,"i_long":106.851577,"transit":false},{"line":2,"distance":824,"is_transit":false,"time":2,"i_long":106.85449,"transit":false,"station_id":"DRN","i_lat":-6.255332,"station_name":"Duren Kalibata"},{"station_id":"CW","is_transit":false,"i_long":106.856607,"station_name":"Cawang","i_lat":-6.242512,"transit":false,"distance":1546,"line":2,"time":3},{"is_transit":false,"station_id":"TEB","i_lat":-6.226659,"distance":1230,"station_name":"Tebet","transit":false,"i_long":106.857948,"time":2,"line":2},{"i_long":106.84912,"i_lat":-6.209883,"line":2,"station_id":"MRI","station_name":"Manggarai","time":4,"transit":false,"distance":2610,"is_transit":false},{"station_id":"CKI","i_long":106.840169,"distance":1590,"transit":false,"line":2,"is_transit":false,"station_name":"Cikini","i_lat":-6.198556,"time":4},{"distance":1750,"station_id":"GDD","is_transit":false,"i_long":106.832183,"line":2,"time":3,"station_name":"Gondangdia","transit":false,"i_lat":-6.186295},{"i_lat":-6.166716,"station_id":"JUA","i_long":106.828284,"distance":2015,"transit":false,"line":2,"time":4,"is_transit":false,"station_name":"Juanda"},{"station_id":"SW","distance":1149,"station_name":"Sawah Besar","i_lat":-6.160725,"i_long":106.827103,"time":2,"is_transit":false,"line":2,"transit":false},{"i_long":106.82482,"station_name":"Manggabesar","distance":906,"station_id":"MGB","line":2,"time":2,"transit":false,"i_lat":-6.149769,"is_transit":false},{"station_name":"Jayakarta","distance":1080,"transit":false,"station_id":"JAY","i_long":106.820901,"is_transit":false,"i_lat":-6.141205,"time":2,"line":2},{"time":4,"distance":1264,"is_transit":true,"line":2,"station_name":"Jakarta Kota","station_id":"JAKK","transit":true,"i_lat":-6.137569,"i_long":106.812439},{"station_name":"Kampung Bandan","distance":1364,"i_lat":-6.132549,"is_transit":true,"transit":true,"station_id":"KPB","i_long":106.826365,"line":4,"time":3},{"i_lat":-6.144674,"station_id":"AK","distance":4102,"line":1,"time":9,"transit":false,"station_name":"Angke","i_long":106.79867,"is_transit":false},{"is_transit":false,"transit":false,"line":1,"station_id":"DU","time":4,"distance":1230,"i_lat":-6.155215,"station_name":"Duri","i_long":106.800832},{"i_long":106.811091,"line":1,"i_lat":-6.185545,"distance":3632,"is_transit":true,"transit":true,"time":8,"station_name":"Tanah Abang","station_id":"THB"},{"is_transit":false,"station_id":"PLM","distance":3191,"i_long":106.79689,"line":6,"transit":false,"time":6,"i_lat":-6.207404,"station_name":"Palmerah"},{"distance":3737,"is_transit":false,"station_id":"KBY","i_lat":-6.237242,"i_long":106.780334,"time":7,"station_name":"Kebayoran","transit":false,"line":6},{"transit":false,"i_long":106.74273,"is_transit":false,"distance":6218,"station_name":"Pondokranji","line":6,"time":8,"station_id":"PDJ","i_lat":-6.276362},{"line":6,"station_name":"Jurangmangu","i_lat":-6.288927,"distance":2179,"transit":false,"station_id":"JMU","i_long":106.728916,"time":3,"is_transit":false},{"i_lat":-6.296963,"station_name":"Sudimara","time":4,"is_transit":false,"line":6,"i_long":106.712277,"transit":false,"distance":1994,"station_id":"SDM"},{"i_lat":-6.314823,"line":6,"station_id":"RU","distance":4566,"is_transit":false,"i_long":106.675475,"transit":false,"time":6,"station_name":"Rawa Buntu"},{"station_id":"SRP","i_lat":-6.319871,"i_long":106.66566,"distance":2413,"time":4,"station_name":"Serpong","line":6,"transit":false,"is_transit":false},{"station_id":"CSK","i_lat":-6.32484,"time":4,"station_name":"Cisauk","transit":false,"distance":1784,"i_long":106.640411,"line":3,"is_transit":false},{"is_transit":false,"transit":false,"i_lat":-6.329547,"i_long":106.617853,"time":4,"distance":2519,"line":3,"station_name":"Cicayur","station_id":"CC"},{"station_name":"Parung Panjang","is_transit":false,"transit":false,"station_id":"PRP","distance":5968,"time":8,"line":6,"i_lat":-6.3441410000000005,"i_long":106.568863},{"line":3,"is_transit":false,"station_id":"CJT","transit":false,"station_name":"Cilejit","distance":7025,"i_lat":-6.354349,"time":9,"i_long":106.508482},{"i_long":106.491338,"station_name":"Daru","distance":2675,"time":6,"line":0,"i_lat":-6.338021,"transit":false,"is_transit":false,"station_id":"DAR"},{"i_long":106.460812,"line":6,"i_lat":-6.327251,"time":5,"distance":3902,"is_transit":false,"transit":false,"station_name":"Tenjo","station_id":"TEJ"}],[{"line":2,"time":0,"station_id":"PSM","i_long":106.843999,"distance":0,"is_transit":false,"i_lat":-6.2842400000000005,"transit":false,"station_name":"Pasar Minggu"},{"line":2,"i_lat":-6.263214,"i_long":106.851577,"station_id":"PSMB","transit":false,"time":2,"distance":2380,"is_transit":false,"station_name":"Pasar Minggu Baru"},{"time":2,"line":2,"is_transit":false,"transit":false,"i_lat":-6.255332,"distance":824,"station_id":"DRN","station_name":"Duren Kalibata","i_long":106.85449},{"line":2,"time":3,"is_transit":false,"i_long":106.856607,"distance":1546,"station_id":"CW","transit":false,"station_name":"Cawang","i_lat":-6.242512},{"is_transit":false,"i_long":106.857948,"distance":1230,"transit":false,"i_lat":-6.226659,"station_name":"Tebet","time":2,"line":2,"station_id":"TEB"},{"station_name":"Manggarai","station_id":"MRI","i_long":106.84912,"line":2,"is_transit":true,"time":4,"i_lat":-6.209883,"transit":true,"distance":2610},{"is_transit":false,"line":1,"distance":1275,"station_id":"MTR","transit":false,"i_lat":-6.212485,"time":2,"station_name":"Matraman","i_long":106.858896},{"station_id":"JNG","distance":1377,"i_long":106.86807400000001,"transit":true,"i_lat":-6.215091,"line":1,"time":8,"is_transit":true,"station_name":"Jatinegara"},{"i_lat":-6.209188,"is_transit":false,"distance":1236,"transit":false,"station_id":"POK","station_name":"Pondok Jati","line":11,"i_long":106.861737,"time":2},{"is_transit":false,"i_long":106.855437,"station_name":"Kramat","distance":1829,"line":11,"transit":false,"station_id":"KMT","i_lat":-6.193792,"time":2},{"line":11,"transit":false,"time":1,"station_id":"GST","distance":973,"is_transit":false,"i_lat":-6.185975,"station_name":"Gang Sentiong","i_long":106.850107},{"i_lat":-6.174784,"station_id":"PSE","distance":1567,"time":8,"line":11,"station_name":"Pasar Senen","transit":false,"i_long":106.84368,"is_transit":false},{"time":4,"distance":1436,"station_name":"Kemayoran","transit":false,"is_transit":false,"i_lat":-6.161728,"i_long":106.839204,"station_id":"KMO","line":11},{"time":5,"station_id":"RJW","i_lat":-6.14505,"is_transit":false,"transit":false,"i_long":106.836569,"line":11,"distance":1901,"station_name":"Rajawali"},{"station_id":"KPB","i_long":106.826365,"line":4,"time":3,"is_transit":true,"station_name":"Kampung Bandan","i_lat":-6.132549,"distance":1444,"transit":true},{"station_name":"Angke","line":1,"i_long":106.79867,"station_id":"AK","is_transit":false,"transit":false,"i_lat":-6.144674,"distance":4102,"time":9},{"distance":1230,"line":1,"station_id":"DU","station_name":"Duri","is_transit":false,"transit":false,"i_lat":-6.155215,"time":4,"i_long":106.800832},{"station_id":"THB","transit":true,"i_lat":-6.185545,"i_long":106.811091,"distance":3632,"station_name":"Tanah Abang","time":8,"is_transit":true,"line":1},{"distance":3191,"is_transit":false,"transit":false,"i_lat":-6.207404,"station_id":"PLM","i_long":106.79689,"time":6,"line":6,"station_name":"Palmerah"},{"is_transit":false,"time":7,"i_lat":-6.237242,"transit":false,"distance":3737,"station_id":"KBY","station_name":"Kebayoran","line":6,"i_long":106.780334},{"i_lat":-6.276362,"station_id":"PDJ","station_name":"Pondokranji","line":6,"i_long":106.74273,"time":8,"transit":false,"is_transit":false,"distance":6218},{"station_id":"JMU","i_long":106.728916,"i_lat":-6.288927,"line":6,"time":3,"is_transit":false,"distance":2179,"transit":false,"station_name":"Jurangmangu"},{"station_name":"Sudimara","line":6,"distance":1994,"time":4,"transit":false,"is_transit":false,"station_id":"SDM","i_lat":-6.296963,"i_long":106.712277},{"line":6,"i_long":106.675475,"i_lat":-6.314823,"is_transit":false,"station_id":"RU","distance":4566,"time":6,"transit":false,"station_name":"Rawa Buntu"},{"i_lat":-6.319871,"station_name":"Serpong","time":4,"i_long":106.66566,"station_id":"SRP","distance":2413,"line":6,"transit":false,"is_transit":false},{"is_transit":false,"i_lat":-6.32484,"i_long":106.640411,"transit":false,"line":3,"time":4,"station_id":"CSK","station_name":"Cisauk","distance":1784},{"is_transit":false,"time":4,"line":3,"transit":false,"station_name":"Cicayur","station_id":"CC","i_lat":-6.329547,"i_long":106.617853,"distance":2519},{"i_lat":-6.3441410000000005,"station_id":"PRP","time":8,"line":6,"distance":5968,"transit":false,"is_transit":false,"station_name":"Parung Panjang","i_long":106.568863},{"i_long":106.508482,"i_lat":-6.354349,"transit":false,"station_name":"Cilejit","line":3,"distance":7025,"station_id":"CJT","is_transit":false,"time":9},{"distance":2675,"station_id":"DAR","i_long":106.491338,"is_transit":false,"transit":false,"i_lat":-6.338021,"line":0,"time":6,"station_name":"Daru"},{"i_lat":-6.327251,"time":5,"is_transit":false,"i_long":106.460812,"line":6,"distance":3902,"transit":false,"station_id":"TEJ","station_name":"Tenjo"}]]}