{"data":[[{"time":0,"line":2,"station_id":"PSM","i_long":106.843999,"transit":false,"station_name":"Pasar Minggu","is_transit":false,"distance":0,"i_lat":-6.2842400000000005},{"line":2,"time":2,"distance":2380,"is_transit":false,"station_name":"Pasar Minggu Baru","transit":false,"station_id":"PSMB","i_long":106.851577,"i_lat":-6.263214},{"is_transit":false,"line":2,"transit":false,"time":2,"distance":824,"i_lat":-6.255332,"station_id":"DRN","i_long":106.85449,"station_name":"Duren Kalibata"},{"line":2,"station_name":"Cawang","station_id":"CW","transit":false,"time":3,"distance":1546,"is_transit":false,"i_long":106.856607,"i_lat":-6.242512},{"time":2,"station_id":"TEB","i_lat":-6.226659,"transit":false,"station_name":"Tebet","is_transit":false,"i_long":106.857948,"line":2,"distance":1230},{"i_lat":-6.209883,"distance":2610,"station_name":"Manggarai","i_long":106.84912,"transit":true,"line":2,"is_transit":true,"station_id":"MRI","time":4},{"is_transit":false,"i_lat":-6.202263,"transit":false,"station_id":"SUD","distance":3186,"station_name":"Sudirman","time":4,"i_long":106.822649,"line":1},{"i_lat":-6.201433,"i_long":106.819881,"distance":280,"transit":false,"line":1,"station_id":"SUDB","time":1,"station_name":"Sudirman Baru","is_transit":false},{"time":1,"station_name":"Karet","distance":471,"station_id":"KAT","is_transit":false,"transit":false,"line":1,"i_lat":-6.20132,"i_long":106.816351},{"station_name":"Tanah Abang","distance":2029,"i_long":106.811091,"transit":false,"line":1,"station_id":"THB","is_transit":false,"time":5,"i_lat":-6.185545},{"station_name":"Duri","i_lat":-6.155215,"i_long":106.800832,"is_transit":true,"transit":true,"distance":3632,"line":1,"station_id":"DU","time":8},{"transit":false,"is_transit":false,"line":5,"distance":1700,"station_name":"Grogol","i_lat":-6.162021,"station_id":"GGL","time":3,"i_long":106.788277},{"station_id":"PSG","distance":2036,"i_lat":-6.161433,"is_transit":false,"line":5,"i_long":106.771379,"time":2,"station_name":"Pesing","transit":false},{"is_transit":false,"distance":1614,"i_long":106.756522,"time":2,"i_lat":-6.1587309999999995,"transit":false,"line":5,"station_id":"TKO","station_name":"Taman Kota"},{"line":5,"station_name":"Bojongindah","station_id":"BOI","time":2,"i_lat":-6.159876,"is_transit":false,"distance":2334,"transit":false,"i_long":106.737035},{"is_transit":false,"i_lat":-6.162758,"time":4,"distance":1152,"transit":false,"line":5,"station_name":"Rawa Buaya","i_long":106.723064,"station_id":"RW"},{"station_id":"KDS","transit":false,"is_transit":false,"time":3,"distance":2504,"i_lat":-6.166068,"i_long":106.701612,"line":5,"station_name":"Kalideres"},{"station_id":"PI","station_name":"Poris","is_transit":false,"transit":false,"line":5,"i_lat":-6.169933,"distance":2548,"time":3,"i_long":106.679458}],[{"transit":false,"time":0,"i_long":106.843999,"is_transit":false,"line":2,"i_lat":-6.2842400000000005,"distance":0,"station_id":"PSM","station_name":"Pasar Minggu"},{"is_transit":false,"line":2,"i_long":106.851577,"station_name":"Pasar Minggu Baru","time":2,"transit":false,"station_id":"PSMB","distance":2380,"i_lat":-6.263214},{"station_id":"DRN","station_name":"Duren Kalibata","is_transit":false,"distance":824,"i_lat":-6.255332,"i_long":106.85449,"line":2,"time":2,"transit":false},{"i_long":106.856607,"transit":false,"line":2,"distance":1546,"i_lat":-6.242512,"is_transit":false,"station_name":"Cawang","station_id":"CW","time":3},{"time":2,"station_name":"Tebet","station_id":"TEB","i_lat":-6.226659,"is_transit":false,"transit":false,"i_long":106.857948,"line":2,"distance":1230},{"station_name":"Manggarai","transit":false,"time":4,"distance":2610,"is_transit":false,"i_lat":-6.209883,"i_long":106.84912,"station_id":"MRI","line":2},{"i_lat":-6.198556,"time":4,"distance":1590,"i_long":106.840169,"line":2,"station_id":"CKI","station_name":"Cikini","is_transit":false,"transit":false},{"is_transit":false,"transit":false,"line":2,"station_name":"Gondangdia","i_long":106.832183,"distance":1750,"station_id":"GDD","time":3,"i_lat":-6.186295},{"i_long":106.828284,"transit":false,"distance":2015,"line":2,"station_id":"JUA","station_name":"Juanda","is_transit":false,"time":4,"i_lat":-6.166716},{"transit":false,"time":2,"distance":1149,"station_name":"Sawah Besar","station_id":"SW","i_lat":-6.160725,"i_long":106.827103,"is_transit":false,"line":2},{"station_id":"MGB","line":2,"distance":906,"is_transit":false,"i_lat":-6.149769,"station_name":"Manggabesar","time":2,"i_long":106.82482,"transit":false},{"station_name":"Jayakarta","station_id":"JAY","i_lat":-6.141205,"transit":false,"line":2,"is_transit":false,"distance":1080,"time":2,"i_long":106.820901},{"i_lat":-6.137569,"line":2,"is_transit":true,"i_long":106.812439,"station_name":"Jakarta Kota","station_id":"JAKK","time":4,"distance":1264,"transit":true},{"time":3,"station_name":"Kampung Bandan","distance":1364,"i_lat":-6.132549,"line":4,"transit":true,"is_transit":true,"station_id":"KPB","i_long":106.826365},{"i_long":106.79867,"line":1,"time":9,"station_name":"Angke","i_lat":-6.144674,"transit":false,"station_id":"AK","distance":4102,"is_transit":false},{"station_id":"DU","is_transit":true,"i_lat":-6.155215,"time":4,"station_name":"Duri","line":1,"i_long":106.800832,"transit":true,"distance":1230},{"station_name":"Grogol","is_transit":false,"line":5,"transit":false,"station_id":"GGL","distance":1700,"i_long":106.788277,"i_lat":-6.162021,"time":3},{"station_name":"Pesing","i_long":106.771379,"time":2,"station_id":"PSG","distance":2036,"line":5,"transit":false,"i_lat":-6.161433,"is_transit":false},{"time":2,"station_name":"Taman Kota","is_transit":false,"line":5,"i_lat":-6.1587309999999995,"i_long":106.756522,"station_id":"TKO","transit":false,"distance":1614},{"station_id":"BOI","station_name":"Bojongindah","is_transit":false,"time":2,"i_lat":-6.159876,"line":5,"distance":2334,"transit":false,"i_long":106.737035},{"transit":false,"station_name":"Rawa Buaya","is_transit":false,"time":4,"i_long":106.723064,"line":5,"station_id":"RW","distance":1152,"i_lat":-6.162758},{"station_id":"KDS","time":3,"station_name":"Kalideres","is_transit":false,"distance":2504,"i_lat":-6.166068,"i_long":106.701612,"line":5,"transit":false},{"station_id":"PI","line":5,"i_lat":-6.169933,"is_transit":false,"time":3,"i_long":106.679458,"transit":false,"station_name":"Poris","distance":2548}],[{"station_id":"PSM","transit":false,"station_name":"Pasar Minggu","i_long":106.843999,"distance":0,"time":0,"i_lat":-6.2842400000000005,"is_transit":false,"line":2},{"station_id":"PSMB","i_lat":-6.263214,"distance":2380,"i_long":106.851577,"time":2,"transit":false,"station_name":"Pasar Minggu Baru","line":2,"is_transit":false},{"i_lat":-6.255332,"time":2,"distance":824,"i_long":106.85449,"transit":false,"station_id":"DRN","line":2,"station_name":"Duren Kalibata","is_transit":false},{"station_name":"Cawang","transit":false,"station_id":"CW","time":3,"distance":1546,"is_transit":false,"i_long":106.856607,"line":2,"i_lat":-6.242512},{"i_lat":-6.226659,"is_transit":false,"distance":1230,"line":2,"station_id":"TEB","i_long":106.857948,"station_name":"Tebet","time":2,"transit":false},{"is_transit":true,"time":4,"i_lat":-6.209883,"transit":true,"distance":2610,"line":2,"i_long":106.84912,"station_name":"Manggarai","station_id":"MRI"},{"i_lat":-6.212485,"station_id":"MTR","line":1,"transit":false,"i_long":106.858896,"station_name":"Matraman","time":2,"is_transit":false,"distance":1275},{"station_id":"JNG","i_long":106.86807400000001,"transit":true,"is_transit":true,"distance":1377,"time":8,"station_name":"Jatinegara","i_lat":-6.215091,"line":1},{"station_name":"Pondok Jati","i_long":106.861737,"i_lat":-6.209188,"distance":1236,"transit":false,"station_id":"POK","is_transit":false,"time":2,"line":11},{"transit":false,"i_long":106.855437,"station_id":"KMT","i_lat":-6.193792,"line":11,"is_transit":false,"time":2,"distance":1829,"station_name":"Kramat"},{"i_long":106.850107,"time":1,"station_name":"Gang Sentiong","i_lat":-6.185975,"transit":false,"station_id":"GST","is_transit":false,"distance":973,"line":11},{"is_transit":false,"i_lat":-6.174784,"station_id":"PSE","i_long":106.84368,"transit":false,"station_name":"Pasar Senen","distance":1567,"line":11,"time":8},{"transit":false,"time":4,"distance":1436,"station_id":"KMO","is_transit":false,"station_name":"Kemayoran","i_lat":-6.161728,"i_long":106.839204,"line":11},{"time":5,"line":11,"is_transit":false,"station_name":"Rajawali","distance":1901,"i_lat":-6.14505,"i_long":106.836569,"transit":false,"station_id":"RJW"},{"is_transit":true,"station_name":"Kampung Bandan","line":4,"i_long":106.826365,"distance":1444,"station_id":"KPB","i_lat":-6.132549,"transit":true,"time":3},{"station_id":"AK","is_transit":false,"time":9,"transit":false,"distance":4102,"line":1,"i_long":106.79867,"station_name":"Angke","i_lat":-6.144674},{"station_id":"DU","is_transit":true,"time":4,"i_lat":-6.155215,"transit":true,"i_long":106.800832,"distance":1230,"line":1,"station_name":"Duri"},{"time":3,"station_name":"Grogol","transit":false,"distance":1700,"is_transit":false,"i_long":106.788277,"i_lat":-6.162021,"station_id":"GGL","line":5},{"transit":false,"i_long":106.771379,"time":2,"line":5,"i_lat":-6.161433,"distance":2036,"station_id":"PSG","station_name":"Pesing","is_transit":false},{"line":5,"station_name":"Taman Kota","distance":1614,"i_lat":-6.1587309999999995,"station_id":"TKO","is_transit":false,"i_long":106.756522,"transit":false,"time":2},{"transit":false,"station_name":"Bojongindah","station_id":"BOI","distance":2334,"i_lat":-6.159876,"line":5,"i_long":106.737035,"time":2,"is_transit":false},{"time":4,"transit":false,"station_id":"RW","i_long":106.723064,"station_name":"Rawa Buaya","line":5,"is_transit":false,"distance":1152,"i_lat":-6.162758},{"time":3,"i_lat":-6.166068,"i_long":106.701612,"line":5,"station_name":"Kalideres","transit":false,"station_id":"KDS","distance":2504,"is_transit":false},{"station_id":"PI","is_transit":false,"i_lat":-6.169933,"time":3,"line":5,"station_name":"Poris","distance":2548,"transit":false,"i_long":106.679458}]]}