{"data":[[{"distance":0,"i_long":106.843999,"transit":false,"station_name":"Pasar Minggu","line":2,"i_lat":-6.2842400000000005,"station_id":"PSM","time":0,"is_transit":false},{"i_lat":-6.263214,"station_id":"PSMB","is_transit":false,"line":2,"time":2,"i_long":106.851577,"station_name":"Pasar Minggu Baru","distance":2380,"transit":false},{"line":2,"i_long":106.85449,"transit":false,"is_transit":false,"time":2,"station_name":"Duren Kalibata","station_id":"DRN","distance":824,"i_lat":-6.255332},{"line":2,"time":3,"transit":false,"station_id":"CW","station_name":"Cawang","distance":1546,"i_long":106.856607,"is_transit":false,"i_lat":-6.242512},{"i_lat":-6.226659,"i_long":106.857948,"time":2,"line":2,"is_transit":false,"distance":1230,"station_id":"TEB","transit":false,"station_name":"Tebet"},{"transit":true,"is_transit":true,"station_id":"MRI","distance":2610,"time":4,"i_lat":-6.209883,"i_long":106.84912,"station_name":"Manggarai","line":2},{"is_transit":false,"transit":false,"line":1,"station_name":"Matraman","station_id":"MTR","i_lat":-6.212485,"time":2,"distance":1275,"i_long":106.858896},{"transit":true,"station_name":"Jatinegara","time":8,"line":1,"i_long":106.86807400000001,"i_lat":-6.215091,"station_id":"JNG","is_transit":true,"distance":1377},{"time":2,"i_lat":-6.209188,"station_id":"POK","station_name":"Pondok Jati","is_transit":false,"transit":false,"i_long":106.861737,"line":11,"distance":1236},{"i_lat":-6.193792,"time":2,"transit":false,"station_id":"KMT","is_transit":false,"station_name":"Kramat","distance":1829,"i_long":106.855437,"line":11},{"i_long":106.850107,"i_lat":-6.185975,"time":1,"is_transit":false,"distance":973,"line":11,"transit":false,"station_id":"GST","station_name":"Gang Sentiong"},{"i_long":106.84368,"line":11,"station_name":"Pasar Senen","i_lat":-6.174784,"station_id":"PSE","is_transit":false,"transit":false,"distance":1567,"time":8},{"i_lat":-6.161728,"transit":false,"station_id":"KMO","i_long":106.839204,"station_name":"Kemayoran","is_transit":false,"time":4,"distance":1436,"line":11}],[{"transit":false,"line":2,"station_name":"Pasar Minggu","is_transit":false,"time":0,"distance":0,"i_lat":-6.2842400000000005,"i_long":106.843999,"station_id":"PSM"},{"transit":false,"time":2,"station_name":"Pasar Minggu Baru","distance":2380,"station_id":"PSMB","is_transit":false,"i_lat":-6.263214,"i_long":106.851577,"line":2},{"transit":false,"is_transit":false,"station_id":"DRN","i_lat":-6.255332,"line":2,"station_name":"Duren Kalibata","distance":824,"i_long":106.85449,"time":2},{"transit":false,"i_lat":-6.242512,"i_long":106.856607,"is_transit":false,"time":3,"distance":1546,"station_id":"CW","station_name":"Cawang","line":2},{"is_transit":false,"line":2,"i_long":106.857948,"distance":1230,"transit":false,"station_id":"TEB","time":2,"i_lat":-6.226659,"station_name":"Tebet"},{"distance":2610,"station_id":"MRI","time":4,"i_long":106.84912,"line":2,"transit":true,"i_lat":-6.209883,"is_transit":true,"station_name":"Manggarai"},{"station_id":"SUD","i_long":106.822649,"is_transit":false,"i_lat":-6.202263,"line":1,"time":4,"transit":false,"station_name":"Sudirman","distance":3186},{"distance":280,"line":1,"transit":false,"station_name":"Sudirman Baru","time":1,"is_transit":false,"station_id":"SUDB","i_lat":-6.201433,"i_long":106.819881},{"i_lat":-6.20132,"station_name":"Karet","is_transit":false,"transit":false,"time":1,"line":1,"station_id":"KAT","distance":471,"i_long":106.816351},{"time":5,"distance":2029,"is_transit":false,"station_id":"THB","line":1,"transit":false,"i_lat":-6.185545,"i_long":106.811091,"station_name":"Tanah Abang"},{"transit":false,"is_transit":false,"i_lat":-6.155215,"time":8,"i_long":106.800832,"station_name":"Duri","station_id":"DU","line":1,"distance":3632},{"i_long":106.79867,"transit":false,"distance":1230,"i_lat":-6.144674,"station_id":"AK","station_name":"Angke","line":1,"time":4,"is_transit":false},{"distance":4102,"station_name":"Kampung Bandan","transit":true,"station_id":"KPB","i_long":106.826365,"time":9,"i_lat":-6.132549,"line":4,"is_transit":true},{"station_name":"Rajawali","is_transit":false,"time":3,"transit":false,"station_id":"RJW","distance":1444,"i_long":106.836569,"line":11,"i_lat":-6.14505},{"i_long":106.839204,"transit":false,"time":5,"station_name":"Kemayoran","i_lat":-6.161728,"station_id":"KMO","is_transit":false,"distance":1901,"line":11}],[{"i_long":106.843999,"line":2,"distance":0,"transit":false,"i_lat":-6.2842400000000005,"is_transit":false,"station_name":"Pasar Minggu","station_id":"PSM","time":0},{"is_transit":false,"station_name":"Pasar Minggu Baru","distance":2380,"i_lat":-6.263214,"i_long":106.851577,"transit":false,"line":2,"time":2,"station_id":"PSMB"},{"i_long":106.85449,"station_name":"Duren Kalibata","is_transit":false,"distance":824,"station_id":"DRN","time":2,"line":2,"i_lat":-6.255332,"transit":false},{"station_id":"CW","transit":false,"station_name":"Cawang","i_long":106.856607,"distance":1546,"is_transit":false,"i_lat":-6.242512,"line":2,"time":3},{"station_name":"Tebet","is_transit":false,"transit":false,"distance":1230,"i_lat":-6.226659,"line":2,"time":2,"i_long":106.857948,"station_id":"TEB"},{"station_name":"Manggarai","line":2,"transit":false,"i_lat":-6.209883,"i_long":106.84912,"distance":2610,"station_id":"MRI","time":4,"is_transit":false},{"station_id":"CKI","line":2,"transit":false,"i_long":106.840169,"i_lat":-6.198556,"is_transit":false,"time":4,"distance":1590,"station_name":"Cikini"},{"station_name":"Gondangdia","i_lat":-6.186295,"i_long":106.832183,"line":2,"transit":false,"time":3,"station_id":"GDD","is_transit":false,"distance":1750},{"transit":false,"is_transit":false,"i_long":106.828284,"line":2,"station_name":"Juanda","station_id":"JUA","time":4,"distance":2015,"i_lat":-6.166716},{"time":2,"station_id":"SW","distance":1149,"line":2,"is_transit":false,"i_long":106.827103,"i_lat":-6.160725,"transit":false,"station_name":"Sawah Besar"},{"transit":false,"station_id":"MGB","is_transit":false,"time":2,"i_lat":-6.149769,"station_name":"Manggabesar","i_long":106.82482,"line":2,"distance":906},{"transit":false,"i_long":106.820901,"station_id":"JAY","station_name":"Jayakarta","distance":1080,"line":2,"time":2,"i_lat":-6.141205,"is_transit":false},{"station_id":"JAKK","line":2,"transit":true,"i_long":106.812439,"i_lat":-6.137569,"distance":1264,"station_name":"Jakarta Kota","time":4,"is_transit":true},{"station_id":"KPB","i_lat":-6.132549,"transit":true,"station_name":"Kampung Bandan","distance":1364,"time":3,"i_long":106.826365,"is_transit":true,"line":4},{"time":3,"i_lat":-6.14505,"transit":false,"station_name":"Rajawali","line":11,"distance":1444,"is_transit":false,"station_id":"RJW","i_long":106.836569},{"i_long":106.839204,"line":11,"distance":1901,"is_transit":false,"transit":false,"time":5,"station_id":"KMO","station_name":"Kemayoran","i_lat":-6.161728}]]}