{"data":[[{"distance":0,"station_id":"PSM","station_name":"Pasar Minggu","time":0,"i_lat":-6.2842400000000005,"i_long":106.843999,"is_transit":false,"line":2,"transit":false},{"station_id":"PSMB","transit":false,"time":2,"distance":2380,"is_transit":false,"line":2,"i_long":106.851577,"i_lat":-6.263214,"station_name":"Pasar Minggu Baru"},{"transit":false,"i_lat":-6.255332,"time":2,"station_name":"Duren Kalibata","line":0,"station_id":"DRN","i_long":106.85449,"distance":824,"is_transit":false},{"time":3,"i_long":106.856607,"distance":1546,"station_name":"Cawang","is_transit":false,"i_lat":-6.242512,"station_id":"CW","transit":false,"line":0},{"i_lat":-6.226659,"station_id":"TEB","i_long":106.857948,"line":2,"is_transit":false,"distance":1230,"station_name":"Tebet","transit":false,"time":2},{"station_id":"MRI","transit":true,"is_transit":true,"line":0,"time":4,"i_lat":-6.209883,"station_name":"Manggarai","distance":2610,"i_long":106.84912},{"transit":false,"i_lat":-6.202263,"i_long":106.822649,"line":1,"is_transit":false,"station_id":"SUD","station_name":"Sudirman","distance":3186,"time":4},{"distance":280,"time":1,"station_id":"SUDB","is_transit":false,"station_name":"Sudirman Baru","i_lat":-6.201433,"i_long":106.819881,"line":1,"transit":false},{"i_lat":-6.20132,"i_long":106.816351,"station_name":"Karet","transit":false,"line":1,"time":1,"station_id":"KAT","is_transit":false,"distance":471},{"time":5,"station_name":"Tanah Abang","is_transit":true,"transit":false,"distance":2029,"station_id":"THB","i_lat":-6.185545,"line":1,"i_long":106.811091},{"distance":3632,"station_name":"Duri","time":8,"station_id":"DU","is_transit":true,"transit":true,"line":1,"i_long":106.800832,"i_lat":-6.155215},{"i_long":106.788277,"i_lat":-6.162021,"line":5,"station_name":"Grogol","distance":1700,"is_transit":false,"transit":false,"time":3,"station_id":"GGL"},{"line":5,"distance":2036,"is_transit":false,"station_id":"PSG","time":2,"transit":false,"i_lat":-6.161433,"station_name":"Pesing","i_long":106.771379},{"is_transit":false,"station_id":"TKO","distance":1614,"time":2,"i_lat":-6.1587309999999995,"transit":false,"i_long":106.756522,"station_name":"Taman Kota","line":5},{"time":2,"i_long":106.737035,"is_transit":false,"i_lat":-6.159876,"line":0,"distance":2334,"transit":false,"station_id":"BOI","station_name":"Bojongindah"},{"station_id":"RW","i_lat":-6.162758,"station_name":"Rawa Buaya","line":5,"is_transit":false,"transit":false,"time":4,"i_long":106.723064,"distance":1152},{"distance":2504,"i_long":106.701612,"line":5,"time":3,"station_name":"Kalideres","is_transit":false,"transit":false,"i_lat":-6.166068,"station_id":"KDS"},{"i_lat":-6.169933,"time":3,"i_long":106.679458,"station_id":"PI","is_transit":false,"distance":2548,"station_name":"Poris","transit":false,"line":5}],[{"time":0,"line":2,"is_transit":false,"i_lat":-6.2842400000000005,"transit":false,"i_long":106.843999,"distance":0,"station_id":"PSM","station_name":"Pasar Minggu"},{"line":2,"time":2,"is_transit":false,"station_name":"Pasar Minggu Baru","transit":false,"i_long":106.851577,"station_id":"PSMB","distance":2380,"i_lat":-6.263214},{"distance":824,"is_transit":false,"time":2,"i_lat":-6.255332,"line":0,"station_name":"Duren Kalibata","station_id":"DRN","i_long":106.85449,"transit":false},{"i_lat":-6.242512,"line":0,"i_long":106.856607,"station_id":"CW","station_name":"Cawang","distance":1546,"time":3,"transit":false,"is_transit":false},{"station_name":"Tebet","is_transit":false,"transit":false,"time":2,"i_long":106.857948,"i_lat":-6.226659,"line":2,"station_id":"TEB","distance":1230},{"station_name":"Manggarai","distance":2610,"transit":true,"line":0,"i_lat":-6.209883,"time":4,"i_long":106.84912,"is_transit":true,"station_id":"MRI"},{"distance":1590,"is_transit":false,"transit":false,"i_long":106.840169,"station_id":"CKI","time":4,"i_lat":-6.198556,"station_name":"Cikini","line":0},{"distance":1750,"is_transit":false,"station_name":"Gondangdia","transit":false,"i_long":106.832183,"station_id":"GDD","line":2,"time":3,"i_lat":-6.186295},{"station_name":"Juanda","transit":false,"time":4,"i_lat":-6.166716,"distance":2015,"is_transit":false,"station_id":"JUA","line":2,"i_long":106.828284},{"transit":false,"time":2,"i_lat":-6.160725,"line":2,"station_name":"Sawah Besar","distance":1149,"is_transit":false,"station_id":"SW","i_long":106.827103},{"time":2,"station_name":"Manggabesar","transit":false,"i_long":106.82482,"line":2,"station_id":"MGB","distance":906,"i_lat":-6.149769,"is_transit":false},{"distance":1080,"time":2,"i_lat":-6.141205,"station_id":"JAY","station_name":"Jayakarta","i_long":106.820901,"is_transit":false,"line":7,"transit":false},{"i_lat":-6.137569,"transit":true,"line":0,"distance":1264,"time":4,"station_name":"Jakarta Kota","is_transit":true,"station_id":"JAKK","i_long":106.812439},{"distance":1364,"i_lat":-6.132549,"station_id":"KPB","time":3,"station_name":"Kampung Bandan","line":0,"i_long":106.826365,"transit":false,"is_transit":true},{"is_transit":false,"station_id":"AK","i_lat":-6.144674,"distance":4102,"line":0,"station_name":"Angke","transit":false,"time":9,"i_long":106.79867},{"i_lat":-6.155215,"is_transit":true,"transit":true,"station_id":"DU","distance":1230,"line":1,"station_name":"Duri","time":4,"i_long":106.800832},{"is_transit":false,"i_long":106.788277,"distance":1700,"time":3,"line":5,"station_id":"GGL","transit":false,"station_name":"Grogol","i_lat":-6.162021},{"i_lat":-6.161433,"i_long":106.771379,"transit":false,"station_name":"Pesing","distance":2036,"line":5,"time":2,"is_transit":false,"station_id":"PSG"},{"is_transit":false,"time":2,"i_long":106.756522,"distance":1614,"transit":false,"line":5,"station_id":"TKO","i_lat":-6.1587309999999995,"station_name":"Taman Kota"},{"transit":false,"distance":2334,"i_long":106.737035,"station_id":"BOI","time":2,"line":0,"station_name":"Bojongindah","i_lat":-6.159876,"is_transit":false},{"distance":1152,"station_id":"RW","is_transit":false,"station_name":"Rawa Buaya","transit":false,"time":4,"i_lat":-6.162758,"i_long":106.723064,"line":5},{"line":5,"station_name":"Kalideres","i_long":106.701612,"distance":2504,"transit":false,"is_transit":false,"station_id":"KDS","time":3,"i_lat":-6.166068},{"is_transit":false,"station_name":"Poris","station_id":"PI","transit":false,"time":3,"line":5,"i_long":106.679458,"i_lat":-6.169933,"distance":2548}],[{"i_lat":-6.2842400000000005,"time":0,"is_transit":false,"station_id":"PSM","station_name":"Pasar Minggu","line":2,"transit":false,"i_long":106.843999,"distance":0},{"line":2,"distance":2380,"is_transit":false,"i_lat":-6.263214,"i_long":106.851577,"transit":false,"station_id":"PSMB","time":2,"station_name":"Pasar Minggu Baru"},{"station_id":"DRN","distance":824,"station_name":"Duren Kalibata","transit":false,"time":2,"is_transit":false,"i_lat":-6.255332,"i_long":106.85449,"line":0},{"distance":1546,"i_long":106.856607,"time":3,"is_transit":false,"station_id":"CW","i_lat":-6.242512,"transit":false,"line":0,"station_name":"Cawang"},{"line":2,"transit":false,"time":2,"distance":1230,"i_lat":-6.226659,"station_name":"Tebet","station_id":"TEB","is_transit":false,"i_long":106.857948},{"distance":2610,"line":0,"station_name":"Manggarai","transit":true,"station_id":"MRI","i_long":106.84912,"time":4,"is_transit":true,"i_lat":-6.209883},{"station_id":"MTR","is_transit":false,"distance":1275,"station_name":"Matraman","transit":false,"i_long":106.858896,"i_lat":-6.212485,"time":2,"line":1},{"distance":1377,"i_long":106.86807400000001,"i_lat":-6.215091,"transit":true,"line":0,"station_name":"Jatinegara","is_transit":true,"time":8,"station_id":"JNG"},{"i_long":106.861737,"is_transit":false,"distance":1236,"time":2,"station_name":"Pondok Jati","station_id":"POK","transit":false,"line":11,"i_lat":-6.209188},{"time":2,"is_transit":false,"i_long":106.855437,"line":11,"station_id":"KMT","station_name":"Kramat","distance":1829,"transit":false,"i_lat":-6.193792},{"i_lat":-6.185975,"line":11,"transit":false,"i_long":106.850107,"distance":973,"time":1,"is_transit":false,"station_name":"Gang Sentiong","station_id":"GST"},{"transit":false,"distance":1567,"time":8,"line":11,"station_id":"PSE","i_long":106.84368,"station_name":"Pasar Senen","i_lat":-6.174784,"is_transit":false},{"distance":1436,"station_name":"Kemayoran","time":4,"transit":false,"is_transit":false,"line":11,"i_lat":-6.161728,"station_id":"KMO","i_long":106.839204},{"station_id":"RJW","i_long":106.836569,"line":11,"is_transit":false,"distance":1901,"i_lat":-6.14505,"station_name":"Rajawali","time":5,"transit":false},{"station_id":"KPB","is_transit":true,"line":0,"i_lat":-6.132549,"time":3,"station_name":"Kampung Bandan","i_long":106.826365,"transit":true,"distance":1444},{"station_id":"AK","station_name":"Angke","i_lat":-6.144674,"line":0,"distance":4102,"time":9,"i_long":106.79867,"is_transit":false,"transit":false},{"station_id":"DU","line":1,"station_name":"Duri","i_long":106.800832,"is_transit":true,"distance":1230,"transit":true,"i_lat":-6.155215,"time":4},{"i_long":106.788277,"distance":1700,"line":5,"station_id":"GGL","station_name":"Grogol","transit":false,"is_transit":false,"time":3,"i_lat":-6.162021},{"i_lat":-6.161433,"line":5,"is_transit":false,"station_name":"Pesing","station_id":"PSG","transit":false,"i_long":106.771379,"time":2,"distance":2036},{"i_lat":-6.1587309999999995,"distance":1614,"station_id":"TKO","station_name":"Taman Kota","transit":false,"time":2,"i_long":106.756522,"line":5,"is_transit":false},{"is_transit":false,"distance":2334,"station_id":"BOI","line":0,"time":2,"station_name":"Bojongindah","transit":false,"i_lat":-6.159876,"i_long":106.737035},{"i_long":106.723064,"station_name":"Rawa Buaya","station_id":"RW","time":4,"transit":false,"line":5,"i_lat":-6.162758,"distance":1152,"is_transit":false},{"station_name":"Kalideres","transit":false,"i_long":106.701612,"station_id":"KDS","i_lat":-6.166068,"distance":2504,"line":5,"is_transit":false,"time":3},{"station_name":"Poris","i_lat":-6.169933,"distance":2548,"is_transit":false,"i_long":106.679458,"station_id":"PI","line":5,"time":3,"transit":false}]]}