{"data":[[{"station_name":"Pasar Minggu","is_transit":false,"time":0,"transit":false,"i_lat":-6.2842400000000005,"i_long":106.843999,"line":2,"station_id":"PSM","distance":0},{"is_transit":false,"i_long":106.838896,"time":4,"transit":false,"station_id":"TNT","line":2,"station_name":"Tanjung Barat","distance":2820,"i_lat":-6.3080680000000005},{"is_transit":false,"station_name":"Lenteng Agung","distance":2671,"time":3,"station_id":"LNA","i_lat":-6.330363,"line":2,"i_long":106.832616,"transit":false},{"time":2,"station_id":"UP","i_lat":-6.339291,"station_name":"Univ. Pancasila","line":2,"distance":1029,"transit":false,"is_transit":false,"i_long":106.834175},{"transit":false,"distance":2264,"station_id":"UI","i_lat":-6.360749,"line":2,"station_name":"Univ. Indonesia","time":3,"is_transit":false,"i_long":106.831474},{"station_id":"POC","i_lat":-6.369073,"distance":1109,"is_transit":false,"station_name":"Pondok Cina","transit":false,"i_long":106.831114,"line":2,"time":2},{"line":2,"is_transit":false,"station_id":"DPB","transit":false,"distance":2727,"station_name":"Depokbaru","time":4,"i_lat":-6.391065,"i_long":106.819451},{"station_name":"Depok","distance":1584,"station_id":"DP","i_lat":-6.405256,"line":2,"i_long":106.816926,"time":3,"transit":false,"is_transit":false},{"i_lat":-6.448811,"is_transit":true,"station_id":"CTA","line":2,"i_long":106.800298,"time":6,"distance":5084,"transit":true,"station_name":"Citayam"},{"i_long":106.824374,"time":0,"transit":false,"station_id":"PDRG","distance":0,"is_transit":false,"line":21,"station_name":"Pondok Rajeg","i_lat":-6.460735},{"i_lat":-6.46424,"time":0,"i_long":106.851978,"distance":0,"is_transit":false,"line":21,"transit":false,"station_name":"Cibinong","station_id":"CBN"}]]}