{"data":[[{"station_name":"Pasar Minggu","is_transit":false,"time":0,"i_lat":-6.2842400000000005,"line":2,"distance":0,"transit":false,"i_long":106.843999,"station_id":"PSM"},{"i_lat":-6.263214,"station_name":"Pasar Minggu Baru","distance":2380,"is_transit":false,"time":2,"transit":false,"line":2,"i_long":106.851577,"station_id":"PSMB"},{"station_name":"Duren Kalibata","i_lat":-6.255332,"distance":824,"time":2,"transit":false,"i_long":106.85449,"is_transit":false,"station_id":"DRN","line":2},{"distance":1546,"line":2,"station_name":"Cawang","time":3,"i_long":106.856607,"i_lat":-6.242512,"station_id":"CW","is_transit":false,"transit":false},{"i_lat":-6.226659,"i_long":106.857948,"line":2,"station_name":"Tebet","transit":false,"station_id":"TEB","time":2,"distance":1230,"is_transit":false},{"time":4,"i_long":106.84912,"line":2,"distance":2610,"is_transit":true,"station_id":"MRI","station_name":"Manggarai","transit":true,"i_lat":-6.209883},{"i_lat":-6.202263,"line":1,"is_transit":false,"station_id":"SUD","distance":3186,"station_name":"Sudirman","time":4,"transit":false,"i_long":106.822649},{"i_long":106.819881,"transit":false,"is_transit":false,"i_lat":-6.201433,"distance":280,"time":1,"line":1,"station_id":"SUDB","station_name":"Sudirman Baru"},{"station_name":"Karet","station_id":"KAT","i_long":106.816351,"is_transit":false,"i_lat":-6.20132,"distance":471,"time":1,"line":1,"transit":false},{"time":5,"is_transit":true,"distance":2029,"station_id":"THB","transit":true,"i_lat":-6.185545,"line":1,"station_name":"Tanah Abang","i_long":106.811091},{"distance":3191,"is_transit":false,"i_lat":-6.207404,"line":6,"time":6,"transit":false,"i_long":106.79689,"station_name":"Palmerah","station_id":"PLM"},{"station_id":"KBY","i_long":106.780334,"is_transit":false,"transit":false,"station_name":"Kebayoran","i_lat":-6.237242,"distance":3737,"line":6,"time":7},{"transit":false,"distance":6218,"time":8,"i_long":106.74273,"i_lat":-6.276362,"station_id":"PDJ","line":6,"station_name":"Pondokranji","is_transit":false},{"distance":2179,"is_transit":false,"i_long":106.728916,"time":3,"i_lat":-6.288927,"station_name":"Jurangmangu","transit":false,"line":6,"station_id":"JMU"},{"station_name":"Sudimara","station_id":"SDM","line":6,"i_long":106.712277,"distance":1994,"transit":false,"is_transit":false,"i_lat":-6.296963,"time":4},{"distance":4566,"time":6,"station_id":"RU","line":6,"station_name":"Rawa Buntu","i_lat":-6.314823,"transit":false,"i_long":106.675475,"is_transit":false},{"time":4,"distance":2413,"station_id":"SRP","i_lat":-6.319871,"i_long":106.66566,"line":6,"station_name":"Serpong","transit":false,"is_transit":false},{"i_lat":-6.32484,"line":3,"station_id":"CSK","transit":false,"is_transit":false,"station_name":"Cisauk","i_long":106.640411,"time":4,"distance":1784},{"distance":2519,"time":4,"i_long":106.617853,"station_id":"CC","i_lat":-6.329547,"line":3,"is_transit":false,"transit":false,"station_name":"Cicayur"},{"distance":5968,"station_name":"Parung Panjang","transit":false,"station_id":"PRP","is_transit":false,"time":8,"i_long":106.568863,"line":6,"i_lat":-6.3441410000000005},{"station_name":"Cilejit","distance":7025,"is_transit":false,"station_id":"CJT","transit":false,"line":3,"time":9,"i_lat":-6.354349,"i_long":106.508482},{"distance":2675,"i_long":106.491338,"transit":false,"time":6,"i_lat":-6.338021,"is_transit":false,"station_name":"Daru","station_id":"DAR","line":0},{"line":6,"i_lat":-6.327251,"station_name":"Tenjo","time":5,"is_transit":false,"transit":false,"distance":3902,"station_id":"TEJ","i_long":106.460812}],[{"transit":false,"i_long":106.843999,"line":2,"time":0,"station_name":"Pasar Minggu","i_lat":-6.2842400000000005,"distance":0,"station_id":"PSM","is_transit":false},{"distance":2380,"i_lat":-6.263214,"time":2,"i_long":106.851577,"station_name":"Pasar Minggu Baru","line":2,"transit":false,"is_transit":false,"station_id":"PSMB"},{"is_transit":false,"distance":824,"station_name":"Duren Kalibata","transit":false,"time":2,"line":2,"i_long":106.85449,"station_id":"DRN","i_lat":-6.255332},{"station_name":"Cawang","time":3,"i_long":106.856607,"distance":1546,"station_id":"CW","transit":false,"i_lat":-6.242512,"is_transit":false,"line":2},{"distance":1230,"time":2,"is_transit":false,"i_lat":-6.226659,"line":2,"station_name":"Tebet","station_id":"TEB","transit":false,"i_long":106.857948},{"i_long":106.84912,"is_transit":false,"station_name":"Manggarai","time":4,"distance":2610,"i_lat":-6.209883,"station_id":"MRI","line":2,"transit":false},{"is_transit":false,"station_id":"CKI","i_lat":-6.198556,"distance":1590,"time":4,"i_long":106.840169,"station_name":"Cikini","line":2,"transit":false},{"line":2,"is_transit":false,"station_name":"Gondangdia","time":3,"station_id":"GDD","transit":false,"i_lat":-6.186295,"distance":1750,"i_long":106.832183},{"station_name":"Juanda","station_id":"JUA","distance":2015,"i_lat":-6.166716,"i_long":106.828284,"time":4,"transit":false,"line":2,"is_transit":false},{"i_long":106.827103,"line":2,"station_id":"SW","is_transit":false,"time":2,"station_name":"Sawah Besar","distance":1149,"transit":false,"i_lat":-6.160725},{"time":2,"station_id":"MGB","i_long":106.82482,"distance":906,"transit":false,"is_transit":false,"i_lat":-6.149769,"station_name":"Manggabesar","line":2},{"i_long":106.820901,"is_transit":false,"station_name":"Jayakarta","station_id":"JAY","line":2,"i_lat":-6.141205,"transit":false,"time":2,"distance":1080},{"time":4,"is_transit":true,"distance":1264,"transit":true,"station_name":"Jakarta Kota","i_lat":-6.137569,"i_long":106.812439,"station_id":"JAKK","line":2},{"line":4,"i_long":106.826365,"station_name":"Kampung Bandan","station_id":"KPB","time":3,"transit":true,"distance":1364,"is_transit":true,"i_lat":-6.132549},{"station_id":"AK","station_name":"Angke","time":9,"distance":4102,"i_lat":-6.144674,"i_long":106.79867,"is_transit":false,"line":1,"transit":false},{"i_lat":-6.155215,"is_transit":false,"station_id":"DU","i_long":106.800832,"station_name":"Duri","time":4,"distance":1230,"transit":false,"line":1},{"station_id":"THB","time":8,"station_name":"Tanah Abang","distance":3632,"transit":true,"line":1,"i_lat":-6.185545,"i_long":106.811091,"is_transit":true},{"is_transit":false,"station_id":"PLM","distance":3191,"transit":false,"station_name":"Palmerah","i_lat":-6.207404,"time":6,"i_long":106.79689,"line":6},{"time":7,"transit":false,"line":6,"i_lat":-6.237242,"is_transit":false,"station_name":"Kebayoran","i_long":106.780334,"station_id":"KBY","distance":3737},{"i_lat":-6.276362,"distance":6218,"i_long":106.74273,"time":8,"transit":false,"station_id":"PDJ","is_transit":false,"line":6,"station_name":"Pondokranji"},{"station_name":"Jurangmangu","distance":2179,"station_id":"JMU","i_long":106.728916,"time":3,"line":6,"transit":false,"i_lat":-6.288927,"is_transit":false},{"time":4,"i_long":106.712277,"i_lat":-6.296963,"station_name":"Sudimara","station_id":"SDM","transit":false,"distance":1994,"line":6,"is_transit":false},{"i_long":106.675475,"line":6,"is_transit":false,"station_name":"Rawa Buntu","distance":4566,"i_lat":-6.314823,"time":6,"station_id":"RU","transit":false},{"i_long":106.66566,"time":4,"i_lat":-6.319871,"distance":2413,"station_id":"SRP","station_name":"Serpong","transit":false,"is_transit":false,"line":6},{"is_transit":false,"transit":false,"distance":1784,"i_lat":-6.32484,"time":4,"line":3,"i_long":106.640411,"station_name":"Cisauk","station_id":"CSK"},{"is_transit":false,"i_lat":-6.329547,"time":4,"line":3,"station_name":"Cicayur","transit":false,"station_id":"CC","distance":2519,"i_long":106.617853},{"i_lat":-6.3441410000000005,"distance":5968,"i_long":106.568863,"station_name":"Parung Panjang","station_id":"PRP","is_transit":false,"transit":false,"time":8,"line":6},{"distance":7025,"line":3,"station_name":"Cilejit","time":9,"is_transit":false,"transit":false,"i_long":106.508482,"i_lat":-6.354349,"station_id":"CJT"},{"i_lat":-6.338021,"station_name":"Daru","distance":2675,"is_transit":false,"station_id":"DAR","time":6,"i_long":106.491338,"transit":false,"line":0},{"distance":3902,"i_lat":-6.327251,"i_long":106.460812,"line":6,"is_transit":false,"station_id":"TEJ","station_name":"Tenjo","time":5,"transit":false}],[{"i_lat":-6.2842400000000005,"is_transit":false,"station_name":"Pasar Minggu","station_id":"PSM","i_long":106.843999,"time":0,"transit":false,"distance":0,"line":2},{"transit":false,"is_transit":false,"line":2,"station_id":"PSMB","time":2,"i_lat":-6.263214,"distance":2380,"i_long":106.851577,"station_name":"Pasar Minggu Baru"},{"is_transit":false,"station_id":"DRN","i_lat":-6.255332,"distance":824,"transit":false,"line":2,"time":2,"i_long":106.85449,"station_name":"Duren Kalibata"},{"distance":1546,"station_name":"Cawang","time":3,"i_lat":-6.242512,"i_long":106.856607,"line":2,"transit":false,"is_transit":false,"station_id":"CW"},{"station_name":"Tebet","transit":false,"distance":1230,"i_long":106.857948,"is_transit":false,"station_id":"TEB","time":2,"i_lat":-6.226659,"line":2},{"i_lat":-6.209883,"i_long":106.84912,"station_name":"Manggarai","is_transit":true,"station_id":"MRI","transit":true,"time":4,"distance":2610,"line":2},{"distance":1275,"station_id":"MTR","i_lat":-6.212485,"time":2,"i_long":106.858896,"is_transit":false,"station_name":"Matraman","transit":false,"line":1},{"i_lat":-6.215091,"station_id":"JNG","time":8,"distance":1377,"transit":true,"station_name":"Jatinegara","is_transit":true,"i_long":106.86807400000001,"line":1},{"station_name":"Pondok Jati","line":11,"i_long":106.861737,"transit":false,"is_transit":false,"station_id":"POK","time":2,"i_lat":-6.209188,"distance":1236},{"is_transit":false,"distance":1829,"time":2,"transit":false,"i_lat":-6.193792,"line":11,"station_id":"KMT","station_name":"Kramat","i_long":106.855437},{"station_name":"Gang Sentiong","is_transit":false,"station_id":"GST","time":1,"distance":973,"i_lat":-6.185975,"i_long":106.850107,"line":11,"transit":false},{"is_transit":false,"transit":false,"time":8,"line":11,"distance":1567,"i_long":106.84368,"i_lat":-6.174784,"station_name":"Pasar Senen","station_id":"PSE"},{"is_transit":false,"station_name":"Kemayoran","distance":1436,"line":11,"station_id":"KMO","transit":false,"time":4,"i_lat":-6.161728,"i_long":106.839204},{"time":5,"station_id":"RJW","station_name":"Rajawali","line":11,"is_transit":false,"transit":false,"distance":1901,"i_long":106.836569,"i_lat":-6.14505},{"transit":true,"i_long":106.826365,"time":3,"line":4,"is_transit":true,"distance":1444,"station_name":"Kampung Bandan","i_lat":-6.132549,"station_id":"KPB"},{"i_lat":-6.144674,"is_transit":false,"station_id":"AK","i_long":106.79867,"time":9,"transit":false,"station_name":"Angke","line":1,"distance":4102},{"transit":false,"i_lat":-6.155215,"distance":1230,"time":4,"line":1,"is_transit":false,"station_name":"Duri","i_long":106.800832,"station_id":"DU"},{"is_transit":true,"i_lat":-6.185545,"line":1,"station_id":"THB","time":8,"distance":3632,"station_name":"Tanah Abang","i_long":106.811091,"transit":true},{"time":6,"distance":3191,"transit":false,"i_long":106.79689,"station_id":"PLM","i_lat":-6.207404,"line":6,"is_transit":false,"station_name":"Palmerah"},{"is_transit":false,"transit":false,"i_lat":-6.237242,"distance":3737,"time":7,"i_long":106.780334,"station_name":"Kebayoran","line":6,"station_id":"KBY"},{"line":6,"transit":false,"station_id":"PDJ","is_transit":false,"i_lat":-6.276362,"time":8,"i_long":106.74273,"station_name":"Pondokranji","distance":6218},{"is_transit":false,"station_name":"Jurangmangu","station_id":"JMU","distance":2179,"time":3,"i_long":106.728916,"transit":false,"line":6,"i_lat":-6.288927},{"i_lat":-6.296963,"transit":false,"is_transit":false,"time":4,"i_long":106.712277,"line":6,"station_id":"SDM","distance":1994,"station_name":"Sudimara"},{"is_transit":false,"distance":4566,"i_long":106.675475,"line":6,"i_lat":-6.314823,"station_id":"RU","time":6,"station_name":"Rawa Buntu","transit":false},{"station_id":"SRP","is_transit":false,"i_long":106.66566,"line":6,"transit":false,"time":4,"station_name":"Serpong","distance":2413,"i_lat":-6.319871},{"i_lat":-6.32484,"station_name":"Cisauk","distance":1784,"line":3,"transit":false,"is_transit":false,"time":4,"i_long":106.640411,"station_id":"CSK"},{"station_id":"CC","transit":false,"i_long":106.617853,"line":3,"station_name":"Cicayur","time":4,"is_transit":false,"distance":2519,"i_lat":-6.329547},{"time":8,"station_name":"Parung Panjang","station_id":"PRP","transit":false,"line":6,"is_transit":false,"i_long":106.568863,"i_lat":-6.3441410000000005,"distance":5968},{"is_transit":false,"time":9,"transit":false,"i_long":106.508482,"line":3,"station_name":"Cilejit","station_id":"CJT","distance":7025,"i_lat":-6.354349},{"time":6,"i_lat":-6.338021,"station_id":"DAR","distance":2675,"i_long":106.491338,"station_name":"Daru","transit":false,"line":0,"is_transit":false},{"transit":false,"station_name":"Tenjo","distance":3902,"i_lat":-6.327251,"i_long":106.460812,"time":5,"is_transit":false,"station_id":"TEJ","line":6}]]}