{"data":[[{"is_transit":false,"station_id":"PSMB","transit":false,"station_name":"Pasar Minggu Baru","i_lat":-6.263214,"time":0,"i_long":106.851577,"distance":0,"line":2},{"is_transit":false,"line":2,"i_lat":-6.255332,"station_id":"DRN","i_long":106.85449,"distance":824,"transit":false,"station_name":"Duren Kalibata","time":2},{"distance":1546,"transit":false,"i_lat":-6.242512,"line":2,"i_long":106.856607,"station_id":"CW","station_name":"Cawang","is_transit":false,"time":3},{"is_transit":false,"station_name":"Tebet","station_id":"TEB","i_lat":-6.226659,"i_long":106.857948,"time":2,"line":2,"distance":1230,"transit":false},{"i_long":106.84912,"time":4,"distance":2610,"line":2,"station_name":"Manggarai","is_transit":true,"transit":true,"i_lat":-6.209883,"station_id":"MRI"},{"station_name":"Sudirman","station_id":"SUD","time":4,"i_long":106.822649,"is_transit":false,"distance":3186,"transit":false,"i_lat":-6.202263,"line":1},{"i_long":106.819881,"distance":280,"transit":false,"station_id":"SUDB","line":1,"is_transit":false,"i_lat":-6.201433,"station_name":"Sudirman Baru","time":1},{"line":1,"distance":471,"time":1,"station_id":"KAT","station_name":"Karet","is_transit":false,"transit":false,"i_lat":-6.20132,"i_long":106.816351},{"is_transit":true,"time":5,"transit":true,"station_id":"THB","line":1,"station_name":"Tanah Abang","i_long":106.811091,"distance":2029,"i_lat":-6.185545},{"transit":false,"distance":3191,"i_lat":-6.207404,"station_name":"Palmerah","station_id":"PLM","is_transit":false,"time":6,"line":6,"i_long":106.79689},{"i_lat":-6.237242,"line":6,"station_id":"KBY","station_name":"Kebayoran","distance":3737,"transit":false,"is_transit":false,"time":7,"i_long":106.780334},{"station_name":"Pondokranji","distance":6218,"station_id":"PDJ","transit":false,"i_long":106.74273,"time":8,"i_lat":-6.276362,"is_transit":false,"line":6},{"transit":false,"i_long":106.728916,"is_transit":false,"line":6,"distance":2179,"station_name":"Jurangmangu","station_id":"JMU","i_lat":-6.288927,"time":3},{"i_long":106.712277,"distance":1994,"time":4,"is_transit":false,"transit":false,"station_id":"SDM","station_name":"Sudimara","line":6,"i_lat":-6.296963},{"station_name":"Rawa Buntu","line":6,"i_long":106.675475,"station_id":"RU","transit":false,"i_lat":-6.314823,"is_transit":false,"distance":4566,"time":6},{"i_lat":-6.319871,"transit":false,"station_name":"Serpong","station_id":"SRP","distance":2413,"i_long":106.66566,"time":4,"line":6,"is_transit":false},{"station_id":"CSK","is_transit":false,"time":4,"distance":1784,"station_name":"Cisauk","i_lat":-6.32484,"line":3,"i_long":106.640411,"transit":false},{"station_name":"Cicayur","i_lat":-6.329547,"distance":2519,"i_long":106.617853,"transit":false,"time":4,"station_id":"CC","is_transit":false,"line":3},{"i_lat":-6.3441410000000005,"station_id":"PRP","transit":false,"station_name":"Parung Panjang","i_long":106.568863,"line":6,"is_transit":false,"time":8,"distance":5968},{"line":3,"is_transit":false,"i_long":106.508482,"transit":false,"time":9,"station_id":"CJT","station_name":"Cilejit","distance":7025,"i_lat":-6.354349},{"i_long":106.491338,"is_transit":false,"time":6,"station_name":"Daru","station_id":"DAR","distance":2675,"i_lat":-6.338021,"transit":false,"line":0},{"i_lat":-6.327251,"time":5,"is_transit":false,"i_long":106.460812,"station_id":"TEJ","line":6,"distance":3902,"transit":false,"station_name":"Tenjo"},{"station_name":"Tigaraksa","i_long":106.425991,"station_id":"TGS","is_transit":false,"time":5,"distance":2974,"transit":false,"i_lat":-6.328533,"line":6}],[{"transit":false,"distance":0,"i_lat":-6.263214,"line":2,"station_id":"PSMB","is_transit":false,"station_name":"Pasar Minggu Baru","time":0,"i_long":106.851577},{"distance":824,"station_id":"DRN","time":2,"i_lat":-6.255332,"is_transit":false,"station_name":"Duren Kalibata","i_long":106.85449,"line":2,"transit":false},{"transit":false,"station_name":"Cawang","distance":1546,"i_lat":-6.242512,"station_id":"CW","time":3,"i_long":106.856607,"is_transit":false,"line":2},{"station_name":"Tebet","distance":1230,"station_id":"TEB","i_long":106.857948,"i_lat":-6.226659,"line":2,"transit":false,"is_transit":false,"time":2},{"i_lat":-6.209883,"station_id":"MRI","line":2,"transit":false,"station_name":"Manggarai","distance":2610,"i_long":106.84912,"is_transit":false,"time":4},{"time":4,"i_lat":-6.198556,"distance":1590,"is_transit":false,"transit":false,"station_name":"Cikini","station_id":"CKI","i_long":106.840169,"line":2},{"distance":1750,"station_name":"Gondangdia","i_long":106.832183,"station_id":"GDD","line":2,"i_lat":-6.186295,"is_transit":false,"transit":false,"time":3},{"time":4,"station_id":"JUA","distance":2015,"i_lat":-6.166716,"station_name":"Juanda","i_long":106.828284,"line":2,"is_transit":false,"transit":false},{"station_id":"SW","is_transit":false,"distance":1149,"transit":false,"i_long":106.827103,"time":2,"line":2,"i_lat":-6.160725,"station_name":"Sawah Besar"},{"transit":false,"station_name":"Manggabesar","station_id":"MGB","is_transit":false,"i_lat":-6.149769,"i_long":106.82482,"distance":906,"time":2,"line":2},{"distance":1080,"i_lat":-6.141205,"time":2,"transit":false,"is_transit":false,"line":2,"station_id":"JAY","i_long":106.820901,"station_name":"Jayakarta"},{"time":4,"transit":true,"is_transit":true,"station_name":"Jakarta Kota","distance":1264,"line":2,"i_lat":-6.137569,"station_id":"JAKK","i_long":106.812439},{"i_lat":-6.132549,"i_long":106.826365,"distance":1364,"transit":true,"is_transit":true,"time":3,"station_name":"Kampung Bandan","station_id":"KPB","line":4},{"transit":false,"distance":4102,"station_name":"Angke","time":9,"is_transit":false,"line":1,"i_lat":-6.144674,"station_id":"AK","i_long":106.79867},{"i_long":106.800832,"transit":false,"line":1,"is_transit":false,"distance":1230,"i_lat":-6.155215,"station_name":"Duri","station_id":"DU","time":4},{"distance":3632,"station_name":"Tanah Abang","transit":true,"is_transit":true,"station_id":"THB","i_lat":-6.185545,"i_long":106.811091,"time":8,"line":1},{"distance":3191,"station_name":"Palmerah","station_id":"PLM","transit":false,"is_transit":false,"time":6,"i_lat":-6.207404,"i_long":106.79689,"line":6},{"distance":3737,"line":6,"station_id":"KBY","i_long":106.780334,"station_name":"Kebayoran","time":7,"is_transit":false,"transit":false,"i_lat":-6.237242},{"i_lat":-6.276362,"time":8,"transit":false,"station_id":"PDJ","station_name":"Pondokranji","line":6,"is_transit":false,"distance":6218,"i_long":106.74273},{"time":3,"is_transit":false,"i_lat":-6.288927,"line":6,"i_long":106.728916,"station_name":"Jurangmangu","distance":2179,"transit":false,"station_id":"JMU"},{"distance":1994,"transit":false,"line":6,"is_transit":false,"i_long":106.712277,"station_name":"Sudimara","station_id":"SDM","time":4,"i_lat":-6.296963},{"distance":4566,"i_lat":-6.314823,"line":6,"i_long":106.675475,"transit":false,"is_transit":false,"station_name":"Rawa Buntu","station_id":"RU","time":6},{"i_lat":-6.319871,"transit":false,"i_long":106.66566,"station_name":"Serpong","is_transit":false,"time":4,"line":6,"station_id":"SRP","distance":2413},{"i_long":106.640411,"line":3,"transit":false,"is_transit":false,"station_name":"Cisauk","distance":1784,"time":4,"i_lat":-6.32484,"station_id":"CSK"},{"i_long":106.617853,"station_name":"Cicayur","distance":2519,"i_lat":-6.329547,"transit":false,"is_transit":false,"line":3,"station_id":"CC","time":4},{"station_id":"PRP","time":8,"i_lat":-6.3441410000000005,"station_name":"Parung Panjang","line":6,"transit":false,"is_transit":false,"i_long":106.568863,"distance":5968},{"i_long":106.508482,"time":9,"i_lat":-6.354349,"is_transit":false,"station_id":"CJT","transit":false,"distance":7025,"station_name":"Cilejit","line":3},{"is_transit":false,"station_name":"Daru","i_long":106.491338,"transit":false,"time":6,"distance":2675,"station_id":"DAR","line":0,"i_lat":-6.338021},{"distance":3902,"i_lat":-6.327251,"transit":false,"station_id":"TEJ","line":6,"is_transit":false,"station_name":"Tenjo","time":5,"i_long":106.460812},{"distance":2974,"i_long":106.425991,"time":5,"station_id":"TGS","station_name":"Tigaraksa","line":6,"i_lat":-6.328533,"transit":false,"is_transit":false}],[{"distance":0,"time":0,"is_transit":false,"station_name":"Pasar Minggu Baru","transit":false,"line":2,"i_lat":-6.263214,"station_id":"PSMB","i_long":106.851577},{"line":2,"i_lat":-6.255332,"distance":824,"is_transit":false,"station_name":"Duren Kalibata","i_long":106.85449,"station_id":"DRN","transit":false,"time":2},{"distance":1546,"is_transit":false,"transit":false,"line":2,"i_lat":-6.242512,"i_long":106.856607,"station_name":"Cawang","station_id":"CW","time":3},{"transit":false,"distance":1230,"i_long":106.857948,"station_name":"Tebet","time":2,"is_transit":false,"i_lat":-6.226659,"line":2,"station_id":"TEB"},{"station_id":"MRI","station_name":"Manggarai","is_transit":true,"time":4,"i_long":106.84912,"i_lat":-6.209883,"transit":true,"line":2,"distance":2610},{"station_id":"MTR","time":2,"i_lat":-6.212485,"transit":false,"station_name":"Matraman","distance":1275,"line":1,"i_long":106.858896,"is_transit":false},{"transit":true,"i_long":106.86807400000001,"station_id":"JNG","i_lat":-6.215091,"distance":1377,"line":1,"is_transit":true,"station_name":"Jatinegara","time":8},{"transit":false,"i_lat":-6.209188,"i_long":106.861737,"station_id":"POK","station_name":"Pondok Jati","is_transit":false,"distance":1236,"line":11,"time":2},{"distance":1829,"i_long":106.855437,"station_id":"KMT","transit":false,"time":2,"i_lat":-6.193792,"station_name":"Kramat","line":11,"is_transit":false},{"station_id":"GST","transit":false,"time":1,"station_name":"Gang Sentiong","distance":973,"i_lat":-6.185975,"is_transit":false,"i_long":106.850107,"line":11},{"line":11,"is_transit":false,"station_name":"Pasar Senen","i_lat":-6.174784,"time":8,"station_id":"PSE","transit":false,"distance":1567,"i_long":106.84368},{"is_transit":false,"distance":1436,"time":4,"transit":false,"station_name":"Kemayoran","line":11,"i_long":106.839204,"i_lat":-6.161728,"station_id":"KMO"},{"time":5,"line":11,"station_id":"RJW","i_long":106.836569,"distance":1901,"transit":false,"is_transit":false,"station_name":"Rajawali","i_lat":-6.14505},{"i_long":106.826365,"time":3,"line":4,"station_id":"KPB","transit":true,"distance":1444,"i_lat":-6.132549,"station_name":"Kampung Bandan","is_transit":true},{"transit":false,"station_name":"Angke","time":9,"i_lat":-6.144674,"distance":4102,"station_id":"AK","line":1,"is_transit":false,"i_long":106.79867},{"station_id":"DU","i_long":106.800832,"is_transit":false,"distance":1230,"line":1,"i_lat":-6.155215,"time":4,"transit":false,"station_name":"Duri"},{"station_name":"Tanah Abang","i_lat":-6.185545,"station_id":"THB","time":8,"line":1,"distance":3632,"transit":true,"is_transit":true,"i_long":106.811091},{"i_lat":-6.207404,"line":6,"is_transit":false,"station_id":"PLM","time":6,"distance":3191,"transit":false,"station_name":"Palmerah","i_long":106.79689},{"station_id":"KBY","i_lat":-6.237242,"is_transit":false,"line":6,"station_name":"Kebayoran","distance":3737,"i_long":106.780334,"transit":false,"time":7},{"time":8,"line":6,"is_transit":false,"station_id":"PDJ","station_name":"Pondokranji","distance":6218,"i_lat":-6.276362,"i_long":106.74273,"transit":false},{"distance":2179,"i_lat":-6.288927,"station_id":"JMU","i_long":106.728916,"is_transit":false,"transit":false,"station_name":"Jurangmangu","line":6,"time":3},{"station_id":"SDM","is_transit":false,"i_lat":-6.296963,"distance":1994,"station_name":"Sudimara","i_long":106.712277,"line":6,"time":4,"transit":false},{"is_transit":false,"time":6,"line":6,"distance":4566,"station_name":"Rawa Buntu","station_id":"RU","i_long":106.675475,"i_lat":-6.314823,"transit":false},{"i_lat":-6.319871,"time":4,"i_long":106.66566,"station_id":"SRP","transit":false,"distance":2413,"station_name":"Serpong","is_transit":false,"line":6},{"line":3,"i_lat":-6.32484,"station_name":"Cisauk","i_long":106.640411,"station_id":"CSK","is_transit":false,"time":4,"distance":1784,"transit":false},{"i_lat":-6.329547,"line":3,"station_name":"Cicayur","time":4,"is_transit":false,"station_id":"CC","transit":false,"distance":2519,"i_long":106.617853},{"transit":false,"station_id":"PRP","is_transit":false,"station_name":"Parung Panjang","time":8,"distance":5968,"i_long":106.568863,"i_lat":-6.3441410000000005,"line":6},{"transit":false,"station_id":"CJT","time":9,"distance":7025,"i_lat":-6.354349,"line":3,"i_long":106.508482,"station_name":"Cilejit","is_transit":false},{"station_id":"DAR","station_name":"Daru","transit":false,"is_transit":false,"distance":2675,"i_long":106.491338,"time":6,"line":0,"i_lat":-6.338021},{"line":6,"i_lat":-6.327251,"distance":3902,"i_long":106.460812,"transit":false,"station_name":"Tenjo","time":5,"is_transit":false,"station_id":"TEJ"},{"transit":false,"distance":2974,"station_id":"TGS","line":6,"is_transit":false,"i_lat":-6.328533,"station_name":"Tigaraksa","time":5,"i_long":106.425991}]]}