{"data":[[{"time":0,"station_id":"PSMB","is_transit":false,"transit":false,"station_name":"Pasar Minggu Baru","i_long":106.851577,"i_lat":-6.263214,"distance":0,"line":2},{"station_name":"Duren Kalibata","i_long":106.85449,"time":2,"is_transit":false,"transit":false,"line":2,"station_id":"DRN","i_lat":-6.255332,"distance":824},{"distance":1546,"is_transit":false,"time":3,"station_id":"CW","i_long":106.856607,"line":2,"transit":false,"station_name":"Cawang","i_lat":-6.242512},{"line":2,"station_name":"Tebet","transit":false,"i_long":106.857948,"distance":1230,"i_lat":-6.226659,"is_transit":false,"station_id":"TEB","time":2},{"line":2,"transit":true,"station_name":"Manggarai","is_transit":true,"i_lat":-6.209883,"i_long":106.84912,"distance":2610,"station_id":"MRI","time":4},{"i_lat":-6.212485,"line":1,"time":2,"i_long":106.858896,"station_id":"MTR","distance":1275,"is_transit":false,"transit":false,"station_name":"Matraman"},{"transit":false,"i_lat":-6.215091,"distance":1377,"time":8,"station_id":"JNG","i_long":106.86807400000001,"is_transit":false,"station_name":"Jatinegara","line":1},{"distance":3395,"station_id":"KLD","i_lat":-6.2135,"line":1,"is_transit":false,"station_name":"Klender","transit":false,"time":3,"i_long":106.899548},{"is_transit":false,"station_name":"Buaran","time":2,"station_id":"BUA","line":1,"i_lat":-6.215568,"transit":false,"i_long":106.922662,"distance":3100},{"time":1,"station_name":"Klenderbaru","distance":1305,"i_lat":-6.217455,"i_long":106.939679,"transit":false,"is_transit":false,"station_id":"KLDB","line":1},{"time":8,"station_id":"CUK","i_long":106.951283,"line":1,"distance":1385,"transit":false,"station_name":"Cakung","is_transit":false,"i_lat":-6.219053},{"station_name":"Kranji","i_lat":-6.224515,"distance":3097,"i_long":106.977657,"is_transit":false,"station_id":"KRI","transit":false,"line":1,"time":3},{"distance":2520,"i_long":106.997013,"transit":false,"line":1,"i_lat":-6.236616,"is_transit":false,"station_id":"BKS","station_name":"Bekasi","time":4}],[{"i_lat":-6.263214,"station_id":"PSMB","time":0,"station_name":"Pasar Minggu Baru","distance":0,"i_long":106.851577,"transit":false,"line":2,"is_transit":false},{"station_name":"Duren Kalibata","time":2,"i_long":106.85449,"is_transit":false,"transit":false,"i_lat":-6.255332,"distance":824,"line":2,"station_id":"DRN"},{"i_lat":-6.242512,"is_transit":false,"i_long":106.856607,"line":2,"time":3,"station_id":"CW","distance":1546,"transit":false,"station_name":"Cawang"},{"station_id":"TEB","line":2,"time":2,"station_name":"Tebet","distance":1230,"is_transit":false,"transit":false,"i_long":106.857948,"i_lat":-6.226659},{"distance":2610,"time":4,"is_transit":true,"i_lat":-6.209883,"transit":true,"i_long":106.84912,"line":2,"station_id":"MRI","station_name":"Manggarai"},{"distance":3186,"transit":false,"is_transit":false,"station_name":"Sudirman","time":4,"i_lat":-6.202263,"i_long":106.822649,"station_id":"SUD","line":1},{"transit":false,"station_name":"Sudirman Baru","line":1,"distance":280,"is_transit":false,"i_lat":-6.201433,"station_id":"SUDB","i_long":106.819881,"time":1},{"station_name":"Karet","i_long":106.816351,"is_transit":false,"i_lat":-6.20132,"time":1,"distance":471,"line":1,"station_id":"KAT","transit":false},{"is_transit":false,"i_lat":-6.185545,"i_long":106.811091,"station_id":"THB","line":1,"time":5,"transit":false,"station_name":"Tanah Abang","distance":2029},{"station_name":"Duri","station_id":"DU","is_transit":false,"i_long":106.800832,"line":1,"i_lat":-6.155215,"time":8,"transit":false,"distance":3632},{"station_name":"Angke","distance":1230,"i_long":106.79867,"transit":false,"time":4,"is_transit":false,"line":1,"station_id":"AK","i_lat":-6.144674},{"is_transit":true,"i_lat":-6.132549,"distance":4102,"line":4,"transit":true,"time":9,"station_id":"KPB","station_name":"Kampung Bandan","i_long":106.826365},{"station_name":"Rajawali","i_long":106.836569,"distance":1444,"transit":false,"line":11,"station_id":"RJW","is_transit":false,"i_lat":-6.14505,"time":3},{"distance":1901,"is_transit":false,"station_name":"Kemayoran","i_long":106.839204,"station_id":"KMO","transit":false,"line":11,"time":5,"i_lat":-6.161728},{"i_long":106.84368,"line":11,"time":4,"distance":1436,"is_transit":false,"station_name":"Pasar Senen","i_lat":-6.174784,"transit":false,"station_id":"PSE"},{"time":8,"station_id":"GST","line":11,"i_lat":-6.185975,"i_long":106.850107,"is_transit":false,"station_name":"Gang Sentiong","transit":false,"distance":1567},{"line":11,"i_lat":-6.193792,"transit":false,"distance":973,"time":1,"is_transit":false,"station_name":"Kramat","station_id":"KMT","i_long":106.855437},{"i_lat":-6.209188,"distance":1829,"station_id":"POK","is_transit":false,"transit":false,"station_name":"Pondok Jati","i_long":106.861737,"time":2,"line":11},{"i_long":106.86807400000001,"time":9,"station_name":"Jatinegara","transit":true,"distance":1236,"i_lat":-6.215091,"line":1,"station_id":"JNG","is_transit":true},{"transit":false,"is_transit":false,"station_name":"Klender","line":1,"i_lat":-6.2135,"time":3,"station_id":"KLD","distance":3395,"i_long":106.899548},{"station_name":"Buaran","line":1,"i_lat":-6.215568,"is_transit":false,"station_id":"BUA","i_long":106.922662,"transit":false,"distance":3100,"time":2},{"line":1,"station_id":"KLDB","time":1,"station_name":"Klenderbaru","distance":1305,"i_long":106.939679,"i_lat":-6.217455,"is_transit":false,"transit":false},{"line":1,"station_id":"CUK","station_name":"Cakung","i_lat":-6.219053,"is_transit":false,"i_long":106.951283,"transit":false,"time":8,"distance":1385},{"station_id":"KRI","i_long":106.977657,"station_name":"Kranji","is_transit":false,"time":3,"transit":false,"i_lat":-6.224515,"line":1,"distance":3097},{"i_long":106.997013,"line":1,"time":4,"is_transit":false,"transit":false,"distance":2520,"station_name":"Bekasi","station_id":"BKS","i_lat":-6.236616}],[{"distance":0,"i_long":106.851577,"is_transit":false,"time":0,"line":2,"i_lat":-6.263214,"station_id":"PSMB","station_name":"Pasar Minggu Baru","transit":false},{"station_name":"Duren Kalibata","line":2,"time":2,"distance":824,"i_long":106.85449,"is_transit":false,"station_id":"DRN","transit":false,"i_lat":-6.255332},{"i_lat":-6.242512,"i_long":106.856607,"time":3,"line":2,"transit":false,"station_id":"CW","distance":1546,"is_transit":false,"station_name":"Cawang"},{"distance":1230,"transit":false,"station_name":"Tebet","i_long":106.857948,"time":2,"line":2,"i_lat":-6.226659,"station_id":"TEB","is_transit":false},{"i_lat":-6.209883,"transit":false,"line":2,"i_long":106.84912,"time":4,"distance":2610,"station_id":"MRI","is_transit":false,"station_name":"Manggarai"},{"i_lat":-6.198556,"is_transit":false,"transit":false,"i_long":106.840169,"time":4,"station_name":"Cikini","distance":1590,"line":2,"station_id":"CKI"},{"time":3,"station_name":"Gondangdia","i_lat":-6.186295,"transit":false,"distance":1750,"station_id":"GDD","i_long":106.832183,"is_transit":false,"line":2},{"station_id":"JUA","station_name":"Juanda","distance":2015,"i_lat":-6.166716,"is_transit":false,"transit":false,"time":4,"i_long":106.828284,"line":2},{"distance":1149,"is_transit":false,"station_name":"Sawah Besar","i_long":106.827103,"time":2,"station_id":"SW","i_lat":-6.160725,"transit":false,"line":2},{"transit":false,"station_id":"MGB","i_long":106.82482,"is_transit":false,"line":2,"i_lat":-6.149769,"station_name":"Manggabesar","time":2,"distance":906},{"station_name":"Jayakarta","time":2,"i_lat":-6.141205,"i_long":106.820901,"line":2,"distance":1080,"is_transit":false,"transit":false,"station_id":"JAY"},{"transit":true,"i_long":106.812439,"distance":1264,"time":4,"station_name":"Jakarta Kota","i_lat":-6.137569,"station_id":"JAKK","is_transit":true,"line":2},{"i_long":106.826365,"line":4,"transit":true,"time":3,"station_id":"KPB","distance":1364,"station_name":"Kampung Bandan","i_lat":-6.132549,"is_transit":true},{"is_transit":false,"i_long":106.836569,"distance":1444,"line":11,"i_lat":-6.14505,"time":3,"transit":false,"station_id":"RJW","station_name":"Rajawali"},{"station_name":"Kemayoran","i_lat":-6.161728,"is_transit":false,"time":5,"station_id":"KMO","i_long":106.839204,"distance":1901,"transit":false,"line":11},{"station_id":"PSE","distance":1436,"time":4,"transit":false,"is_transit":false,"i_lat":-6.174784,"i_long":106.84368,"station_name":"Pasar Senen","line":11},{"transit":false,"station_name":"Gang Sentiong","distance":1567,"time":8,"station_id":"GST","is_transit":false,"line":11,"i_lat":-6.185975,"i_long":106.850107},{"i_long":106.855437,"is_transit":false,"line":11,"station_id":"KMT","time":1,"distance":973,"transit":false,"i_lat":-6.193792,"station_name":"Kramat"},{"time":2,"line":11,"station_id":"POK","i_long":106.861737,"distance":1829,"transit":false,"i_lat":-6.209188,"is_transit":false,"station_name":"Pondok Jati"},{"time":9,"line":1,"station_id":"JNG","i_lat":-6.215091,"is_transit":true,"station_name":"Jatinegara","i_long":106.86807400000001,"distance":1236,"transit":true},{"i_long":106.899548,"station_id":"KLD","line":1,"time":3,"is_transit":false,"station_name":"Klender","i_lat":-6.2135,"transit":false,"distance":3395},{"i_long":106.922662,"is_transit":false,"line":1,"station_id":"BUA","i_lat":-6.215568,"distance":3100,"transit":false,"time":2,"station_name":"Buaran"},{"transit":false,"station_id":"KLDB","i_long":106.939679,"is_transit":false,"i_lat":-6.217455,"distance":1305,"time":1,"station_name":"Klenderbaru","line":1},{"transit":false,"is_transit":false,"i_lat":-6.219053,"line":1,"i_long":106.951283,"time":8,"distance":1385,"station_name":"Cakung","station_id":"CUK"},{"is_transit":false,"transit":false,"i_lat":-6.224515,"line":1,"i_long":106.977657,"station_id":"KRI","time":3,"distance":3097,"station_name":"Kranji"},{"time":4,"i_long":106.997013,"station_id":"BKS","station_name":"Bekasi","is_transit":false,"line":1,"distance":2520,"transit":false,"i_lat":-6.236616}]]}