{"data":[[{"transit":false,"i_lat":-6.263214,"distance":0,"line":2,"station_id":"PSMB","station_name":"Pasar Minggu Baru","time":0,"is_transit":false,"i_long":106.851577},{"i_long":106.85449,"i_lat":-6.255332,"station_name":"Duren Kalibata","station_id":"DRN","distance":824,"is_transit":false,"transit":false,"time":2,"line":0},{"is_transit":false,"station_name":"Cawang","line":0,"transit":false,"i_long":106.856607,"i_lat":-6.242512,"station_id":"CW","time":3,"distance":1546},{"distance":1230,"transit":false,"is_transit":false,"station_id":"TEB","station_name":"Tebet","time":2,"i_long":106.857948,"i_lat":-6.226659,"line":2},{"i_long":106.84912,"time":4,"distance":2610,"station_id":"MRI","station_name":"Manggarai","i_lat":-6.209883,"line":0,"is_transit":true,"transit":true},{"transit":false,"line":1,"time":2,"station_name":"Matraman","station_id":"MTR","i_lat":-6.212485,"i_long":106.858896,"distance":1275,"is_transit":false},{"transit":false,"distance":1377,"station_name":"Jatinegara","is_transit":true,"time":8,"i_long":106.86807400000001,"line":0,"i_lat":-6.215091,"station_id":"JNG"},{"station_name":"Klender","line":1,"i_long":106.899548,"is_transit":false,"distance":3395,"station_id":"KLD","i_lat":-6.2135,"transit":false,"time":3},{"i_lat":-6.215568,"i_long":106.922662,"distance":3100,"is_transit":false,"transit":false,"station_id":"BUA","station_name":"Buaran","line":0,"time":2},{"station_id":"KLDB","i_lat":-6.217455,"is_transit":false,"transit":false,"time":1,"line":1,"station_name":"Klenderbaru","i_long":106.939679,"distance":1305},{"station_id":"CUK","is_transit":false,"i_lat":-6.219053,"transit":false,"distance":1385,"time":8,"i_long":106.951283,"station_name":"Cakung","line":0},{"is_transit":false,"station_id":"KRI","transit":false,"time":3,"station_name":"Kranji","i_long":106.977657,"distance":3097,"i_lat":-6.224515,"line":1},{"line":0,"station_id":"BKS","time":4,"i_lat":-6.236616,"distance":2520,"station_name":"Bekasi","i_long":106.997013,"transit":false,"is_transit":false}],[{"line":2,"is_transit":false,"station_name":"Pasar Minggu Baru","i_long":106.851577,"station_id":"PSMB","transit":false,"i_lat":-6.263214,"distance":0,"time":0},{"time":2,"line":0,"is_transit":false,"distance":824,"station_id":"DRN","transit":false,"i_long":106.85449,"i_lat":-6.255332,"station_name":"Duren Kalibata"},{"i_lat":-6.242512,"line":0,"transit":false,"i_long":106.856607,"station_id":"CW","time":3,"distance":1546,"is_transit":false,"station_name":"Cawang"},{"transit":false,"i_lat":-6.226659,"station_id":"TEB","line":2,"time":2,"i_long":106.857948,"station_name":"Tebet","is_transit":false,"distance":1230},{"time":4,"line":0,"is_transit":true,"station_id":"MRI","distance":2610,"i_lat":-6.209883,"transit":true,"station_name":"Manggarai","i_long":106.84912},{"line":1,"transit":false,"i_long":106.822649,"distance":3186,"station_name":"Sudirman","station_id":"SUD","is_transit":false,"i_lat":-6.202263,"time":4},{"station_id":"SUDB","station_name":"Sudirman Baru","time":1,"distance":280,"i_lat":-6.201433,"i_long":106.819881,"line":1,"transit":false,"is_transit":false},{"i_lat":-6.20132,"station_id":"KAT","i_long":106.816351,"transit":false,"is_transit":false,"distance":471,"station_name":"Karet","time":1,"line":1},{"line":1,"i_lat":-6.185545,"station_name":"Tanah Abang","i_long":106.811091,"station_id":"THB","is_transit":true,"transit":false,"time":5,"distance":2029},{"distance":3632,"station_id":"DU","time":8,"is_transit":true,"line":1,"station_name":"Duri","transit":true,"i_long":106.800832,"i_lat":-6.155215},{"is_transit":false,"i_long":106.79867,"line":0,"i_lat":-6.144674,"distance":1230,"station_name":"Angke","station_id":"AK","time":4,"transit":false},{"station_id":"KPB","distance":4102,"is_transit":true,"i_long":106.826365,"time":9,"transit":true,"line":0,"station_name":"Kampung Bandan","i_lat":-6.132549},{"transit":false,"i_long":106.836569,"station_name":"Rajawali","i_lat":-6.14505,"distance":1444,"station_id":"RJW","line":11,"time":3,"is_transit":false},{"is_transit":false,"i_lat":-6.161728,"station_name":"Kemayoran","distance":1901,"line":11,"transit":false,"i_long":106.839204,"time":5,"station_id":"KMO"},{"distance":1436,"is_transit":false,"line":11,"station_id":"PSE","transit":false,"time":4,"station_name":"Pasar Senen","i_lat":-6.174784,"i_long":106.84368},{"is_transit":false,"station_name":"Gang Sentiong","distance":1567,"time":8,"i_lat":-6.185975,"station_id":"GST","i_long":106.850107,"transit":false,"line":11},{"time":1,"i_long":106.855437,"station_name":"Kramat","transit":false,"distance":973,"is_transit":false,"i_lat":-6.193792,"station_id":"KMT","line":11},{"i_long":106.861737,"time":2,"line":11,"i_lat":-6.209188,"station_name":"Pondok Jati","is_transit":false,"station_id":"POK","distance":1829,"transit":false},{"time":9,"i_lat":-6.215091,"distance":1236,"station_id":"JNG","is_transit":true,"i_long":106.86807400000001,"line":0,"transit":true,"station_name":"Jatinegara"},{"station_id":"KLD","time":3,"i_long":106.899548,"station_name":"Klender","line":1,"is_transit":false,"distance":3395,"transit":false,"i_lat":-6.2135},{"line":0,"is_transit":false,"i_long":106.922662,"time":2,"distance":3100,"i_lat":-6.215568,"station_id":"BUA","station_name":"Buaran","transit":false},{"i_long":106.939679,"distance":1305,"station_name":"Klenderbaru","station_id":"KLDB","i_lat":-6.217455,"time":1,"transit":false,"is_transit":false,"line":1},{"is_transit":false,"distance":1385,"station_name":"Cakung","i_long":106.951283,"line":0,"transit":false,"station_id":"CUK","i_lat":-6.219053,"time":8},{"time":3,"distance":3097,"line":1,"transit":false,"i_long":106.977657,"is_transit":false,"i_lat":-6.224515,"station_name":"Kranji","station_id":"KRI"},{"time":4,"distance":2520,"is_transit":false,"i_long":106.997013,"line":0,"station_id":"BKS","station_name":"Bekasi","transit":false,"i_lat":-6.236616}],[{"station_id":"PSMB","transit":false,"i_long":106.851577,"distance":0,"line":2,"i_lat":-6.263214,"is_transit":false,"time":0,"station_name":"Pasar Minggu Baru"},{"is_transit":false,"i_long":106.85449,"station_id":"DRN","transit":false,"distance":824,"time":2,"station_name":"Duren Kalibata","line":0,"i_lat":-6.255332},{"station_id":"CW","distance":1546,"transit":false,"i_lat":-6.242512,"time":3,"is_transit":false,"line":0,"station_name":"Cawang","i_long":106.856607},{"i_lat":-6.226659,"line":2,"is_transit":false,"distance":1230,"transit":false,"time":2,"station_name":"Tebet","i_long":106.857948,"station_id":"TEB"},{"station_id":"MRI","station_name":"Manggarai","distance":2610,"time":4,"i_lat":-6.209883,"transit":true,"line":0,"is_transit":true,"i_long":106.84912},{"distance":1590,"time":4,"i_long":106.840169,"station_name":"Cikini","line":0,"is_transit":false,"i_lat":-6.198556,"station_id":"CKI","transit":false},{"station_id":"GDD","time":3,"line":2,"is_transit":false,"transit":false,"i_lat":-6.186295,"i_long":106.832183,"distance":1750,"station_name":"Gondangdia"},{"station_name":"Juanda","time":4,"station_id":"JUA","transit":false,"i_lat":-6.166716,"is_transit":false,"i_long":106.828284,"distance":2015,"line":2},{"distance":1149,"is_transit":false,"line":2,"time":2,"station_id":"SW","transit":false,"station_name":"Sawah Besar","i_lat":-6.160725,"i_long":106.827103},{"station_name":"Manggabesar","time":2,"distance":906,"i_long":106.82482,"i_lat":-6.149769,"line":2,"is_transit":false,"station_id":"MGB","transit":false},{"is_transit":false,"line":7,"distance":1080,"station_id":"JAY","transit":false,"time":2,"i_long":106.820901,"station_name":"Jayakarta","i_lat":-6.141205},{"time":4,"transit":true,"station_id":"JAKK","station_name":"Jakarta Kota","i_lat":-6.137569,"i_long":106.812439,"line":0,"distance":1264,"is_transit":true},{"line":0,"time":3,"station_name":"Kampung Bandan","i_long":106.826365,"transit":true,"i_lat":-6.132549,"distance":1364,"is_transit":true,"station_id":"KPB"},{"transit":false,"i_lat":-6.14505,"station_name":"Rajawali","i_long":106.836569,"time":3,"is_transit":false,"station_id":"RJW","line":11,"distance":1444},{"i_long":106.839204,"station_name":"Kemayoran","station_id":"KMO","time":5,"distance":1901,"i_lat":-6.161728,"is_transit":false,"line":11,"transit":false},{"time":4,"distance":1436,"station_name":"Pasar Senen","is_transit":false,"transit":false,"i_long":106.84368,"line":11,"station_id":"PSE","i_lat":-6.174784},{"station_name":"Gang Sentiong","line":11,"distance":1567,"is_transit":false,"station_id":"GST","time":8,"i_long":106.850107,"transit":false,"i_lat":-6.185975},{"i_long":106.855437,"station_id":"KMT","is_transit":false,"line":11,"station_name":"Kramat","transit":false,"time":1,"i_lat":-6.193792,"distance":973},{"line":11,"transit":false,"station_name":"Pondok Jati","time":2,"distance":1829,"is_transit":false,"station_id":"POK","i_lat":-6.209188,"i_long":106.861737},{"station_id":"JNG","station_name":"Jatinegara","distance":1236,"i_long":106.86807400000001,"i_lat":-6.215091,"is_transit":true,"time":9,"transit":true,"line":0},{"line":1,"station_name":"Klender","distance":3395,"transit":false,"is_transit":false,"i_lat":-6.2135,"station_id":"KLD","i_long":106.899548,"time":3},{"distance":3100,"time":2,"i_lat":-6.215568,"is_transit":false,"station_name":"Buaran","i_long":106.922662,"transit":false,"station_id":"BUA","line":0},{"i_long":106.939679,"station_name":"Klenderbaru","is_transit":false,"i_lat":-6.217455,"line":1,"distance":1305,"transit":false,"station_id":"KLDB","time":1},{"is_transit":false,"distance":1385,"transit":false,"i_lat":-6.219053,"time":8,"line":0,"station_name":"Cakung","i_long":106.951283,"station_id":"CUK"},{"i_lat":-6.224515,"transit":false,"line":1,"station_name":"Kranji","distance":3097,"i_long":106.977657,"station_id":"KRI","is_transit":false,"time":3},{"distance":2520,"i_long":106.997013,"line":0,"station_name":"Bekasi","is_transit":false,"time":4,"i_lat":-6.236616,"station_id":"BKS","transit":false}]]}