{"data":[[{"is_transit":false,"time":0,"i_lat":-6.263214,"station_id":"PSMB","line":2,"station_name":"Pasar Minggu Baru","i_long":106.851577,"transit":false,"distance":0},{"station_id":"DRN","is_transit":false,"i_long":106.85449,"transit":false,"line":2,"distance":824,"station_name":"Duren Kalibata","i_lat":-6.255332,"time":2},{"i_lat":-6.242512,"time":3,"is_transit":false,"distance":1546,"i_long":106.856607,"line":2,"station_id":"CW","station_name":"Cawang","transit":false},{"i_lat":-6.226659,"i_long":106.857948,"distance":1230,"line":2,"is_transit":false,"time":2,"station_id":"TEB","station_name":"Tebet","transit":false},{"i_long":106.84912,"i_lat":-6.209883,"station_name":"Manggarai","time":4,"distance":2610,"line":2,"is_transit":true,"station_id":"MRI","transit":true},{"transit":false,"station_id":"SUD","station_name":"Sudirman","is_transit":false,"i_lat":-6.202263,"time":4,"distance":3186,"i_long":106.822649,"line":1},{"transit":false,"i_long":106.819881,"i_lat":-6.201433,"station_id":"SUDB","time":1,"line":1,"station_name":"Sudirman Baru","distance":280,"is_transit":false},{"i_long":106.816351,"station_id":"KAT","transit":false,"is_transit":false,"station_name":"Karet","i_lat":-6.20132,"line":1,"time":1,"distance":471},{"station_id":"THB","time":5,"i_lat":-6.185545,"is_transit":true,"station_name":"Tanah Abang","i_long":106.811091,"distance":2029,"line":1,"transit":true},{"time":6,"distance":3191,"line":6,"station_name":"Palmerah","is_transit":false,"station_id":"PLM","i_lat":-6.207404,"i_long":106.79689,"transit":false},{"line":6,"i_long":106.780334,"station_id":"KBY","time":7,"transit":false,"station_name":"Kebayoran","is_transit":false,"distance":3737,"i_lat":-6.237242},{"distance":6218,"line":6,"i_lat":-6.276362,"time":8,"transit":false,"i_long":106.74273,"station_name":"Pondokranji","station_id":"PDJ","is_transit":false},{"station_id":"JMU","time":3,"transit":false,"i_lat":-6.288927,"distance":2179,"i_long":106.728916,"station_name":"Jurangmangu","line":6,"is_transit":false},{"is_transit":false,"station_name":"Sudimara","transit":false,"line":6,"time":4,"i_long":106.712277,"i_lat":-6.296963,"distance":1994,"station_id":"SDM"},{"distance":4566,"time":6,"is_transit":false,"transit":false,"line":6,"station_name":"Rawa Buntu","i_lat":-6.314823,"i_long":106.675475,"station_id":"RU"},{"station_name":"Serpong","time":4,"i_long":106.66566,"line":6,"station_id":"SRP","transit":false,"distance":2413,"i_lat":-6.319871,"is_transit":false},{"time":4,"line":3,"is_transit":false,"distance":1784,"station_id":"CSK","i_lat":-6.32484,"station_name":"Cisauk","i_long":106.640411,"transit":false},{"station_id":"CC","i_lat":-6.329547,"transit":false,"line":3,"i_long":106.617853,"time":4,"is_transit":false,"station_name":"Cicayur","distance":2519},{"station_id":"PRP","transit":false,"distance":5968,"station_name":"Parung Panjang","time":8,"i_lat":-6.3441410000000005,"i_long":106.568863,"is_transit":false,"line":6},{"line":3,"transit":false,"time":9,"is_transit":false,"station_id":"CJT","i_lat":-6.354349,"i_long":106.508482,"distance":7025,"station_name":"Cilejit"},{"time":6,"distance":2675,"transit":false,"station_name":"Daru","i_lat":-6.338021,"line":0,"i_long":106.491338,"station_id":"DAR","is_transit":false},{"time":5,"station_id":"TEJ","transit":false,"is_transit":false,"distance":3902,"station_name":"Tenjo","i_lat":-6.327251,"i_long":106.460812,"line":6}],[{"is_transit":false,"station_id":"PSMB","transit":false,"line":2,"time":0,"distance":0,"station_name":"Pasar Minggu Baru","i_long":106.851577,"i_lat":-6.263214},{"i_long":106.85449,"line":2,"time":2,"is_transit":false,"i_lat":-6.255332,"station_name":"Duren Kalibata","distance":824,"station_id":"DRN","transit":false},{"station_name":"Cawang","transit":false,"is_transit":false,"i_long":106.856607,"distance":1546,"i_lat":-6.242512,"station_id":"CW","time":3,"line":2},{"transit":false,"i_long":106.857948,"i_lat":-6.226659,"station_name":"Tebet","time":2,"is_transit":false,"distance":1230,"line":2,"station_id":"TEB"},{"is_transit":false,"distance":2610,"i_long":106.84912,"station_id":"MRI","transit":false,"time":4,"i_lat":-6.209883,"line":2,"station_name":"Manggarai"},{"transit":false,"i_lat":-6.198556,"distance":1590,"station_id":"CKI","i_long":106.840169,"station_name":"Cikini","line":2,"is_transit":false,"time":4},{"is_transit":false,"station_id":"GDD","line":2,"distance":1750,"i_lat":-6.186295,"transit":false,"i_long":106.832183,"time":3,"station_name":"Gondangdia"},{"is_transit":false,"transit":false,"station_id":"JUA","i_lat":-6.166716,"time":4,"i_long":106.828284,"distance":2015,"line":2,"station_name":"Juanda"},{"station_id":"SW","i_long":106.827103,"time":2,"transit":false,"station_name":"Sawah Besar","distance":1149,"line":2,"i_lat":-6.160725,"is_transit":false},{"transit":false,"i_long":106.82482,"station_id":"MGB","distance":906,"station_name":"Manggabesar","i_lat":-6.149769,"is_transit":false,"line":2,"time":2},{"i_lat":-6.141205,"i_long":106.820901,"station_id":"JAY","is_transit":false,"transit":false,"station_name":"Jayakarta","time":2,"distance":1080,"line":2},{"i_lat":-6.137569,"station_name":"Jakarta Kota","station_id":"JAKK","distance":1264,"time":4,"i_long":106.812439,"line":2,"is_transit":true,"transit":true},{"i_long":106.826365,"time":3,"is_transit":true,"station_id":"KPB","transit":true,"station_name":"Kampung Bandan","i_lat":-6.132549,"line":4,"distance":1364},{"time":9,"distance":4102,"i_lat":-6.144674,"line":1,"transit":false,"is_transit":false,"station_id":"AK","station_name":"Angke","i_long":106.79867},{"i_long":106.800832,"transit":false,"line":1,"station_id":"DU","i_lat":-6.155215,"station_name":"Duri","time":4,"distance":1230,"is_transit":false},{"i_long":106.811091,"time":8,"is_transit":true,"distance":3632,"line":1,"station_id":"THB","transit":true,"i_lat":-6.185545,"station_name":"Tanah Abang"},{"is_transit":false,"i_lat":-6.207404,"distance":3191,"time":6,"transit":false,"station_id":"PLM","station_name":"Palmerah","i_long":106.79689,"line":6},{"i_lat":-6.237242,"distance":3737,"line":6,"station_name":"Kebayoran","is_transit":false,"transit":false,"station_id":"KBY","i_long":106.780334,"time":7},{"transit":false,"i_lat":-6.276362,"line":6,"station_name":"Pondokranji","is_transit":false,"time":8,"i_long":106.74273,"distance":6218,"station_id":"PDJ"},{"distance":2179,"line":6,"station_id":"JMU","is_transit":false,"i_lat":-6.288927,"time":3,"transit":false,"i_long":106.728916,"station_name":"Jurangmangu"},{"time":4,"distance":1994,"line":6,"i_lat":-6.296963,"i_long":106.712277,"transit":false,"is_transit":false,"station_id":"SDM","station_name":"Sudimara"},{"station_name":"Rawa Buntu","line":6,"transit":false,"station_id":"RU","is_transit":false,"time":6,"distance":4566,"i_lat":-6.314823,"i_long":106.675475},{"station_id":"SRP","i_long":106.66566,"line":6,"is_transit":false,"time":4,"station_name":"Serpong","distance":2413,"i_lat":-6.319871,"transit":false},{"is_transit":false,"distance":1784,"time":4,"station_id":"CSK","i_long":106.640411,"i_lat":-6.32484,"line":3,"station_name":"Cisauk","transit":false},{"is_transit":false,"i_lat":-6.329547,"transit":false,"distance":2519,"line":3,"station_id":"CC","station_name":"Cicayur","time":4,"i_long":106.617853},{"station_name":"Parung Panjang","transit":false,"distance":5968,"station_id":"PRP","time":8,"i_lat":-6.3441410000000005,"is_transit":false,"i_long":106.568863,"line":6},{"line":3,"station_id":"CJT","station_name":"Cilejit","distance":7025,"time":9,"i_lat":-6.354349,"i_long":106.508482,"transit":false,"is_transit":false},{"i_lat":-6.338021,"distance":2675,"is_transit":false,"station_name":"Daru","time":6,"line":0,"i_long":106.491338,"station_id":"DAR","transit":false},{"transit":false,"i_lat":-6.327251,"line":6,"is_transit":false,"distance":3902,"station_name":"Tenjo","time":5,"station_id":"TEJ","i_long":106.460812}],[{"is_transit":false,"line":2,"transit":false,"time":0,"station_id":"PSMB","distance":0,"i_lat":-6.263214,"i_long":106.851577,"station_name":"Pasar Minggu Baru"},{"line":2,"time":2,"i_lat":-6.255332,"station_name":"Duren Kalibata","i_long":106.85449,"distance":824,"transit":false,"station_id":"DRN","is_transit":false},{"station_name":"Cawang","i_long":106.856607,"i_lat":-6.242512,"station_id":"CW","line":2,"is_transit":false,"transit":false,"time":3,"distance":1546},{"station_name":"Tebet","i_lat":-6.226659,"is_transit":false,"transit":false,"line":2,"station_id":"TEB","time":2,"i_long":106.857948,"distance":1230},{"time":4,"i_lat":-6.209883,"line":2,"i_long":106.84912,"station_name":"Manggarai","transit":true,"station_id":"MRI","distance":2610,"is_transit":true},{"station_name":"Matraman","is_transit":false,"distance":1275,"station_id":"MTR","time":2,"transit":false,"i_long":106.858896,"i_lat":-6.212485,"line":1},{"transit":true,"distance":1377,"i_lat":-6.215091,"is_transit":true,"station_name":"Jatinegara","line":1,"i_long":106.86807400000001,"station_id":"JNG","time":8},{"line":11,"time":2,"transit":false,"station_id":"POK","i_lat":-6.209188,"distance":1236,"is_transit":false,"i_long":106.861737,"station_name":"Pondok Jati"},{"station_name":"Kramat","is_transit":false,"i_lat":-6.193792,"station_id":"KMT","distance":1829,"line":11,"transit":false,"time":2,"i_long":106.855437},{"station_id":"GST","i_long":106.850107,"line":11,"station_name":"Gang Sentiong","distance":973,"is_transit":false,"transit":false,"time":1,"i_lat":-6.185975},{"transit":false,"is_transit":false,"time":8,"i_long":106.84368,"distance":1567,"station_name":"Pasar Senen","i_lat":-6.174784,"station_id":"PSE","line":11},{"station_name":"Kemayoran","station_id":"KMO","is_transit":false,"i_lat":-6.161728,"i_long":106.839204,"time":4,"transit":false,"distance":1436,"line":11},{"i_lat":-6.14505,"line":11,"station_id":"RJW","distance":1901,"transit":false,"station_name":"Rajawali","time":5,"i_long":106.836569,"is_transit":false},{"station_id":"KPB","is_transit":true,"time":3,"i_lat":-6.132549,"line":4,"i_long":106.826365,"distance":1444,"transit":true,"station_name":"Kampung Bandan"},{"line":1,"i_long":106.79867,"station_name":"Angke","station_id":"AK","distance":4102,"is_transit":false,"i_lat":-6.144674,"transit":false,"time":9},{"station_name":"Duri","distance":1230,"station_id":"DU","time":4,"transit":false,"is_transit":false,"i_lat":-6.155215,"i_long":106.800832,"line":1},{"is_transit":true,"line":1,"i_lat":-6.185545,"station_name":"Tanah Abang","i_long":106.811091,"distance":3632,"transit":true,"time":8,"station_id":"THB"},{"transit":false,"distance":3191,"station_name":"Palmerah","i_long":106.79689,"i_lat":-6.207404,"station_id":"PLM","is_transit":false,"line":6,"time":6},{"line":6,"i_lat":-6.237242,"transit":false,"distance":3737,"station_name":"Kebayoran","i_long":106.780334,"is_transit":false,"station_id":"KBY","time":7},{"distance":6218,"i_lat":-6.276362,"station_name":"Pondokranji","station_id":"PDJ","time":8,"line":6,"i_long":106.74273,"transit":false,"is_transit":false},{"i_lat":-6.288927,"i_long":106.728916,"time":3,"is_transit":false,"transit":false,"distance":2179,"line":6,"station_id":"JMU","station_name":"Jurangmangu"},{"time":4,"i_lat":-6.296963,"transit":false,"station_name":"Sudimara","distance":1994,"line":6,"station_id":"SDM","is_transit":false,"i_long":106.712277},{"distance":4566,"transit":false,"station_id":"RU","i_lat":-6.314823,"i_long":106.675475,"station_name":"Rawa Buntu","line":6,"is_transit":false,"time":6},{"i_long":106.66566,"line":6,"distance":2413,"is_transit":false,"transit":false,"time":4,"station_id":"SRP","station_name":"Serpong","i_lat":-6.319871},{"i_lat":-6.32484,"distance":1784,"station_name":"Cisauk","transit":false,"station_id":"CSK","i_long":106.640411,"line":3,"time":4,"is_transit":false},{"transit":false,"i_lat":-6.329547,"i_long":106.617853,"station_id":"CC","distance":2519,"is_transit":false,"station_name":"Cicayur","line":3,"time":4},{"i_long":106.568863,"transit":false,"time":8,"station_name":"Parung Panjang","is_transit":false,"line":6,"i_lat":-6.3441410000000005,"distance":5968,"station_id":"PRP"},{"is_transit":false,"i_long":106.508482,"time":9,"station_name":"Cilejit","transit":false,"i_lat":-6.354349,"station_id":"CJT","distance":7025,"line":3},{"station_name":"Daru","time":6,"station_id":"DAR","i_long":106.491338,"is_transit":false,"transit":false,"i_lat":-6.338021,"line":0,"distance":2675},{"is_transit":false,"i_lat":-6.327251,"i_long":106.460812,"line":6,"time":5,"station_name":"Tenjo","distance":3902,"transit":false,"station_id":"TEJ"}]]}