{"data":[[{"is_transit":false,"station_name":"Pasar Minggu Baru","transit":false,"i_lat":-6.263214,"line":2,"station_id":"PSMB","i_long":106.851577,"distance":0,"time":0},{"time":2,"i_long":106.85449,"station_id":"DRN","line":2,"is_transit":false,"transit":false,"station_name":"Duren Kalibata","i_lat":-6.255332,"distance":824},{"i_long":106.856607,"i_lat":-6.242512,"station_id":"CW","transit":false,"time":3,"line":2,"distance":1546,"station_name":"Cawang","is_transit":false},{"line":2,"time":2,"i_lat":-6.226659,"station_id":"TEB","station_name":"Tebet","is_transit":false,"transit":false,"distance":1230,"i_long":106.857948},{"i_long":106.84912,"time":4,"is_transit":true,"line":2,"distance":2610,"i_lat":-6.209883,"station_id":"MRI","station_name":"Manggarai","transit":true},{"i_lat":-6.212485,"i_long":106.858896,"time":2,"station_id":"MTR","distance":1275,"is_transit":false,"line":1,"station_name":"Matraman","transit":false},{"line":1,"time":8,"distance":1377,"is_transit":false,"station_name":"Jatinegara","station_id":"JNG","transit":false,"i_lat":-6.215091,"i_long":106.86807400000001},{"transit":false,"station_id":"KLD","time":3,"i_long":106.899548,"station_name":"Klender","line":1,"distance":3395,"i_lat":-6.2135,"is_transit":false},{"time":2,"distance":3100,"i_lat":-6.215568,"i_long":106.922662,"station_id":"BUA","station_name":"Buaran","line":1,"transit":false,"is_transit":false},{"distance":1305,"station_id":"KLDB","transit":false,"i_lat":-6.217455,"i_long":106.939679,"line":1,"station_name":"Klenderbaru","time":1,"is_transit":false},{"transit":false,"i_long":106.951283,"line":1,"station_id":"CUK","time":8,"is_transit":false,"station_name":"Cakung","distance":1385,"i_lat":-6.219053},{"i_long":106.977657,"line":1,"station_id":"KRI","transit":false,"distance":3097,"station_name":"Kranji","time":3,"is_transit":false,"i_lat":-6.224515},{"distance":2520,"station_id":"BKS","time":4,"is_transit":false,"i_lat":-6.236616,"station_name":"Bekasi","line":1,"i_long":106.997013,"transit":false},{"line":1,"i_lat":-6.248029,"i_long":107.016735,"distance":2368,"time":2,"station_name":"Bekasi Timur","is_transit":false,"transit":false,"station_id":"BKST"},{"station_id":"TB","transit":false,"i_long":107.055722,"time":7,"distance":4460,"station_name":"Tambun","line":1,"is_transit":false,"i_lat":-6.258864},{"is_transit":false,"transit":false,"distance":3420,"i_long":107.083084,"station_name":"Cibitung","station_id":"CIT","i_lat":-6.261877,"line":1,"time":3},{"line":1,"i_long":107.093313,"distance":2800,"time":2,"transit":false,"i_lat":-6.262938,"station_name":"Metland Telaga Murni","station_id":"TLM","is_transit":false},{"transit":false,"time":4,"station_id":"CKR","station_name":"Cikarang","line":1,"is_transit":false,"i_lat":-6.2553149999999995,"i_long":107.144613,"distance":3689}],[{"line":2,"transit":false,"time":0,"is_transit":false,"station_name":"Pasar Minggu Baru","distance":0,"station_id":"PSMB","i_lat":-6.263214,"i_long":106.851577},{"station_id":"DRN","time":2,"station_name":"Duren Kalibata","transit":false,"i_long":106.85449,"i_lat":-6.255332,"distance":824,"line":2,"is_transit":false},{"distance":1546,"is_transit":false,"i_long":106.856607,"line":2,"time":3,"station_id":"CW","station_name":"Cawang","transit":false,"i_lat":-6.242512},{"station_name":"Tebet","line":2,"transit":false,"time":2,"i_lat":-6.226659,"station_id":"TEB","i_long":106.857948,"is_transit":false,"distance":1230},{"i_long":106.84912,"line":2,"transit":true,"station_id":"MRI","is_transit":true,"time":4,"distance":2610,"station_name":"Manggarai","i_lat":-6.209883},{"i_long":106.822649,"station_name":"Sudirman","transit":false,"i_lat":-6.202263,"time":4,"line":1,"is_transit":false,"station_id":"SUD","distance":3186},{"transit":false,"is_transit":false,"i_lat":-6.201433,"line":1,"i_long":106.819881,"station_name":"Sudirman Baru","distance":280,"time":1,"station_id":"SUDB"},{"is_transit":false,"line":1,"station_id":"KAT","i_lat":-6.20132,"i_long":106.816351,"distance":471,"station_name":"Karet","time":1,"transit":false},{"station_id":"THB","time":5,"distance":2029,"is_transit":false,"transit":false,"station_name":"Tanah Abang","i_long":106.811091,"i_lat":-6.185545,"line":1},{"station_id":"DU","transit":false,"time":8,"station_name":"Duri","i_lat":-6.155215,"i_long":106.800832,"line":1,"is_transit":false,"distance":3632},{"station_id":"AK","distance":1230,"transit":false,"station_name":"Angke","i_lat":-6.144674,"time":4,"i_long":106.79867,"is_transit":false,"line":1},{"line":4,"distance":4102,"is_transit":true,"i_lat":-6.132549,"i_long":106.826365,"transit":true,"station_name":"Kampung Bandan","time":9,"station_id":"KPB"},{"station_name":"Rajawali","i_lat":-6.14505,"i_long":106.836569,"line":11,"station_id":"RJW","time":3,"distance":1444,"transit":false,"is_transit":false},{"time":5,"i_long":106.839204,"is_transit":false,"station_id":"KMO","i_lat":-6.161728,"station_name":"Kemayoran","line":11,"distance":1901,"transit":false},{"i_long":106.84368,"transit":false,"is_transit":false,"line":11,"distance":1436,"station_name":"Pasar Senen","time":4,"i_lat":-6.174784,"station_id":"PSE"},{"distance":1567,"station_name":"Gang Sentiong","time":8,"line":11,"i_long":106.850107,"station_id":"GST","is_transit":false,"i_lat":-6.185975,"transit":false},{"is_transit":false,"i_lat":-6.193792,"transit":false,"station_id":"KMT","time":1,"distance":973,"station_name":"Kramat","i_long":106.855437,"line":11},{"i_long":106.861737,"time":2,"is_transit":false,"transit":false,"line":11,"station_name":"Pondok Jati","distance":1829,"i_lat":-6.209188,"station_id":"POK"},{"i_lat":-6.215091,"station_id":"JNG","line":1,"station_name":"Jatinegara","i_long":106.86807400000001,"transit":true,"time":9,"is_transit":true,"distance":1236},{"station_id":"KLD","time":3,"distance":3395,"i_lat":-6.2135,"station_name":"Klender","transit":false,"i_long":106.899548,"line":1,"is_transit":false},{"transit":false,"line":1,"i_lat":-6.215568,"distance":3100,"station_name":"Buaran","station_id":"BUA","time":2,"is_transit":false,"i_long":106.922662},{"line":1,"transit":false,"time":1,"station_id":"KLDB","i_lat":-6.217455,"is_transit":false,"i_long":106.939679,"distance":1305,"station_name":"Klenderbaru"},{"i_lat":-6.219053,"transit":false,"station_id":"CUK","distance":1385,"station_name":"Cakung","i_long":106.951283,"line":1,"time":8,"is_transit":false},{"time":3,"i_long":106.977657,"transit":false,"station_id":"KRI","is_transit":false,"line":1,"i_lat":-6.224515,"station_name":"Kranji","distance":3097},{"transit":false,"i_long":106.997013,"time":4,"i_lat":-6.236616,"line":1,"station_name":"Bekasi","station_id":"BKS","distance":2520,"is_transit":false},{"i_long":107.016735,"station_id":"BKST","time":2,"i_lat":-6.248029,"line":1,"distance":2368,"station_name":"Bekasi Timur","transit":false,"is_transit":false},{"i_long":107.055722,"transit":false,"distance":4460,"is_transit":false,"i_lat":-6.258864,"line":1,"station_id":"TB","time":7,"station_name":"Tambun"},{"time":3,"station_id":"CIT","distance":3420,"station_name":"Cibitung","transit":false,"is_transit":false,"i_lat":-6.261877,"i_long":107.083084,"line":1},{"station_name":"Metland Telaga Murni","transit":false,"i_long":107.093313,"line":1,"i_lat":-6.262938,"time":2,"distance":2800,"is_transit":false,"station_id":"TLM"},{"station_id":"CKR","distance":3689,"time":4,"i_lat":-6.2553149999999995,"station_name":"Cikarang","i_long":107.144613,"line":1,"transit":false,"is_transit":false}],[{"transit":false,"i_lat":-6.263214,"distance":0,"is_transit":false,"station_id":"PSMB","line":2,"station_name":"Pasar Minggu Baru","i_long":106.851577,"time":0},{"is_transit":false,"i_lat":-6.255332,"line":2,"station_name":"Duren Kalibata","station_id":"DRN","i_long":106.85449,"time":2,"transit":false,"distance":824},{"station_name":"Cawang","i_lat":-6.242512,"station_id":"CW","is_transit":false,"line":2,"time":3,"distance":1546,"transit":false,"i_long":106.856607},{"station_name":"Tebet","station_id":"TEB","is_transit":false,"line":2,"i_long":106.857948,"time":2,"i_lat":-6.226659,"distance":1230,"transit":false},{"station_id":"MRI","station_name":"Manggarai","distance":2610,"i_lat":-6.209883,"is_transit":false,"time":4,"transit":false,"i_long":106.84912,"line":2},{"station_name":"Cikini","distance":1590,"line":2,"station_id":"CKI","transit":false,"time":4,"is_transit":false,"i_lat":-6.198556,"i_long":106.840169},{"distance":1750,"station_id":"GDD","line":2,"i_long":106.832183,"time":3,"station_name":"Gondangdia","is_transit":false,"i_lat":-6.186295,"transit":false},{"station_id":"JUA","line":2,"i_long":106.828284,"transit":false,"is_transit":false,"station_name":"Juanda","time":4,"distance":2015,"i_lat":-6.166716},{"i_long":106.827103,"time":2,"station_id":"SW","transit":false,"is_transit":false,"line":2,"distance":1149,"station_name":"Sawah Besar","i_lat":-6.160725},{"station_name":"Manggabesar","is_transit":false,"distance":906,"station_id":"MGB","time":2,"line":2,"i_lat":-6.149769,"transit":false,"i_long":106.82482},{"is_transit":false,"line":2,"distance":1080,"i_long":106.820901,"transit":false,"station_name":"Jayakarta","i_lat":-6.141205,"station_id":"JAY","time":2},{"i_long":106.812439,"transit":true,"i_lat":-6.137569,"time":4,"distance":1264,"station_id":"JAKK","line":2,"station_name":"Jakarta Kota","is_transit":true},{"time":3,"is_transit":true,"line":4,"station_name":"Kampung Bandan","i_long":106.826365,"i_lat":-6.132549,"transit":true,"station_id":"KPB","distance":1364},{"station_name":"Rajawali","i_long":106.836569,"i_lat":-6.14505,"station_id":"RJW","is_transit":false,"line":11,"transit":false,"time":3,"distance":1444},{"i_long":106.839204,"i_lat":-6.161728,"line":11,"transit":false,"station_name":"Kemayoran","station_id":"KMO","time":5,"distance":1901,"is_transit":false},{"time":4,"distance":1436,"line":11,"station_id":"PSE","i_lat":-6.174784,"transit":false,"is_transit":false,"i_long":106.84368,"station_name":"Pasar Senen"},{"distance":1567,"is_transit":false,"i_long":106.850107,"i_lat":-6.185975,"station_id":"GST","line":11,"transit":false,"station_name":"Gang Sentiong","time":8},{"station_name":"Kramat","station_id":"KMT","i_long":106.855437,"time":1,"line":11,"distance":973,"i_lat":-6.193792,"transit":false,"is_transit":false},{"i_long":106.861737,"station_name":"Pondok Jati","line":11,"station_id":"POK","distance":1829,"time":2,"transit":false,"i_lat":-6.209188,"is_transit":false},{"is_transit":true,"distance":1236,"i_long":106.86807400000001,"line":1,"i_lat":-6.215091,"station_id":"JNG","transit":true,"station_name":"Jatinegara","time":9},{"i_long":106.899548,"line":1,"station_id":"KLD","time":3,"distance":3395,"i_lat":-6.2135,"transit":false,"station_name":"Klender","is_transit":false},{"station_id":"BUA","distance":3100,"is_transit":false,"i_lat":-6.215568,"station_name":"Buaran","time":2,"i_long":106.922662,"line":1,"transit":false},{"is_transit":false,"i_lat":-6.217455,"transit":false,"i_long":106.939679,"station_name":"Klenderbaru","station_id":"KLDB","line":1,"distance":1305,"time":1},{"is_transit":false,"i_lat":-6.219053,"transit":false,"line":1,"i_long":106.951283,"time":8,"station_name":"Cakung","station_id":"CUK","distance":1385},{"transit":false,"distance":3097,"station_id":"KRI","i_lat":-6.224515,"is_transit":false,"line":1,"station_name":"Kranji","i_long":106.977657,"time":3},{"line":1,"distance":2520,"station_id":"BKS","time":4,"i_lat":-6.236616,"station_name":"Bekasi","is_transit":false,"i_long":106.997013,"transit":false},{"transit":false,"i_lat":-6.248029,"station_id":"BKST","distance":2368,"i_long":107.016735,"station_name":"Bekasi Timur","is_transit":false,"time":2,"line":1},{"i_lat":-6.258864,"line":1,"i_long":107.055722,"distance":4460,"time":7,"transit":false,"station_name":"Tambun","is_transit":false,"station_id":"TB"},{"distance":3420,"i_long":107.083084,"i_lat":-6.261877,"station_id":"CIT","transit":false,"time":3,"is_transit":false,"station_name":"Cibitung","line":1},{"i_lat":-6.262938,"line":1,"transit":false,"i_long":107.093313,"time":2,"distance":2800,"station_name":"Metland Telaga Murni","station_id":"TLM","is_transit":false},{"distance":3689,"station_id":"CKR","station_name":"Cikarang","transit":false,"i_lat":-6.2553149999999995,"i_long":107.144613,"time":4,"is_transit":false,"line":1}]]}