{"data":[[{"distance":0,"transit":false,"time":0,"i_lat":-6.263214,"i_long":106.851577,"station_name":"Pasar Minggu Baru","is_transit":false,"station_id":"PSMB","line":2},{"station_id":"PSM","time":2,"is_transit":false,"i_lat":-6.2842400000000005,"i_long":106.843999,"transit":false,"line":2,"station_name":"Pasar Minggu","distance":2380},{"i_long":106.838896,"is_transit":false,"i_lat":-6.3080680000000005,"station_id":"TNT","transit":false,"station_name":"Tanjung Barat","time":4,"line":2,"distance":2820},{"distance":2671,"station_name":"Lenteng Agung","i_lat":-6.330363,"time":3,"transit":false,"i_long":106.832616,"station_id":"LNA","is_transit":false,"line":2},{"i_long":106.834175,"line":2,"transit":false,"station_id":"UP","time":2,"station_name":"Univ. Pancasila","distance":1029,"is_transit":false,"i_lat":-6.339291},{"time":3,"station_id":"UI","i_lat":-6.360749,"line":2,"station_name":"Univ. Indonesia","transit":false,"distance":2264,"i_long":106.831474,"is_transit":false},{"station_id":"POC","station_name":"Pondok Cina","i_lat":-6.369073,"is_transit":false,"line":2,"i_long":106.831114,"transit":false,"distance":1109,"time":2},{"transit":false,"station_name":"Depokbaru","station_id":"DPB","i_lat":-6.391065,"line":2,"is_transit":false,"i_long":106.819451,"time":4,"distance":2727},{"transit":false,"station_name":"Depok","is_transit":false,"time":3,"station_id":"DP","distance":1584,"i_long":106.816926,"i_lat":-6.405256,"line":2}]]}