{"data":[[{"time":0,"line":2,"distance":0,"station_id":"PSMB","i_lat":-6.263214,"i_long":106.851577,"is_transit":false,"transit":false,"station_name":"Pasar Minggu Baru"},{"station_name":"Duren Kalibata","i_long":106.85449,"time":2,"line":0,"transit":false,"distance":824,"is_transit":false,"i_lat":-6.255332,"station_id":"DRN"},{"i_long":106.856607,"transit":false,"station_name":"Cawang","is_transit":false,"time":3,"i_lat":-6.242512,"line":0,"station_id":"CW","distance":1546},{"distance":1230,"station_name":"Tebet","i_long":106.857948,"line":2,"station_id":"TEB","transit":false,"time":2,"i_lat":-6.226659,"is_transit":false},{"line":0,"station_id":"MRI","i_lat":-6.209883,"is_transit":true,"distance":2610,"station_name":"Manggarai","transit":true,"time":4,"i_long":106.84912},{"i_long":106.822649,"distance":3186,"station_name":"Sudirman","time":4,"transit":false,"i_lat":-6.202263,"is_transit":false,"line":1,"station_id":"SUD"},{"transit":false,"line":1,"i_lat":-6.201433,"station_name":"Sudirman Baru","i_long":106.819881,"time":1,"distance":280,"is_transit":false,"station_id":"SUDB"},{"i_lat":-6.20132,"line":1,"is_transit":false,"transit":false,"distance":471,"station_id":"KAT","time":1,"station_name":"Karet","i_long":106.816351},{"station_id":"THB","is_transit":true,"time":5,"station_name":"Tanah Abang","i_long":106.811091,"distance":2029,"line":1,"i_lat":-6.185545,"transit":true},{"line":6,"is_transit":false,"distance":3191,"station_id":"PLM","i_lat":-6.207404,"transit":false,"time":6,"station_name":"Palmerah","i_long":106.79689},{"is_transit":false,"time":7,"i_lat":-6.237242,"line":6,"distance":3737,"transit":false,"i_long":106.780334,"station_name":"Kebayoran","station_id":"KBY"},{"time":8,"station_id":"PDJ","i_lat":-6.276362,"is_transit":false,"distance":6218,"transit":false,"i_long":106.74273,"station_name":"Pondokranji","line":6},{"i_lat":-6.288927,"i_long":106.728916,"is_transit":false,"time":3,"station_name":"Jurangmangu","distance":2179,"transit":false,"station_id":"JMU","line":6}],[{"time":0,"is_transit":false,"station_name":"Pasar Minggu Baru","transit":false,"i_lat":-6.263214,"station_id":"PSMB","distance":0,"i_long":106.851577,"line":2},{"station_name":"Duren Kalibata","line":0,"transit":false,"station_id":"DRN","i_long":106.85449,"is_transit":false,"distance":824,"time":2,"i_lat":-6.255332},{"distance":1546,"line":0,"is_transit":false,"i_long":106.856607,"station_name":"Cawang","i_lat":-6.242512,"transit":false,"time":3,"station_id":"CW"},{"is_transit":false,"station_name":"Tebet","transit":false,"time":2,"i_long":106.857948,"line":2,"distance":1230,"station_id":"TEB","i_lat":-6.226659},{"time":4,"line":0,"distance":2610,"transit":true,"is_transit":true,"i_lat":-6.209883,"i_long":106.84912,"station_name":"Manggarai","station_id":"MRI"},{"i_lat":-6.198556,"line":0,"station_name":"Cikini","i_long":106.840169,"station_id":"CKI","transit":false,"distance":1590,"is_transit":false,"time":4},{"i_long":106.832183,"transit":false,"line":2,"station_name":"Gondangdia","station_id":"GDD","i_lat":-6.186295,"distance":1750,"time":3,"is_transit":false},{"line":2,"i_long":106.828284,"station_id":"JUA","station_name":"Juanda","i_lat":-6.166716,"is_transit":false,"transit":false,"distance":2015,"time":4},{"station_id":"SW","i_long":106.827103,"transit":false,"is_transit":false,"distance":1149,"time":2,"station_name":"Sawah Besar","i_lat":-6.160725,"line":2},{"i_long":106.82482,"line":2,"i_lat":-6.149769,"time":2,"station_id":"MGB","distance":906,"is_transit":false,"transit":false,"station_name":"Manggabesar"},{"i_long":106.820901,"time":2,"line":7,"i_lat":-6.141205,"transit":false,"station_id":"JAY","is_transit":false,"distance":1080,"station_name":"Jayakarta"},{"i_long":106.812439,"line":0,"transit":true,"distance":1264,"is_transit":true,"station_name":"Jakarta Kota","station_id":"JAKK","i_lat":-6.137569,"time":4},{"i_long":106.826365,"is_transit":true,"line":0,"station_name":"Kampung Bandan","time":3,"distance":1364,"i_lat":-6.132549,"station_id":"KPB","transit":false},{"i_long":106.79867,"distance":4102,"transit":false,"station_name":"Angke","is_transit":false,"station_id":"AK","time":9,"line":0,"i_lat":-6.144674},{"is_transit":true,"station_id":"DU","station_name":"Duri","transit":true,"time":4,"i_long":106.800832,"line":1,"distance":1230,"i_lat":-6.155215},{"i_long":106.811091,"is_transit":true,"transit":true,"line":1,"distance":3632,"time":8,"station_id":"THB","i_lat":-6.185545,"station_name":"Tanah Abang"},{"i_long":106.79689,"time":6,"is_transit":false,"station_id":"PLM","i_lat":-6.207404,"line":6,"distance":3191,"transit":false,"station_name":"Palmerah"},{"i_long":106.780334,"is_transit":false,"distance":3737,"station_id":"KBY","station_name":"Kebayoran","time":7,"transit":false,"i_lat":-6.237242,"line":6},{"time":8,"station_id":"PDJ","i_long":106.74273,"is_transit":false,"station_name":"Pondokranji","transit":false,"i_lat":-6.276362,"distance":6218,"line":6},{"distance":2179,"station_name":"Jurangmangu","i_lat":-6.288927,"is_transit":false,"station_id":"JMU","i_long":106.728916,"transit":false,"line":6,"time":3}],[{"station_id":"PSMB","i_lat":-6.263214,"distance":0,"station_name":"Pasar Minggu Baru","time":0,"i_long":106.851577,"transit":false,"is_transit":false,"line":2},{"transit":false,"station_id":"DRN","distance":824,"is_transit":false,"i_long":106.85449,"line":0,"time":2,"station_name":"Duren Kalibata","i_lat":-6.255332},{"transit":false,"time":3,"i_lat":-6.242512,"station_name":"Cawang","station_id":"CW","distance":1546,"i_long":106.856607,"is_transit":false,"line":0},{"distance":1230,"i_lat":-6.226659,"station_id":"TEB","is_transit":false,"i_long":106.857948,"line":2,"station_name":"Tebet","transit":false,"time":2},{"is_transit":true,"transit":true,"distance":2610,"i_lat":-6.209883,"i_long":106.84912,"line":0,"time":4,"station_id":"MRI","station_name":"Manggarai"},{"time":2,"transit":false,"i_long":106.858896,"line":1,"distance":1275,"i_lat":-6.212485,"station_name":"Matraman","is_transit":false,"station_id":"MTR"},{"i_long":106.86807400000001,"i_lat":-6.215091,"is_transit":true,"distance":1377,"line":0,"transit":true,"station_id":"JNG","station_name":"Jatinegara","time":8},{"distance":1236,"station_id":"POK","station_name":"Pondok Jati","time":2,"is_transit":false,"transit":false,"i_long":106.861737,"i_lat":-6.209188,"line":11},{"station_name":"Kramat","transit":false,"i_lat":-6.193792,"time":2,"is_transit":false,"i_long":106.855437,"line":11,"distance":1829,"station_id":"KMT"},{"i_lat":-6.185975,"line":11,"is_transit":false,"i_long":106.850107,"distance":973,"station_id":"GST","station_name":"Gang Sentiong","transit":false,"time":1},{"is_transit":false,"i_lat":-6.174784,"transit":false,"station_name":"Pasar Senen","time":8,"i_long":106.84368,"line":11,"distance":1567,"station_id":"PSE"},{"distance":1436,"station_name":"Kemayoran","time":4,"i_long":106.839204,"line":11,"is_transit":false,"transit":false,"i_lat":-6.161728,"station_id":"KMO"},{"station_name":"Rajawali","transit":false,"i_lat":-6.14505,"i_long":106.836569,"station_id":"RJW","time":5,"line":11,"is_transit":false,"distance":1901},{"station_name":"Kampung Bandan","i_lat":-6.132549,"i_long":106.826365,"distance":1444,"station_id":"KPB","line":0,"time":3,"is_transit":true,"transit":true},{"distance":4102,"i_long":106.79867,"station_id":"AK","station_name":"Angke","line":0,"transit":false,"i_lat":-6.144674,"time":9,"is_transit":false},{"distance":1230,"is_transit":true,"station_id":"DU","line":1,"i_lat":-6.155215,"transit":true,"i_long":106.800832,"station_name":"Duri","time":4},{"i_lat":-6.185545,"time":8,"i_long":106.811091,"station_id":"THB","is_transit":true,"line":1,"station_name":"Tanah Abang","distance":3632,"transit":true},{"i_lat":-6.207404,"i_long":106.79689,"distance":3191,"line":6,"time":6,"transit":false,"station_name":"Palmerah","is_transit":false,"station_id":"PLM"},{"is_transit":false,"time":7,"i_lat":-6.237242,"distance":3737,"transit":false,"station_id":"KBY","i_long":106.780334,"line":6,"station_name":"Kebayoran"},{"is_transit":false,"station_id":"PDJ","station_name":"Pondokranji","transit":false,"i_long":106.74273,"i_lat":-6.276362,"line":6,"time":8,"distance":6218},{"station_id":"JMU","transit":false,"distance":2179,"is_transit":false,"station_name":"Jurangmangu","time":3,"i_lat":-6.288927,"line":6,"i_long":106.728916}]]}