{"data":[[{"station_id":"PSMB","distance":0,"time":0,"transit":false,"i_long":106.851577,"station_name":"Pasar Minggu Baru","line":2,"i_lat":-6.263214,"is_transit":false},{"is_transit":false,"i_lat":-6.255332,"line":2,"station_id":"DRN","station_name":"Duren Kalibata","i_long":106.85449,"time":2,"transit":false,"distance":824},{"time":3,"station_id":"CW","i_long":106.856607,"distance":1546,"is_transit":false,"station_name":"Cawang","line":2,"transit":false,"i_lat":-6.242512},{"station_name":"Tebet","i_long":106.857948,"is_transit":false,"distance":1230,"station_id":"TEB","line":2,"i_lat":-6.226659,"transit":false,"time":2},{"i_long":106.84912,"distance":2610,"is_transit":true,"i_lat":-6.209883,"station_id":"MRI","time":4,"transit":true,"line":2,"station_name":"Manggarai"},{"time":4,"station_name":"Sudirman","i_lat":-6.202263,"i_long":106.822649,"transit":false,"is_transit":false,"line":1,"distance":3186,"station_id":"SUD"},{"distance":280,"station_name":"Sudirman Baru","i_lat":-6.201433,"transit":false,"i_long":106.819881,"time":1,"station_id":"SUDB","is_transit":false,"line":1},{"station_name":"Karet","time":1,"i_long":106.816351,"line":1,"station_id":"KAT","distance":471,"is_transit":false,"transit":false,"i_lat":-6.20132},{"time":5,"transit":true,"is_transit":true,"station_id":"THB","station_name":"Tanah Abang","line":1,"i_lat":-6.185545,"distance":2029,"i_long":106.811091},{"time":6,"station_id":"PLM","is_transit":false,"transit":false,"station_name":"Palmerah","i_lat":-6.207404,"line":6,"i_long":106.79689,"distance":3191},{"is_transit":false,"distance":3737,"i_long":106.780334,"line":6,"transit":false,"station_name":"Kebayoran","i_lat":-6.237242,"time":7,"station_id":"KBY"},{"time":8,"i_lat":-6.276362,"transit":false,"i_long":106.74273,"station_name":"Pondokranji","line":6,"is_transit":false,"station_id":"PDJ","distance":6218},{"i_long":106.728916,"transit":false,"is_transit":false,"station_id":"JMU","distance":2179,"line":6,"time":3,"station_name":"Jurangmangu","i_lat":-6.288927},{"is_transit":false,"line":6,"i_lat":-6.296963,"time":4,"transit":false,"station_id":"SDM","i_long":106.712277,"distance":1994,"station_name":"Sudimara"},{"transit":false,"i_long":106.675475,"time":6,"line":6,"station_id":"RU","is_transit":false,"i_lat":-6.314823,"distance":4566,"station_name":"Rawa Buntu"},{"station_id":"SRP","line":6,"transit":false,"i_lat":-6.319871,"station_name":"Serpong","i_long":106.66566,"time":4,"is_transit":false,"distance":2413},{"i_long":106.640411,"line":3,"station_name":"Cisauk","transit":false,"station_id":"CSK","i_lat":-6.32484,"distance":1784,"time":4,"is_transit":false},{"i_long":106.617853,"line":3,"time":4,"is_transit":false,"station_name":"Cicayur","distance":2519,"i_lat":-6.329547,"transit":false,"station_id":"CC"}],[{"time":0,"station_id":"PSMB","line":2,"i_lat":-6.263214,"i_long":106.851577,"is_transit":false,"station_name":"Pasar Minggu Baru","transit":false,"distance":0},{"line":2,"i_lat":-6.255332,"transit":false,"distance":824,"time":2,"is_transit":false,"station_name":"Duren Kalibata","station_id":"DRN","i_long":106.85449},{"station_id":"CW","i_lat":-6.242512,"station_name":"Cawang","line":2,"distance":1546,"time":3,"is_transit":false,"transit":false,"i_long":106.856607},{"station_name":"Tebet","is_transit":false,"transit":false,"i_long":106.857948,"time":2,"station_id":"TEB","distance":1230,"i_lat":-6.226659,"line":2},{"i_lat":-6.209883,"distance":2610,"i_long":106.84912,"line":2,"transit":false,"time":4,"station_name":"Manggarai","station_id":"MRI","is_transit":false},{"transit":false,"station_name":"Cikini","i_lat":-6.198556,"distance":1590,"line":2,"is_transit":false,"station_id":"CKI","time":4,"i_long":106.840169},{"transit":false,"i_lat":-6.186295,"time":3,"distance":1750,"is_transit":false,"station_name":"Gondangdia","i_long":106.832183,"station_id":"GDD","line":2},{"time":4,"i_lat":-6.166716,"station_name":"Juanda","line":2,"station_id":"JUA","i_long":106.828284,"transit":false,"distance":2015,"is_transit":false},{"distance":1149,"i_lat":-6.160725,"i_long":106.827103,"station_id":"SW","station_name":"Sawah Besar","line":2,"is_transit":false,"time":2,"transit":false},{"station_name":"Manggabesar","transit":false,"i_long":106.82482,"line":2,"i_lat":-6.149769,"time":2,"is_transit":false,"distance":906,"station_id":"MGB"},{"i_lat":-6.141205,"i_long":106.820901,"time":2,"station_name":"Jayakarta","distance":1080,"line":2,"station_id":"JAY","is_transit":false,"transit":false},{"i_lat":-6.137569,"line":2,"station_name":"Jakarta Kota","distance":1264,"time":4,"i_long":106.812439,"is_transit":true,"station_id":"JAKK","transit":true},{"transit":true,"i_lat":-6.132549,"is_transit":true,"line":4,"distance":1364,"time":3,"station_id":"KPB","i_long":106.826365,"station_name":"Kampung Bandan"},{"distance":4102,"station_id":"AK","station_name":"Angke","time":9,"line":1,"i_lat":-6.144674,"i_long":106.79867,"is_transit":false,"transit":false},{"distance":1230,"time":4,"transit":false,"station_name":"Duri","line":1,"i_lat":-6.155215,"i_long":106.800832,"is_transit":false,"station_id":"DU"},{"station_id":"THB","i_long":106.811091,"line":1,"is_transit":true,"time":8,"distance":3632,"station_name":"Tanah Abang","transit":true,"i_lat":-6.185545},{"i_long":106.79689,"time":6,"distance":3191,"i_lat":-6.207404,"transit":false,"line":6,"is_transit":false,"station_name":"Palmerah","station_id":"PLM"},{"time":7,"station_name":"Kebayoran","transit":false,"distance":3737,"is_transit":false,"station_id":"KBY","i_lat":-6.237242,"i_long":106.780334,"line":6},{"distance":6218,"is_transit":false,"i_long":106.74273,"line":6,"station_name":"Pondokranji","transit":false,"time":8,"station_id":"PDJ","i_lat":-6.276362},{"station_id":"JMU","distance":2179,"line":6,"i_lat":-6.288927,"time":3,"i_long":106.728916,"transit":false,"station_name":"Jurangmangu","is_transit":false},{"i_lat":-6.296963,"i_long":106.712277,"station_id":"SDM","transit":false,"line":6,"time":4,"is_transit":false,"distance":1994,"station_name":"Sudimara"},{"transit":false,"i_long":106.675475,"line":6,"i_lat":-6.314823,"time":6,"station_name":"Rawa Buntu","station_id":"RU","is_transit":false,"distance":4566},{"i_long":106.66566,"i_lat":-6.319871,"distance":2413,"is_transit":false,"transit":false,"line":6,"station_id":"SRP","time":4,"station_name":"Serpong"},{"line":3,"station_name":"Cisauk","station_id":"CSK","transit":false,"time":4,"distance":1784,"i_lat":-6.32484,"is_transit":false,"i_long":106.640411},{"station_id":"CC","i_lat":-6.329547,"is_transit":false,"line":3,"i_long":106.617853,"station_name":"Cicayur","transit":false,"time":4,"distance":2519}],[{"i_lat":-6.263214,"distance":0,"station_name":"Pasar Minggu Baru","station_id":"PSMB","i_long":106.851577,"line":2,"is_transit":false,"time":0,"transit":false},{"line":2,"transit":false,"time":2,"distance":824,"station_name":"Duren Kalibata","i_lat":-6.255332,"i_long":106.85449,"station_id":"DRN","is_transit":false},{"is_transit":false,"time":3,"line":2,"station_id":"CW","transit":false,"i_long":106.856607,"station_name":"Cawang","distance":1546,"i_lat":-6.242512},{"transit":false,"station_id":"TEB","i_long":106.857948,"line":2,"station_name":"Tebet","distance":1230,"time":2,"i_lat":-6.226659,"is_transit":false},{"is_transit":true,"i_long":106.84912,"time":4,"line":2,"station_name":"Manggarai","distance":2610,"station_id":"MRI","i_lat":-6.209883,"transit":true},{"i_long":106.858896,"transit":false,"time":2,"station_id":"MTR","line":1,"i_lat":-6.212485,"station_name":"Matraman","distance":1275,"is_transit":false},{"distance":1377,"i_lat":-6.215091,"is_transit":true,"station_name":"Jatinegara","i_long":106.86807400000001,"station_id":"JNG","time":8,"line":1,"transit":true},{"i_long":106.861737,"station_name":"Pondok Jati","station_id":"POK","is_transit":false,"transit":false,"time":2,"line":11,"distance":1236,"i_lat":-6.209188},{"is_transit":false,"transit":false,"i_lat":-6.193792,"time":2,"station_id":"KMT","line":11,"distance":1829,"station_name":"Kramat","i_long":106.855437},{"station_id":"GST","time":1,"distance":973,"i_lat":-6.185975,"i_long":106.850107,"transit":false,"line":11,"station_name":"Gang Sentiong","is_transit":false},{"i_long":106.84368,"line":11,"time":8,"is_transit":false,"station_id":"PSE","transit":false,"i_lat":-6.174784,"station_name":"Pasar Senen","distance":1567},{"line":11,"i_long":106.839204,"transit":false,"i_lat":-6.161728,"distance":1436,"is_transit":false,"time":4,"station_name":"Kemayoran","station_id":"KMO"},{"distance":1901,"station_id":"RJW","i_lat":-6.14505,"station_name":"Rajawali","i_long":106.836569,"line":11,"time":5,"is_transit":false,"transit":false},{"station_name":"Kampung Bandan","station_id":"KPB","i_lat":-6.132549,"line":4,"transit":true,"distance":1444,"is_transit":true,"i_long":106.826365,"time":3},{"line":1,"i_long":106.79867,"station_id":"AK","is_transit":false,"station_name":"Angke","transit":false,"time":9,"distance":4102,"i_lat":-6.144674},{"time":4,"is_transit":false,"transit":false,"i_lat":-6.155215,"line":1,"station_name":"Duri","distance":1230,"station_id":"DU","i_long":106.800832},{"is_transit":true,"station_id":"THB","station_name":"Tanah Abang","distance":3632,"i_long":106.811091,"i_lat":-6.185545,"line":1,"transit":true,"time":8},{"time":6,"station_name":"Palmerah","is_transit":false,"distance":3191,"i_lat":-6.207404,"line":6,"transit":false,"station_id":"PLM","i_long":106.79689},{"transit":false,"i_lat":-6.237242,"station_id":"KBY","is_transit":false,"i_long":106.780334,"distance":3737,"time":7,"line":6,"station_name":"Kebayoran"},{"transit":false,"is_transit":false,"i_lat":-6.276362,"station_name":"Pondokranji","i_long":106.74273,"distance":6218,"line":6,"time":8,"station_id":"PDJ"},{"station_name":"Jurangmangu","is_transit":false,"station_id":"JMU","i_lat":-6.288927,"line":6,"distance":2179,"time":3,"i_long":106.728916,"transit":false},{"distance":1994,"time":4,"line":6,"i_lat":-6.296963,"station_name":"Sudimara","transit":false,"station_id":"SDM","i_long":106.712277,"is_transit":false},{"station_name":"Rawa Buntu","i_long":106.675475,"transit":false,"distance":4566,"is_transit":false,"i_lat":-6.314823,"line":6,"time":6,"station_id":"RU"},{"time":4,"i_long":106.66566,"is_transit":false,"station_name":"Serpong","distance":2413,"line":6,"i_lat":-6.319871,"transit":false,"station_id":"SRP"},{"station_name":"Cisauk","distance":1784,"i_lat":-6.32484,"line":3,"i_long":106.640411,"transit":false,"is_transit":false,"station_id":"CSK","time":4},{"station_id":"CC","i_lat":-6.329547,"transit":false,"i_long":106.617853,"is_transit":false,"line":3,"distance":2519,"time":4,"station_name":"Cicayur"}]]}