{"data":[[{"i_lat":-6.263214,"transit":false,"station_id":"PSMB","is_transit":false,"i_long":106.851577,"station_name":"Pasar Minggu Baru","line":2,"time":0,"distance":0},{"is_transit":false,"time":2,"distance":824,"station_id":"DRN","i_lat":-6.255332,"i_long":106.85449,"station_name":"Duren Kalibata","line":2,"transit":false},{"i_lat":-6.242512,"is_transit":false,"i_long":106.856607,"station_id":"CW","station_name":"Cawang","line":2,"transit":false,"distance":1546,"time":3},{"i_long":106.857948,"transit":false,"line":2,"distance":1230,"station_id":"TEB","i_lat":-6.226659,"time":2,"station_name":"Tebet","is_transit":false},{"transit":true,"i_long":106.84912,"station_name":"Manggarai","i_lat":-6.209883,"time":4,"station_id":"MRI","is_transit":true,"line":2,"distance":2610},{"i_long":106.858896,"line":1,"station_id":"MTR","transit":false,"is_transit":false,"time":2,"distance":1275,"station_name":"Matraman","i_lat":-6.212485},{"i_long":106.86807400000001,"line":1,"distance":1377,"time":8,"station_name":"Jatinegara","station_id":"JNG","is_transit":false,"transit":false,"i_lat":-6.215091},{"line":1,"is_transit":false,"station_id":"KLD","time":3,"station_name":"Klender","i_lat":-6.2135,"i_long":106.899548,"distance":3395,"transit":false},{"transit":false,"time":2,"station_name":"Buaran","i_lat":-6.215568,"i_long":106.922662,"station_id":"BUA","distance":3100,"line":1,"is_transit":false},{"i_lat":-6.217455,"time":1,"transit":false,"line":1,"station_id":"KLDB","is_transit":false,"station_name":"Klenderbaru","i_long":106.939679,"distance":1305},{"line":1,"is_transit":false,"i_long":106.951283,"station_id":"CUK","i_lat":-6.219053,"transit":false,"distance":1385,"time":8,"station_name":"Cakung"},{"station_id":"KRI","i_lat":-6.224515,"station_name":"Kranji","is_transit":false,"time":3,"i_long":106.977657,"transit":false,"line":1,"distance":3097},{"time":4,"station_id":"BKS","is_transit":false,"i_lat":-6.236616,"i_long":106.997013,"line":1,"distance":2520,"transit":false,"station_name":"Bekasi"}],[{"transit":false,"line":2,"station_id":"PSMB","time":0,"station_name":"Pasar Minggu Baru","distance":0,"is_transit":false,"i_lat":-6.263214,"i_long":106.851577},{"distance":824,"transit":false,"line":2,"station_id":"DRN","station_name":"Duren Kalibata","is_transit":false,"i_long":106.85449,"i_lat":-6.255332,"time":2},{"line":2,"distance":1546,"time":3,"i_lat":-6.242512,"transit":false,"i_long":106.856607,"is_transit":false,"station_id":"CW","station_name":"Cawang"},{"time":2,"station_id":"TEB","is_transit":false,"i_lat":-6.226659,"station_name":"Tebet","line":2,"distance":1230,"i_long":106.857948,"transit":false},{"distance":2610,"station_id":"MRI","i_long":106.84912,"line":2,"is_transit":true,"station_name":"Manggarai","transit":true,"i_lat":-6.209883,"time":4},{"distance":3186,"transit":false,"station_name":"Sudirman","is_transit":false,"i_lat":-6.202263,"station_id":"SUD","i_long":106.822649,"time":4,"line":1},{"is_transit":false,"station_name":"Sudirman Baru","time":1,"station_id":"SUDB","i_long":106.819881,"distance":280,"line":1,"i_lat":-6.201433,"transit":false},{"time":1,"i_lat":-6.20132,"station_name":"Karet","i_long":106.816351,"distance":471,"transit":false,"station_id":"KAT","is_transit":false,"line":1},{"distance":2029,"i_long":106.811091,"is_transit":false,"station_name":"Tanah Abang","i_lat":-6.185545,"transit":false,"line":1,"station_id":"THB","time":5},{"is_transit":false,"transit":false,"time":8,"station_id":"DU","station_name":"Duri","distance":3632,"i_lat":-6.155215,"i_long":106.800832,"line":1},{"i_lat":-6.144674,"i_long":106.79867,"is_transit":false,"transit":false,"time":4,"line":1,"station_id":"AK","station_name":"Angke","distance":1230},{"station_id":"KPB","station_name":"Kampung Bandan","line":4,"distance":4102,"is_transit":true,"time":9,"transit":true,"i_long":106.826365,"i_lat":-6.132549},{"station_id":"RJW","i_lat":-6.14505,"line":11,"transit":false,"is_transit":false,"time":3,"distance":1444,"station_name":"Rajawali","i_long":106.836569},{"i_lat":-6.161728,"station_name":"Kemayoran","i_long":106.839204,"distance":1901,"transit":false,"line":11,"time":5,"is_transit":false,"station_id":"KMO"},{"station_id":"PSE","line":11,"transit":false,"time":4,"distance":1436,"station_name":"Pasar Senen","i_lat":-6.174784,"is_transit":false,"i_long":106.84368},{"station_name":"Gang Sentiong","is_transit":false,"distance":1567,"i_long":106.850107,"transit":false,"i_lat":-6.185975,"time":8,"line":11,"station_id":"GST"},{"distance":973,"station_name":"Kramat","i_long":106.855437,"station_id":"KMT","time":1,"is_transit":false,"line":11,"i_lat":-6.193792,"transit":false},{"line":11,"transit":false,"time":2,"is_transit":false,"i_lat":-6.209188,"i_long":106.861737,"station_name":"Pondok Jati","station_id":"POK","distance":1829},{"station_name":"Jatinegara","is_transit":true,"i_long":106.86807400000001,"station_id":"JNG","time":9,"i_lat":-6.215091,"distance":1236,"transit":true,"line":1},{"transit":false,"station_name":"Klender","station_id":"KLD","i_lat":-6.2135,"time":3,"line":1,"distance":3395,"i_long":106.899548,"is_transit":false},{"i_long":106.922662,"distance":3100,"transit":false,"line":1,"station_id":"BUA","time":2,"station_name":"Buaran","is_transit":false,"i_lat":-6.215568},{"station_id":"KLDB","distance":1305,"line":1,"station_name":"Klenderbaru","i_long":106.939679,"i_lat":-6.217455,"transit":false,"is_transit":false,"time":1},{"is_transit":false,"time":8,"station_name":"Cakung","station_id":"CUK","i_lat":-6.219053,"line":1,"transit":false,"distance":1385,"i_long":106.951283},{"is_transit":false,"station_name":"Kranji","i_long":106.977657,"distance":3097,"transit":false,"station_id":"KRI","line":1,"time":3,"i_lat":-6.224515},{"station_name":"Bekasi","station_id":"BKS","transit":false,"i_lat":-6.236616,"line":1,"is_transit":false,"i_long":106.997013,"distance":2520,"time":4}],[{"time":0,"is_transit":false,"i_lat":-6.263214,"i_long":106.851577,"station_name":"Pasar Minggu Baru","distance":0,"transit":false,"station_id":"PSMB","line":2},{"station_id":"DRN","i_lat":-6.255332,"i_long":106.85449,"transit":false,"distance":824,"time":2,"is_transit":false,"station_name":"Duren Kalibata","line":2},{"station_id":"CW","line":2,"station_name":"Cawang","i_lat":-6.242512,"i_long":106.856607,"transit":false,"is_transit":false,"distance":1546,"time":3},{"line":2,"i_lat":-6.226659,"is_transit":false,"i_long":106.857948,"time":2,"distance":1230,"station_id":"TEB","station_name":"Tebet","transit":false},{"time":4,"is_transit":false,"station_name":"Manggarai","i_lat":-6.209883,"transit":false,"station_id":"MRI","distance":2610,"i_long":106.84912,"line":2},{"is_transit":false,"station_id":"CKI","distance":1590,"time":4,"i_lat":-6.198556,"i_long":106.840169,"station_name":"Cikini","transit":false,"line":2},{"station_name":"Gondangdia","i_lat":-6.186295,"is_transit":false,"i_long":106.832183,"line":2,"transit":false,"time":3,"station_id":"GDD","distance":1750},{"time":4,"is_transit":false,"station_name":"Juanda","i_long":106.828284,"distance":2015,"i_lat":-6.166716,"station_id":"JUA","transit":false,"line":2},{"i_lat":-6.160725,"station_name":"Sawah Besar","is_transit":false,"station_id":"SW","distance":1149,"i_long":106.827103,"transit":false,"line":2,"time":2},{"time":2,"transit":false,"i_lat":-6.149769,"station_id":"MGB","line":2,"distance":906,"is_transit":false,"i_long":106.82482,"station_name":"Manggabesar"},{"distance":1080,"i_lat":-6.141205,"i_long":106.820901,"line":2,"is_transit":false,"station_name":"Jayakarta","transit":false,"station_id":"JAY","time":2},{"time":4,"transit":true,"station_id":"JAKK","line":2,"is_transit":true,"distance":1264,"station_name":"Jakarta Kota","i_long":106.812439,"i_lat":-6.137569},{"distance":1364,"is_transit":true,"transit":true,"station_name":"Kampung Bandan","station_id":"KPB","i_lat":-6.132549,"line":4,"i_long":106.826365,"time":3},{"i_long":106.836569,"distance":1444,"station_id":"RJW","time":3,"line":11,"i_lat":-6.14505,"is_transit":false,"station_name":"Rajawali","transit":false},{"i_long":106.839204,"transit":false,"station_id":"KMO","i_lat":-6.161728,"distance":1901,"is_transit":false,"time":5,"station_name":"Kemayoran","line":11},{"time":4,"distance":1436,"station_id":"PSE","station_name":"Pasar Senen","i_lat":-6.174784,"is_transit":false,"line":11,"transit":false,"i_long":106.84368},{"i_long":106.850107,"is_transit":false,"i_lat":-6.185975,"line":11,"station_id":"GST","station_name":"Gang Sentiong","time":8,"distance":1567,"transit":false},{"time":1,"is_transit":false,"station_id":"KMT","station_name":"Kramat","transit":false,"i_long":106.855437,"line":11,"i_lat":-6.193792,"distance":973},{"time":2,"is_transit":false,"transit":false,"i_long":106.861737,"distance":1829,"station_id":"POK","i_lat":-6.209188,"station_name":"Pondok Jati","line":11},{"time":9,"i_long":106.86807400000001,"distance":1236,"transit":true,"station_name":"Jatinegara","i_lat":-6.215091,"line":1,"is_transit":true,"station_id":"JNG"},{"line":1,"station_id":"KLD","distance":3395,"transit":false,"i_lat":-6.2135,"station_name":"Klender","i_long":106.899548,"time":3,"is_transit":false},{"is_transit":false,"i_lat":-6.215568,"distance":3100,"i_long":106.922662,"station_id":"BUA","line":1,"time":2,"station_name":"Buaran","transit":false},{"line":1,"station_name":"Klenderbaru","time":1,"distance":1305,"i_long":106.939679,"transit":false,"i_lat":-6.217455,"is_transit":false,"station_id":"KLDB"},{"transit":false,"i_lat":-6.219053,"line":1,"station_id":"CUK","distance":1385,"is_transit":false,"time":8,"station_name":"Cakung","i_long":106.951283},{"i_lat":-6.224515,"transit":false,"is_transit":false,"station_id":"KRI","distance":3097,"station_name":"Kranji","i_long":106.977657,"line":1,"time":3},{"station_name":"Bekasi","i_long":106.997013,"transit":false,"is_transit":false,"station_id":"BKS","distance":2520,"i_lat":-6.236616,"line":1,"time":4}]]}