{"data":[[{"distance":0,"transit":false,"i_lat":-6.263214,"line":2,"is_transit":false,"station_id":"PSMB","station_name":"Pasar Minggu Baru","time":0,"i_long":106.851577},{"station_name":"Duren Kalibata","i_lat":-6.255332,"line":0,"i_long":106.85449,"is_transit":false,"station_id":"DRN","distance":824,"transit":false,"time":2},{"is_transit":false,"distance":1546,"transit":false,"station_name":"Cawang","i_lat":-6.242512,"time":3,"line":0,"station_id":"CW","i_long":106.856607},{"transit":false,"station_id":"TEB","i_lat":-6.226659,"is_transit":false,"time":2,"distance":1230,"station_name":"Tebet","line":2,"i_long":106.857948},{"station_name":"Manggarai","transit":true,"distance":2610,"i_long":106.84912,"i_lat":-6.209883,"line":0,"station_id":"MRI","time":4,"is_transit":true},{"is_transit":false,"i_long":106.822649,"line":1,"station_id":"SUD","time":4,"i_lat":-6.202263,"distance":3186,"station_name":"Sudirman","transit":false},{"line":1,"i_lat":-6.201433,"time":1,"distance":280,"station_id":"SUDB","transit":false,"is_transit":false,"i_long":106.819881,"station_name":"Sudirman Baru"},{"distance":471,"i_lat":-6.20132,"i_long":106.816351,"station_id":"KAT","station_name":"Karet","time":1,"transit":false,"line":1,"is_transit":false},{"station_id":"THB","i_lat":-6.185545,"i_long":106.811091,"station_name":"Tanah Abang","distance":2029,"is_transit":true,"transit":false,"time":5,"line":1},{"time":8,"distance":3632,"is_transit":true,"station_name":"Duri","i_long":106.800832,"station_id":"DU","transit":false,"i_lat":-6.155215,"line":1}],[{"station_id":"PSMB","i_long":106.851577,"i_lat":-6.263214,"station_name":"Pasar Minggu Baru","line":2,"transit":false,"distance":0,"is_transit":false,"time":0},{"station_id":"DRN","station_name":"Duren Kalibata","transit":false,"time":2,"distance":824,"line":0,"i_long":106.85449,"i_lat":-6.255332,"is_transit":false},{"station_id":"CW","time":3,"line":0,"transit":false,"is_transit":false,"station_name":"Cawang","i_lat":-6.242512,"i_long":106.856607,"distance":1546},{"transit":false,"distance":1230,"is_transit":false,"time":2,"line":2,"i_long":106.857948,"station_id":"TEB","station_name":"Tebet","i_lat":-6.226659},{"transit":true,"line":0,"i_long":106.84912,"time":4,"station_name":"Manggarai","distance":2610,"station_id":"MRI","i_lat":-6.209883,"is_transit":true},{"time":4,"i_long":106.840169,"station_id":"CKI","station_name":"Cikini","distance":1590,"is_transit":false,"line":0,"transit":false,"i_lat":-6.198556},{"i_long":106.832183,"station_id":"GDD","station_name":"Gondangdia","distance":1750,"transit":false,"is_transit":false,"line":2,"i_lat":-6.186295,"time":3},{"station_id":"JUA","i_lat":-6.166716,"transit":false,"time":4,"is_transit":false,"distance":2015,"station_name":"Juanda","line":2,"i_long":106.828284},{"station_name":"Sawah Besar","is_transit":false,"distance":1149,"i_long":106.827103,"station_id":"SW","time":2,"line":2,"transit":false,"i_lat":-6.160725},{"distance":906,"station_name":"Manggabesar","is_transit":false,"line":2,"i_long":106.82482,"transit":false,"time":2,"i_lat":-6.149769,"station_id":"MGB"},{"station_id":"JAY","station_name":"Jayakarta","transit":false,"distance":1080,"is_transit":false,"time":2,"i_long":106.820901,"line":7,"i_lat":-6.141205},{"is_transit":true,"station_id":"JAKK","time":4,"line":0,"distance":1264,"station_name":"Jakarta Kota","i_lat":-6.137569,"transit":true,"i_long":106.812439},{"time":3,"is_transit":true,"station_id":"KPB","transit":false,"i_lat":-6.132549,"i_long":106.826365,"line":0,"station_name":"Kampung Bandan","distance":1364},{"station_id":"AK","line":0,"time":9,"distance":4102,"is_transit":false,"station_name":"Angke","i_lat":-6.144674,"i_long":106.79867,"transit":false},{"transit":false,"station_id":"DU","i_lat":-6.155215,"i_long":106.800832,"line":1,"distance":1230,"time":4,"station_name":"Duri","is_transit":true}],[{"transit":false,"i_lat":-6.263214,"is_transit":false,"distance":0,"station_id":"PSMB","line":2,"time":0,"i_long":106.851577,"station_name":"Pasar Minggu Baru"},{"transit":false,"distance":824,"i_long":106.85449,"is_transit":false,"station_id":"DRN","i_lat":-6.255332,"line":0,"station_name":"Duren Kalibata","time":2},{"transit":false,"i_long":106.856607,"is_transit":false,"station_id":"CW","line":0,"i_lat":-6.242512,"distance":1546,"time":3,"station_name":"Cawang"},{"line":2,"is_transit":false,"distance":1230,"station_name":"Tebet","i_lat":-6.226659,"transit":false,"station_id":"TEB","time":2,"i_long":106.857948},{"i_lat":-6.209883,"distance":2610,"is_transit":true,"transit":true,"line":0,"station_name":"Manggarai","i_long":106.84912,"station_id":"MRI","time":4},{"is_transit":false,"distance":1275,"i_lat":-6.212485,"line":1,"time":2,"station_name":"Matraman","i_long":106.858896,"transit":false,"station_id":"MTR"},{"station_id":"JNG","time":8,"i_lat":-6.215091,"i_long":106.86807400000001,"distance":1377,"is_transit":true,"transit":true,"line":0,"station_name":"Jatinegara"},{"station_id":"POK","transit":false,"distance":1236,"is_transit":false,"i_lat":-6.209188,"station_name":"Pondok Jati","i_long":106.861737,"time":2,"line":11},{"i_lat":-6.193792,"i_long":106.855437,"is_transit":false,"distance":1829,"line":11,"station_name":"Kramat","station_id":"KMT","transit":false,"time":2},{"time":1,"distance":973,"station_id":"GST","station_name":"Gang Sentiong","transit":false,"i_lat":-6.185975,"line":11,"i_long":106.850107,"is_transit":false},{"is_transit":false,"transit":false,"time":8,"station_name":"Pasar Senen","station_id":"PSE","distance":1567,"i_long":106.84368,"line":11,"i_lat":-6.174784},{"i_long":106.839204,"station_name":"Kemayoran","i_lat":-6.161728,"transit":false,"distance":1436,"time":4,"is_transit":false,"station_id":"KMO","line":11},{"distance":1901,"is_transit":false,"station_id":"RJW","i_long":106.836569,"station_name":"Rajawali","time":5,"transit":false,"line":11,"i_lat":-6.14505},{"station_id":"KPB","station_name":"Kampung Bandan","i_long":106.826365,"distance":1444,"is_transit":true,"transit":true,"i_lat":-6.132549,"line":0,"time":3},{"station_id":"AK","time":9,"is_transit":false,"station_name":"Angke","distance":4102,"transit":false,"i_lat":-6.144674,"i_long":106.79867,"line":0},{"station_id":"DU","station_name":"Duri","time":4,"distance":1230,"i_long":106.800832,"is_transit":true,"line":1,"i_lat":-6.155215,"transit":false}]]}