{"data":[[{"time":0,"distance":0,"i_lat":-6.263214,"line":2,"station_id":"PSMB","transit":false,"i_long":106.851577,"station_name":"Pasar Minggu Baru","is_transit":false},{"i_lat":-6.255332,"transit":false,"time":2,"station_id":"DRN","is_transit":false,"i_long":106.85449,"distance":824,"station_name":"Duren Kalibata","line":2},{"distance":1546,"i_long":106.856607,"is_transit":false,"transit":false,"station_name":"Cawang","line":2,"station_id":"CW","time":3,"i_lat":-6.242512},{"transit":false,"station_name":"Tebet","station_id":"TEB","is_transit":false,"time":2,"distance":1230,"line":2,"i_long":106.857948,"i_lat":-6.226659},{"station_id":"MRI","line":2,"i_long":106.84912,"station_name":"Manggarai","is_transit":true,"distance":2610,"i_lat":-6.209883,"time":4,"transit":true},{"station_name":"Sudirman","time":4,"transit":false,"station_id":"SUD","i_lat":-6.202263,"i_long":106.822649,"line":1,"distance":3186,"is_transit":false},{"time":1,"i_lat":-6.201433,"is_transit":false,"transit":false,"station_id":"SUDB","distance":280,"line":1,"station_name":"Sudirman Baru","i_long":106.819881},{"station_name":"Karet","is_transit":false,"station_id":"KAT","line":1,"transit":false,"i_lat":-6.20132,"time":1,"distance":471,"i_long":106.816351},{"is_transit":false,"i_lat":-6.185545,"transit":false,"station_name":"Tanah Abang","distance":2029,"line":1,"time":5,"i_long":106.811091,"station_id":"THB"},{"transit":false,"station_id":"DU","i_long":106.800832,"is_transit":false,"time":8,"station_name":"Duri","i_lat":-6.155215,"line":1,"distance":3632}],[{"distance":0,"transit":false,"i_lat":-6.263214,"i_long":106.851577,"time":0,"station_id":"PSMB","is_transit":false,"station_name":"Pasar Minggu Baru","line":2},{"is_transit":false,"line":2,"station_name":"Duren Kalibata","distance":824,"i_lat":-6.255332,"transit":false,"i_long":106.85449,"time":2,"station_id":"DRN"},{"station_id":"CW","transit":false,"time":3,"station_name":"Cawang","i_lat":-6.242512,"line":2,"distance":1546,"is_transit":false,"i_long":106.856607},{"line":2,"is_transit":false,"station_id":"TEB","i_lat":-6.226659,"i_long":106.857948,"transit":false,"time":2,"distance":1230,"station_name":"Tebet"},{"i_long":106.84912,"line":2,"distance":2610,"time":4,"i_lat":-6.209883,"transit":false,"station_id":"MRI","is_transit":false,"station_name":"Manggarai"},{"i_long":106.840169,"transit":false,"station_id":"CKI","is_transit":false,"station_name":"Cikini","i_lat":-6.198556,"line":2,"time":4,"distance":1590},{"is_transit":false,"time":3,"distance":1750,"station_name":"Gondangdia","line":2,"i_long":106.832183,"station_id":"GDD","transit":false,"i_lat":-6.186295},{"station_name":"Juanda","station_id":"JUA","time":4,"line":2,"i_long":106.828284,"is_transit":false,"transit":false,"i_lat":-6.166716,"distance":2015},{"transit":false,"station_id":"SW","time":2,"i_long":106.827103,"line":2,"station_name":"Sawah Besar","is_transit":false,"i_lat":-6.160725,"distance":1149},{"distance":906,"station_name":"Manggabesar","transit":false,"station_id":"MGB","time":2,"i_long":106.82482,"is_transit":false,"line":2,"i_lat":-6.149769},{"time":2,"i_lat":-6.141205,"line":2,"station_name":"Jayakarta","transit":false,"is_transit":false,"distance":1080,"i_long":106.820901,"station_id":"JAY"},{"time":4,"i_lat":-6.137569,"transit":true,"station_name":"Jakarta Kota","station_id":"JAKK","distance":1264,"line":2,"is_transit":true,"i_long":106.812439},{"distance":1364,"i_long":106.826365,"station_name":"Kampung Bandan","line":4,"time":3,"transit":true,"is_transit":true,"station_id":"KPB","i_lat":-6.132549},{"i_lat":-6.144674,"line":1,"transit":false,"station_id":"AK","is_transit":false,"i_long":106.79867,"distance":4102,"station_name":"Angke","time":9},{"i_long":106.800832,"station_id":"DU","time":4,"station_name":"Duri","is_transit":false,"i_lat":-6.155215,"line":1,"transit":false,"distance":1230}],[{"i_long":106.851577,"station_id":"PSMB","line":2,"station_name":"Pasar Minggu Baru","i_lat":-6.263214,"time":0,"is_transit":false,"distance":0,"transit":false},{"station_name":"Duren Kalibata","station_id":"DRN","time":2,"distance":824,"i_long":106.85449,"i_lat":-6.255332,"line":2,"is_transit":false,"transit":false},{"i_long":106.856607,"station_name":"Cawang","distance":1546,"station_id":"CW","line":2,"transit":false,"is_transit":false,"time":3,"i_lat":-6.242512},{"distance":1230,"station_id":"TEB","i_lat":-6.226659,"transit":false,"time":2,"i_long":106.857948,"station_name":"Tebet","line":2,"is_transit":false},{"is_transit":true,"station_name":"Manggarai","i_lat":-6.209883,"line":2,"transit":true,"i_long":106.84912,"station_id":"MRI","time":4,"distance":2610},{"i_long":106.858896,"i_lat":-6.212485,"station_name":"Matraman","station_id":"MTR","is_transit":false,"time":2,"line":1,"distance":1275,"transit":false},{"i_lat":-6.215091,"time":8,"station_id":"JNG","distance":1377,"is_transit":true,"station_name":"Jatinegara","transit":true,"i_long":106.86807400000001,"line":1},{"time":2,"distance":1236,"i_lat":-6.209188,"station_id":"POK","is_transit":false,"i_long":106.861737,"transit":false,"station_name":"Pondok Jati","line":11},{"i_long":106.855437,"line":11,"time":2,"transit":false,"is_transit":false,"i_lat":-6.193792,"station_id":"KMT","station_name":"Kramat","distance":1829},{"line":11,"i_long":106.850107,"transit":false,"station_id":"GST","is_transit":false,"distance":973,"i_lat":-6.185975,"time":1,"station_name":"Gang Sentiong"},{"time":8,"distance":1567,"is_transit":false,"i_long":106.84368,"line":11,"i_lat":-6.174784,"station_id":"PSE","transit":false,"station_name":"Pasar Senen"},{"transit":false,"station_name":"Kemayoran","time":4,"is_transit":false,"line":11,"i_lat":-6.161728,"i_long":106.839204,"station_id":"KMO","distance":1436},{"i_long":106.836569,"is_transit":false,"transit":false,"distance":1901,"line":11,"i_lat":-6.14505,"time":5,"station_name":"Rajawali","station_id":"RJW"},{"transit":true,"station_name":"Kampung Bandan","time":3,"station_id":"KPB","distance":1444,"line":4,"is_transit":true,"i_long":106.826365,"i_lat":-6.132549},{"is_transit":false,"line":1,"transit":false,"time":9,"distance":4102,"i_lat":-6.144674,"station_id":"AK","i_long":106.79867,"station_name":"Angke"},{"transit":false,"station_id":"DU","time":4,"station_name":"Duri","is_transit":false,"distance":1230,"i_lat":-6.155215,"i_long":106.800832,"line":1}]]}