{"data":[[{"transit":false,"is_transit":false,"i_lat":-6.263214,"i_long":106.851577,"distance":0,"station_name":"Pasar Minggu Baru","time":0,"line":2,"station_id":"PSMB"},{"line":2,"i_long":106.85449,"transit":false,"station_id":"DRN","station_name":"Duren Kalibata","distance":824,"is_transit":false,"i_lat":-6.255332,"time":2},{"i_lat":-6.242512,"line":2,"station_id":"CW","is_transit":false,"time":3,"distance":1546,"i_long":106.856607,"station_name":"Cawang","transit":false},{"time":2,"distance":1230,"i_lat":-6.226659,"station_id":"TEB","i_long":106.857948,"transit":false,"is_transit":false,"line":2,"station_name":"Tebet"},{"station_id":"MRI","i_lat":-6.209883,"line":2,"time":4,"station_name":"Manggarai","is_transit":true,"i_long":106.84912,"distance":2610,"transit":true},{"time":4,"is_transit":false,"i_lat":-6.202263,"i_long":106.822649,"station_id":"SUD","distance":3186,"station_name":"Sudirman","transit":false,"line":1},{"station_id":"SUDB","time":1,"is_transit":false,"transit":false,"distance":280,"station_name":"Sudirman Baru","i_lat":-6.201433,"i_long":106.819881,"line":1},{"i_long":106.816351,"distance":471,"station_id":"KAT","station_name":"Karet","is_transit":false,"transit":false,"time":1,"i_lat":-6.20132,"line":1},{"i_long":106.811091,"is_transit":true,"i_lat":-6.185545,"station_name":"Tanah Abang","line":1,"station_id":"THB","time":5,"distance":2029,"transit":true},{"i_lat":-6.207404,"distance":3191,"time":6,"station_id":"PLM","line":6,"transit":false,"is_transit":false,"station_name":"Palmerah","i_long":106.79689},{"is_transit":false,"line":6,"time":7,"station_id":"KBY","distance":3737,"station_name":"Kebayoran","transit":false,"i_long":106.780334,"i_lat":-6.237242},{"distance":6218,"station_id":"PDJ","is_transit":false,"line":6,"i_long":106.74273,"transit":false,"i_lat":-6.276362,"station_name":"Pondokranji","time":8},{"station_id":"JMU","transit":false,"line":6,"time":3,"distance":2179,"station_name":"Jurangmangu","is_transit":false,"i_lat":-6.288927,"i_long":106.728916},{"is_transit":false,"transit":false,"i_long":106.712277,"distance":1994,"station_id":"SDM","station_name":"Sudimara","line":6,"time":4,"i_lat":-6.296963},{"i_long":106.675475,"transit":false,"time":6,"i_lat":-6.314823,"station_id":"RU","line":6,"station_name":"Rawa Buntu","is_transit":false,"distance":4566},{"station_id":"SRP","station_name":"Serpong","is_transit":false,"i_lat":-6.319871,"line":6,"transit":false,"distance":2413,"i_long":106.66566,"time":4},{"is_transit":false,"time":4,"station_id":"CSK","i_long":106.640411,"i_lat":-6.32484,"station_name":"Cisauk","line":3,"transit":false,"distance":1784},{"transit":false,"time":4,"distance":2519,"is_transit":false,"i_lat":-6.329547,"i_long":106.617853,"station_name":"Cicayur","line":3,"station_id":"CC"}],[{"time":0,"station_name":"Pasar Minggu Baru","transit":false,"is_transit":false,"station_id":"PSMB","i_long":106.851577,"i_lat":-6.263214,"line":2,"distance":0},{"time":2,"transit":false,"line":2,"distance":824,"is_transit":false,"station_id":"DRN","station_name":"Duren Kalibata","i_lat":-6.255332,"i_long":106.85449},{"station_name":"Cawang","line":2,"time":3,"i_long":106.856607,"distance":1546,"station_id":"CW","i_lat":-6.242512,"is_transit":false,"transit":false},{"station_name":"Tebet","line":2,"station_id":"TEB","distance":1230,"i_long":106.857948,"transit":false,"time":2,"is_transit":false,"i_lat":-6.226659},{"time":4,"station_id":"MRI","is_transit":false,"transit":false,"i_lat":-6.209883,"distance":2610,"station_name":"Manggarai","i_long":106.84912,"line":2},{"i_long":106.840169,"distance":1590,"i_lat":-6.198556,"line":2,"station_name":"Cikini","time":4,"transit":false,"station_id":"CKI","is_transit":false},{"distance":1750,"station_id":"GDD","i_long":106.832183,"line":2,"is_transit":false,"transit":false,"station_name":"Gondangdia","i_lat":-6.186295,"time":3},{"transit":false,"station_id":"JUA","is_transit":false,"i_lat":-6.166716,"i_long":106.828284,"distance":2015,"time":4,"station_name":"Juanda","line":2},{"distance":1149,"station_name":"Sawah Besar","is_transit":false,"transit":false,"station_id":"SW","line":2,"i_long":106.827103,"i_lat":-6.160725,"time":2},{"transit":false,"i_long":106.82482,"time":2,"distance":906,"i_lat":-6.149769,"station_name":"Manggabesar","is_transit":false,"station_id":"MGB","line":2},{"station_name":"Jayakarta","i_long":106.820901,"i_lat":-6.141205,"line":2,"is_transit":false,"distance":1080,"time":2,"station_id":"JAY","transit":false},{"distance":1264,"i_lat":-6.137569,"i_long":106.812439,"is_transit":true,"transit":true,"time":4,"station_name":"Jakarta Kota","station_id":"JAKK","line":2},{"i_long":106.826365,"i_lat":-6.132549,"is_transit":true,"line":4,"station_name":"Kampung Bandan","time":3,"station_id":"KPB","distance":1364,"transit":true},{"line":1,"i_lat":-6.144674,"station_id":"AK","i_long":106.79867,"station_name":"Angke","time":9,"distance":4102,"is_transit":false,"transit":false},{"i_lat":-6.155215,"station_name":"Duri","transit":false,"distance":1230,"i_long":106.800832,"station_id":"DU","line":1,"is_transit":false,"time":4},{"distance":3632,"transit":true,"time":8,"station_name":"Tanah Abang","is_transit":true,"station_id":"THB","i_lat":-6.185545,"i_long":106.811091,"line":1},{"i_lat":-6.207404,"station_name":"Palmerah","time":6,"is_transit":false,"transit":false,"distance":3191,"station_id":"PLM","i_long":106.79689,"line":6},{"i_long":106.780334,"is_transit":false,"station_name":"Kebayoran","time":7,"transit":false,"i_lat":-6.237242,"line":6,"station_id":"KBY","distance":3737},{"station_id":"PDJ","is_transit":false,"transit":false,"i_long":106.74273,"time":8,"distance":6218,"station_name":"Pondokranji","line":6,"i_lat":-6.276362},{"station_id":"JMU","i_lat":-6.288927,"i_long":106.728916,"distance":2179,"transit":false,"is_transit":false,"time":3,"station_name":"Jurangmangu","line":6},{"time":4,"station_name":"Sudimara","i_lat":-6.296963,"i_long":106.712277,"transit":false,"line":6,"is_transit":false,"station_id":"SDM","distance":1994},{"transit":false,"station_id":"RU","line":6,"distance":4566,"station_name":"Rawa Buntu","is_transit":false,"i_lat":-6.314823,"i_long":106.675475,"time":6},{"time":4,"distance":2413,"is_transit":false,"i_lat":-6.319871,"station_name":"Serpong","transit":false,"station_id":"SRP","i_long":106.66566,"line":6},{"distance":1784,"is_transit":false,"i_lat":-6.32484,"station_name":"Cisauk","line":3,"transit":false,"station_id":"CSK","i_long":106.640411,"time":4},{"station_name":"Cicayur","time":4,"distance":2519,"transit":false,"i_long":106.617853,"i_lat":-6.329547,"line":3,"is_transit":false,"station_id":"CC"}],[{"i_long":106.851577,"station_name":"Pasar Minggu Baru","is_transit":false,"i_lat":-6.263214,"station_id":"PSMB","distance":0,"line":2,"time":0,"transit":false},{"station_id":"DRN","i_lat":-6.255332,"station_name":"Duren Kalibata","is_transit":false,"transit":false,"i_long":106.85449,"time":2,"line":2,"distance":824},{"is_transit":false,"station_id":"CW","transit":false,"time":3,"i_lat":-6.242512,"i_long":106.856607,"line":2,"distance":1546,"station_name":"Cawang"},{"i_lat":-6.226659,"station_id":"TEB","is_transit":false,"line":2,"station_name":"Tebet","time":2,"transit":false,"i_long":106.857948,"distance":1230},{"station_id":"MRI","i_lat":-6.209883,"i_long":106.84912,"is_transit":true,"distance":2610,"line":2,"time":4,"transit":true,"station_name":"Manggarai"},{"time":2,"is_transit":false,"i_long":106.858896,"line":1,"station_id":"MTR","transit":false,"distance":1275,"station_name":"Matraman","i_lat":-6.212485},{"station_name":"Jatinegara","transit":true,"i_lat":-6.215091,"is_transit":true,"line":1,"time":8,"distance":1377,"i_long":106.86807400000001,"station_id":"JNG"},{"time":2,"station_name":"Pondok Jati","i_long":106.861737,"is_transit":false,"i_lat":-6.209188,"transit":false,"line":11,"station_id":"POK","distance":1236},{"station_name":"Kramat","i_long":106.855437,"is_transit":false,"time":2,"transit":false,"i_lat":-6.193792,"line":11,"distance":1829,"station_id":"KMT"},{"station_id":"GST","station_name":"Gang Sentiong","time":1,"i_lat":-6.185975,"is_transit":false,"transit":false,"distance":973,"i_long":106.850107,"line":11},{"line":11,"time":8,"distance":1567,"i_lat":-6.174784,"transit":false,"is_transit":false,"station_name":"Pasar Senen","station_id":"PSE","i_long":106.84368},{"station_id":"KMO","transit":false,"distance":1436,"line":11,"i_lat":-6.161728,"i_long":106.839204,"time":4,"station_name":"Kemayoran","is_transit":false},{"line":11,"is_transit":false,"distance":1901,"time":5,"i_long":106.836569,"station_id":"RJW","station_name":"Rajawali","transit":false,"i_lat":-6.14505},{"is_transit":true,"station_id":"KPB","time":3,"transit":true,"distance":1444,"station_name":"Kampung Bandan","i_lat":-6.132549,"line":4,"i_long":106.826365},{"i_long":106.79867,"station_id":"AK","distance":4102,"transit":false,"line":1,"station_name":"Angke","time":9,"is_transit":false,"i_lat":-6.144674},{"distance":1230,"station_id":"DU","station_name":"Duri","time":4,"is_transit":false,"transit":false,"i_long":106.800832,"line":1,"i_lat":-6.155215},{"transit":true,"line":1,"i_lat":-6.185545,"station_name":"Tanah Abang","time":8,"distance":3632,"is_transit":true,"station_id":"THB","i_long":106.811091},{"is_transit":false,"transit":false,"distance":3191,"station_name":"Palmerah","i_lat":-6.207404,"i_long":106.79689,"line":6,"station_id":"PLM","time":6},{"station_name":"Kebayoran","i_long":106.780334,"line":6,"distance":3737,"transit":false,"time":7,"station_id":"KBY","is_transit":false,"i_lat":-6.237242},{"time":8,"is_transit":false,"distance":6218,"i_long":106.74273,"i_lat":-6.276362,"station_name":"Pondokranji","line":6,"station_id":"PDJ","transit":false},{"station_id":"JMU","is_transit":false,"distance":2179,"i_lat":-6.288927,"i_long":106.728916,"transit":false,"time":3,"line":6,"station_name":"Jurangmangu"},{"time":4,"i_lat":-6.296963,"station_id":"SDM","i_long":106.712277,"transit":false,"distance":1994,"line":6,"station_name":"Sudimara","is_transit":false},{"station_id":"RU","is_transit":false,"transit":false,"i_long":106.675475,"i_lat":-6.314823,"distance":4566,"station_name":"Rawa Buntu","line":6,"time":6},{"station_id":"SRP","distance":2413,"is_transit":false,"station_name":"Serpong","i_long":106.66566,"transit":false,"line":6,"time":4,"i_lat":-6.319871},{"station_name":"Cisauk","i_long":106.640411,"station_id":"CSK","is_transit":false,"time":4,"transit":false,"distance":1784,"i_lat":-6.32484,"line":3},{"station_id":"CC","distance":2519,"i_long":106.617853,"time":4,"line":3,"station_name":"Cicayur","i_lat":-6.329547,"transit":false,"is_transit":false}]]}