{"data":[[{"i_long":106.851577,"line":2,"station_name":"Pasar Minggu Baru","transit":false,"i_lat":-6.263214,"time":0,"station_id":"PSMB","distance":0,"is_transit":false},{"i_lat":-6.2842400000000005,"is_transit":false,"i_long":106.843999,"line":2,"time":2,"transit":false,"station_name":"Pasar Minggu","station_id":"PSM","distance":2380},{"i_long":106.838896,"station_name":"Tanjung Barat","i_lat":-6.3080680000000005,"time":4,"distance":2820,"station_id":"TNT","line":2,"is_transit":false,"transit":false},{"time":3,"is_transit":false,"distance":2671,"station_name":"Lenteng Agung","station_id":"LNA","line":2,"transit":false,"i_lat":-6.330363,"i_long":106.832616},{"station_id":"UP","station_name":"Univ. Pancasila","time":2,"distance":1029,"transit":false,"i_long":106.834175,"line":2,"i_lat":-6.339291,"is_transit":false},{"i_lat":-6.360749,"distance":2264,"station_id":"UI","i_long":106.831474,"station_name":"Univ. Indonesia","transit":false,"time":3,"line":2,"is_transit":false}]]}