{"data":[[{"is_transit":false,"i_long":106.851577,"transit":false,"i_lat":-6.263214,"time":0,"distance":0,"station_name":"Pasar Minggu Baru","station_id":"PSMB","line":2},{"station_id":"DRN","is_transit":false,"distance":824,"station_name":"Duren Kalibata","i_long":106.85449,"line":2,"transit":false,"time":2,"i_lat":-6.255332},{"station_id":"CW","i_lat":-6.242512,"is_transit":false,"transit":false,"i_long":106.856607,"distance":1546,"station_name":"Cawang","time":3,"line":2},{"distance":1230,"line":2,"transit":false,"i_long":106.857948,"is_transit":false,"time":2,"station_name":"Tebet","station_id":"TEB","i_lat":-6.226659},{"station_id":"MRI","line":2,"time":4,"is_transit":true,"transit":true,"station_name":"Manggarai","i_lat":-6.209883,"i_long":106.84912,"distance":2610},{"station_name":"Sudirman","station_id":"SUD","distance":3186,"i_long":106.822649,"line":1,"time":4,"i_lat":-6.202263,"is_transit":false,"transit":false},{"i_long":106.819881,"station_id":"SUDB","transit":false,"i_lat":-6.201433,"line":1,"distance":280,"time":1,"station_name":"Sudirman Baru","is_transit":false},{"line":1,"distance":471,"i_lat":-6.20132,"i_long":106.816351,"transit":false,"is_transit":false,"station_id":"KAT","time":1,"station_name":"Karet"},{"transit":true,"distance":2029,"is_transit":true,"station_id":"THB","i_lat":-6.185545,"time":5,"i_long":106.811091,"station_name":"Tanah Abang","line":1},{"is_transit":false,"distance":3191,"i_lat":-6.207404,"i_long":106.79689,"line":6,"station_id":"PLM","time":6,"station_name":"Palmerah","transit":false},{"distance":3737,"i_long":106.780334,"is_transit":false,"station_id":"KBY","line":6,"transit":false,"station_name":"Kebayoran","time":7,"i_lat":-6.237242},{"i_lat":-6.276362,"line":6,"transit":false,"time":8,"is_transit":false,"i_long":106.74273,"distance":6218,"station_name":"Pondokranji","station_id":"PDJ"},{"time":3,"is_transit":false,"i_long":106.728916,"transit":false,"line":6,"station_name":"Jurangmangu","station_id":"JMU","distance":2179,"i_lat":-6.288927}],[{"i_lat":-6.263214,"time":0,"station_id":"PSMB","i_long":106.851577,"station_name":"Pasar Minggu Baru","transit":false,"line":2,"distance":0,"is_transit":false},{"line":2,"is_transit":false,"i_long":106.85449,"time":2,"distance":824,"station_name":"Duren Kalibata","station_id":"DRN","transit":false,"i_lat":-6.255332},{"distance":1546,"time":3,"is_transit":false,"station_id":"CW","transit":false,"i_lat":-6.242512,"line":2,"station_name":"Cawang","i_long":106.856607},{"station_name":"Tebet","time":2,"i_long":106.857948,"line":2,"transit":false,"station_id":"TEB","is_transit":false,"i_lat":-6.226659,"distance":1230},{"distance":2610,"i_lat":-6.209883,"line":2,"transit":false,"station_name":"Manggarai","is_transit":false,"station_id":"MRI","time":4,"i_long":106.84912},{"line":2,"station_id":"CKI","is_transit":false,"distance":1590,"i_long":106.840169,"transit":false,"i_lat":-6.198556,"station_name":"Cikini","time":4},{"i_lat":-6.186295,"line":2,"distance":1750,"station_name":"Gondangdia","is_transit":false,"station_id":"GDD","time":3,"transit":false,"i_long":106.832183},{"distance":2015,"i_long":106.828284,"time":4,"station_name":"Juanda","station_id":"JUA","i_lat":-6.166716,"transit":false,"line":2,"is_transit":false},{"i_long":106.827103,"is_transit":false,"distance":1149,"station_name":"Sawah Besar","station_id":"SW","i_lat":-6.160725,"time":2,"transit":false,"line":2},{"i_long":106.82482,"station_name":"Manggabesar","line":2,"is_transit":false,"time":2,"i_lat":-6.149769,"station_id":"MGB","distance":906,"transit":false},{"line":2,"transit":false,"i_long":106.820901,"time":2,"station_name":"Jayakarta","distance":1080,"station_id":"JAY","i_lat":-6.141205,"is_transit":false},{"transit":true,"station_name":"Jakarta Kota","time":4,"distance":1264,"station_id":"JAKK","is_transit":true,"i_lat":-6.137569,"i_long":106.812439,"line":2},{"station_id":"KPB","line":4,"transit":true,"i_long":106.826365,"time":3,"distance":1364,"station_name":"Kampung Bandan","i_lat":-6.132549,"is_transit":true},{"station_id":"AK","time":9,"transit":false,"is_transit":false,"i_long":106.79867,"station_name":"Angke","distance":4102,"i_lat":-6.144674,"line":1},{"is_transit":false,"transit":false,"station_id":"DU","distance":1230,"i_lat":-6.155215,"station_name":"Duri","i_long":106.800832,"line":1,"time":4},{"transit":true,"distance":3632,"station_id":"THB","time":8,"station_name":"Tanah Abang","i_long":106.811091,"is_transit":true,"line":1,"i_lat":-6.185545},{"is_transit":false,"station_name":"Palmerah","i_lat":-6.207404,"station_id":"PLM","line":6,"distance":3191,"i_long":106.79689,"transit":false,"time":6},{"distance":3737,"i_long":106.780334,"time":7,"transit":false,"station_name":"Kebayoran","line":6,"station_id":"KBY","is_transit":false,"i_lat":-6.237242},{"transit":false,"station_id":"PDJ","distance":6218,"line":6,"i_lat":-6.276362,"time":8,"is_transit":false,"i_long":106.74273,"station_name":"Pondokranji"},{"distance":2179,"station_name":"Jurangmangu","station_id":"JMU","i_long":106.728916,"transit":false,"i_lat":-6.288927,"is_transit":false,"time":3,"line":6}],[{"i_long":106.851577,"distance":0,"transit":false,"station_name":"Pasar Minggu Baru","is_transit":false,"time":0,"i_lat":-6.263214,"line":2,"station_id":"PSMB"},{"station_name":"Duren Kalibata","transit":false,"station_id":"DRN","line":2,"is_transit":false,"i_lat":-6.255332,"time":2,"distance":824,"i_long":106.85449},{"transit":false,"i_lat":-6.242512,"i_long":106.856607,"is_transit":false,"time":3,"line":2,"station_name":"Cawang","station_id":"CW","distance":1546},{"transit":false,"station_id":"TEB","line":2,"distance":1230,"is_transit":false,"i_lat":-6.226659,"i_long":106.857948,"station_name":"Tebet","time":2},{"time":4,"line":2,"distance":2610,"station_name":"Manggarai","station_id":"MRI","i_lat":-6.209883,"i_long":106.84912,"transit":true,"is_transit":true},{"i_lat":-6.212485,"i_long":106.858896,"is_transit":false,"line":1,"station_id":"MTR","distance":1275,"time":2,"transit":false,"station_name":"Matraman"},{"distance":1377,"i_lat":-6.215091,"station_id":"JNG","i_long":106.86807400000001,"is_transit":true,"station_name":"Jatinegara","time":8,"transit":true,"line":1},{"distance":1236,"transit":false,"station_name":"Pondok Jati","station_id":"POK","time":2,"i_long":106.861737,"i_lat":-6.209188,"line":11,"is_transit":false},{"station_name":"Kramat","is_transit":false,"transit":false,"time":2,"i_long":106.855437,"i_lat":-6.193792,"line":11,"station_id":"KMT","distance":1829},{"station_id":"GST","line":11,"time":1,"is_transit":false,"transit":false,"i_lat":-6.185975,"i_long":106.850107,"station_name":"Gang Sentiong","distance":973},{"distance":1567,"line":11,"i_long":106.84368,"station_name":"Pasar Senen","station_id":"PSE","transit":false,"is_transit":false,"i_lat":-6.174784,"time":8},{"transit":false,"line":11,"is_transit":false,"station_name":"Kemayoran","station_id":"KMO","i_lat":-6.161728,"i_long":106.839204,"distance":1436,"time":4},{"time":5,"station_id":"RJW","line":11,"is_transit":false,"i_long":106.836569,"transit":false,"distance":1901,"station_name":"Rajawali","i_lat":-6.14505},{"line":4,"is_transit":true,"station_id":"KPB","distance":1444,"i_long":106.826365,"transit":true,"time":3,"station_name":"Kampung Bandan","i_lat":-6.132549},{"time":9,"transit":false,"line":1,"i_long":106.79867,"distance":4102,"i_lat":-6.144674,"is_transit":false,"station_name":"Angke","station_id":"AK"},{"i_long":106.800832,"line":1,"transit":false,"time":4,"station_id":"DU","i_lat":-6.155215,"station_name":"Duri","distance":1230,"is_transit":false},{"is_transit":true,"station_name":"Tanah Abang","line":1,"i_lat":-6.185545,"i_long":106.811091,"transit":true,"distance":3632,"time":8,"station_id":"THB"},{"station_id":"PLM","transit":false,"line":6,"station_name":"Palmerah","i_lat":-6.207404,"i_long":106.79689,"is_transit":false,"time":6,"distance":3191},{"station_name":"Kebayoran","station_id":"KBY","i_long":106.780334,"transit":false,"line":6,"i_lat":-6.237242,"is_transit":false,"distance":3737,"time":7},{"transit":false,"distance":6218,"time":8,"station_id":"PDJ","is_transit":false,"station_name":"Pondokranji","i_lat":-6.276362,"i_long":106.74273,"line":6},{"station_id":"JMU","i_long":106.728916,"station_name":"Jurangmangu","i_lat":-6.288927,"time":3,"is_transit":false,"distance":2179,"line":6,"transit":false}]]}