{"data":[[{"station_name":"Pasar Minggu Baru","line":2,"transit":false,"time":0,"station_id":"PSMB","i_lat":-6.263214,"i_long":106.851577,"distance":0,"is_transit":false},{"is_transit":false,"distance":824,"line":0,"i_long":106.85449,"time":2,"i_lat":-6.255332,"station_id":"DRN","transit":false,"station_name":"Duren Kalibata"},{"station_name":"Cawang","station_id":"CW","time":3,"i_long":106.856607,"distance":1546,"is_transit":false,"line":0,"transit":false,"i_lat":-6.242512},{"transit":false,"i_long":106.857948,"distance":1230,"station_name":"Tebet","i_lat":-6.226659,"is_transit":false,"line":2,"station_id":"TEB","time":2},{"transit":true,"line":0,"i_lat":-6.209883,"is_transit":true,"station_name":"Manggarai","station_id":"MRI","time":4,"distance":2610,"i_long":106.84912},{"distance":1275,"station_id":"MTR","is_transit":false,"station_name":"Matraman","transit":false,"i_lat":-6.212485,"i_long":106.858896,"line":1,"time":2},{"i_long":106.86807400000001,"transit":false,"line":0,"station_name":"Jatinegara","is_transit":true,"station_id":"JNG","i_lat":-6.215091,"distance":1377,"time":8},{"is_transit":false,"station_name":"Klender","line":1,"distance":3395,"i_lat":-6.2135,"transit":false,"station_id":"KLD","time":3,"i_long":106.899548},{"transit":false,"station_id":"BUA","is_transit":false,"distance":3100,"i_long":106.922662,"time":2,"i_lat":-6.215568,"line":0,"station_name":"Buaran"},{"is_transit":false,"i_lat":-6.217455,"i_long":106.939679,"transit":false,"line":1,"station_id":"KLDB","distance":1305,"time":1,"station_name":"Klenderbaru"},{"transit":false,"time":8,"is_transit":false,"i_long":106.951283,"distance":1385,"line":0,"station_name":"Cakung","station_id":"CUK","i_lat":-6.219053},{"station_name":"Kranji","distance":3097,"i_lat":-6.224515,"is_transit":false,"line":1,"i_long":106.977657,"transit":false,"time":3,"station_id":"KRI"},{"is_transit":false,"station_name":"Bekasi","i_lat":-6.236616,"line":0,"station_id":"BKS","transit":false,"time":4,"i_long":106.997013,"distance":2520},{"station_id":"BKST","transit":false,"distance":2368,"i_lat":-6.248029,"is_transit":false,"i_long":107.016735,"station_name":"Bekasi Timur","line":0,"time":2},{"station_name":"Tambun","station_id":"TB","is_transit":false,"distance":4460,"time":7,"i_lat":-6.258864,"transit":false,"line":1,"i_long":107.055722},{"i_lat":-6.261877,"distance":3420,"station_name":"Cibitung","time":3,"station_id":"CIT","i_long":107.083084,"is_transit":false,"transit":false,"line":0},{"station_name":"Metland Telaga Murni","time":2,"station_id":"TLM","i_lat":-6.262938,"is_transit":false,"transit":false,"i_long":107.093313,"line":1,"distance":2800},{"transit":false,"time":4,"line":0,"distance":3689,"is_transit":false,"station_id":"CKR","station_name":"Cikarang","i_long":107.144613,"i_lat":-6.2553149999999995}],[{"distance":0,"is_transit":false,"station_id":"PSMB","station_name":"Pasar Minggu Baru","time":0,"i_lat":-6.263214,"line":2,"i_long":106.851577,"transit":false},{"is_transit":false,"time":2,"station_name":"Duren Kalibata","i_lat":-6.255332,"station_id":"DRN","transit":false,"line":0,"distance":824,"i_long":106.85449},{"station_id":"CW","transit":false,"is_transit":false,"station_name":"Cawang","i_long":106.856607,"distance":1546,"i_lat":-6.242512,"time":3,"line":0},{"distance":1230,"station_name":"Tebet","is_transit":false,"station_id":"TEB","time":2,"transit":false,"line":2,"i_lat":-6.226659,"i_long":106.857948},{"station_id":"MRI","line":0,"distance":2610,"i_long":106.84912,"i_lat":-6.209883,"is_transit":true,"station_name":"Manggarai","transit":true,"time":4},{"station_name":"Sudirman","transit":false,"line":1,"time":4,"is_transit":false,"station_id":"SUD","i_long":106.822649,"i_lat":-6.202263,"distance":3186},{"transit":false,"station_id":"SUDB","i_lat":-6.201433,"time":1,"i_long":106.819881,"distance":280,"line":1,"is_transit":false,"station_name":"Sudirman Baru"},{"transit":false,"i_lat":-6.20132,"is_transit":false,"distance":471,"i_long":106.816351,"station_name":"Karet","time":1,"station_id":"KAT","line":1},{"line":1,"distance":2029,"transit":false,"time":5,"i_lat":-6.185545,"i_long":106.811091,"station_id":"THB","is_transit":true,"station_name":"Tanah Abang"},{"time":8,"distance":3632,"line":1,"transit":true,"is_transit":true,"i_lat":-6.155215,"station_name":"Duri","station_id":"DU","i_long":106.800832},{"line":0,"is_transit":false,"time":4,"distance":1230,"station_id":"AK","i_long":106.79867,"transit":false,"i_lat":-6.144674,"station_name":"Angke"},{"is_transit":true,"i_long":106.826365,"station_id":"KPB","station_name":"Kampung Bandan","distance":4102,"i_lat":-6.132549,"line":0,"transit":true,"time":9},{"line":11,"time":3,"distance":1444,"is_transit":false,"station_name":"Rajawali","station_id":"RJW","transit":false,"i_lat":-6.14505,"i_long":106.836569},{"station_name":"Kemayoran","time":5,"i_long":106.839204,"distance":1901,"is_transit":false,"line":11,"station_id":"KMO","transit":false,"i_lat":-6.161728},{"distance":1436,"line":11,"station_name":"Pasar Senen","i_long":106.84368,"transit":false,"station_id":"PSE","i_lat":-6.174784,"time":4,"is_transit":false},{"station_id":"GST","time":8,"line":11,"station_name":"Gang Sentiong","distance":1567,"transit":false,"i_long":106.850107,"is_transit":false,"i_lat":-6.185975},{"station_id":"KMT","distance":973,"i_long":106.855437,"transit":false,"i_lat":-6.193792,"line":11,"time":1,"station_name":"Kramat","is_transit":false},{"line":11,"distance":1829,"transit":false,"i_lat":-6.209188,"i_long":106.861737,"time":2,"station_name":"Pondok Jati","station_id":"POK","is_transit":false},{"i_long":106.86807400000001,"line":0,"station_name":"Jatinegara","is_transit":true,"transit":true,"station_id":"JNG","i_lat":-6.215091,"time":9,"distance":1236},{"station_name":"Klender","transit":false,"time":3,"line":1,"distance":3395,"i_lat":-6.2135,"i_long":106.899548,"station_id":"KLD","is_transit":false},{"is_transit":false,"line":0,"station_id":"BUA","distance":3100,"station_name":"Buaran","time":2,"i_lat":-6.215568,"i_long":106.922662,"transit":false},{"is_transit":false,"time":1,"i_lat":-6.217455,"line":1,"i_long":106.939679,"station_name":"Klenderbaru","distance":1305,"transit":false,"station_id":"KLDB"},{"station_name":"Cakung","line":0,"is_transit":false,"distance":1385,"station_id":"CUK","i_long":106.951283,"transit":false,"i_lat":-6.219053,"time":8},{"station_name":"Kranji","i_long":106.977657,"station_id":"KRI","is_transit":false,"distance":3097,"i_lat":-6.224515,"transit":false,"line":1,"time":3},{"station_name":"Bekasi","distance":2520,"is_transit":false,"i_lat":-6.236616,"i_long":106.997013,"transit":false,"time":4,"line":0,"station_id":"BKS"},{"station_id":"BKST","station_name":"Bekasi Timur","distance":2368,"time":2,"i_lat":-6.248029,"line":0,"is_transit":false,"transit":false,"i_long":107.016735},{"line":1,"transit":false,"time":7,"i_lat":-6.258864,"distance":4460,"is_transit":false,"station_id":"TB","station_name":"Tambun","i_long":107.055722},{"i_long":107.083084,"time":3,"distance":3420,"station_id":"CIT","station_name":"Cibitung","line":0,"transit":false,"i_lat":-6.261877,"is_transit":false},{"station_id":"TLM","i_lat":-6.262938,"line":1,"is_transit":false,"i_long":107.093313,"distance":2800,"time":2,"station_name":"Metland Telaga Murni","transit":false},{"station_id":"CKR","distance":3689,"is_transit":false,"transit":false,"time":4,"i_lat":-6.2553149999999995,"line":0,"station_name":"Cikarang","i_long":107.144613}],[{"line":2,"station_id":"PSMB","transit":false,"time":0,"distance":0,"is_transit":false,"station_name":"Pasar Minggu Baru","i_long":106.851577,"i_lat":-6.263214},{"station_id":"DRN","line":0,"time":2,"transit":false,"distance":824,"i_lat":-6.255332,"i_long":106.85449,"is_transit":false,"station_name":"Duren Kalibata"},{"i_long":106.856607,"is_transit":false,"line":0,"station_id":"CW","transit":false,"station_name":"Cawang","time":3,"distance":1546,"i_lat":-6.242512},{"distance":1230,"station_name":"Tebet","transit":false,"line":2,"i_lat":-6.226659,"i_long":106.857948,"station_id":"TEB","time":2,"is_transit":false},{"station_name":"Manggarai","i_lat":-6.209883,"is_transit":true,"transit":true,"station_id":"MRI","i_long":106.84912,"distance":2610,"line":0,"time":4},{"time":4,"station_id":"CKI","station_name":"Cikini","i_long":106.840169,"line":0,"is_transit":false,"distance":1590,"transit":false,"i_lat":-6.198556},{"i_lat":-6.186295,"station_id":"GDD","transit":false,"time":3,"station_name":"Gondangdia","is_transit":false,"distance":1750,"i_long":106.832183,"line":2},{"station_name":"Juanda","distance":2015,"transit":false,"station_id":"JUA","time":4,"i_lat":-6.166716,"line":2,"is_transit":false,"i_long":106.828284},{"station_name":"Sawah Besar","i_long":106.827103,"line":2,"transit":false,"i_lat":-6.160725,"distance":1149,"is_transit":false,"station_id":"SW","time":2},{"time":2,"station_name":"Manggabesar","station_id":"MGB","is_transit":false,"line":2,"distance":906,"transit":false,"i_long":106.82482,"i_lat":-6.149769},{"distance":1080,"time":2,"transit":false,"i_long":106.820901,"i_lat":-6.141205,"is_transit":false,"station_id":"JAY","station_name":"Jayakarta","line":7},{"i_lat":-6.137569,"transit":true,"is_transit":true,"time":4,"distance":1264,"i_long":106.812439,"line":0,"station_id":"JAKK","station_name":"Jakarta Kota"},{"station_id":"KPB","i_lat":-6.132549,"line":0,"is_transit":true,"distance":1364,"transit":true,"time":3,"i_long":106.826365,"station_name":"Kampung Bandan"},{"i_long":106.836569,"line":11,"station_id":"RJW","station_name":"Rajawali","time":3,"i_lat":-6.14505,"is_transit":false,"transit":false,"distance":1444},{"is_transit":false,"station_id":"KMO","i_lat":-6.161728,"station_name":"Kemayoran","time":5,"line":11,"distance":1901,"i_long":106.839204,"transit":false},{"distance":1436,"i_long":106.84368,"line":11,"is_transit":false,"station_id":"PSE","station_name":"Pasar Senen","time":4,"transit":false,"i_lat":-6.174784},{"station_name":"Gang Sentiong","transit":false,"is_transit":false,"i_long":106.850107,"distance":1567,"line":11,"station_id":"GST","time":8,"i_lat":-6.185975},{"transit":false,"distance":973,"is_transit":false,"station_name":"Kramat","i_long":106.855437,"i_lat":-6.193792,"time":1,"station_id":"KMT","line":11},{"transit":false,"is_transit":false,"i_long":106.861737,"distance":1829,"station_id":"POK","station_name":"Pondok Jati","time":2,"i_lat":-6.209188,"line":11},{"station_id":"JNG","transit":true,"station_name":"Jatinegara","i_lat":-6.215091,"i_long":106.86807400000001,"is_transit":true,"time":9,"line":0,"distance":1236},{"time":3,"i_long":106.899548,"station_name":"Klender","is_transit":false,"i_lat":-6.2135,"transit":false,"distance":3395,"line":1,"station_id":"KLD"},{"transit":false,"station_id":"BUA","i_long":106.922662,"is_transit":false,"time":2,"station_name":"Buaran","line":0,"i_lat":-6.215568,"distance":3100},{"is_transit":false,"station_name":"Klenderbaru","i_long":106.939679,"transit":false,"distance":1305,"time":1,"station_id":"KLDB","i_lat":-6.217455,"line":1},{"station_name":"Cakung","is_transit":false,"time":8,"i_long":106.951283,"i_lat":-6.219053,"transit":false,"station_id":"CUK","line":0,"distance":1385},{"i_long":106.977657,"i_lat":-6.224515,"time":3,"station_name":"Kranji","distance":3097,"is_transit":false,"station_id":"KRI","transit":false,"line":1},{"transit":false,"i_lat":-6.236616,"distance":2520,"station_name":"Bekasi","time":4,"is_transit":false,"i_long":106.997013,"line":0,"station_id":"BKS"},{"i_long":107.016735,"station_name":"Bekasi Timur","i_lat":-6.248029,"line":0,"distance":2368,"time":2,"transit":false,"station_id":"BKST","is_transit":false},{"distance":4460,"line":1,"station_name":"Tambun","is_transit":false,"station_id":"TB","i_lat":-6.258864,"i_long":107.055722,"time":7,"transit":false},{"i_long":107.083084,"time":3,"i_lat":-6.261877,"distance":3420,"transit":false,"is_transit":false,"station_id":"CIT","line":0,"station_name":"Cibitung"},{"is_transit":false,"line":1,"station_id":"TLM","i_lat":-6.262938,"time":2,"transit":false,"i_long":107.093313,"distance":2800,"station_name":"Metland Telaga Murni"},{"is_transit":false,"distance":3689,"i_lat":-6.2553149999999995,"time":4,"i_long":107.144613,"station_name":"Cikarang","station_id":"CKR","transit":false,"line":0}]]}