{"data":[[{"i_lat":-6.263214,"transit":false,"distance":0,"station_id":"PSMB","station_name":"Pasar Minggu Baru","i_long":106.851577,"is_transit":false,"line":2,"time":0},{"distance":824,"transit":false,"station_id":"DRN","time":2,"is_transit":false,"station_name":"Duren Kalibata","i_lat":-6.255332,"i_long":106.85449,"line":2},{"time":3,"is_transit":false,"transit":false,"i_long":106.856607,"distance":1546,"station_id":"CW","line":2,"station_name":"Cawang","i_lat":-6.242512},{"time":2,"is_transit":false,"distance":1230,"i_long":106.857948,"transit":false,"station_id":"TEB","station_name":"Tebet","i_lat":-6.226659,"line":2},{"time":4,"is_transit":true,"i_long":106.84912,"station_id":"MRI","transit":true,"i_lat":-6.209883,"distance":2610,"station_name":"Manggarai","line":2},{"line":1,"distance":3186,"transit":false,"station_name":"Sudirman","i_lat":-6.202263,"station_id":"SUD","is_transit":false,"time":4,"i_long":106.822649},{"i_lat":-6.201433,"time":1,"transit":false,"distance":280,"station_id":"SUDB","i_long":106.819881,"is_transit":false,"station_name":"Sudirman Baru","line":1},{"distance":471,"line":1,"i_lat":-6.20132,"station_id":"KAT","station_name":"Karet","i_long":106.816351,"time":1,"is_transit":false,"transit":false},{"distance":2029,"station_name":"Tanah Abang","time":5,"station_id":"THB","line":1,"transit":true,"is_transit":true,"i_long":106.811091,"i_lat":-6.185545},{"time":6,"transit":false,"station_name":"Palmerah","station_id":"PLM","i_long":106.79689,"i_lat":-6.207404,"distance":3191,"line":6,"is_transit":false},{"is_transit":false,"transit":false,"i_lat":-6.237242,"time":7,"i_long":106.780334,"station_id":"KBY","station_name":"Kebayoran","line":6,"distance":3737},{"is_transit":false,"station_id":"PDJ","line":6,"time":8,"transit":false,"i_lat":-6.276362,"station_name":"Pondokranji","i_long":106.74273,"distance":6218},{"station_name":"Jurangmangu","transit":false,"i_lat":-6.288927,"time":3,"line":6,"is_transit":false,"station_id":"JMU","i_long":106.728916,"distance":2179},{"station_id":"SDM","is_transit":false,"time":4,"station_name":"Sudimara","line":6,"distance":1994,"transit":false,"i_lat":-6.296963,"i_long":106.712277},{"is_transit":false,"transit":false,"time":6,"station_name":"Rawa Buntu","line":6,"i_long":106.675475,"station_id":"RU","distance":4566,"i_lat":-6.314823},{"distance":2413,"line":6,"i_lat":-6.319871,"i_long":106.66566,"is_transit":false,"station_id":"SRP","time":4,"station_name":"Serpong","transit":false},{"i_long":106.640411,"time":4,"is_transit":false,"distance":1784,"transit":false,"i_lat":-6.32484,"station_name":"Cisauk","station_id":"CSK","line":3},{"line":3,"station_id":"CC","station_name":"Cicayur","is_transit":false,"i_lat":-6.329547,"distance":2519,"i_long":106.617853,"transit":false,"time":4},{"i_lat":-6.3441410000000005,"line":6,"station_name":"Parung Panjang","time":8,"i_long":106.568863,"distance":5968,"is_transit":false,"station_id":"PRP","transit":false},{"is_transit":false,"i_long":106.508482,"transit":false,"line":3,"distance":7025,"station_name":"Cilejit","i_lat":-6.354349,"time":9,"station_id":"CJT"},{"is_transit":false,"station_id":"DAR","transit":false,"station_name":"Daru","i_lat":-6.338021,"time":6,"distance":2675,"i_long":106.491338,"line":0},{"time":5,"distance":3902,"is_transit":false,"transit":false,"station_name":"Tenjo","i_lat":-6.327251,"i_long":106.460812,"line":6,"station_id":"TEJ"},{"is_transit":false,"i_lat":-6.328533,"line":6,"time":5,"station_id":"TGS","transit":false,"distance":2974,"i_long":106.425991,"station_name":"Tigaraksa"},{"transit":false,"station_name":"Cikoya","i_long":106.411216,"line":3,"i_lat":-6.33561,"station_id":"CKY","is_transit":false,"time":3,"distance":2651}],[{"transit":false,"is_transit":false,"i_long":106.851577,"distance":0,"line":2,"time":0,"station_id":"PSMB","station_name":"Pasar Minggu Baru","i_lat":-6.263214},{"line":2,"i_long":106.85449,"time":2,"i_lat":-6.255332,"distance":824,"station_id":"DRN","station_name":"Duren Kalibata","transit":false,"is_transit":false},{"distance":1546,"transit":false,"time":3,"i_long":106.856607,"station_id":"CW","is_transit":false,"line":2,"station_name":"Cawang","i_lat":-6.242512},{"time":2,"station_name":"Tebet","line":2,"distance":1230,"is_transit":false,"transit":false,"station_id":"TEB","i_lat":-6.226659,"i_long":106.857948},{"station_name":"Manggarai","is_transit":false,"line":2,"distance":2610,"i_long":106.84912,"station_id":"MRI","transit":false,"time":4,"i_lat":-6.209883},{"line":2,"station_name":"Cikini","distance":1590,"i_lat":-6.198556,"station_id":"CKI","transit":false,"is_transit":false,"i_long":106.840169,"time":4},{"station_id":"GDD","station_name":"Gondangdia","line":2,"i_long":106.832183,"transit":false,"distance":1750,"time":3,"is_transit":false,"i_lat":-6.186295},{"line":2,"station_id":"JUA","transit":false,"is_transit":false,"station_name":"Juanda","i_long":106.828284,"i_lat":-6.166716,"time":4,"distance":2015},{"transit":false,"time":2,"line":2,"distance":1149,"station_id":"SW","station_name":"Sawah Besar","i_lat":-6.160725,"i_long":106.827103,"is_transit":false},{"line":2,"station_name":"Manggabesar","is_transit":false,"transit":false,"distance":906,"i_lat":-6.149769,"i_long":106.82482,"station_id":"MGB","time":2},{"distance":1080,"time":2,"station_id":"JAY","transit":false,"is_transit":false,"line":2,"i_long":106.820901,"i_lat":-6.141205,"station_name":"Jayakarta"},{"i_long":106.812439,"time":4,"is_transit":true,"distance":1264,"i_lat":-6.137569,"line":2,"station_name":"Jakarta Kota","transit":true,"station_id":"JAKK"},{"i_lat":-6.132549,"station_id":"KPB","time":3,"station_name":"Kampung Bandan","transit":true,"i_long":106.826365,"line":4,"distance":1364,"is_transit":true},{"station_id":"AK","line":1,"time":9,"station_name":"Angke","distance":4102,"transit":false,"is_transit":false,"i_lat":-6.144674,"i_long":106.79867},{"time":4,"is_transit":false,"distance":1230,"transit":false,"i_long":106.800832,"line":1,"station_id":"DU","station_name":"Duri","i_lat":-6.155215},{"i_lat":-6.185545,"line":1,"i_long":106.811091,"station_name":"Tanah Abang","station_id":"THB","transit":true,"distance":3632,"is_transit":true,"time":8},{"station_id":"PLM","station_name":"Palmerah","time":6,"i_lat":-6.207404,"line":6,"i_long":106.79689,"transit":false,"is_transit":false,"distance":3191},{"is_transit":false,"time":7,"station_id":"KBY","i_lat":-6.237242,"i_long":106.780334,"distance":3737,"station_name":"Kebayoran","transit":false,"line":6},{"time":8,"transit":false,"line":6,"distance":6218,"i_long":106.74273,"is_transit":false,"station_name":"Pondokranji","station_id":"PDJ","i_lat":-6.276362},{"i_lat":-6.288927,"i_long":106.728916,"distance":2179,"station_id":"JMU","station_name":"Jurangmangu","line":6,"transit":false,"is_transit":false,"time":3},{"line":6,"time":4,"transit":false,"station_name":"Sudimara","station_id":"SDM","i_lat":-6.296963,"i_long":106.712277,"distance":1994,"is_transit":false},{"station_id":"RU","transit":false,"distance":4566,"i_lat":-6.314823,"time":6,"line":6,"station_name":"Rawa Buntu","is_transit":false,"i_long":106.675475},{"i_long":106.66566,"station_name":"Serpong","station_id":"SRP","line":6,"time":4,"i_lat":-6.319871,"distance":2413,"transit":false,"is_transit":false},{"is_transit":false,"i_lat":-6.32484,"i_long":106.640411,"line":3,"station_name":"Cisauk","station_id":"CSK","time":4,"distance":1784,"transit":false},{"station_name":"Cicayur","station_id":"CC","i_lat":-6.329547,"is_transit":false,"transit":false,"time":4,"line":3,"i_long":106.617853,"distance":2519},{"time":8,"line":6,"is_transit":false,"station_name":"Parung Panjang","station_id":"PRP","i_lat":-6.3441410000000005,"transit":false,"i_long":106.568863,"distance":5968},{"time":9,"station_id":"CJT","is_transit":false,"station_name":"Cilejit","i_long":106.508482,"i_lat":-6.354349,"transit":false,"line":3,"distance":7025},{"is_transit":false,"time":6,"i_long":106.491338,"line":0,"distance":2675,"i_lat":-6.338021,"transit":false,"station_id":"DAR","station_name":"Daru"},{"line":6,"time":5,"i_lat":-6.327251,"station_id":"TEJ","transit":false,"is_transit":false,"distance":3902,"station_name":"Tenjo","i_long":106.460812},{"station_name":"Tigaraksa","i_long":106.425991,"i_lat":-6.328533,"transit":false,"time":5,"line":6,"distance":2974,"station_id":"TGS","is_transit":false},{"transit":false,"i_long":106.411216,"is_transit":false,"distance":2651,"station_name":"Cikoya","station_id":"CKY","i_lat":-6.33561,"line":3,"time":3}],[{"distance":0,"line":2,"time":0,"i_lat":-6.263214,"station_name":"Pasar Minggu Baru","i_long":106.851577,"transit":false,"station_id":"PSMB","is_transit":false},{"i_lat":-6.255332,"time":2,"station_id":"DRN","distance":824,"line":2,"is_transit":false,"station_name":"Duren Kalibata","i_long":106.85449,"transit":false},{"time":3,"station_id":"CW","transit":false,"station_name":"Cawang","is_transit":false,"i_lat":-6.242512,"distance":1546,"i_long":106.856607,"line":2},{"time":2,"station_name":"Tebet","line":2,"station_id":"TEB","transit":false,"is_transit":false,"distance":1230,"i_lat":-6.226659,"i_long":106.857948},{"is_transit":true,"station_id":"MRI","time":4,"distance":2610,"transit":true,"station_name":"Manggarai","i_lat":-6.209883,"i_long":106.84912,"line":2},{"i_long":106.858896,"line":1,"distance":1275,"time":2,"station_name":"Matraman","station_id":"MTR","is_transit":false,"transit":false,"i_lat":-6.212485},{"distance":1377,"i_long":106.86807400000001,"station_id":"JNG","transit":true,"is_transit":true,"time":8,"station_name":"Jatinegara","i_lat":-6.215091,"line":1},{"station_name":"Pondok Jati","i_long":106.861737,"transit":false,"distance":1236,"station_id":"POK","line":11,"time":2,"is_transit":false,"i_lat":-6.209188},{"station_id":"KMT","i_lat":-6.193792,"is_transit":false,"distance":1829,"time":2,"station_name":"Kramat","i_long":106.855437,"transit":false,"line":11},{"time":1,"distance":973,"i_long":106.850107,"line":11,"station_id":"GST","transit":false,"is_transit":false,"station_name":"Gang Sentiong","i_lat":-6.185975},{"i_long":106.84368,"time":8,"i_lat":-6.174784,"is_transit":false,"station_name":"Pasar Senen","distance":1567,"station_id":"PSE","transit":false,"line":11},{"transit":false,"line":11,"time":4,"distance":1436,"i_long":106.839204,"station_name":"Kemayoran","station_id":"KMO","is_transit":false,"i_lat":-6.161728},{"station_name":"Rajawali","station_id":"RJW","transit":false,"is_transit":false,"time":5,"i_long":106.836569,"line":11,"i_lat":-6.14505,"distance":1901},{"time":3,"station_name":"Kampung Bandan","station_id":"KPB","distance":1444,"transit":true,"line":4,"is_transit":true,"i_lat":-6.132549,"i_long":106.826365},{"time":9,"transit":false,"i_lat":-6.144674,"is_transit":false,"line":1,"station_id":"AK","distance":4102,"station_name":"Angke","i_long":106.79867},{"i_long":106.800832,"i_lat":-6.155215,"is_transit":false,"distance":1230,"station_id":"DU","time":4,"transit":false,"line":1,"station_name":"Duri"},{"distance":3632,"line":1,"station_name":"Tanah Abang","transit":true,"is_transit":true,"i_long":106.811091,"i_lat":-6.185545,"time":8,"station_id":"THB"},{"i_long":106.79689,"line":6,"transit":false,"distance":3191,"is_transit":false,"time":6,"i_lat":-6.207404,"station_id":"PLM","station_name":"Palmerah"},{"distance":3737,"i_long":106.780334,"is_transit":false,"transit":false,"line":6,"station_id":"KBY","time":7,"station_name":"Kebayoran","i_lat":-6.237242},{"i_lat":-6.276362,"station_name":"Pondokranji","time":8,"i_long":106.74273,"transit":false,"is_transit":false,"line":6,"station_id":"PDJ","distance":6218},{"transit":false,"i_long":106.728916,"station_id":"JMU","line":6,"distance":2179,"i_lat":-6.288927,"time":3,"is_transit":false,"station_name":"Jurangmangu"},{"is_transit":false,"distance":1994,"station_id":"SDM","station_name":"Sudimara","i_long":106.712277,"transit":false,"time":4,"i_lat":-6.296963,"line":6},{"i_long":106.675475,"time":6,"station_id":"RU","is_transit":false,"line":6,"transit":false,"station_name":"Rawa Buntu","distance":4566,"i_lat":-6.314823},{"time":4,"is_transit":false,"distance":2413,"transit":false,"station_name":"Serpong","line":6,"i_lat":-6.319871,"station_id":"SRP","i_long":106.66566},{"is_transit":false,"line":3,"i_long":106.640411,"time":4,"distance":1784,"station_id":"CSK","i_lat":-6.32484,"transit":false,"station_name":"Cisauk"},{"transit":false,"is_transit":false,"line":3,"station_id":"CC","station_name":"Cicayur","i_lat":-6.329547,"time":4,"i_long":106.617853,"distance":2519},{"station_name":"Parung Panjang","i_lat":-6.3441410000000005,"i_long":106.568863,"station_id":"PRP","line":6,"transit":false,"time":8,"distance":5968,"is_transit":false},{"transit":false,"i_lat":-6.354349,"line":3,"distance":7025,"i_long":106.508482,"station_name":"Cilejit","station_id":"CJT","time":9,"is_transit":false},{"is_transit":false,"line":0,"station_name":"Daru","i_long":106.491338,"i_lat":-6.338021,"time":6,"station_id":"DAR","transit":false,"distance":2675},{"distance":3902,"i_lat":-6.327251,"i_long":106.460812,"line":6,"station_id":"TEJ","time":5,"is_transit":false,"transit":false,"station_name":"Tenjo"},{"station_name":"Tigaraksa","station_id":"TGS","is_transit":false,"time":5,"distance":2974,"line":6,"i_lat":-6.328533,"i_long":106.425991,"transit":false},{"line":3,"i_long":106.411216,"time":3,"distance":2651,"transit":false,"station_id":"CKY","i_lat":-6.33561,"is_transit":false,"station_name":"Cikoya"}]]}