{"data":[[{"i_long":106.851577,"transit":false,"is_transit":false,"line":2,"distance":0,"i_lat":-6.263214,"time":0,"station_name":"Pasar Minggu Baru","station_id":"PSMB"},{"is_transit":false,"station_name":"Duren Kalibata","station_id":"DRN","distance":824,"transit":false,"time":2,"i_lat":-6.255332,"i_long":106.85449,"line":0},{"time":3,"i_long":106.856607,"line":0,"is_transit":false,"station_id":"CW","distance":1546,"station_name":"Cawang","transit":false,"i_lat":-6.242512},{"station_id":"TEB","i_long":106.857948,"is_transit":false,"time":2,"i_lat":-6.226659,"transit":false,"station_name":"Tebet","line":2,"distance":1230},{"station_name":"Manggarai","distance":2610,"transit":true,"i_long":106.84912,"is_transit":true,"time":4,"line":0,"station_id":"MRI","i_lat":-6.209883},{"time":4,"i_long":106.822649,"i_lat":-6.202263,"station_name":"Sudirman","station_id":"SUD","transit":false,"line":1,"distance":3186,"is_transit":false},{"station_name":"Sudirman Baru","time":1,"distance":280,"is_transit":false,"i_lat":-6.201433,"transit":false,"i_long":106.819881,"line":1,"station_id":"SUDB"},{"station_name":"Karet","line":1,"time":1,"i_long":106.816351,"is_transit":false,"transit":false,"i_lat":-6.20132,"distance":471,"station_id":"KAT"},{"i_long":106.811091,"line":1,"station_id":"THB","is_transit":true,"i_lat":-6.185545,"time":5,"distance":2029,"station_name":"Tanah Abang","transit":true},{"transit":false,"time":6,"line":6,"station_id":"PLM","distance":3191,"station_name":"Palmerah","is_transit":false,"i_lat":-6.207404,"i_long":106.79689},{"line":6,"station_id":"KBY","transit":false,"distance":3737,"i_lat":-6.237242,"is_transit":false,"station_name":"Kebayoran","time":7,"i_long":106.780334},{"station_id":"PDJ","station_name":"Pondokranji","transit":false,"time":8,"line":6,"i_lat":-6.276362,"is_transit":false,"distance":6218,"i_long":106.74273},{"is_transit":false,"i_long":106.728916,"station_name":"Jurangmangu","time":3,"i_lat":-6.288927,"distance":2179,"station_id":"JMU","transit":false,"line":6},{"time":4,"is_transit":false,"distance":1994,"i_lat":-6.296963,"station_name":"Sudimara","i_long":106.712277,"station_id":"SDM","transit":false,"line":6},{"transit":false,"distance":4566,"is_transit":false,"station_id":"RU","time":6,"i_long":106.675475,"line":6,"station_name":"Rawa Buntu","i_lat":-6.314823},{"distance":2413,"station_name":"Serpong","i_long":106.66566,"line":6,"station_id":"SRP","transit":false,"time":4,"is_transit":false,"i_lat":-6.319871},{"i_lat":-6.32484,"station_id":"CSK","is_transit":false,"i_long":106.640411,"distance":1784,"station_name":"Cisauk","transit":false,"time":4,"line":0},{"time":4,"distance":2519,"i_lat":-6.329547,"line":0,"station_id":"CC","transit":false,"is_transit":false,"i_long":106.617853,"station_name":"Cicayur"},{"station_id":"PRP","distance":5968,"i_lat":-6.3441410000000005,"line":6,"time":8,"station_name":"Parung Panjang","i_long":106.568863,"is_transit":false,"transit":false},{"station_id":"CJT","distance":7025,"transit":false,"i_lat":-6.354349,"is_transit":false,"i_long":106.508482,"line":0,"time":9,"station_name":"Cilejit"},{"distance":2675,"line":0,"transit":false,"station_id":"DAR","is_transit":false,"station_name":"Daru","i_lat":-6.338021,"time":6,"i_long":106.491338},{"station_name":"Tenjo","is_transit":false,"distance":3902,"i_long":106.460812,"line":6,"station_id":"TEJ","transit":false,"time":5,"i_lat":-6.327251},{"time":5,"station_id":"TGS","is_transit":false,"distance":2974,"i_lat":-6.328533,"line":6,"station_name":"Tigaraksa","i_long":106.425991,"transit":false},{"distance":2651,"station_id":"CKY","is_transit":false,"transit":false,"i_lat":-6.33561,"i_long":106.411216,"station_name":"Cikoya","line":0,"time":3}],[{"station_name":"Pasar Minggu Baru","transit":false,"time":0,"i_lat":-6.263214,"i_long":106.851577,"station_id":"PSMB","is_transit":false,"distance":0,"line":2},{"station_name":"Duren Kalibata","transit":false,"line":0,"station_id":"DRN","i_lat":-6.255332,"i_long":106.85449,"distance":824,"is_transit":false,"time":2},{"line":0,"distance":1546,"station_name":"Cawang","is_transit":false,"station_id":"CW","i_lat":-6.242512,"i_long":106.856607,"transit":false,"time":3},{"distance":1230,"is_transit":false,"time":2,"station_id":"TEB","station_name":"Tebet","i_lat":-6.226659,"i_long":106.857948,"line":2,"transit":false},{"is_transit":true,"transit":true,"line":0,"time":4,"distance":2610,"i_lat":-6.209883,"i_long":106.84912,"station_id":"MRI","station_name":"Manggarai"},{"transit":false,"time":4,"line":0,"station_name":"Cikini","station_id":"CKI","distance":1590,"is_transit":false,"i_long":106.840169,"i_lat":-6.198556},{"distance":1750,"transit":false,"is_transit":false,"station_name":"Gondangdia","i_long":106.832183,"station_id":"GDD","time":3,"i_lat":-6.186295,"line":2},{"transit":false,"station_id":"JUA","distance":2015,"time":4,"station_name":"Juanda","i_lat":-6.166716,"i_long":106.828284,"line":2,"is_transit":false},{"i_lat":-6.160725,"station_id":"SW","i_long":106.827103,"is_transit":false,"transit":false,"distance":1149,"time":2,"station_name":"Sawah Besar","line":2},{"is_transit":false,"time":2,"distance":906,"station_id":"MGB","transit":false,"i_long":106.82482,"station_name":"Manggabesar","line":2,"i_lat":-6.149769},{"station_name":"Jayakarta","line":7,"transit":false,"distance":1080,"time":2,"station_id":"JAY","i_lat":-6.141205,"is_transit":false,"i_long":106.820901},{"i_lat":-6.137569,"station_id":"JAKK","is_transit":true,"i_long":106.812439,"line":0,"station_name":"Jakarta Kota","transit":true,"distance":1264,"time":4},{"i_long":106.826365,"is_transit":true,"time":3,"station_name":"Kampung Bandan","transit":false,"i_lat":-6.132549,"station_id":"KPB","distance":1364,"line":0},{"line":0,"transit":false,"station_id":"AK","distance":4102,"station_name":"Angke","time":9,"is_transit":false,"i_long":106.79867,"i_lat":-6.144674},{"station_name":"Duri","line":1,"time":4,"transit":true,"i_lat":-6.155215,"is_transit":true,"station_id":"DU","i_long":106.800832,"distance":1230},{"is_transit":true,"distance":3632,"line":1,"station_id":"THB","station_name":"Tanah Abang","time":8,"i_long":106.811091,"transit":true,"i_lat":-6.185545},{"distance":3191,"station_name":"Palmerah","i_long":106.79689,"i_lat":-6.207404,"is_transit":false,"station_id":"PLM","line":6,"transit":false,"time":6},{"is_transit":false,"i_lat":-6.237242,"line":6,"i_long":106.780334,"time":7,"station_id":"KBY","transit":false,"distance":3737,"station_name":"Kebayoran"},{"i_lat":-6.276362,"line":6,"is_transit":false,"transit":false,"time":8,"distance":6218,"station_name":"Pondokranji","i_long":106.74273,"station_id":"PDJ"},{"transit":false,"station_name":"Jurangmangu","i_long":106.728916,"time":3,"i_lat":-6.288927,"station_id":"JMU","line":6,"distance":2179,"is_transit":false},{"i_long":106.712277,"time":4,"station_name":"Sudimara","distance":1994,"transit":false,"i_lat":-6.296963,"line":6,"is_transit":false,"station_id":"SDM"},{"i_lat":-6.314823,"line":6,"is_transit":false,"transit":false,"distance":4566,"station_id":"RU","i_long":106.675475,"time":6,"station_name":"Rawa Buntu"},{"station_id":"SRP","is_transit":false,"station_name":"Serpong","i_lat":-6.319871,"transit":false,"time":4,"line":6,"i_long":106.66566,"distance":2413},{"time":4,"i_lat":-6.32484,"i_long":106.640411,"line":0,"distance":1784,"is_transit":false,"station_name":"Cisauk","station_id":"CSK","transit":false},{"station_name":"Cicayur","line":0,"time":4,"i_long":106.617853,"transit":false,"station_id":"CC","distance":2519,"is_transit":false,"i_lat":-6.329547},{"is_transit":false,"station_name":"Parung Panjang","line":6,"time":8,"i_lat":-6.3441410000000005,"distance":5968,"station_id":"PRP","transit":false,"i_long":106.568863},{"station_id":"CJT","line":0,"distance":7025,"station_name":"Cilejit","i_lat":-6.354349,"is_transit":false,"transit":false,"i_long":106.508482,"time":9},{"i_lat":-6.338021,"station_id":"DAR","distance":2675,"transit":false,"station_name":"Daru","time":6,"line":0,"i_long":106.491338,"is_transit":false},{"i_long":106.460812,"is_transit":false,"time":5,"transit":false,"station_name":"Tenjo","line":6,"distance":3902,"i_lat":-6.327251,"station_id":"TEJ"},{"station_id":"TGS","distance":2974,"is_transit":false,"transit":false,"i_lat":-6.328533,"line":6,"time":5,"i_long":106.425991,"station_name":"Tigaraksa"},{"i_lat":-6.33561,"time":3,"station_name":"Cikoya","distance":2651,"i_long":106.411216,"is_transit":false,"station_id":"CKY","line":0,"transit":false}],[{"i_lat":-6.263214,"transit":false,"station_id":"PSMB","i_long":106.851577,"time":0,"distance":0,"line":2,"station_name":"Pasar Minggu Baru","is_transit":false},{"i_lat":-6.255332,"station_id":"DRN","transit":false,"time":2,"line":0,"i_long":106.85449,"distance":824,"is_transit":false,"station_name":"Duren Kalibata"},{"time":3,"station_id":"CW","i_long":106.856607,"is_transit":false,"distance":1546,"i_lat":-6.242512,"line":0,"transit":false,"station_name":"Cawang"},{"station_id":"TEB","i_long":106.857948,"distance":1230,"transit":false,"is_transit":false,"line":2,"time":2,"i_lat":-6.226659,"station_name":"Tebet"},{"i_lat":-6.209883,"line":0,"time":4,"is_transit":true,"distance":2610,"station_id":"MRI","transit":true,"i_long":106.84912,"station_name":"Manggarai"},{"i_long":106.858896,"is_transit":false,"distance":1275,"station_id":"MTR","station_name":"Matraman","transit":false,"time":2,"i_lat":-6.212485,"line":1},{"station_name":"Jatinegara","time":8,"line":0,"i_long":106.86807400000001,"station_id":"JNG","i_lat":-6.215091,"transit":true,"distance":1377,"is_transit":true},{"time":2,"line":11,"i_long":106.861737,"station_id":"POK","station_name":"Pondok Jati","i_lat":-6.209188,"transit":false,"distance":1236,"is_transit":false},{"station_name":"Kramat","is_transit":false,"line":11,"time":2,"station_id":"KMT","transit":false,"i_lat":-6.193792,"i_long":106.855437,"distance":1829},{"station_id":"GST","station_name":"Gang Sentiong","i_long":106.850107,"line":11,"time":1,"transit":false,"is_transit":false,"i_lat":-6.185975,"distance":973},{"i_long":106.84368,"station_id":"PSE","time":8,"line":11,"transit":false,"station_name":"Pasar Senen","distance":1567,"is_transit":false,"i_lat":-6.174784},{"time":4,"is_transit":false,"i_lat":-6.161728,"distance":1436,"transit":false,"station_id":"KMO","i_long":106.839204,"line":11,"station_name":"Kemayoran"},{"distance":1901,"is_transit":false,"station_name":"Rajawali","transit":false,"time":5,"i_lat":-6.14505,"i_long":106.836569,"station_id":"RJW","line":11},{"transit":true,"i_lat":-6.132549,"line":0,"station_id":"KPB","station_name":"Kampung Bandan","distance":1444,"time":3,"i_long":106.826365,"is_transit":true},{"transit":false,"station_name":"Angke","is_transit":false,"station_id":"AK","distance":4102,"time":9,"i_lat":-6.144674,"line":0,"i_long":106.79867},{"station_id":"DU","is_transit":true,"i_lat":-6.155215,"time":4,"distance":1230,"station_name":"Duri","transit":true,"i_long":106.800832,"line":1},{"station_name":"Tanah Abang","is_transit":true,"time":8,"transit":true,"i_lat":-6.185545,"i_long":106.811091,"distance":3632,"line":1,"station_id":"THB"},{"is_transit":false,"station_name":"Palmerah","transit":false,"time":6,"station_id":"PLM","i_lat":-6.207404,"distance":3191,"line":6,"i_long":106.79689},{"is_transit":false,"distance":3737,"station_name":"Kebayoran","i_lat":-6.237242,"line":6,"i_long":106.780334,"transit":false,"station_id":"KBY","time":7},{"station_id":"PDJ","station_name":"Pondokranji","distance":6218,"i_long":106.74273,"time":8,"is_transit":false,"transit":false,"i_lat":-6.276362,"line":6},{"transit":false,"station_name":"Jurangmangu","is_transit":false,"time":3,"distance":2179,"i_long":106.728916,"station_id":"JMU","i_lat":-6.288927,"line":6},{"time":4,"is_transit":false,"station_id":"SDM","i_long":106.712277,"distance":1994,"station_name":"Sudimara","i_lat":-6.296963,"line":6,"transit":false},{"i_long":106.675475,"distance":4566,"is_transit":false,"transit":false,"station_name":"Rawa Buntu","time":6,"station_id":"RU","line":6,"i_lat":-6.314823},{"is_transit":false,"i_long":106.66566,"distance":2413,"transit":false,"station_name":"Serpong","station_id":"SRP","line":6,"time":4,"i_lat":-6.319871},{"i_long":106.640411,"transit":false,"station_name":"Cisauk","distance":1784,"line":0,"is_transit":false,"time":4,"i_lat":-6.32484,"station_id":"CSK"},{"transit":false,"time":4,"distance":2519,"is_transit":false,"station_name":"Cicayur","i_long":106.617853,"station_id":"CC","i_lat":-6.329547,"line":0},{"transit":false,"time":8,"i_lat":-6.3441410000000005,"station_name":"Parung Panjang","station_id":"PRP","distance":5968,"i_long":106.568863,"is_transit":false,"line":6},{"is_transit":false,"station_name":"Cilejit","line":0,"time":9,"transit":false,"station_id":"CJT","i_long":106.508482,"i_lat":-6.354349,"distance":7025},{"station_name":"Daru","transit":false,"line":0,"station_id":"DAR","is_transit":false,"time":6,"i_long":106.491338,"distance":2675,"i_lat":-6.338021},{"is_transit":false,"distance":3902,"station_id":"TEJ","i_lat":-6.327251,"i_long":106.460812,"transit":false,"line":6,"station_name":"Tenjo","time":5},{"line":6,"distance":2974,"is_transit":false,"i_long":106.425991,"station_id":"TGS","station_name":"Tigaraksa","time":5,"i_lat":-6.328533,"transit":false},{"time":3,"is_transit":false,"station_id":"CKY","i_long":106.411216,"distance":2651,"line":0,"transit":false,"station_name":"Cikoya","i_lat":-6.33561}]]}