{"data":[[{"transit":false,"line":2,"i_long":106.851577,"time":0,"station_id":"PSMB","distance":0,"station_name":"Pasar Minggu Baru","is_transit":false,"i_lat":-6.263214},{"i_lat":-6.255332,"time":2,"transit":false,"i_long":106.85449,"station_name":"Duren Kalibata","distance":824,"station_id":"DRN","line":2,"is_transit":false},{"distance":1546,"transit":false,"station_id":"CW","i_lat":-6.242512,"time":3,"station_name":"Cawang","line":2,"i_long":106.856607,"is_transit":false},{"is_transit":false,"i_long":106.857948,"station_name":"Tebet","distance":1230,"time":2,"station_id":"TEB","transit":false,"i_lat":-6.226659,"line":2},{"line":2,"i_long":106.84912,"station_id":"MRI","is_transit":true,"distance":2610,"transit":true,"i_lat":-6.209883,"time":4,"station_name":"Manggarai"},{"is_transit":false,"station_id":"SUD","i_long":106.822649,"distance":3186,"line":1,"i_lat":-6.202263,"transit":false,"station_name":"Sudirman","time":4},{"station_name":"Sudirman Baru","is_transit":false,"station_id":"SUDB","i_lat":-6.201433,"i_long":106.819881,"line":1,"transit":false,"distance":280,"time":1},{"i_long":106.816351,"time":1,"transit":false,"distance":471,"station_id":"KAT","line":1,"is_transit":false,"station_name":"Karet","i_lat":-6.20132},{"transit":false,"i_lat":-6.185545,"is_transit":false,"distance":2029,"line":1,"time":5,"station_id":"THB","station_name":"Tanah Abang","i_long":106.811091},{"distance":3632,"is_transit":false,"i_long":106.800832,"station_name":"Duri","transit":false,"line":1,"station_id":"DU","i_lat":-6.155215,"time":8}],[{"line":2,"transit":false,"time":0,"is_transit":false,"distance":0,"station_id":"PSMB","i_lat":-6.263214,"station_name":"Pasar Minggu Baru","i_long":106.851577},{"transit":false,"i_long":106.85449,"line":2,"distance":824,"time":2,"station_name":"Duren Kalibata","station_id":"DRN","i_lat":-6.255332,"is_transit":false},{"station_name":"Cawang","i_long":106.856607,"distance":1546,"station_id":"CW","time":3,"is_transit":false,"transit":false,"i_lat":-6.242512,"line":2},{"station_name":"Tebet","i_long":106.857948,"is_transit":false,"transit":false,"i_lat":-6.226659,"station_id":"TEB","distance":1230,"line":2,"time":2},{"station_name":"Manggarai","line":2,"station_id":"MRI","i_lat":-6.209883,"i_long":106.84912,"distance":2610,"transit":false,"time":4,"is_transit":false},{"station_name":"Cikini","transit":false,"line":2,"distance":1590,"i_lat":-6.198556,"is_transit":false,"i_long":106.840169,"station_id":"CKI","time":4},{"transit":false,"time":3,"distance":1750,"i_lat":-6.186295,"i_long":106.832183,"station_id":"GDD","is_transit":false,"station_name":"Gondangdia","line":2},{"i_lat":-6.166716,"line":2,"station_id":"JUA","is_transit":false,"transit":false,"distance":2015,"station_name":"Juanda","time":4,"i_long":106.828284},{"is_transit":false,"time":2,"station_name":"Sawah Besar","station_id":"SW","i_lat":-6.160725,"i_long":106.827103,"line":2,"distance":1149,"transit":false},{"line":2,"distance":906,"transit":false,"i_long":106.82482,"time":2,"i_lat":-6.149769,"is_transit":false,"station_id":"MGB","station_name":"Manggabesar"},{"station_name":"Jayakarta","transit":false,"i_lat":-6.141205,"i_long":106.820901,"line":2,"station_id":"JAY","is_transit":false,"time":2,"distance":1080},{"station_id":"JAKK","is_transit":true,"transit":true,"station_name":"Jakarta Kota","i_long":106.812439,"line":2,"time":4,"distance":1264,"i_lat":-6.137569},{"station_name":"Kampung Bandan","transit":true,"time":3,"i_lat":-6.132549,"station_id":"KPB","is_transit":true,"i_long":106.826365,"distance":1364,"line":4},{"i_lat":-6.144674,"time":9,"is_transit":false,"line":1,"station_name":"Angke","station_id":"AK","i_long":106.79867,"distance":4102,"transit":false},{"is_transit":false,"i_lat":-6.155215,"time":4,"line":1,"transit":false,"station_id":"DU","station_name":"Duri","distance":1230,"i_long":106.800832}],[{"station_name":"Pasar Minggu Baru","station_id":"PSMB","transit":false,"i_lat":-6.263214,"i_long":106.851577,"is_transit":false,"distance":0,"time":0,"line":2},{"i_lat":-6.255332,"time":2,"distance":824,"i_long":106.85449,"station_name":"Duren Kalibata","is_transit":false,"station_id":"DRN","transit":false,"line":2},{"i_lat":-6.242512,"time":3,"transit":false,"is_transit":false,"i_long":106.856607,"distance":1546,"station_id":"CW","station_name":"Cawang","line":2},{"line":2,"is_transit":false,"time":2,"transit":false,"station_id":"TEB","distance":1230,"i_long":106.857948,"i_lat":-6.226659,"station_name":"Tebet"},{"is_transit":true,"i_long":106.84912,"time":4,"station_name":"Manggarai","transit":true,"distance":2610,"i_lat":-6.209883,"line":2,"station_id":"MRI"},{"time":2,"i_lat":-6.212485,"distance":1275,"i_long":106.858896,"is_transit":false,"station_name":"Matraman","station_id":"MTR","transit":false,"line":1},{"distance":1377,"i_lat":-6.215091,"is_transit":true,"time":8,"station_id":"JNG","transit":true,"station_name":"Jatinegara","i_long":106.86807400000001,"line":1},{"i_long":106.861737,"line":11,"distance":1236,"time":2,"station_id":"POK","is_transit":false,"transit":false,"i_lat":-6.209188,"station_name":"Pondok Jati"},{"time":2,"station_id":"KMT","line":11,"distance":1829,"is_transit":false,"station_name":"Kramat","transit":false,"i_lat":-6.193792,"i_long":106.855437},{"distance":973,"is_transit":false,"station_id":"GST","transit":false,"i_lat":-6.185975,"line":11,"station_name":"Gang Sentiong","time":1,"i_long":106.850107},{"station_id":"PSE","distance":1567,"i_long":106.84368,"time":8,"station_name":"Pasar Senen","is_transit":false,"i_lat":-6.174784,"line":11,"transit":false},{"line":11,"is_transit":false,"station_name":"Kemayoran","distance":1436,"station_id":"KMO","time":4,"transit":false,"i_lat":-6.161728,"i_long":106.839204},{"station_id":"RJW","time":5,"distance":1901,"is_transit":false,"i_lat":-6.14505,"transit":false,"station_name":"Rajawali","line":11,"i_long":106.836569},{"i_long":106.826365,"station_name":"Kampung Bandan","time":3,"station_id":"KPB","i_lat":-6.132549,"is_transit":true,"distance":1444,"transit":true,"line":4},{"i_lat":-6.144674,"distance":4102,"station_id":"AK","station_name":"Angke","i_long":106.79867,"is_transit":false,"time":9,"transit":false,"line":1},{"time":4,"line":1,"station_name":"Duri","station_id":"DU","is_transit":false,"distance":1230,"transit":false,"i_lat":-6.155215,"i_long":106.800832}]]}