{"data":[[{"is_transit":false,"station_id":"PSMB","transit":false,"time":0,"station_name":"Pasar Minggu Baru","i_lat":-6.263214,"i_long":106.851577,"line":2,"distance":0},{"i_long":106.85449,"distance":824,"station_id":"DRN","station_name":"Duren Kalibata","time":2,"is_transit":false,"line":2,"i_lat":-6.255332,"transit":false},{"is_transit":false,"transit":false,"station_id":"CW","station_name":"Cawang","line":2,"i_lat":-6.242512,"i_long":106.856607,"distance":1546,"time":3},{"i_lat":-6.226659,"line":2,"station_name":"Tebet","transit":false,"station_id":"TEB","is_transit":false,"time":2,"i_long":106.857948,"distance":1230},{"i_lat":-6.209883,"i_long":106.84912,"distance":2610,"line":2,"time":4,"is_transit":true,"transit":true,"station_name":"Manggarai","station_id":"MRI"},{"station_name":"Sudirman","line":1,"is_transit":false,"station_id":"SUD","time":4,"distance":3186,"i_long":106.822649,"transit":false,"i_lat":-6.202263},{"distance":280,"station_name":"Sudirman Baru","i_lat":-6.201433,"time":1,"station_id":"SUDB","is_transit":false,"transit":false,"i_long":106.819881,"line":1},{"transit":false,"i_long":106.816351,"line":1,"station_id":"KAT","i_lat":-6.20132,"is_transit":false,"time":1,"distance":471,"station_name":"Karet"},{"time":5,"station_id":"THB","is_transit":false,"i_long":106.811091,"line":1,"i_lat":-6.185545,"transit":false,"station_name":"Tanah Abang","distance":2029},{"station_name":"Duri","distance":3632,"i_long":106.800832,"station_id":"DU","i_lat":-6.155215,"time":8,"is_transit":true,"transit":true,"line":1},{"distance":1700,"time":3,"i_lat":-6.162021,"i_long":106.788277,"station_name":"Grogol","station_id":"GRG","line":5,"transit":false,"is_transit":false},{"i_lat":-6.161433,"line":5,"distance":2036,"station_name":"Pesing","i_long":106.771379,"time":2,"transit":false,"is_transit":false,"station_id":"PSG"},{"station_id":"TKO","time":2,"distance":1614,"transit":false,"i_lat":-6.1587309999999995,"i_long":106.756522,"is_transit":false,"line":5,"station_name":"Taman Kota"},{"transit":false,"distance":2334,"line":5,"i_long":106.737035,"time":2,"station_name":"Bojongindah","i_lat":-6.159876,"station_id":"BOI","is_transit":false},{"is_transit":false,"i_long":106.723064,"station_name":"Rawa Buaya","transit":false,"i_lat":-6.162758,"distance":1152,"station_id":"RW","line":5,"time":4},{"i_lat":-6.166068,"transit":false,"i_long":106.701612,"distance":2504,"time":3,"line":5,"station_id":"KDS","station_name":"Kalideres","is_transit":false},{"line":5,"distance":2548,"i_long":106.679458,"station_id":"PI","time":3,"is_transit":false,"i_lat":-6.169933,"transit":false,"station_name":"Poris"},{"station_name":"Batuceper","line":5,"time":3,"i_long":106.665036,"i_lat":-6.171811,"station_id":"BPR","is_transit":false,"transit":false,"distance":1834},{"transit":false,"time":3,"station_id":"THI","distance":2028,"station_name":"Tanah Tinggi","i_lat":-6.17331,"line":5,"i_long":106.64657,"is_transit":false}],[{"i_long":106.851577,"line":2,"transit":false,"station_name":"Pasar Minggu Baru","i_lat":-6.263214,"time":0,"distance":0,"is_transit":false,"station_id":"PSMB"},{"transit":false,"station_name":"Duren Kalibata","distance":824,"station_id":"DRN","i_long":106.85449,"i_lat":-6.255332,"line":2,"time":2,"is_transit":false},{"transit":false,"time":3,"i_long":106.856607,"station_name":"Cawang","line":2,"distance":1546,"station_id":"CW","is_transit":false,"i_lat":-6.242512},{"is_transit":false,"i_lat":-6.226659,"time":2,"station_id":"TEB","station_name":"Tebet","distance":1230,"transit":false,"i_long":106.857948,"line":2},{"time":4,"distance":2610,"station_name":"Manggarai","i_lat":-6.209883,"i_long":106.84912,"line":2,"transit":false,"is_transit":false,"station_id":"MRI"},{"line":2,"transit":false,"station_name":"Cikini","time":4,"station_id":"CKI","distance":1590,"is_transit":false,"i_long":106.840169,"i_lat":-6.198556},{"transit":false,"is_transit":false,"station_id":"GDD","station_name":"Gondangdia","time":3,"distance":1750,"i_lat":-6.186295,"line":2,"i_long":106.832183},{"line":2,"is_transit":false,"station_id":"JUA","transit":false,"i_lat":-6.166716,"i_long":106.828284,"station_name":"Juanda","distance":2015,"time":4},{"is_transit":false,"line":2,"time":2,"distance":1149,"transit":false,"station_name":"Sawah Besar","i_lat":-6.160725,"i_long":106.827103,"station_id":"SW"},{"line":2,"station_name":"Manggabesar","i_lat":-6.149769,"i_long":106.82482,"station_id":"MGB","transit":false,"time":2,"is_transit":false,"distance":906},{"station_id":"JAY","time":2,"station_name":"Jayakarta","line":2,"is_transit":false,"distance":1080,"transit":false,"i_long":106.820901,"i_lat":-6.141205},{"station_id":"JAKK","i_long":106.812439,"i_lat":-6.137569,"line":2,"distance":1264,"time":4,"is_transit":true,"transit":true,"station_name":"Jakarta Kota"},{"station_id":"KPB","line":4,"is_transit":true,"station_name":"Kampung Bandan","time":3,"i_long":106.826365,"i_lat":-6.132549,"distance":1364,"transit":true},{"station_id":"AK","time":9,"station_name":"Angke","line":1,"transit":false,"i_lat":-6.144674,"distance":4102,"is_transit":false,"i_long":106.79867},{"is_transit":true,"i_long":106.800832,"distance":1230,"transit":true,"i_lat":-6.155215,"station_id":"DU","time":4,"line":1,"station_name":"Duri"},{"distance":1700,"i_lat":-6.162021,"is_transit":false,"i_long":106.788277,"transit":false,"station_name":"Grogol","time":3,"station_id":"GRG","line":5},{"time":2,"transit":false,"station_id":"PSG","is_transit":false,"station_name":"Pesing","i_long":106.771379,"line":5,"distance":2036,"i_lat":-6.161433},{"is_transit":false,"transit":false,"time":2,"station_name":"Taman Kota","station_id":"TKO","line":5,"distance":1614,"i_lat":-6.1587309999999995,"i_long":106.756522},{"is_transit":false,"i_lat":-6.159876,"station_name":"Bojongindah","line":5,"time":2,"station_id":"BOI","distance":2334,"i_long":106.737035,"transit":false},{"time":4,"station_id":"RW","distance":1152,"station_name":"Rawa Buaya","line":5,"transit":false,"is_transit":false,"i_lat":-6.162758,"i_long":106.723064},{"is_transit":false,"station_id":"KDS","distance":2504,"i_lat":-6.166068,"i_long":106.701612,"line":5,"transit":false,"station_name":"Kalideres","time":3},{"line":5,"time":3,"transit":false,"distance":2548,"i_long":106.679458,"is_transit":false,"station_id":"PI","i_lat":-6.169933,"station_name":"Poris"},{"time":3,"station_name":"Batuceper","transit":false,"distance":1834,"i_long":106.665036,"is_transit":false,"station_id":"BPR","i_lat":-6.171811,"line":5},{"i_long":106.64657,"time":3,"station_id":"THI","i_lat":-6.17331,"is_transit":false,"transit":false,"station_name":"Tanah Tinggi","distance":2028,"line":5}],[{"i_lat":-6.263214,"distance":0,"time":0,"station_id":"PSMB","line":2,"transit":false,"i_long":106.851577,"station_name":"Pasar Minggu Baru","is_transit":false},{"is_transit":false,"station_id":"DRN","distance":824,"transit":false,"time":2,"station_name":"Duren Kalibata","i_lat":-6.255332,"line":2,"i_long":106.85449},{"station_name":"Cawang","time":3,"is_transit":false,"i_long":106.856607,"distance":1546,"transit":false,"station_id":"CW","i_lat":-6.242512,"line":2},{"station_name":"Tebet","i_lat":-6.226659,"distance":1230,"time":2,"i_long":106.857948,"transit":false,"station_id":"TEB","is_transit":false,"line":2},{"time":4,"station_id":"MRI","i_long":106.84912,"transit":true,"station_name":"Manggarai","i_lat":-6.209883,"is_transit":true,"line":2,"distance":2610},{"station_id":"MTR","time":2,"station_name":"Matraman","distance":1275,"is_transit":false,"line":1,"transit":false,"i_long":106.858896,"i_lat":-6.212485},{"station_id":"JNG","i_long":106.86807400000001,"time":8,"i_lat":-6.215091,"is_transit":true,"line":1,"transit":true,"station_name":"Jatinegara","distance":1377},{"is_transit":false,"line":11,"station_name":"Pondok Jati","transit":false,"distance":1236,"time":2,"i_lat":-6.209188,"i_long":106.861737,"station_id":"POK"},{"is_transit":false,"i_long":106.855437,"transit":false,"line":11,"station_id":"KMT","station_name":"Kramat","distance":1829,"i_lat":-6.193792,"time":2},{"line":11,"distance":973,"time":1,"transit":false,"station_name":"Gang Sentiong","is_transit":false,"i_lat":-6.185975,"i_long":106.850107,"station_id":"GST"},{"i_long":106.84368,"station_name":"Pasar Senen","distance":1567,"time":8,"line":11,"station_id":"PSE","is_transit":false,"i_lat":-6.174784,"transit":false},{"transit":false,"station_name":"Kemayoran","time":4,"is_transit":false,"station_id":"KMO","line":11,"i_lat":-6.161728,"distance":1436,"i_long":106.839204},{"i_lat":-6.14505,"line":11,"distance":1901,"transit":false,"is_transit":false,"station_id":"RJW","station_name":"Rajawali","i_long":106.836569,"time":5},{"is_transit":true,"i_lat":-6.132549,"station_id":"KPB","distance":1444,"i_long":106.826365,"station_name":"Kampung Bandan","time":3,"line":4,"transit":true},{"station_name":"Angke","line":1,"transit":false,"is_transit":false,"time":9,"station_id":"AK","i_lat":-6.144674,"i_long":106.79867,"distance":4102},{"distance":1230,"transit":true,"is_transit":true,"i_lat":-6.155215,"station_name":"Duri","line":1,"station_id":"DU","time":4,"i_long":106.800832},{"distance":1700,"transit":false,"line":5,"i_long":106.788277,"is_transit":false,"i_lat":-6.162021,"station_name":"Grogol","time":3,"station_id":"GRG"},{"station_id":"PSG","time":2,"transit":false,"i_lat":-6.161433,"i_long":106.771379,"line":5,"station_name":"Pesing","distance":2036,"is_transit":false},{"station_id":"TKO","distance":1614,"line":5,"time":2,"transit":false,"is_transit":false,"i_long":106.756522,"i_lat":-6.1587309999999995,"station_name":"Taman Kota"},{"is_transit":false,"i_lat":-6.159876,"transit":false,"i_long":106.737035,"distance":2334,"station_name":"Bojongindah","time":2,"station_id":"BOI","line":5},{"station_id":"RW","station_name":"Rawa Buaya","time":4,"i_long":106.723064,"line":5,"transit":false,"is_transit":false,"i_lat":-6.162758,"distance":1152},{"time":3,"distance":2504,"is_transit":false,"transit":false,"i_lat":-6.166068,"station_id":"KDS","station_name":"Kalideres","i_long":106.701612,"line":5},{"distance":2548,"station_name":"Poris","transit":false,"line":5,"i_long":106.679458,"is_transit":false,"i_lat":-6.169933,"time":3,"station_id":"PI"},{"line":5,"station_id":"BPR","distance":1834,"time":3,"i_lat":-6.171811,"station_name":"Batuceper","is_transit":false,"transit":false,"i_long":106.665036},{"distance":2028,"transit":false,"station_id":"THI","time":3,"line":5,"is_transit":false,"i_long":106.64657,"station_name":"Tanah Tinggi","i_lat":-6.17331}]]}