{"data":[[{"is_transit":false,"time":0,"transit":false,"i_long":106.851577,"distance":0,"i_lat":-6.263214,"line":2,"station_id":"PSMB","station_name":"Pasar Minggu Baru"},{"transit":false,"i_lat":-6.255332,"i_long":106.85449,"line":2,"station_id":"DRN","is_transit":false,"distance":824,"station_name":"Duren Kalibata","time":2},{"line":2,"station_id":"CW","is_transit":false,"transit":false,"station_name":"Cawang","i_lat":-6.242512,"distance":1546,"time":3,"i_long":106.856607},{"is_transit":false,"time":2,"station_name":"Tebet","line":2,"distance":1230,"transit":false,"station_id":"TEB","i_lat":-6.226659,"i_long":106.857948},{"time":4,"station_id":"MRI","station_name":"Manggarai","line":2,"is_transit":true,"i_long":106.84912,"i_lat":-6.209883,"distance":2610,"transit":true},{"station_id":"MTR","transit":false,"i_lat":-6.212485,"distance":1275,"i_long":106.858896,"is_transit":false,"line":1,"station_name":"Matraman","time":2},{"station_id":"JNG","transit":true,"station_name":"Jatinegara","i_long":106.86807400000001,"line":1,"is_transit":true,"time":8,"i_lat":-6.215091,"distance":1377},{"i_lat":-6.209188,"time":2,"transit":false,"station_name":"Pondok Jati","station_id":"POK","distance":1236,"line":11,"is_transit":false,"i_long":106.861737},{"i_lat":-6.193792,"is_transit":false,"time":2,"distance":1829,"station_name":"Kramat","i_long":106.855437,"station_id":"KMT","transit":false,"line":11},{"line":11,"i_long":106.850107,"distance":973,"is_transit":false,"transit":false,"time":1,"i_lat":-6.185975,"station_name":"Gang Sentiong","station_id":"GST"},{"transit":false,"distance":1567,"i_lat":-6.174784,"i_long":106.84368,"station_name":"Pasar Senen","line":11,"station_id":"PSE","is_transit":false,"time":8},{"i_lat":-6.161728,"is_transit":false,"distance":1436,"time":4,"station_id":"KMO","station_name":"Kemayoran","transit":false,"i_long":106.839204,"line":11},{"time":5,"station_id":"RJW","station_name":"Rajawali","is_transit":false,"i_long":106.836569,"transit":false,"distance":1901,"line":11,"i_lat":-6.14505}],[{"is_transit":false,"station_name":"Pasar Minggu Baru","time":0,"transit":false,"station_id":"PSMB","distance":0,"line":2,"i_long":106.851577,"i_lat":-6.263214},{"station_name":"Duren Kalibata","time":2,"is_transit":false,"i_lat":-6.255332,"station_id":"DRN","transit":false,"i_long":106.85449,"line":2,"distance":824},{"i_lat":-6.242512,"station_id":"CW","transit":false,"time":3,"i_long":106.856607,"distance":1546,"is_transit":false,"station_name":"Cawang","line":2},{"time":2,"transit":false,"is_transit":false,"i_lat":-6.226659,"i_long":106.857948,"line":2,"station_name":"Tebet","station_id":"TEB","distance":1230},{"time":4,"station_id":"MRI","line":2,"distance":2610,"transit":true,"i_long":106.84912,"i_lat":-6.209883,"station_name":"Manggarai","is_transit":true},{"transit":false,"station_name":"Sudirman","i_lat":-6.202263,"time":4,"distance":3186,"line":1,"station_id":"SUD","i_long":106.822649,"is_transit":false},{"is_transit":false,"station_name":"Sudirman Baru","distance":280,"time":1,"i_long":106.819881,"i_lat":-6.201433,"line":1,"station_id":"SUDB","transit":false},{"i_long":106.816351,"time":1,"is_transit":false,"transit":false,"station_name":"Karet","i_lat":-6.20132,"station_id":"KAT","line":1,"distance":471},{"distance":2029,"is_transit":false,"i_lat":-6.185545,"station_name":"Tanah Abang","station_id":"THB","line":1,"transit":false,"i_long":106.811091,"time":5},{"i_lat":-6.155215,"line":1,"station_name":"Duri","time":8,"is_transit":false,"station_id":"DU","transit":false,"i_long":106.800832,"distance":3632},{"i_lat":-6.144674,"time":4,"transit":false,"station_id":"AK","line":1,"station_name":"Angke","distance":1230,"is_transit":false,"i_long":106.79867},{"is_transit":true,"i_long":106.826365,"distance":4102,"station_name":"Kampung Bandan","time":9,"i_lat":-6.132549,"transit":true,"station_id":"KPB","line":4},{"station_id":"RJW","station_name":"Rajawali","i_long":106.836569,"line":11,"distance":1444,"i_lat":-6.14505,"transit":false,"time":3,"is_transit":false}],[{"time":0,"i_lat":-6.263214,"is_transit":false,"station_name":"Pasar Minggu Baru","distance":0,"station_id":"PSMB","transit":false,"i_long":106.851577,"line":2},{"i_long":106.85449,"is_transit":false,"i_lat":-6.255332,"station_id":"DRN","station_name":"Duren Kalibata","distance":824,"transit":false,"line":2,"time":2},{"is_transit":false,"station_name":"Cawang","line":2,"i_long":106.856607,"transit":false,"distance":1546,"time":3,"station_id":"CW","i_lat":-6.242512},{"transit":false,"i_long":106.857948,"station_name":"Tebet","line":2,"time":2,"station_id":"TEB","i_lat":-6.226659,"distance":1230,"is_transit":false},{"is_transit":false,"station_name":"Manggarai","distance":2610,"line":2,"transit":false,"station_id":"MRI","i_lat":-6.209883,"time":4,"i_long":106.84912},{"station_id":"CKI","is_transit":false,"time":4,"station_name":"Cikini","i_lat":-6.198556,"i_long":106.840169,"transit":false,"line":2,"distance":1590},{"distance":1750,"station_id":"GDD","is_transit":false,"station_name":"Gondangdia","transit":false,"i_lat":-6.186295,"line":2,"time":3,"i_long":106.832183},{"station_name":"Juanda","time":4,"i_lat":-6.166716,"station_id":"JUA","line":2,"is_transit":false,"distance":2015,"transit":false,"i_long":106.828284},{"station_name":"Sawah Besar","station_id":"SW","is_transit":false,"i_lat":-6.160725,"i_long":106.827103,"line":2,"time":2,"transit":false,"distance":1149},{"i_lat":-6.149769,"line":2,"transit":false,"distance":906,"is_transit":false,"time":2,"i_long":106.82482,"station_id":"MGB","station_name":"Manggabesar"},{"transit":false,"i_lat":-6.141205,"is_transit":false,"line":2,"station_name":"Jayakarta","i_long":106.820901,"distance":1080,"time":2,"station_id":"JAY"},{"distance":1264,"station_name":"Jakarta Kota","time":4,"i_lat":-6.137569,"line":2,"transit":true,"is_transit":true,"i_long":106.812439,"station_id":"JAKK"},{"i_lat":-6.132549,"i_long":106.826365,"transit":true,"time":3,"line":4,"station_name":"Kampung Bandan","station_id":"KPB","is_transit":true,"distance":1364},{"distance":1444,"is_transit":false,"line":11,"i_long":106.836569,"i_lat":-6.14505,"time":3,"transit":false,"station_id":"RJW","station_name":"Rajawali"}]]}