{"data":[[{"i_long":106.851577,"station_id":"PSMB","i_lat":-6.263214,"is_transit":false,"transit":false,"distance":0,"station_name":"Pasar Minggu Baru","line":2,"time":0},{"transit":false,"i_lat":-6.2842400000000005,"station_id":"PSM","station_name":"Pasar Minggu","time":2,"line":2,"distance":2380,"is_transit":false,"i_long":106.843999},{"transit":false,"station_name":"Tanjung Barat","i_lat":-6.3080680000000005,"station_id":"TNT","is_transit":false,"i_long":106.838896,"line":2,"distance":2820,"time":4},{"is_transit":false,"i_long":106.832616,"transit":false,"station_id":"LNA","station_name":"Lenteng Agung","i_lat":-6.330363,"distance":2671,"line":2,"time":3},{"station_id":"UP","station_name":"Univ. Pancasila","i_long":106.834175,"time":2,"i_lat":-6.339291,"distance":1029,"is_transit":false,"transit":false,"line":2},{"line":2,"is_transit":false,"station_id":"UI","time":3,"distance":2264,"i_lat":-6.360749,"station_name":"Univ. Indonesia","transit":false,"i_long":106.831474}]]}