{"data":[[{"i_lat":-6.263214,"is_transit":false,"station_name":"Pasar Minggu Baru","line":2,"transit":false,"station_id":"PSMB","i_long":106.851577,"distance":0,"time":0},{"distance":824,"is_transit":false,"i_long":106.85449,"i_lat":-6.255332,"line":0,"station_id":"DRN","time":2,"station_name":"Duren Kalibata","transit":false},{"distance":1546,"station_id":"CW","i_long":106.856607,"is_transit":false,"transit":false,"time":3,"line":0,"i_lat":-6.242512,"station_name":"Cawang"},{"is_transit":false,"station_name":"Tebet","station_id":"TEB","i_lat":-6.226659,"i_long":106.857948,"transit":false,"time":2,"distance":1230,"line":2},{"station_name":"Manggarai","time":4,"station_id":"MRI","i_lat":-6.209883,"transit":true,"i_long":106.84912,"is_transit":true,"distance":2610,"line":0},{"transit":false,"distance":3186,"is_transit":false,"station_name":"Sudirman","i_long":106.822649,"i_lat":-6.202263,"time":4,"station_id":"SUD","line":1},{"transit":false,"is_transit":false,"i_long":106.819881,"distance":280,"station_id":"SUDB","station_name":"Sudirman Baru","time":1,"i_lat":-6.201433,"line":1},{"station_id":"KAT","transit":false,"station_name":"Karet","i_lat":-6.20132,"i_long":106.816351,"is_transit":false,"time":1,"line":1,"distance":471},{"time":5,"i_long":106.811091,"station_name":"Tanah Abang","is_transit":true,"i_lat":-6.185545,"transit":true,"distance":2029,"line":1,"station_id":"THB"},{"transit":false,"station_id":"PLM","i_long":106.79689,"is_transit":false,"time":6,"station_name":"Palmerah","line":6,"i_lat":-6.207404,"distance":3191},{"is_transit":false,"station_name":"Kebayoran","i_long":106.780334,"transit":false,"distance":3737,"time":7,"station_id":"KBY","i_lat":-6.237242,"line":6},{"station_name":"Pondokranji","is_transit":false,"time":8,"i_long":106.74273,"i_lat":-6.276362,"transit":false,"station_id":"PDJ","line":6,"distance":6218},{"i_long":106.728916,"i_lat":-6.288927,"time":3,"station_name":"Jurangmangu","distance":2179,"is_transit":false,"station_id":"JMU","transit":false,"line":6},{"i_long":106.712277,"transit":false,"line":6,"station_id":"SDM","distance":1994,"is_transit":false,"time":4,"i_lat":-6.296963,"station_name":"Sudimara"},{"station_id":"RU","station_name":"Rawa Buntu","is_transit":false,"time":6,"i_lat":-6.314823,"distance":4566,"i_long":106.675475,"line":6,"transit":false},{"i_lat":-6.319871,"transit":false,"is_transit":false,"distance":2413,"station_name":"Serpong","time":4,"line":6,"station_id":"SRP","i_long":106.66566},{"i_long":106.640411,"station_id":"CSK","station_name":"Cisauk","distance":1784,"i_lat":-6.32484,"line":0,"time":4,"transit":false,"is_transit":false},{"station_id":"CC","transit":false,"i_long":106.617853,"is_transit":false,"station_name":"Cicayur","time":4,"distance":2519,"i_lat":-6.329547,"line":0},{"station_name":"Parung Panjang","is_transit":false,"transit":false,"i_lat":-6.3441410000000005,"i_long":106.568863,"station_id":"PRP","line":6,"time":8,"distance":5968},{"station_name":"Cilejit","time":9,"is_transit":false,"station_id":"CJT","i_lat":-6.354349,"distance":7025,"i_long":106.508482,"line":0,"transit":false},{"i_long":106.491338,"i_lat":-6.338021,"line":0,"station_id":"DAR","is_transit":false,"transit":false,"distance":2675,"time":6,"station_name":"Daru"},{"station_id":"TEJ","transit":false,"i_lat":-6.327251,"distance":3902,"is_transit":false,"station_name":"Tenjo","time":5,"i_long":106.460812,"line":6},{"time":5,"line":6,"is_transit":false,"transit":false,"i_long":106.425991,"station_id":"TGS","i_lat":-6.328533,"distance":2974,"station_name":"Tigaraksa"},{"distance":2651,"line":0,"station_id":"CKY","time":3,"i_lat":-6.33561,"station_name":"Cikoya","is_transit":false,"transit":false,"i_long":106.411216},{"i_long":106.394373,"distance":1853,"station_id":"MJ","is_transit":false,"transit":false,"i_lat":-6.332307,"time":4,"station_name":"Maja","line":6},{"transit":false,"station_name":"Citeras","time":10,"i_lat":-6.334892,"is_transit":false,"station_id":"CTR","i_long":106.332092,"line":0,"distance":7293},{"is_transit":true,"station_id":"RK","station_name":"Rangkasbitung","distance":9847,"transit":false,"time":13,"i_long":106.250396,"i_lat":-6.352675,"line":0}],[{"time":0,"distance":0,"station_id":"PSMB","i_long":106.851577,"station_name":"Pasar Minggu Baru","i_lat":-6.263214,"transit":false,"is_transit":false,"line":2},{"is_transit":false,"line":0,"transit":false,"distance":824,"station_name":"Duren Kalibata","i_long":106.85449,"station_id":"DRN","time":2,"i_lat":-6.255332},{"transit":false,"station_name":"Cawang","distance":1546,"station_id":"CW","time":3,"i_long":106.856607,"is_transit":false,"i_lat":-6.242512,"line":0},{"distance":1230,"is_transit":false,"transit":false,"station_name":"Tebet","station_id":"TEB","i_lat":-6.226659,"line":2,"time":2,"i_long":106.857948},{"is_transit":true,"i_lat":-6.209883,"i_long":106.84912,"station_id":"MRI","distance":2610,"transit":true,"station_name":"Manggarai","time":4,"line":0},{"distance":1590,"i_lat":-6.198556,"line":0,"transit":false,"is_transit":false,"time":4,"station_id":"CKI","station_name":"Cikini","i_long":106.840169},{"station_name":"Gondangdia","line":2,"station_id":"GDD","transit":false,"is_transit":false,"i_lat":-6.186295,"distance":1750,"time":3,"i_long":106.832183},{"i_lat":-6.166716,"station_name":"Juanda","i_long":106.828284,"line":2,"time":4,"station_id":"JUA","is_transit":false,"transit":false,"distance":2015},{"station_id":"SW","station_name":"Sawah Besar","transit":false,"is_transit":false,"time":2,"i_lat":-6.160725,"line":2,"distance":1149,"i_long":106.827103},{"transit":false,"is_transit":false,"station_name":"Manggabesar","line":2,"i_long":106.82482,"station_id":"MGB","time":2,"i_lat":-6.149769,"distance":906},{"i_lat":-6.141205,"distance":1080,"time":2,"station_id":"JAY","station_name":"Jayakarta","transit":false,"i_long":106.820901,"is_transit":false,"line":7},{"line":0,"distance":1264,"transit":true,"station_id":"JAKK","i_long":106.812439,"i_lat":-6.137569,"time":4,"is_transit":true,"station_name":"Jakarta Kota"},{"i_long":106.826365,"transit":false,"distance":1364,"station_id":"KPB","is_transit":true,"time":3,"i_lat":-6.132549,"station_name":"Kampung Bandan","line":0},{"i_long":106.79867,"transit":false,"is_transit":false,"i_lat":-6.144674,"line":0,"station_id":"AK","distance":4102,"station_name":"Angke","time":9},{"station_name":"Duri","is_transit":true,"i_long":106.800832,"transit":true,"station_id":"DU","i_lat":-6.155215,"time":4,"line":1,"distance":1230},{"time":8,"i_long":106.811091,"line":1,"station_name":"Tanah Abang","distance":3632,"station_id":"THB","i_lat":-6.185545,"is_transit":true,"transit":true},{"is_transit":false,"station_name":"Palmerah","distance":3191,"transit":false,"time":6,"i_lat":-6.207404,"line":6,"station_id":"PLM","i_long":106.79689},{"station_name":"Kebayoran","transit":false,"i_long":106.780334,"distance":3737,"time":7,"i_lat":-6.237242,"station_id":"KBY","line":6,"is_transit":false},{"line":6,"distance":6218,"time":8,"i_lat":-6.276362,"station_name":"Pondokranji","i_long":106.74273,"station_id":"PDJ","is_transit":false,"transit":false},{"station_name":"Jurangmangu","distance":2179,"station_id":"JMU","transit":false,"i_lat":-6.288927,"i_long":106.728916,"time":3,"is_transit":false,"line":6},{"is_transit":false,"i_lat":-6.296963,"time":4,"i_long":106.712277,"distance":1994,"station_id":"SDM","station_name":"Sudimara","transit":false,"line":6},{"is_transit":false,"transit":false,"station_id":"RU","distance":4566,"i_long":106.675475,"line":6,"station_name":"Rawa Buntu","time":6,"i_lat":-6.314823},{"is_transit":false,"i_long":106.66566,"distance":2413,"station_id":"SRP","station_name":"Serpong","transit":false,"line":6,"time":4,"i_lat":-6.319871},{"distance":1784,"time":4,"transit":false,"i_long":106.640411,"station_name":"Cisauk","i_lat":-6.32484,"station_id":"CSK","is_transit":false,"line":0},{"is_transit":false,"i_lat":-6.329547,"time":4,"station_name":"Cicayur","transit":false,"i_long":106.617853,"line":0,"distance":2519,"station_id":"CC"},{"distance":5968,"station_name":"Parung Panjang","time":8,"transit":false,"is_transit":false,"i_lat":-6.3441410000000005,"i_long":106.568863,"line":6,"station_id":"PRP"},{"line":0,"i_long":106.508482,"transit":false,"time":9,"station_name":"Cilejit","i_lat":-6.354349,"station_id":"CJT","distance":7025,"is_transit":false},{"i_lat":-6.338021,"station_id":"DAR","station_name":"Daru","transit":false,"time":6,"i_long":106.491338,"line":0,"distance":2675,"is_transit":false},{"distance":3902,"time":5,"i_long":106.460812,"line":6,"i_lat":-6.327251,"is_transit":false,"station_id":"TEJ","station_name":"Tenjo","transit":false},{"i_long":106.425991,"time":5,"i_lat":-6.328533,"station_id":"TGS","line":6,"distance":2974,"transit":false,"is_transit":false,"station_name":"Tigaraksa"},{"is_transit":false,"station_id":"CKY","line":0,"distance":2651,"transit":false,"i_long":106.411216,"i_lat":-6.33561,"station_name":"Cikoya","time":3},{"station_name":"Maja","i_lat":-6.332307,"distance":1853,"i_long":106.394373,"time":4,"is_transit":false,"station_id":"MJ","line":6,"transit":false},{"i_long":106.332092,"transit":false,"line":0,"station_name":"Citeras","is_transit":false,"distance":7293,"time":10,"i_lat":-6.334892,"station_id":"CTR"},{"i_lat":-6.352675,"station_id":"RK","station_name":"Rangkasbitung","time":13,"line":0,"distance":9847,"is_transit":true,"transit":false,"i_long":106.250396}],[{"station_id":"PSMB","is_transit":false,"i_lat":-6.263214,"transit":false,"time":0,"distance":0,"i_long":106.851577,"station_name":"Pasar Minggu Baru","line":2},{"i_lat":-6.255332,"line":0,"transit":false,"time":2,"station_id":"DRN","station_name":"Duren Kalibata","distance":824,"is_transit":false,"i_long":106.85449},{"line":0,"station_id":"CW","time":3,"i_lat":-6.242512,"distance":1546,"is_transit":false,"station_name":"Cawang","i_long":106.856607,"transit":false},{"distance":1230,"i_long":106.857948,"time":2,"i_lat":-6.226659,"line":2,"is_transit":false,"station_id":"TEB","transit":false,"station_name":"Tebet"},{"transit":true,"distance":2610,"is_transit":true,"i_long":106.84912,"i_lat":-6.209883,"station_name":"Manggarai","time":4,"station_id":"MRI","line":0},{"is_transit":false,"station_id":"MTR","transit":false,"i_long":106.858896,"i_lat":-6.212485,"line":1,"station_name":"Matraman","time":2,"distance":1275},{"station_name":"Jatinegara","i_lat":-6.215091,"transit":true,"i_long":106.86807400000001,"station_id":"JNG","line":0,"time":8,"distance":1377,"is_transit":true},{"line":11,"distance":1236,"station_name":"Pondok Jati","time":2,"i_long":106.861737,"i_lat":-6.209188,"is_transit":false,"station_id":"POK","transit":false},{"i_lat":-6.193792,"transit":false,"is_transit":false,"station_id":"KMT","line":11,"distance":1829,"station_name":"Kramat","time":2,"i_long":106.855437},{"station_name":"Gang Sentiong","time":1,"i_lat":-6.185975,"i_long":106.850107,"is_transit":false,"line":11,"station_id":"GST","transit":false,"distance":973},{"transit":false,"is_transit":false,"distance":1567,"i_long":106.84368,"station_id":"PSE","station_name":"Pasar Senen","line":11,"time":8,"i_lat":-6.174784},{"distance":1436,"transit":false,"time":4,"i_long":106.839204,"is_transit":false,"station_name":"Kemayoran","line":11,"i_lat":-6.161728,"station_id":"KMO"},{"line":11,"is_transit":false,"station_id":"RJW","i_long":106.836569,"i_lat":-6.14505,"distance":1901,"station_name":"Rajawali","transit":false,"time":5},{"station_id":"KPB","time":3,"i_long":106.826365,"i_lat":-6.132549,"is_transit":true,"line":0,"distance":1444,"station_name":"Kampung Bandan","transit":true},{"is_transit":false,"transit":false,"station_id":"AK","i_long":106.79867,"line":0,"distance":4102,"station_name":"Angke","i_lat":-6.144674,"time":9},{"station_name":"Duri","time":4,"i_lat":-6.155215,"distance":1230,"station_id":"DU","line":1,"i_long":106.800832,"transit":true,"is_transit":true},{"distance":3632,"station_id":"THB","transit":true,"station_name":"Tanah Abang","time":8,"i_long":106.811091,"line":1,"is_transit":true,"i_lat":-6.185545},{"transit":false,"station_name":"Palmerah","station_id":"PLM","i_lat":-6.207404,"i_long":106.79689,"line":6,"time":6,"distance":3191,"is_transit":false},{"transit":false,"i_lat":-6.237242,"station_name":"Kebayoran","time":7,"i_long":106.780334,"distance":3737,"line":6,"is_transit":false,"station_id":"KBY"},{"station_name":"Pondokranji","i_long":106.74273,"distance":6218,"is_transit":false,"transit":false,"time":8,"i_lat":-6.276362,"line":6,"station_id":"PDJ"},{"time":3,"i_lat":-6.288927,"line":6,"distance":2179,"i_long":106.728916,"station_id":"JMU","is_transit":false,"transit":false,"station_name":"Jurangmangu"},{"line":6,"time":4,"transit":false,"i_lat":-6.296963,"i_long":106.712277,"station_name":"Sudimara","distance":1994,"station_id":"SDM","is_transit":false},{"station_id":"RU","distance":4566,"transit":false,"i_lat":-6.314823,"time":6,"is_transit":false,"i_long":106.675475,"line":6,"station_name":"Rawa Buntu"},{"transit":false,"i_lat":-6.319871,"i_long":106.66566,"line":6,"time":4,"station_name":"Serpong","station_id":"SRP","distance":2413,"is_transit":false},{"distance":1784,"is_transit":false,"station_name":"Cisauk","time":4,"i_long":106.640411,"station_id":"CSK","i_lat":-6.32484,"line":0,"transit":false},{"i_long":106.617853,"line":0,"station_name":"Cicayur","station_id":"CC","time":4,"is_transit":false,"transit":false,"i_lat":-6.329547,"distance":2519},{"transit":false,"station_id":"PRP","line":6,"is_transit":false,"i_long":106.568863,"distance":5968,"i_lat":-6.3441410000000005,"station_name":"Parung Panjang","time":8},{"is_transit":false,"station_name":"Cilejit","i_long":106.508482,"distance":7025,"station_id":"CJT","i_lat":-6.354349,"line":0,"transit":false,"time":9},{"station_name":"Daru","line":0,"distance":2675,"is_transit":false,"i_long":106.491338,"time":6,"transit":false,"i_lat":-6.338021,"station_id":"DAR"},{"station_id":"TEJ","i_lat":-6.327251,"time":5,"line":6,"i_long":106.460812,"transit":false,"is_transit":false,"distance":3902,"station_name":"Tenjo"},{"time":5,"i_long":106.425991,"is_transit":false,"distance":2974,"transit":false,"station_id":"TGS","station_name":"Tigaraksa","line":6,"i_lat":-6.328533},{"is_transit":false,"transit":false,"time":3,"line":0,"i_lat":-6.33561,"station_id":"CKY","i_long":106.411216,"distance":2651,"station_name":"Cikoya"},{"transit":false,"i_long":106.394373,"is_transit":false,"station_id":"MJ","time":4,"station_name":"Maja","distance":1853,"i_lat":-6.332307,"line":6},{"i_long":106.332092,"distance":7293,"i_lat":-6.334892,"is_transit":false,"station_name":"Citeras","station_id":"CTR","transit":false,"line":0,"time":10},{"time":13,"i_long":106.250396,"station_name":"Rangkasbitung","transit":false,"line":0,"distance":9847,"is_transit":true,"i_lat":-6.352675,"station_id":"RK"}]]}