{"data":[[{"i_lat":-6.263214,"time":0,"i_long":106.851577,"station_name":"Pasar Minggu Baru","transit":false,"is_transit":false,"distance":0,"station_id":"PSMB","line":2},{"i_lat":-6.255332,"station_name":"Duren Kalibata","is_transit":false,"distance":824,"time":2,"station_id":"DRN","transit":false,"i_long":106.85449,"line":2},{"distance":1546,"i_lat":-6.242512,"is_transit":false,"station_name":"Cawang","station_id":"CW","line":2,"transit":false,"time":3,"i_long":106.856607},{"i_long":106.857948,"time":2,"distance":1230,"is_transit":false,"i_lat":-6.226659,"station_name":"Tebet","line":2,"station_id":"TEB","transit":false},{"time":4,"distance":2610,"transit":true,"station_name":"Manggarai","is_transit":true,"line":2,"station_id":"MRI","i_long":106.84912,"i_lat":-6.209883},{"station_name":"Sudirman","distance":3186,"line":1,"station_id":"SUD","transit":false,"time":4,"i_lat":-6.202263,"i_long":106.822649,"is_transit":false},{"line":1,"station_id":"SUDB","is_transit":false,"transit":false,"station_name":"Sudirman Baru","time":1,"i_lat":-6.201433,"i_long":106.819881,"distance":280},{"transit":false,"line":1,"is_transit":false,"distance":471,"station_name":"Karet","i_long":106.816351,"i_lat":-6.20132,"time":1,"station_id":"KAT"},{"is_transit":true,"i_long":106.811091,"i_lat":-6.185545,"station_name":"Tanah Abang","transit":true,"distance":2029,"time":5,"station_id":"THB","line":1},{"i_long":106.79689,"is_transit":false,"station_name":"Palmerah","transit":false,"i_lat":-6.207404,"line":6,"time":6,"station_id":"PLM","distance":3191},{"is_transit":false,"transit":false,"station_name":"Kebayoran","station_id":"KBY","i_lat":-6.237242,"distance":3737,"i_long":106.780334,"line":6,"time":7},{"line":6,"i_long":106.74273,"i_lat":-6.276362,"time":8,"station_id":"PDJ","station_name":"Pondokranji","is_transit":false,"distance":6218,"transit":false},{"line":6,"is_transit":false,"i_lat":-6.288927,"station_id":"JMU","station_name":"Jurangmangu","i_long":106.728916,"transit":false,"distance":2179,"time":3},{"station_id":"SDM","time":4,"transit":false,"line":6,"distance":1994,"station_name":"Sudimara","i_long":106.712277,"i_lat":-6.296963,"is_transit":false},{"distance":4566,"i_lat":-6.314823,"station_id":"RU","is_transit":false,"station_name":"Rawa Buntu","i_long":106.675475,"line":6,"time":6,"transit":false},{"line":6,"time":4,"transit":false,"i_lat":-6.319871,"distance":2413,"station_name":"Serpong","i_long":106.66566,"is_transit":false,"station_id":"SRP"},{"line":3,"station_name":"Cisauk","station_id":"CSK","i_long":106.640411,"time":4,"transit":false,"distance":1784,"i_lat":-6.32484,"is_transit":false},{"station_name":"Cicayur","station_id":"CC","is_transit":false,"time":4,"i_long":106.617853,"i_lat":-6.329547,"transit":false,"line":3,"distance":2519},{"is_transit":false,"time":8,"i_long":106.568863,"line":6,"distance":5968,"i_lat":-6.3441410000000005,"transit":false,"station_id":"PRP","station_name":"Parung Panjang"},{"line":3,"time":9,"i_lat":-6.354349,"station_id":"CJT","transit":false,"station_name":"Cilejit","is_transit":false,"distance":7025,"i_long":106.508482},{"station_name":"Daru","i_long":106.491338,"i_lat":-6.338021,"transit":false,"time":6,"line":0,"station_id":"DAR","is_transit":false,"distance":2675},{"transit":false,"i_long":106.460812,"is_transit":false,"station_name":"Tenjo","distance":3902,"station_id":"TEJ","i_lat":-6.327251,"line":6,"time":5},{"distance":2974,"line":6,"time":5,"i_lat":-6.328533,"station_name":"Tigaraksa","i_long":106.425991,"transit":false,"station_id":"TGS","is_transit":false},{"i_lat":-6.33561,"time":3,"station_id":"CKY","distance":2651,"line":3,"is_transit":false,"station_name":"Cikoya","i_long":106.411216,"transit":false},{"station_name":"Maja","station_id":"MJ","transit":false,"time":4,"is_transit":false,"i_lat":-6.332307,"distance":1853,"i_long":106.394373,"line":6},{"time":10,"station_name":"Citeras","line":3,"station_id":"CTR","transit":false,"is_transit":false,"distance":7293,"i_lat":-6.334892,"i_long":106.332092},{"is_transit":false,"station_id":"RK","transit":false,"station_name":"Rangkasbitung","time":13,"distance":9847,"i_lat":-6.352675,"i_long":106.250396,"line":3}],[{"i_long":106.851577,"line":2,"distance":0,"time":0,"station_name":"Pasar Minggu Baru","station_id":"PSMB","is_transit":false,"transit":false,"i_lat":-6.263214},{"distance":824,"i_long":106.85449,"transit":false,"station_id":"DRN","is_transit":false,"time":2,"station_name":"Duren Kalibata","i_lat":-6.255332,"line":2},{"station_name":"Cawang","i_long":106.856607,"transit":false,"station_id":"CW","distance":1546,"line":2,"is_transit":false,"time":3,"i_lat":-6.242512},{"station_id":"TEB","i_lat":-6.226659,"is_transit":false,"distance":1230,"time":2,"station_name":"Tebet","i_long":106.857948,"transit":false,"line":2},{"time":4,"distance":2610,"i_long":106.84912,"line":2,"transit":false,"station_id":"MRI","is_transit":false,"station_name":"Manggarai","i_lat":-6.209883},{"i_long":106.840169,"time":4,"i_lat":-6.198556,"is_transit":false,"station_name":"Cikini","distance":1590,"station_id":"CKI","transit":false,"line":2},{"transit":false,"line":2,"time":3,"distance":1750,"i_long":106.832183,"station_name":"Gondangdia","station_id":"GDD","is_transit":false,"i_lat":-6.186295},{"station_name":"Juanda","transit":false,"station_id":"JUA","is_transit":false,"time":4,"i_long":106.828284,"line":2,"i_lat":-6.166716,"distance":2015},{"time":2,"station_name":"Sawah Besar","transit":false,"station_id":"SW","distance":1149,"line":2,"is_transit":false,"i_lat":-6.160725,"i_long":106.827103},{"transit":false,"time":2,"i_lat":-6.149769,"is_transit":false,"line":2,"station_name":"Manggabesar","station_id":"MGB","distance":906,"i_long":106.82482},{"i_long":106.820901,"i_lat":-6.141205,"is_transit":false,"distance":1080,"transit":false,"station_id":"JAY","time":2,"line":2,"station_name":"Jayakarta"},{"distance":1264,"line":2,"station_name":"Jakarta Kota","transit":true,"is_transit":true,"i_long":106.812439,"i_lat":-6.137569,"station_id":"JAKK","time":4},{"station_name":"Kampung Bandan","station_id":"KPB","time":3,"line":4,"i_long":106.826365,"transit":true,"distance":1364,"is_transit":true,"i_lat":-6.132549},{"is_transit":false,"transit":false,"distance":4102,"station_id":"AK","station_name":"Angke","i_lat":-6.144674,"i_long":106.79867,"line":1,"time":9},{"distance":1230,"i_long":106.800832,"is_transit":false,"transit":false,"line":1,"station_id":"DU","time":4,"station_name":"Duri","i_lat":-6.155215},{"i_lat":-6.185545,"station_name":"Tanah Abang","time":8,"i_long":106.811091,"transit":true,"is_transit":true,"line":1,"station_id":"THB","distance":3632},{"transit":false,"i_long":106.79689,"station_id":"PLM","line":6,"distance":3191,"i_lat":-6.207404,"is_transit":false,"time":6,"station_name":"Palmerah"},{"time":7,"transit":false,"is_transit":false,"distance":3737,"station_id":"KBY","i_lat":-6.237242,"line":6,"station_name":"Kebayoran","i_long":106.780334},{"transit":false,"distance":6218,"line":6,"time":8,"i_lat":-6.276362,"station_id":"PDJ","i_long":106.74273,"station_name":"Pondokranji","is_transit":false},{"transit":false,"line":6,"station_id":"JMU","time":3,"i_lat":-6.288927,"station_name":"Jurangmangu","is_transit":false,"distance":2179,"i_long":106.728916},{"station_id":"SDM","is_transit":false,"time":4,"distance":1994,"line":6,"station_name":"Sudimara","i_lat":-6.296963,"transit":false,"i_long":106.712277},{"transit":false,"i_long":106.675475,"station_name":"Rawa Buntu","time":6,"distance":4566,"station_id":"RU","is_transit":false,"i_lat":-6.314823,"line":6},{"transit":false,"distance":2413,"time":4,"station_id":"SRP","i_lat":-6.319871,"i_long":106.66566,"line":6,"is_transit":false,"station_name":"Serpong"},{"i_lat":-6.32484,"line":3,"is_transit":false,"distance":1784,"transit":false,"time":4,"i_long":106.640411,"station_name":"Cisauk","station_id":"CSK"},{"transit":false,"line":3,"time":4,"distance":2519,"is_transit":false,"station_id":"CC","i_long":106.617853,"i_lat":-6.329547,"station_name":"Cicayur"},{"line":6,"transit":false,"is_transit":false,"time":8,"distance":5968,"station_id":"PRP","station_name":"Parung Panjang","i_lat":-6.3441410000000005,"i_long":106.568863},{"is_transit":false,"time":9,"i_lat":-6.354349,"transit":false,"station_id":"CJT","i_long":106.508482,"station_name":"Cilejit","line":3,"distance":7025},{"transit":false,"station_id":"DAR","distance":2675,"i_lat":-6.338021,"line":0,"is_transit":false,"station_name":"Daru","time":6,"i_long":106.491338},{"time":5,"transit":false,"line":6,"station_name":"Tenjo","station_id":"TEJ","distance":3902,"i_long":106.460812,"is_transit":false,"i_lat":-6.327251},{"is_transit":false,"transit":false,"time":5,"i_lat":-6.328533,"distance":2974,"station_name":"Tigaraksa","station_id":"TGS","line":6,"i_long":106.425991},{"station_id":"CKY","line":3,"i_lat":-6.33561,"station_name":"Cikoya","is_transit":false,"transit":false,"distance":2651,"i_long":106.411216,"time":3},{"is_transit":false,"time":4,"distance":1853,"i_long":106.394373,"line":6,"station_name":"Maja","station_id":"MJ","i_lat":-6.332307,"transit":false},{"i_long":106.332092,"line":3,"transit":false,"station_id":"CTR","time":10,"station_name":"Citeras","is_transit":false,"distance":7293,"i_lat":-6.334892},{"station_name":"Rangkasbitung","line":3,"i_long":106.250396,"transit":false,"time":13,"station_id":"RK","is_transit":false,"distance":9847,"i_lat":-6.352675}],[{"line":2,"is_transit":false,"station_name":"Pasar Minggu Baru","i_lat":-6.263214,"time":0,"transit":false,"station_id":"PSMB","distance":0,"i_long":106.851577},{"is_transit":false,"station_name":"Duren Kalibata","line":2,"station_id":"DRN","transit":false,"time":2,"distance":824,"i_lat":-6.255332,"i_long":106.85449},{"time":3,"i_long":106.856607,"line":2,"distance":1546,"transit":false,"i_lat":-6.242512,"is_transit":false,"station_name":"Cawang","station_id":"CW"},{"station_name":"Tebet","time":2,"transit":false,"distance":1230,"i_lat":-6.226659,"i_long":106.857948,"station_id":"TEB","line":2,"is_transit":false},{"station_name":"Manggarai","is_transit":true,"i_long":106.84912,"station_id":"MRI","time":4,"distance":2610,"line":2,"i_lat":-6.209883,"transit":true},{"time":2,"distance":1275,"is_transit":false,"i_lat":-6.212485,"line":1,"i_long":106.858896,"station_name":"Matraman","transit":false,"station_id":"MTR"},{"station_name":"Jatinegara","is_transit":true,"i_long":106.86807400000001,"distance":1377,"time":8,"line":1,"transit":true,"i_lat":-6.215091,"station_id":"JNG"},{"distance":1236,"i_long":106.861737,"line":11,"station_id":"POK","station_name":"Pondok Jati","transit":false,"is_transit":false,"time":2,"i_lat":-6.209188},{"station_id":"KMT","distance":1829,"i_long":106.855437,"i_lat":-6.193792,"line":11,"time":2,"station_name":"Kramat","is_transit":false,"transit":false},{"transit":false,"station_id":"GST","time":1,"i_long":106.850107,"line":11,"is_transit":false,"i_lat":-6.185975,"distance":973,"station_name":"Gang Sentiong"},{"transit":false,"station_name":"Pasar Senen","is_transit":false,"i_lat":-6.174784,"line":11,"time":8,"i_long":106.84368,"distance":1567,"station_id":"PSE"},{"station_name":"Kemayoran","distance":1436,"line":11,"time":4,"is_transit":false,"station_id":"KMO","i_long":106.839204,"i_lat":-6.161728,"transit":false},{"distance":1901,"line":11,"station_name":"Rajawali","time":5,"station_id":"RJW","i_lat":-6.14505,"transit":false,"is_transit":false,"i_long":106.836569},{"transit":true,"station_name":"Kampung Bandan","i_lat":-6.132549,"distance":1444,"station_id":"KPB","is_transit":true,"line":4,"time":3,"i_long":106.826365},{"station_id":"AK","i_long":106.79867,"transit":false,"line":1,"i_lat":-6.144674,"station_name":"Angke","is_transit":false,"distance":4102,"time":9},{"station_id":"DU","i_lat":-6.155215,"distance":1230,"time":4,"station_name":"Duri","transit":false,"i_long":106.800832,"line":1,"is_transit":false},{"distance":3632,"is_transit":true,"i_long":106.811091,"station_name":"Tanah Abang","line":1,"time":8,"station_id":"THB","i_lat":-6.185545,"transit":true},{"line":6,"station_id":"PLM","is_transit":false,"transit":false,"i_lat":-6.207404,"i_long":106.79689,"time":6,"station_name":"Palmerah","distance":3191},{"station_name":"Kebayoran","is_transit":false,"i_long":106.780334,"i_lat":-6.237242,"line":6,"station_id":"KBY","distance":3737,"transit":false,"time":7},{"is_transit":false,"transit":false,"time":8,"i_long":106.74273,"line":6,"distance":6218,"station_id":"PDJ","station_name":"Pondokranji","i_lat":-6.276362},{"is_transit":false,"station_name":"Jurangmangu","station_id":"JMU","distance":2179,"time":3,"i_long":106.728916,"line":6,"i_lat":-6.288927,"transit":false},{"i_lat":-6.296963,"i_long":106.712277,"distance":1994,"is_transit":false,"time":4,"line":6,"transit":false,"station_id":"SDM","station_name":"Sudimara"},{"line":6,"station_id":"RU","transit":false,"distance":4566,"i_long":106.675475,"station_name":"Rawa Buntu","time":6,"i_lat":-6.314823,"is_transit":false},{"station_name":"Serpong","station_id":"SRP","is_transit":false,"time":4,"distance":2413,"i_lat":-6.319871,"transit":false,"i_long":106.66566,"line":6},{"i_lat":-6.32484,"is_transit":false,"time":4,"i_long":106.640411,"transit":false,"station_name":"Cisauk","line":3,"station_id":"CSK","distance":1784},{"transit":false,"time":4,"i_lat":-6.329547,"line":3,"station_name":"Cicayur","is_transit":false,"station_id":"CC","distance":2519,"i_long":106.617853},{"station_name":"Parung Panjang","time":8,"line":6,"is_transit":false,"transit":false,"distance":5968,"i_lat":-6.3441410000000005,"station_id":"PRP","i_long":106.568863},{"transit":false,"station_id":"CJT","distance":7025,"is_transit":false,"time":9,"i_lat":-6.354349,"i_long":106.508482,"line":3,"station_name":"Cilejit"},{"transit":false,"line":0,"station_id":"DAR","distance":2675,"is_transit":false,"i_lat":-6.338021,"station_name":"Daru","i_long":106.491338,"time":6},{"station_id":"TEJ","station_name":"Tenjo","time":5,"i_lat":-6.327251,"i_long":106.460812,"is_transit":false,"line":6,"transit":false,"distance":3902},{"i_long":106.425991,"station_id":"TGS","line":6,"i_lat":-6.328533,"distance":2974,"is_transit":false,"time":5,"station_name":"Tigaraksa","transit":false},{"station_id":"CKY","transit":false,"distance":2651,"line":3,"station_name":"Cikoya","i_lat":-6.33561,"i_long":106.411216,"is_transit":false,"time":3},{"line":6,"i_lat":-6.332307,"station_id":"MJ","distance":1853,"station_name":"Maja","transit":false,"i_long":106.394373,"time":4,"is_transit":false},{"line":3,"i_lat":-6.334892,"is_transit":false,"station_id":"CTR","station_name":"Citeras","time":10,"transit":false,"distance":7293,"i_long":106.332092},{"station_name":"Rangkasbitung","time":13,"i_lat":-6.352675,"i_long":106.250396,"line":3,"station_id":"RK","is_transit":false,"transit":false,"distance":9847}]]}