{"data":[[{"transit":false,"line":2,"is_transit":false,"distance":0,"station_name":"Pasar Minggu Baru","i_long":106.851577,"i_lat":-6.263214,"station_id":"PSMB","time":0},{"distance":824,"station_name":"Duren Kalibata","is_transit":false,"i_lat":-6.255332,"transit":false,"i_long":106.85449,"line":2,"time":2,"station_id":"DRN"},{"i_long":106.856607,"station_name":"Cawang","time":3,"transit":false,"i_lat":-6.242512,"is_transit":false,"line":2,"distance":1546,"station_id":"CW"},{"distance":1230,"station_name":"Tebet","is_transit":false,"line":2,"time":2,"station_id":"TEB","transit":false,"i_lat":-6.226659,"i_long":106.857948},{"station_id":"MRI","is_transit":true,"transit":true,"i_lat":-6.209883,"line":2,"station_name":"Manggarai","i_long":106.84912,"distance":2610,"time":4},{"station_name":"Matraman","time":2,"is_transit":false,"station_id":"MTR","transit":false,"i_lat":-6.212485,"line":1,"distance":1275,"i_long":106.858896},{"is_transit":true,"i_long":106.86807400000001,"transit":true,"station_id":"JNG","time":8,"i_lat":-6.215091,"distance":1377,"station_name":"Jatinegara","line":1},{"i_lat":-6.209188,"distance":1236,"time":2,"i_long":106.861737,"line":11,"station_id":"POK","station_name":"Pondok Jati","transit":false,"is_transit":false},{"station_name":"Kramat","transit":false,"line":11,"station_id":"KMT","i_lat":-6.193792,"time":2,"distance":1829,"i_long":106.855437,"is_transit":false},{"station_name":"Gang Sentiong","transit":false,"distance":973,"i_long":106.850107,"line":11,"is_transit":false,"i_lat":-6.185975,"time":1,"station_id":"GST"},{"distance":1567,"transit":false,"is_transit":false,"line":11,"station_id":"PSE","i_long":106.84368,"time":8,"station_name":"Pasar Senen","i_lat":-6.174784},{"time":4,"i_long":106.839204,"i_lat":-6.161728,"station_name":"Kemayoran","line":11,"distance":1436,"station_id":"KMO","is_transit":false,"transit":false},{"i_lat":-6.14505,"transit":false,"station_name":"Rajawali","distance":1901,"time":5,"station_id":"RJW","is_transit":false,"i_long":106.836569,"line":11}],[{"station_name":"Pasar Minggu Baru","distance":0,"transit":false,"i_lat":-6.263214,"station_id":"PSMB","time":0,"is_transit":false,"line":2,"i_long":106.851577},{"i_lat":-6.255332,"station_id":"DRN","distance":824,"transit":false,"time":2,"is_transit":false,"i_long":106.85449,"line":2,"station_name":"Duren Kalibata"},{"line":2,"station_id":"CW","transit":false,"i_lat":-6.242512,"time":3,"station_name":"Cawang","distance":1546,"is_transit":false,"i_long":106.856607},{"transit":false,"i_long":106.857948,"i_lat":-6.226659,"station_id":"TEB","line":2,"station_name":"Tebet","time":2,"distance":1230,"is_transit":false},{"i_long":106.84912,"is_transit":true,"transit":true,"station_id":"MRI","station_name":"Manggarai","i_lat":-6.209883,"line":2,"distance":2610,"time":4},{"is_transit":false,"distance":3186,"i_long":106.822649,"line":1,"station_name":"Sudirman","time":4,"transit":false,"station_id":"SUD","i_lat":-6.202263},{"transit":false,"i_long":106.819881,"time":1,"station_name":"Sudirman Baru","line":1,"is_transit":false,"i_lat":-6.201433,"station_id":"SUDB","distance":280},{"station_id":"KAT","i_lat":-6.20132,"i_long":106.816351,"time":1,"station_name":"Karet","is_transit":false,"transit":false,"line":1,"distance":471},{"distance":2029,"station_id":"THB","is_transit":false,"transit":false,"i_lat":-6.185545,"line":1,"time":5,"i_long":106.811091,"station_name":"Tanah Abang"},{"transit":false,"i_lat":-6.155215,"line":1,"i_long":106.800832,"time":8,"is_transit":false,"station_id":"DU","distance":3632,"station_name":"Duri"},{"station_id":"AK","is_transit":false,"i_long":106.79867,"time":4,"distance":1230,"i_lat":-6.144674,"station_name":"Angke","transit":false,"line":1},{"is_transit":true,"i_lat":-6.132549,"line":4,"i_long":106.826365,"transit":true,"station_name":"Kampung Bandan","time":9,"station_id":"KPB","distance":4102},{"distance":1444,"station_id":"RJW","transit":false,"is_transit":false,"i_lat":-6.14505,"line":11,"station_name":"Rajawali","time":3,"i_long":106.836569}],[{"i_lat":-6.263214,"distance":0,"transit":false,"i_long":106.851577,"line":2,"is_transit":false,"station_name":"Pasar Minggu Baru","time":0,"station_id":"PSMB"},{"line":2,"time":2,"is_transit":false,"distance":824,"station_id":"DRN","transit":false,"station_name":"Duren Kalibata","i_long":106.85449,"i_lat":-6.255332},{"transit":false,"is_transit":false,"distance":1546,"station_id":"CW","time":3,"station_name":"Cawang","i_lat":-6.242512,"i_long":106.856607,"line":2},{"i_lat":-6.226659,"station_name":"Tebet","line":2,"is_transit":false,"time":2,"distance":1230,"i_long":106.857948,"station_id":"TEB","transit":false},{"station_name":"Manggarai","distance":2610,"transit":false,"station_id":"MRI","time":4,"i_lat":-6.209883,"is_transit":false,"i_long":106.84912,"line":2},{"is_transit":false,"time":4,"station_name":"Cikini","transit":false,"distance":1590,"station_id":"CKI","i_lat":-6.198556,"i_long":106.840169,"line":2},{"i_long":106.832183,"station_name":"Gondangdia","distance":1750,"is_transit":false,"station_id":"GDD","time":3,"transit":false,"i_lat":-6.186295,"line":2},{"line":2,"distance":2015,"transit":false,"time":4,"station_id":"JUA","is_transit":false,"station_name":"Juanda","i_lat":-6.166716,"i_long":106.828284},{"i_long":106.827103,"line":2,"distance":1149,"station_name":"Sawah Besar","i_lat":-6.160725,"is_transit":false,"transit":false,"station_id":"SW","time":2},{"time":2,"is_transit":false,"station_id":"MGB","transit":false,"distance":906,"i_long":106.82482,"i_lat":-6.149769,"station_name":"Manggabesar","line":2},{"station_name":"Jayakarta","distance":1080,"line":2,"time":2,"station_id":"JAY","i_lat":-6.141205,"transit":false,"is_transit":false,"i_long":106.820901},{"station_id":"JAKK","i_long":106.812439,"i_lat":-6.137569,"station_name":"Jakarta Kota","is_transit":true,"transit":true,"distance":1264,"line":2,"time":4},{"i_long":106.826365,"line":4,"time":3,"distance":1364,"station_name":"Kampung Bandan","is_transit":true,"station_id":"KPB","transit":true,"i_lat":-6.132549},{"distance":1444,"station_name":"Rajawali","line":11,"is_transit":false,"time":3,"i_lat":-6.14505,"transit":false,"i_long":106.836569,"station_id":"RJW"}]]}