{"data":[[{"station_name":"Pasar Minggu Baru","time":0,"i_long":106.851577,"transit":false,"distance":0,"is_transit":false,"i_lat":-6.263214,"line":2,"station_id":"PSMB"},{"station_name":"Pasar Minggu","distance":2380,"is_transit":false,"line":2,"time":2,"transit":false,"i_long":106.843999,"station_id":"PSM","i_lat":-6.2842400000000005},{"is_transit":false,"station_name":"Tanjung Barat","time":4,"line":2,"transit":false,"station_id":"TNT","i_lat":-6.3080680000000005,"distance":2820,"i_long":106.838896},{"station_name":"Lenteng Agung","transit":false,"is_transit":false,"distance":2671,"time":3,"line":2,"i_lat":-6.330363,"station_id":"LNA","i_long":106.832616},{"line":2,"station_name":"Univ. Pancasila","time":2,"transit":false,"is_transit":false,"distance":1029,"i_long":106.834175,"station_id":"UP","i_lat":-6.339291},{"time":3,"distance":2264,"i_lat":-6.360749,"line":2,"station_id":"UI","station_name":"Univ. Indonesia","is_transit":false,"transit":false,"i_long":106.831474},{"station_name":"Pondok Cina","i_long":106.831114,"line":2,"i_lat":-6.369073,"is_transit":false,"time":2,"distance":1109,"transit":false,"station_id":"POC"},{"i_lat":-6.391065,"is_transit":false,"station_name":"Depokbaru","transit":false,"distance":2727,"line":2,"time":4,"i_long":106.819451,"station_id":"DPB"},{"is_transit":false,"i_long":106.816926,"distance":1584,"i_lat":-6.405256,"time":3,"station_name":"Depok","station_id":"DP","line":2,"transit":false}]]}