{"data":[[{"station_name":"Pasar Minggu Baru","station_id":"PSMB","time":0,"transit":false,"i_lat":-6.263214,"is_transit":false,"distance":0,"i_long":106.851577,"line":2},{"station_id":"PSM","time":2,"i_lat":-6.2842400000000005,"i_long":106.843999,"line":2,"distance":2380,"is_transit":false,"transit":false,"station_name":"Pasar Minggu"},{"time":4,"distance":2820,"i_lat":-6.3080680000000005,"station_name":"Tanjung Barat","is_transit":false,"station_id":"TNT","transit":false,"i_long":106.838896,"line":2},{"time":3,"line":2,"i_lat":-6.330363,"is_transit":false,"station_name":"Lenteng Agung","i_long":106.832616,"station_id":"LNA","transit":false,"distance":2671},{"line":2,"distance":1029,"transit":false,"i_lat":-6.339291,"i_long":106.834175,"time":2,"station_name":"Univ. Pancasila","is_transit":false,"station_id":"UP"},{"station_id":"UI","transit":false,"i_lat":-6.360749,"time":3,"is_transit":false,"line":2,"i_long":106.831474,"distance":2264,"station_name":"Univ. Indonesia"},{"station_name":"Pondok Cina","station_id":"POC","transit":false,"is_transit":false,"time":2,"line":2,"i_lat":-6.369073,"distance":1109,"i_long":106.831114},{"is_transit":false,"distance":2727,"station_id":"DPB","i_long":106.819451,"i_lat":-6.391065,"line":2,"time":4,"transit":false,"station_name":"Depokbaru"}]]}