{"data":[[{"time":0,"i_lat":-6.263214,"line":2,"station_id":"PSMB","transit":false,"distance":0,"is_transit":false,"i_long":106.851577,"station_name":"Pasar Minggu Baru"},{"transit":false,"station_id":"DRN","i_lat":-6.255332,"line":2,"i_long":106.85449,"station_name":"Duren Kalibata","time":2,"distance":824,"is_transit":false},{"station_name":"Cawang","is_transit":false,"i_lat":-6.242512,"i_long":106.856607,"time":3,"transit":false,"distance":1546,"station_id":"CW","line":2},{"time":2,"i_lat":-6.226659,"i_long":106.857948,"station_name":"Tebet","station_id":"TEB","transit":false,"is_transit":false,"distance":1230,"line":2},{"distance":2610,"time":4,"i_long":106.84912,"station_name":"Manggarai","transit":true,"is_transit":true,"i_lat":-6.209883,"station_id":"MRI","line":2},{"station_id":"SUD","transit":false,"is_transit":false,"station_name":"Sudirman","line":1,"i_lat":-6.202263,"i_long":106.822649,"time":4,"distance":3186},{"i_lat":-6.201433,"distance":280,"i_long":106.819881,"is_transit":false,"transit":false,"time":1,"station_name":"Sudirman Baru","line":1,"station_id":"SUDB"},{"station_id":"KAT","transit":false,"station_name":"Karet","is_transit":false,"distance":471,"i_long":106.816351,"line":1,"i_lat":-6.20132,"time":1},{"i_lat":-6.185545,"time":5,"i_long":106.811091,"line":1,"distance":2029,"station_id":"THB","transit":true,"station_name":"Tanah Abang","is_transit":true},{"is_transit":false,"i_lat":-6.207404,"transit":false,"distance":3191,"i_long":106.79689,"station_name":"Palmerah","station_id":"PLM","time":6,"line":6},{"i_lat":-6.237242,"line":6,"distance":3737,"station_name":"Kebayoran","is_transit":false,"time":7,"station_id":"KBY","transit":false,"i_long":106.780334},{"distance":6218,"i_long":106.74273,"i_lat":-6.276362,"is_transit":false,"transit":false,"time":8,"line":6,"station_name":"Pondokranji","station_id":"PDJ"},{"distance":2179,"i_long":106.728916,"station_id":"JMU","time":3,"transit":false,"station_name":"Jurangmangu","i_lat":-6.288927,"line":6,"is_transit":false},{"station_id":"SDM","station_name":"Sudimara","distance":1994,"transit":false,"time":4,"is_transit":false,"i_long":106.712277,"line":6,"i_lat":-6.296963},{"is_transit":false,"time":6,"station_id":"RU","distance":4566,"i_lat":-6.314823,"station_name":"Rawa Buntu","line":6,"i_long":106.675475,"transit":false},{"line":6,"transit":false,"is_transit":false,"time":4,"i_long":106.66566,"distance":2413,"i_lat":-6.319871,"station_id":"SRP","station_name":"Serpong"},{"time":4,"is_transit":false,"distance":1784,"i_lat":-6.32484,"station_id":"CSK","transit":false,"station_name":"Cisauk","line":3,"i_long":106.640411},{"time":4,"station_name":"Cicayur","i_long":106.617853,"is_transit":false,"distance":2519,"line":3,"i_lat":-6.329547,"transit":false,"station_id":"CC"},{"is_transit":false,"line":6,"station_name":"Parung Panjang","station_id":"PRP","time":8,"i_lat":-6.3441410000000005,"distance":5968,"i_long":106.568863,"transit":false},{"is_transit":false,"time":9,"station_name":"Cilejit","i_long":106.508482,"line":3,"distance":7025,"transit":false,"station_id":"CJT","i_lat":-6.354349},{"i_lat":-6.338021,"line":0,"distance":2675,"station_id":"DAR","time":6,"i_long":106.491338,"transit":false,"is_transit":false,"station_name":"Daru"},{"is_transit":false,"time":5,"i_lat":-6.327251,"line":6,"i_long":106.460812,"station_id":"TEJ","distance":3902,"station_name":"Tenjo","transit":false},{"line":6,"distance":2974,"time":5,"i_lat":-6.328533,"station_id":"TGS","is_transit":false,"i_long":106.425991,"transit":false,"station_name":"Tigaraksa"},{"i_long":106.411216,"distance":2651,"station_id":"CKY","line":3,"time":3,"station_name":"Cikoya","transit":false,"is_transit":false,"i_lat":-6.33561}],[{"is_transit":false,"time":0,"i_lat":-6.263214,"line":2,"station_name":"Pasar Minggu Baru","station_id":"PSMB","i_long":106.851577,"transit":false,"distance":0},{"time":2,"is_transit":false,"line":2,"transit":false,"distance":824,"station_id":"DRN","i_lat":-6.255332,"i_long":106.85449,"station_name":"Duren Kalibata"},{"line":2,"i_long":106.856607,"station_name":"Cawang","station_id":"CW","time":3,"distance":1546,"transit":false,"is_transit":false,"i_lat":-6.242512},{"time":2,"transit":false,"station_id":"TEB","distance":1230,"i_lat":-6.226659,"station_name":"Tebet","line":2,"is_transit":false,"i_long":106.857948},{"station_id":"MRI","line":2,"is_transit":false,"transit":false,"time":4,"distance":2610,"station_name":"Manggarai","i_lat":-6.209883,"i_long":106.84912},{"time":4,"transit":false,"is_transit":false,"station_name":"Cikini","line":2,"station_id":"CKI","i_lat":-6.198556,"i_long":106.840169,"distance":1590},{"station_name":"Gondangdia","line":2,"i_long":106.832183,"time":3,"i_lat":-6.186295,"station_id":"GDD","distance":1750,"transit":false,"is_transit":false},{"is_transit":false,"time":4,"i_lat":-6.166716,"transit":false,"station_id":"JUA","line":2,"station_name":"Juanda","distance":2015,"i_long":106.828284},{"transit":false,"is_transit":false,"i_lat":-6.160725,"station_id":"SW","time":2,"station_name":"Sawah Besar","line":2,"i_long":106.827103,"distance":1149},{"station_name":"Manggabesar","i_long":106.82482,"is_transit":false,"transit":false,"time":2,"distance":906,"i_lat":-6.149769,"station_id":"MGB","line":2},{"line":2,"time":2,"station_name":"Jayakarta","is_transit":false,"distance":1080,"transit":false,"i_lat":-6.141205,"i_long":106.820901,"station_id":"JAY"},{"line":2,"i_long":106.812439,"transit":true,"is_transit":true,"distance":1264,"i_lat":-6.137569,"station_id":"JAKK","time":4,"station_name":"Jakarta Kota"},{"time":3,"station_id":"KPB","is_transit":true,"distance":1364,"station_name":"Kampung Bandan","i_lat":-6.132549,"line":4,"i_long":106.826365,"transit":true},{"line":1,"transit":false,"distance":4102,"i_lat":-6.144674,"station_name":"Angke","is_transit":false,"time":9,"i_long":106.79867,"station_id":"AK"},{"i_lat":-6.155215,"distance":1230,"station_name":"Duri","transit":false,"is_transit":false,"station_id":"DU","i_long":106.800832,"time":4,"line":1},{"i_long":106.811091,"i_lat":-6.185545,"station_name":"Tanah Abang","is_transit":true,"distance":3632,"station_id":"THB","line":1,"time":8,"transit":true},{"distance":3191,"line":6,"station_id":"PLM","transit":false,"is_transit":false,"i_long":106.79689,"i_lat":-6.207404,"station_name":"Palmerah","time":6},{"i_lat":-6.237242,"i_long":106.780334,"station_name":"Kebayoran","line":6,"time":7,"distance":3737,"transit":false,"station_id":"KBY","is_transit":false},{"is_transit":false,"station_name":"Pondokranji","i_lat":-6.276362,"station_id":"PDJ","time":8,"line":6,"i_long":106.74273,"distance":6218,"transit":false},{"station_id":"JMU","time":3,"station_name":"Jurangmangu","i_long":106.728916,"is_transit":false,"distance":2179,"i_lat":-6.288927,"transit":false,"line":6},{"time":4,"distance":1994,"transit":false,"station_name":"Sudimara","is_transit":false,"i_lat":-6.296963,"line":6,"i_long":106.712277,"station_id":"SDM"},{"station_name":"Rawa Buntu","line":6,"transit":false,"is_transit":false,"i_lat":-6.314823,"distance":4566,"station_id":"RU","i_long":106.675475,"time":6},{"transit":false,"station_name":"Serpong","time":4,"is_transit":false,"distance":2413,"i_lat":-6.319871,"line":6,"i_long":106.66566,"station_id":"SRP"},{"time":4,"station_name":"Cisauk","transit":false,"is_transit":false,"i_lat":-6.32484,"i_long":106.640411,"distance":1784,"line":3,"station_id":"CSK"},{"distance":2519,"station_id":"CC","time":4,"line":3,"station_name":"Cicayur","i_lat":-6.329547,"i_long":106.617853,"transit":false,"is_transit":false},{"distance":5968,"i_long":106.568863,"transit":false,"i_lat":-6.3441410000000005,"line":6,"station_id":"PRP","station_name":"Parung Panjang","is_transit":false,"time":8},{"station_name":"Cilejit","distance":7025,"transit":false,"station_id":"CJT","time":9,"is_transit":false,"i_lat":-6.354349,"i_long":106.508482,"line":3},{"line":0,"distance":2675,"transit":false,"station_name":"Daru","is_transit":false,"i_long":106.491338,"i_lat":-6.338021,"station_id":"DAR","time":6},{"time":5,"line":6,"distance":3902,"station_name":"Tenjo","station_id":"TEJ","i_lat":-6.327251,"transit":false,"i_long":106.460812,"is_transit":false},{"transit":false,"station_id":"TGS","distance":2974,"station_name":"Tigaraksa","line":6,"time":5,"is_transit":false,"i_lat":-6.328533,"i_long":106.425991},{"is_transit":false,"distance":2651,"station_id":"CKY","time":3,"i_long":106.411216,"i_lat":-6.33561,"line":3,"transit":false,"station_name":"Cikoya"}],[{"station_id":"PSMB","i_lat":-6.263214,"is_transit":false,"i_long":106.851577,"distance":0,"station_name":"Pasar Minggu Baru","time":0,"line":2,"transit":false},{"i_long":106.85449,"station_id":"DRN","distance":824,"time":2,"station_name":"Duren Kalibata","is_transit":false,"transit":false,"line":2,"i_lat":-6.255332},{"station_name":"Cawang","i_lat":-6.242512,"transit":false,"station_id":"CW","is_transit":false,"distance":1546,"line":2,"time":3,"i_long":106.856607},{"time":2,"is_transit":false,"distance":1230,"transit":false,"station_name":"Tebet","i_lat":-6.226659,"station_id":"TEB","i_long":106.857948,"line":2},{"is_transit":true,"i_long":106.84912,"line":2,"station_name":"Manggarai","transit":true,"time":4,"i_lat":-6.209883,"station_id":"MRI","distance":2610},{"distance":1275,"i_long":106.858896,"i_lat":-6.212485,"time":2,"is_transit":false,"line":1,"station_name":"Matraman","station_id":"MTR","transit":false},{"line":1,"time":8,"station_id":"JNG","distance":1377,"is_transit":true,"i_long":106.86807400000001,"station_name":"Jatinegara","i_lat":-6.215091,"transit":true},{"line":11,"station_id":"POK","distance":1236,"i_long":106.861737,"station_name":"Pondok Jati","is_transit":false,"time":2,"transit":false,"i_lat":-6.209188},{"station_name":"Kramat","line":11,"transit":false,"time":2,"is_transit":false,"distance":1829,"i_long":106.855437,"station_id":"KMT","i_lat":-6.193792},{"station_id":"GST","distance":973,"station_name":"Gang Sentiong","is_transit":false,"i_lat":-6.185975,"line":11,"time":1,"i_long":106.850107,"transit":false},{"transit":false,"distance":1567,"station_id":"PSE","i_lat":-6.174784,"i_long":106.84368,"line":11,"station_name":"Pasar Senen","time":8,"is_transit":false},{"line":11,"transit":false,"station_id":"KMO","is_transit":false,"i_long":106.839204,"i_lat":-6.161728,"station_name":"Kemayoran","distance":1436,"time":4},{"line":11,"station_id":"RJW","distance":1901,"transit":false,"station_name":"Rajawali","is_transit":false,"time":5,"i_long":106.836569,"i_lat":-6.14505},{"station_name":"Kampung Bandan","station_id":"KPB","time":3,"i_lat":-6.132549,"i_long":106.826365,"distance":1444,"is_transit":true,"transit":true,"line":4},{"time":9,"station_id":"AK","i_long":106.79867,"line":1,"is_transit":false,"distance":4102,"station_name":"Angke","i_lat":-6.144674,"transit":false},{"time":4,"i_lat":-6.155215,"is_transit":false,"station_id":"DU","line":1,"transit":false,"distance":1230,"i_long":106.800832,"station_name":"Duri"},{"transit":true,"station_name":"Tanah Abang","is_transit":true,"time":8,"line":1,"i_lat":-6.185545,"i_long":106.811091,"station_id":"THB","distance":3632},{"station_id":"PLM","i_lat":-6.207404,"i_long":106.79689,"transit":false,"time":6,"is_transit":false,"station_name":"Palmerah","line":6,"distance":3191},{"is_transit":false,"station_id":"KBY","line":6,"transit":false,"station_name":"Kebayoran","i_long":106.780334,"distance":3737,"time":7,"i_lat":-6.237242},{"station_id":"PDJ","distance":6218,"station_name":"Pondokranji","line":6,"i_long":106.74273,"transit":false,"is_transit":false,"time":8,"i_lat":-6.276362},{"distance":2179,"time":3,"is_transit":false,"i_long":106.728916,"station_id":"JMU","i_lat":-6.288927,"line":6,"station_name":"Jurangmangu","transit":false},{"is_transit":false,"transit":false,"i_lat":-6.296963,"station_name":"Sudimara","station_id":"SDM","line":6,"time":4,"distance":1994,"i_long":106.712277},{"distance":4566,"transit":false,"time":6,"is_transit":false,"station_name":"Rawa Buntu","station_id":"RU","i_lat":-6.314823,"i_long":106.675475,"line":6},{"station_name":"Serpong","i_long":106.66566,"i_lat":-6.319871,"line":6,"time":4,"is_transit":false,"transit":false,"distance":2413,"station_id":"SRP"},{"station_name":"Cisauk","i_long":106.640411,"station_id":"CSK","is_transit":false,"time":4,"distance":1784,"transit":false,"i_lat":-6.32484,"line":3},{"transit":false,"distance":2519,"i_lat":-6.329547,"line":3,"station_id":"CC","is_transit":false,"station_name":"Cicayur","time":4,"i_long":106.617853},{"distance":5968,"station_id":"PRP","time":8,"i_lat":-6.3441410000000005,"is_transit":false,"station_name":"Parung Panjang","i_long":106.568863,"line":6,"transit":false},{"transit":false,"station_name":"Cilejit","distance":7025,"i_lat":-6.354349,"station_id":"CJT","time":9,"i_long":106.508482,"is_transit":false,"line":3},{"station_name":"Daru","distance":2675,"station_id":"DAR","i_long":106.491338,"i_lat":-6.338021,"line":0,"transit":false,"is_transit":false,"time":6},{"i_lat":-6.327251,"station_id":"TEJ","line":6,"transit":false,"station_name":"Tenjo","distance":3902,"i_long":106.460812,"is_transit":false,"time":5},{"time":5,"i_lat":-6.328533,"distance":2974,"is_transit":false,"transit":false,"station_name":"Tigaraksa","station_id":"TGS","i_long":106.425991,"line":6},{"distance":2651,"station_name":"Cikoya","i_long":106.411216,"station_id":"CKY","line":3,"i_lat":-6.33561,"is_transit":false,"transit":false,"time":3}]]}