{"data":[[{"time":0,"is_transit":false,"station_id":"PSMB","transit":false,"i_lat":-6.263214,"distance":0,"i_long":106.851577,"line":2,"station_name":"Pasar Minggu Baru"},{"line":0,"distance":824,"transit":false,"station_id":"DRN","i_long":106.85449,"time":2,"is_transit":false,"i_lat":-6.255332,"station_name":"Duren Kalibata"},{"is_transit":false,"transit":false,"station_id":"CW","i_long":106.856607,"time":3,"i_lat":-6.242512,"line":0,"distance":1546,"station_name":"Cawang"},{"time":2,"transit":false,"station_id":"TEB","i_lat":-6.226659,"distance":1230,"i_long":106.857948,"is_transit":false,"line":2,"station_name":"Tebet"},{"station_id":"MRI","is_transit":true,"distance":2610,"transit":true,"i_lat":-6.209883,"time":4,"line":0,"i_long":106.84912,"station_name":"Manggarai"},{"is_transit":false,"line":1,"transit":false,"station_name":"Sudirman","i_long":106.822649,"distance":3186,"station_id":"SUD","time":4,"i_lat":-6.202263},{"distance":280,"is_transit":false,"transit":false,"time":1,"i_lat":-6.201433,"station_name":"Sudirman Baru","line":1,"station_id":"SUDB","i_long":106.819881},{"station_id":"KAT","i_long":106.816351,"line":1,"distance":471,"is_transit":false,"station_name":"Karet","transit":false,"time":1,"i_lat":-6.20132},{"line":1,"distance":2029,"transit":true,"is_transit":true,"i_lat":-6.185545,"station_id":"THB","time":5,"i_long":106.811091,"station_name":"Tanah Abang"},{"station_id":"PLM","time":6,"line":6,"is_transit":false,"i_lat":-6.207404,"distance":3191,"station_name":"Palmerah","i_long":106.79689,"transit":false},{"station_id":"KBY","station_name":"Kebayoran","i_lat":-6.237242,"transit":false,"distance":3737,"i_long":106.780334,"is_transit":false,"time":7,"line":6},{"transit":false,"station_name":"Pondokranji","i_lat":-6.276362,"distance":6218,"is_transit":false,"station_id":"PDJ","i_long":106.74273,"time":8,"line":6},{"transit":false,"i_lat":-6.288927,"time":3,"i_long":106.728916,"station_name":"Jurangmangu","station_id":"JMU","line":6,"distance":2179,"is_transit":false},{"line":6,"transit":false,"is_transit":false,"time":4,"i_lat":-6.296963,"station_id":"SDM","distance":1994,"station_name":"Sudimara","i_long":106.712277},{"station_id":"RU","is_transit":false,"line":6,"i_lat":-6.314823,"distance":4566,"station_name":"Rawa Buntu","i_long":106.675475,"time":6,"transit":false},{"transit":false,"is_transit":false,"time":4,"i_lat":-6.319871,"line":6,"i_long":106.66566,"station_name":"Serpong","distance":2413,"station_id":"SRP"},{"i_long":106.640411,"station_id":"CSK","is_transit":false,"i_lat":-6.32484,"time":4,"line":0,"transit":false,"distance":1784,"station_name":"Cisauk"},{"time":4,"station_name":"Cicayur","station_id":"CC","is_transit":false,"i_lat":-6.329547,"i_long":106.617853,"distance":2519,"line":0,"transit":false},{"line":6,"i_long":106.568863,"is_transit":false,"distance":5968,"transit":false,"station_id":"PRP","time":8,"i_lat":-6.3441410000000005,"station_name":"Parung Panjang"},{"line":0,"is_transit":false,"transit":false,"i_long":106.508482,"station_name":"Cilejit","time":9,"distance":7025,"i_lat":-6.354349,"station_id":"CJT"},{"i_long":106.491338,"station_id":"DAR","time":6,"transit":false,"station_name":"Daru","distance":2675,"i_lat":-6.338021,"is_transit":false,"line":0},{"transit":false,"time":5,"line":6,"station_name":"Tenjo","distance":3902,"i_lat":-6.327251,"station_id":"TEJ","is_transit":false,"i_long":106.460812}],[{"station_name":"Pasar Minggu Baru","is_transit":false,"distance":0,"station_id":"PSMB","line":2,"i_lat":-6.263214,"time":0,"transit":false,"i_long":106.851577},{"is_transit":false,"time":2,"distance":824,"i_lat":-6.255332,"line":0,"station_name":"Duren Kalibata","transit":false,"station_id":"DRN","i_long":106.85449},{"time":3,"distance":1546,"station_id":"CW","station_name":"Cawang","line":0,"is_transit":false,"transit":false,"i_lat":-6.242512,"i_long":106.856607},{"distance":1230,"i_long":106.857948,"station_name":"Tebet","is_transit":false,"i_lat":-6.226659,"line":2,"transit":false,"time":2,"station_id":"TEB"},{"transit":true,"line":0,"station_id":"MRI","i_lat":-6.209883,"distance":2610,"time":4,"i_long":106.84912,"station_name":"Manggarai","is_transit":true},{"line":0,"is_transit":false,"time":4,"station_id":"CKI","station_name":"Cikini","i_long":106.840169,"i_lat":-6.198556,"distance":1590,"transit":false},{"transit":false,"station_id":"GDD","station_name":"Gondangdia","is_transit":false,"time":3,"line":2,"i_long":106.832183,"distance":1750,"i_lat":-6.186295},{"i_lat":-6.166716,"is_transit":false,"transit":false,"distance":2015,"time":4,"line":2,"station_name":"Juanda","i_long":106.828284,"station_id":"JUA"},{"distance":1149,"transit":false,"i_long":106.827103,"station_id":"SW","station_name":"Sawah Besar","i_lat":-6.160725,"time":2,"line":2,"is_transit":false},{"transit":false,"distance":906,"is_transit":false,"station_name":"Manggabesar","i_lat":-6.149769,"i_long":106.82482,"time":2,"station_id":"MGB","line":2},{"line":7,"is_transit":false,"station_name":"Jayakarta","i_lat":-6.141205,"time":2,"transit":false,"station_id":"JAY","distance":1080,"i_long":106.820901},{"station_id":"JAKK","time":4,"is_transit":true,"i_lat":-6.137569,"line":0,"i_long":106.812439,"transit":true,"distance":1264,"station_name":"Jakarta Kota"},{"line":0,"transit":false,"i_long":106.826365,"is_transit":true,"time":3,"distance":1364,"station_name":"Kampung Bandan","i_lat":-6.132549,"station_id":"KPB"},{"i_lat":-6.144674,"distance":4102,"station_name":"Angke","time":9,"is_transit":false,"transit":false,"i_long":106.79867,"line":0,"station_id":"AK"},{"is_transit":true,"station_id":"DU","i_lat":-6.155215,"line":1,"transit":true,"time":4,"i_long":106.800832,"station_name":"Duri","distance":1230},{"station_id":"THB","time":8,"line":1,"station_name":"Tanah Abang","is_transit":true,"transit":true,"i_long":106.811091,"i_lat":-6.185545,"distance":3632},{"station_id":"PLM","is_transit":false,"station_name":"Palmerah","i_lat":-6.207404,"i_long":106.79689,"transit":false,"line":6,"time":6,"distance":3191},{"i_long":106.780334,"line":6,"is_transit":false,"time":7,"station_id":"KBY","station_name":"Kebayoran","transit":false,"distance":3737,"i_lat":-6.237242},{"distance":6218,"time":8,"station_name":"Pondokranji","is_transit":false,"i_lat":-6.276362,"i_long":106.74273,"line":6,"station_id":"PDJ","transit":false},{"transit":false,"i_long":106.728916,"line":6,"station_id":"JMU","time":3,"i_lat":-6.288927,"distance":2179,"is_transit":false,"station_name":"Jurangmangu"},{"transit":false,"i_lat":-6.296963,"distance":1994,"station_name":"Sudimara","i_long":106.712277,"line":6,"station_id":"SDM","time":4,"is_transit":false},{"i_long":106.675475,"station_name":"Rawa Buntu","is_transit":false,"station_id":"RU","distance":4566,"transit":false,"time":6,"i_lat":-6.314823,"line":6},{"distance":2413,"i_long":106.66566,"i_lat":-6.319871,"transit":false,"time":4,"line":6,"station_name":"Serpong","station_id":"SRP","is_transit":false},{"station_name":"Cisauk","line":0,"i_lat":-6.32484,"i_long":106.640411,"is_transit":false,"time":4,"distance":1784,"station_id":"CSK","transit":false},{"station_id":"CC","transit":false,"station_name":"Cicayur","line":0,"is_transit":false,"i_long":106.617853,"time":4,"i_lat":-6.329547,"distance":2519},{"distance":5968,"station_name":"Parung Panjang","time":8,"i_lat":-6.3441410000000005,"is_transit":false,"transit":false,"line":6,"i_long":106.568863,"station_id":"PRP"},{"i_lat":-6.354349,"is_transit":false,"station_id":"CJT","distance":7025,"transit":false,"time":9,"i_long":106.508482,"line":0,"station_name":"Cilejit"},{"is_transit":false,"station_name":"Daru","transit":false,"distance":2675,"i_lat":-6.338021,"line":0,"station_id":"DAR","time":6,"i_long":106.491338},{"distance":3902,"i_long":106.460812,"station_id":"TEJ","line":6,"transit":false,"station_name":"Tenjo","is_transit":false,"time":5,"i_lat":-6.327251}],[{"transit":false,"i_lat":-6.263214,"station_id":"PSMB","station_name":"Pasar Minggu Baru","time":0,"i_long":106.851577,"line":2,"distance":0,"is_transit":false},{"is_transit":false,"i_lat":-6.255332,"i_long":106.85449,"transit":false,"time":2,"distance":824,"station_name":"Duren Kalibata","line":0,"station_id":"DRN"},{"line":0,"time":3,"transit":false,"i_lat":-6.242512,"is_transit":false,"i_long":106.856607,"distance":1546,"station_name":"Cawang","station_id":"CW"},{"is_transit":false,"i_lat":-6.226659,"station_name":"Tebet","line":2,"time":2,"i_long":106.857948,"distance":1230,"station_id":"TEB","transit":false},{"i_lat":-6.209883,"station_id":"MRI","station_name":"Manggarai","is_transit":true,"i_long":106.84912,"line":0,"distance":2610,"time":4,"transit":true},{"transit":false,"station_name":"Matraman","is_transit":false,"i_lat":-6.212485,"i_long":106.858896,"time":2,"station_id":"MTR","line":1,"distance":1275},{"i_lat":-6.215091,"transit":true,"time":8,"distance":1377,"i_long":106.86807400000001,"line":0,"station_name":"Jatinegara","is_transit":true,"station_id":"JNG"},{"i_long":106.861737,"i_lat":-6.209188,"distance":1236,"time":2,"is_transit":false,"station_id":"POK","station_name":"Pondok Jati","transit":false,"line":11},{"station_id":"KMT","i_lat":-6.193792,"time":2,"i_long":106.855437,"distance":1829,"transit":false,"line":11,"is_transit":false,"station_name":"Kramat"},{"distance":973,"time":1,"line":11,"station_name":"Gang Sentiong","is_transit":false,"i_lat":-6.185975,"i_long":106.850107,"transit":false,"station_id":"GST"},{"is_transit":false,"i_lat":-6.174784,"line":11,"station_name":"Pasar Senen","station_id":"PSE","i_long":106.84368,"time":8,"distance":1567,"transit":false},{"station_name":"Kemayoran","station_id":"KMO","time":4,"i_lat":-6.161728,"i_long":106.839204,"line":11,"distance":1436,"is_transit":false,"transit":false},{"time":5,"transit":false,"line":11,"distance":1901,"is_transit":false,"i_lat":-6.14505,"station_name":"Rajawali","station_id":"RJW","i_long":106.836569},{"station_name":"Kampung Bandan","i_lat":-6.132549,"transit":true,"i_long":106.826365,"line":0,"is_transit":true,"distance":1444,"time":3,"station_id":"KPB"},{"station_name":"Angke","i_lat":-6.144674,"i_long":106.79867,"distance":4102,"station_id":"AK","transit":false,"time":9,"line":0,"is_transit":false},{"station_name":"Duri","is_transit":true,"time":4,"line":1,"i_long":106.800832,"distance":1230,"i_lat":-6.155215,"station_id":"DU","transit":true},{"station_name":"Tanah Abang","distance":3632,"station_id":"THB","transit":true,"time":8,"is_transit":true,"i_lat":-6.185545,"i_long":106.811091,"line":1},{"i_lat":-6.207404,"station_id":"PLM","distance":3191,"i_long":106.79689,"is_transit":false,"transit":false,"time":6,"station_name":"Palmerah","line":6},{"station_name":"Kebayoran","i_lat":-6.237242,"distance":3737,"is_transit":false,"time":7,"i_long":106.780334,"line":6,"station_id":"KBY","transit":false},{"station_name":"Pondokranji","i_long":106.74273,"line":6,"time":8,"transit":false,"is_transit":false,"i_lat":-6.276362,"distance":6218,"station_id":"PDJ"},{"station_name":"Jurangmangu","transit":false,"i_lat":-6.288927,"distance":2179,"i_long":106.728916,"station_id":"JMU","time":3,"line":6,"is_transit":false},{"time":4,"station_name":"Sudimara","is_transit":false,"i_long":106.712277,"station_id":"SDM","i_lat":-6.296963,"line":6,"transit":false,"distance":1994},{"transit":false,"i_lat":-6.314823,"line":6,"time":6,"is_transit":false,"distance":4566,"i_long":106.675475,"station_id":"RU","station_name":"Rawa Buntu"},{"i_lat":-6.319871,"time":4,"i_long":106.66566,"line":6,"distance":2413,"is_transit":false,"station_id":"SRP","station_name":"Serpong","transit":false},{"time":4,"line":0,"i_lat":-6.32484,"i_long":106.640411,"distance":1784,"station_name":"Cisauk","transit":false,"is_transit":false,"station_id":"CSK"},{"i_lat":-6.329547,"is_transit":false,"distance":2519,"station_name":"Cicayur","time":4,"line":0,"i_long":106.617853,"station_id":"CC","transit":false},{"station_id":"PRP","distance":5968,"station_name":"Parung Panjang","time":8,"i_long":106.568863,"line":6,"i_lat":-6.3441410000000005,"is_transit":false,"transit":false},{"transit":false,"line":0,"station_name":"Cilejit","station_id":"CJT","time":9,"distance":7025,"i_long":106.508482,"i_lat":-6.354349,"is_transit":false},{"is_transit":false,"station_name":"Daru","i_lat":-6.338021,"i_long":106.491338,"time":6,"distance":2675,"station_id":"DAR","line":0,"transit":false},{"transit":false,"i_lat":-6.327251,"line":6,"is_transit":false,"i_long":106.460812,"station_name":"Tenjo","time":5,"station_id":"TEJ","distance":3902}]]}