{"data":[[{"is_transit":false,"time":0,"station_name":"Pasar Minggu Baru","distance":0,"i_long":106.851577,"station_id":"PSMB","transit":false,"i_lat":-6.263214,"line":2},{"station_id":"DRN","is_transit":false,"time":2,"distance":824,"i_long":106.85449,"station_name":"Duren Kalibata","line":2,"i_lat":-6.255332,"transit":false},{"time":3,"is_transit":false,"i_lat":-6.242512,"transit":false,"distance":1546,"station_id":"CW","line":2,"station_name":"Cawang","i_long":106.856607},{"i_long":106.857948,"i_lat":-6.226659,"transit":false,"is_transit":false,"station_id":"TEB","time":2,"line":2,"station_name":"Tebet","distance":1230},{"line":2,"is_transit":true,"station_name":"Manggarai","time":4,"i_lat":-6.209883,"i_long":106.84912,"transit":true,"distance":2610,"station_id":"MRI"},{"transit":false,"distance":3186,"i_lat":-6.202263,"station_name":"Sudirman","i_long":106.822649,"time":4,"is_transit":false,"line":1,"station_id":"SUD"},{"station_name":"Sudirman Baru","transit":false,"i_long":106.819881,"is_transit":false,"line":1,"time":1,"distance":280,"i_lat":-6.201433,"station_id":"SUDB"},{"i_long":106.816351,"line":1,"time":1,"station_id":"KAT","transit":false,"i_lat":-6.20132,"station_name":"Karet","is_transit":false,"distance":471},{"time":5,"distance":2029,"i_lat":-6.185545,"station_name":"Tanah Abang","is_transit":true,"transit":true,"i_long":106.811091,"station_id":"THB","line":1},{"distance":3191,"i_long":106.79689,"transit":false,"line":6,"station_name":"Palmerah","time":6,"i_lat":-6.207404,"station_id":"PLM","is_transit":false},{"transit":false,"i_lat":-6.237242,"is_transit":false,"station_name":"Kebayoran","line":6,"i_long":106.780334,"time":7,"station_id":"KBY","distance":3737},{"time":8,"i_lat":-6.276362,"i_long":106.74273,"station_name":"Pondokranji","is_transit":false,"station_id":"PDJ","distance":6218,"line":6,"transit":false},{"station_id":"JMU","is_transit":false,"i_lat":-6.288927,"i_long":106.728916,"time":3,"distance":2179,"line":6,"transit":false,"station_name":"Jurangmangu"},{"distance":1994,"i_lat":-6.296963,"line":6,"i_long":106.712277,"is_transit":false,"station_name":"Sudimara","time":4,"station_id":"SDM","transit":false},{"station_name":"Rawa Buntu","transit":false,"i_long":106.675475,"time":6,"is_transit":false,"i_lat":-6.314823,"line":6,"station_id":"RU","distance":4566},{"i_lat":-6.319871,"distance":2413,"i_long":106.66566,"station_name":"Serpong","line":6,"station_id":"SRP","transit":false,"time":4,"is_transit":false},{"station_name":"Cisauk","station_id":"CSK","time":4,"transit":false,"i_lat":-6.32484,"i_long":106.640411,"is_transit":false,"line":3,"distance":1784},{"station_name":"Cicayur","line":3,"is_transit":false,"i_lat":-6.329547,"station_id":"CC","i_long":106.617853,"distance":2519,"transit":false,"time":4},{"is_transit":false,"distance":5968,"time":8,"i_long":106.568863,"line":6,"transit":false,"station_name":"Parung Panjang","station_id":"PRP","i_lat":-6.3441410000000005},{"distance":7025,"time":9,"line":3,"is_transit":false,"transit":false,"i_lat":-6.354349,"i_long":106.508482,"station_name":"Cilejit","station_id":"CJT"},{"i_lat":-6.338021,"station_name":"Daru","line":0,"station_id":"DAR","transit":false,"distance":2675,"time":6,"i_long":106.491338,"is_transit":false},{"station_name":"Tenjo","distance":3902,"line":6,"is_transit":false,"i_long":106.460812,"time":5,"transit":false,"station_id":"TEJ","i_lat":-6.327251}],[{"is_transit":false,"i_lat":-6.263214,"distance":0,"i_long":106.851577,"station_id":"PSMB","line":2,"time":0,"transit":false,"station_name":"Pasar Minggu Baru"},{"station_name":"Duren Kalibata","distance":824,"transit":false,"time":2,"i_lat":-6.255332,"is_transit":false,"line":2,"station_id":"DRN","i_long":106.85449},{"i_long":106.856607,"line":2,"station_name":"Cawang","time":3,"distance":1546,"transit":false,"station_id":"CW","is_transit":false,"i_lat":-6.242512},{"station_name":"Tebet","is_transit":false,"distance":1230,"line":2,"station_id":"TEB","i_lat":-6.226659,"i_long":106.857948,"time":2,"transit":false},{"transit":false,"station_id":"MRI","distance":2610,"i_lat":-6.209883,"i_long":106.84912,"line":2,"station_name":"Manggarai","time":4,"is_transit":false},{"i_long":106.840169,"is_transit":false,"i_lat":-6.198556,"distance":1590,"station_name":"Cikini","transit":false,"time":4,"station_id":"CKI","line":2},{"time":3,"transit":false,"station_id":"GDD","i_lat":-6.186295,"i_long":106.832183,"line":2,"distance":1750,"station_name":"Gondangdia","is_transit":false},{"transit":false,"station_name":"Juanda","station_id":"JUA","is_transit":false,"time":4,"i_long":106.828284,"distance":2015,"line":2,"i_lat":-6.166716},{"time":2,"line":2,"i_long":106.827103,"station_name":"Sawah Besar","distance":1149,"transit":false,"is_transit":false,"i_lat":-6.160725,"station_id":"SW"},{"i_lat":-6.149769,"station_id":"MGB","distance":906,"transit":false,"station_name":"Manggabesar","line":2,"i_long":106.82482,"is_transit":false,"time":2},{"transit":false,"station_name":"Jayakarta","distance":1080,"i_lat":-6.141205,"station_id":"JAY","line":2,"is_transit":false,"time":2,"i_long":106.820901},{"time":4,"station_id":"JAKK","i_long":106.812439,"i_lat":-6.137569,"line":2,"is_transit":true,"station_name":"Jakarta Kota","transit":true,"distance":1264},{"i_lat":-6.132549,"transit":true,"station_id":"KPB","is_transit":true,"line":4,"station_name":"Kampung Bandan","i_long":106.826365,"time":3,"distance":1364},{"station_id":"AK","distance":4102,"i_lat":-6.144674,"is_transit":false,"time":9,"station_name":"Angke","line":1,"transit":false,"i_long":106.79867},{"time":4,"distance":1230,"line":1,"transit":false,"station_id":"DU","is_transit":false,"station_name":"Duri","i_lat":-6.155215,"i_long":106.800832},{"i_lat":-6.185545,"station_name":"Tanah Abang","distance":3632,"station_id":"THB","line":1,"is_transit":true,"time":8,"transit":true,"i_long":106.811091},{"transit":false,"station_name":"Palmerah","station_id":"PLM","is_transit":false,"time":6,"i_long":106.79689,"line":6,"i_lat":-6.207404,"distance":3191},{"station_id":"KBY","i_lat":-6.237242,"time":7,"station_name":"Kebayoran","i_long":106.780334,"transit":false,"is_transit":false,"distance":3737,"line":6},{"line":6,"station_name":"Pondokranji","station_id":"PDJ","transit":false,"time":8,"distance":6218,"i_lat":-6.276362,"is_transit":false,"i_long":106.74273},{"station_id":"JMU","i_lat":-6.288927,"transit":false,"time":3,"station_name":"Jurangmangu","line":6,"is_transit":false,"i_long":106.728916,"distance":2179},{"station_id":"SDM","is_transit":false,"distance":1994,"line":6,"time":4,"i_lat":-6.296963,"transit":false,"i_long":106.712277,"station_name":"Sudimara"},{"station_name":"Rawa Buntu","is_transit":false,"i_lat":-6.314823,"distance":4566,"time":6,"station_id":"RU","i_long":106.675475,"line":6,"transit":false},{"transit":false,"station_id":"SRP","station_name":"Serpong","is_transit":false,"time":4,"i_lat":-6.319871,"line":6,"distance":2413,"i_long":106.66566},{"distance":1784,"station_name":"Cisauk","i_lat":-6.32484,"is_transit":false,"time":4,"i_long":106.640411,"line":3,"transit":false,"station_id":"CSK"},{"is_transit":false,"i_long":106.617853,"station_name":"Cicayur","station_id":"CC","distance":2519,"line":3,"transit":false,"time":4,"i_lat":-6.329547},{"is_transit":false,"line":6,"distance":5968,"i_lat":-6.3441410000000005,"transit":false,"station_id":"PRP","time":8,"i_long":106.568863,"station_name":"Parung Panjang"},{"station_id":"CJT","time":9,"transit":false,"distance":7025,"i_lat":-6.354349,"is_transit":false,"i_long":106.508482,"line":3,"station_name":"Cilejit"},{"transit":false,"i_lat":-6.338021,"station_id":"DAR","line":0,"station_name":"Daru","i_long":106.491338,"distance":2675,"time":6,"is_transit":false},{"transit":false,"station_id":"TEJ","station_name":"Tenjo","is_transit":false,"i_lat":-6.327251,"line":6,"time":5,"i_long":106.460812,"distance":3902}],[{"i_long":106.851577,"station_id":"PSMB","i_lat":-6.263214,"is_transit":false,"line":2,"transit":false,"time":0,"distance":0,"station_name":"Pasar Minggu Baru"},{"station_id":"DRN","transit":false,"i_lat":-6.255332,"distance":824,"time":2,"is_transit":false,"i_long":106.85449,"station_name":"Duren Kalibata","line":2},{"time":3,"line":2,"transit":false,"distance":1546,"is_transit":false,"i_long":106.856607,"station_name":"Cawang","station_id":"CW","i_lat":-6.242512},{"i_lat":-6.226659,"i_long":106.857948,"transit":false,"time":2,"station_name":"Tebet","station_id":"TEB","is_transit":false,"distance":1230,"line":2},{"i_long":106.84912,"station_name":"Manggarai","is_transit":true,"station_id":"MRI","transit":true,"distance":2610,"line":2,"i_lat":-6.209883,"time":4},{"distance":1275,"transit":false,"is_transit":false,"i_lat":-6.212485,"i_long":106.858896,"station_id":"MTR","time":2,"line":1,"station_name":"Matraman"},{"station_id":"JNG","i_lat":-6.215091,"station_name":"Jatinegara","i_long":106.86807400000001,"transit":true,"distance":1377,"line":1,"is_transit":true,"time":8},{"time":2,"station_name":"Pondok Jati","i_lat":-6.209188,"line":11,"transit":false,"is_transit":false,"distance":1236,"i_long":106.861737,"station_id":"POK"},{"i_lat":-6.193792,"is_transit":false,"i_long":106.855437,"line":11,"time":2,"distance":1829,"station_name":"Kramat","transit":false,"station_id":"KMT"},{"distance":973,"time":1,"station_name":"Gang Sentiong","i_long":106.850107,"i_lat":-6.185975,"line":11,"is_transit":false,"transit":false,"station_id":"GST"},{"is_transit":false,"station_id":"PSE","i_lat":-6.174784,"station_name":"Pasar Senen","transit":false,"time":8,"line":11,"i_long":106.84368,"distance":1567},{"station_name":"Kemayoran","transit":false,"station_id":"KMO","i_lat":-6.161728,"is_transit":false,"distance":1436,"time":4,"i_long":106.839204,"line":11},{"station_id":"RJW","transit":false,"station_name":"Rajawali","i_lat":-6.14505,"i_long":106.836569,"distance":1901,"time":5,"is_transit":false,"line":11},{"station_id":"KPB","i_long":106.826365,"time":3,"distance":1444,"station_name":"Kampung Bandan","is_transit":true,"transit":true,"i_lat":-6.132549,"line":4},{"i_long":106.79867,"line":1,"time":9,"distance":4102,"station_id":"AK","station_name":"Angke","i_lat":-6.144674,"transit":false,"is_transit":false},{"i_lat":-6.155215,"i_long":106.800832,"transit":false,"station_id":"DU","line":1,"time":4,"distance":1230,"station_name":"Duri","is_transit":false},{"station_name":"Tanah Abang","line":1,"transit":true,"i_long":106.811091,"i_lat":-6.185545,"station_id":"THB","distance":3632,"time":8,"is_transit":true},{"i_lat":-6.207404,"transit":false,"time":6,"i_long":106.79689,"station_id":"PLM","distance":3191,"station_name":"Palmerah","is_transit":false,"line":6},{"line":6,"time":7,"i_lat":-6.237242,"transit":false,"distance":3737,"station_name":"Kebayoran","station_id":"KBY","is_transit":false,"i_long":106.780334},{"distance":6218,"station_name":"Pondokranji","line":6,"transit":false,"i_lat":-6.276362,"time":8,"is_transit":false,"station_id":"PDJ","i_long":106.74273},{"i_lat":-6.288927,"time":3,"station_name":"Jurangmangu","line":6,"distance":2179,"i_long":106.728916,"transit":false,"is_transit":false,"station_id":"JMU"},{"i_lat":-6.296963,"transit":false,"station_name":"Sudimara","distance":1994,"i_long":106.712277,"is_transit":false,"line":6,"time":4,"station_id":"SDM"},{"station_name":"Rawa Buntu","time":6,"i_lat":-6.314823,"transit":false,"line":6,"i_long":106.675475,"is_transit":false,"distance":4566,"station_id":"RU"},{"distance":2413,"station_name":"Serpong","i_long":106.66566,"transit":false,"station_id":"SRP","i_lat":-6.319871,"is_transit":false,"time":4,"line":6},{"station_id":"CSK","station_name":"Cisauk","time":4,"transit":false,"i_long":106.640411,"is_transit":false,"i_lat":-6.32484,"distance":1784,"line":3},{"distance":2519,"i_lat":-6.329547,"line":3,"station_id":"CC","i_long":106.617853,"time":4,"transit":false,"station_name":"Cicayur","is_transit":false},{"i_lat":-6.3441410000000005,"line":6,"station_id":"PRP","is_transit":false,"transit":false,"station_name":"Parung Panjang","time":8,"distance":5968,"i_long":106.568863},{"transit":false,"station_id":"CJT","is_transit":false,"i_lat":-6.354349,"line":3,"time":9,"station_name":"Cilejit","i_long":106.508482,"distance":7025},{"line":0,"is_transit":false,"i_lat":-6.338021,"station_name":"Daru","time":6,"distance":2675,"station_id":"DAR","transit":false,"i_long":106.491338},{"is_transit":false,"station_name":"Tenjo","i_lat":-6.327251,"distance":3902,"time":5,"station_id":"TEJ","transit":false,"line":6,"i_long":106.460812}]]}