{"data":[[{"line":2,"transit":false,"time":0,"i_long":106.851577,"station_name":"Pasar Minggu Baru","station_id":"PSMB","i_lat":-6.263214,"distance":0,"is_transit":false},{"station_name":"Duren Kalibata","station_id":"DRN","time":2,"transit":false,"is_transit":false,"i_lat":-6.255332,"line":0,"distance":824,"i_long":106.85449},{"i_long":106.856607,"time":3,"is_transit":false,"transit":false,"i_lat":-6.242512,"station_id":"CW","line":0,"distance":1546,"station_name":"Cawang"},{"station_name":"Tebet","is_transit":false,"station_id":"TEB","time":2,"i_lat":-6.226659,"transit":false,"i_long":106.857948,"distance":1230,"line":2},{"distance":2610,"station_id":"MRI","is_transit":true,"station_name":"Manggarai","transit":true,"time":4,"i_lat":-6.209883,"i_long":106.84912,"line":0},{"distance":3186,"i_lat":-6.202263,"transit":false,"is_transit":false,"station_id":"SUD","station_name":"Sudirman","time":4,"i_long":106.822649,"line":1},{"i_long":106.819881,"station_name":"Sudirman Baru","station_id":"SUDB","transit":false,"line":1,"is_transit":false,"distance":280,"i_lat":-6.201433,"time":1},{"i_long":106.816351,"transit":false,"is_transit":false,"time":1,"line":1,"distance":471,"station_id":"KAT","i_lat":-6.20132,"station_name":"Karet"},{"is_transit":true,"distance":2029,"station_id":"THB","time":5,"transit":false,"line":1,"station_name":"Tanah Abang","i_long":106.811091,"i_lat":-6.185545},{"time":8,"i_lat":-6.155215,"distance":3632,"line":1,"transit":true,"station_id":"DU","is_transit":true,"station_name":"Duri","i_long":106.800832},{"station_id":"AK","i_lat":-6.144674,"transit":false,"station_name":"Angke","is_transit":false,"line":0,"i_long":106.79867,"distance":1230,"time":4},{"i_long":106.826365,"distance":4102,"transit":true,"i_lat":-6.132549,"line":0,"station_name":"Kampung Bandan","station_id":"KPB","is_transit":true,"time":9},{"station_name":"Rajawali","time":3,"transit":false,"station_id":"RJW","i_lat":-6.14505,"i_long":106.836569,"line":11,"is_transit":false,"distance":1444}],[{"i_lat":-6.263214,"is_transit":false,"i_long":106.851577,"station_name":"Pasar Minggu Baru","time":0,"distance":0,"station_id":"PSMB","transit":false,"line":2},{"time":2,"i_lat":-6.255332,"line":0,"i_long":106.85449,"station_id":"DRN","station_name":"Duren Kalibata","transit":false,"is_transit":false,"distance":824},{"transit":false,"time":3,"station_id":"CW","is_transit":false,"station_name":"Cawang","line":0,"i_long":106.856607,"distance":1546,"i_lat":-6.242512},{"distance":1230,"time":2,"line":2,"station_name":"Tebet","transit":false,"station_id":"TEB","is_transit":false,"i_long":106.857948,"i_lat":-6.226659},{"line":0,"transit":true,"time":4,"i_long":106.84912,"i_lat":-6.209883,"is_transit":true,"station_id":"MRI","station_name":"Manggarai","distance":2610},{"i_long":106.858896,"is_transit":false,"line":1,"distance":1275,"i_lat":-6.212485,"transit":false,"station_id":"MTR","station_name":"Matraman","time":2},{"station_name":"Jatinegara","i_lat":-6.215091,"time":8,"i_long":106.86807400000001,"is_transit":true,"distance":1377,"station_id":"JNG","line":0,"transit":true},{"transit":false,"station_id":"POK","time":2,"i_lat":-6.209188,"i_long":106.861737,"line":11,"station_name":"Pondok Jati","distance":1236,"is_transit":false},{"station_id":"KMT","i_long":106.855437,"distance":1829,"transit":false,"time":2,"line":11,"station_name":"Kramat","i_lat":-6.193792,"is_transit":false},{"station_id":"GST","i_lat":-6.185975,"is_transit":false,"line":11,"distance":973,"i_long":106.850107,"station_name":"Gang Sentiong","transit":false,"time":1},{"line":11,"transit":false,"station_id":"PSE","i_lat":-6.174784,"distance":1567,"is_transit":false,"station_name":"Pasar Senen","i_long":106.84368,"time":8},{"distance":1436,"i_long":106.839204,"station_id":"KMO","i_lat":-6.161728,"time":4,"is_transit":false,"transit":false,"line":11,"station_name":"Kemayoran"},{"station_name":"Rajawali","station_id":"RJW","transit":false,"i_lat":-6.14505,"i_long":106.836569,"line":11,"time":5,"distance":1901,"is_transit":false}],[{"distance":0,"station_name":"Pasar Minggu Baru","i_long":106.851577,"line":2,"station_id":"PSMB","transit":false,"time":0,"i_lat":-6.263214,"is_transit":false},{"station_name":"Duren Kalibata","i_lat":-6.255332,"distance":824,"line":0,"time":2,"transit":false,"i_long":106.85449,"is_transit":false,"station_id":"DRN"},{"line":0,"i_long":106.856607,"station_id":"CW","distance":1546,"is_transit":false,"station_name":"Cawang","transit":false,"time":3,"i_lat":-6.242512},{"line":2,"transit":false,"time":2,"distance":1230,"i_lat":-6.226659,"is_transit":false,"station_id":"TEB","station_name":"Tebet","i_long":106.857948},{"station_id":"MRI","transit":true,"is_transit":true,"time":4,"distance":2610,"station_name":"Manggarai","i_lat":-6.209883,"i_long":106.84912,"line":0},{"line":0,"distance":1590,"i_long":106.840169,"is_transit":false,"station_id":"CKI","station_name":"Cikini","transit":false,"time":4,"i_lat":-6.198556},{"distance":1750,"is_transit":false,"station_id":"GDD","station_name":"Gondangdia","transit":false,"i_lat":-6.186295,"i_long":106.832183,"time":3,"line":2},{"i_long":106.828284,"is_transit":false,"station_id":"JUA","i_lat":-6.166716,"distance":2015,"time":4,"station_name":"Juanda","line":2,"transit":false},{"line":2,"transit":false,"station_name":"Sawah Besar","time":2,"is_transit":false,"station_id":"SW","distance":1149,"i_long":106.827103,"i_lat":-6.160725},{"i_lat":-6.149769,"is_transit":false,"station_id":"MGB","station_name":"Manggabesar","transit":false,"i_long":106.82482,"distance":906,"time":2,"line":2},{"is_transit":false,"station_name":"Jayakarta","transit":false,"i_lat":-6.141205,"i_long":106.820901,"distance":1080,"time":2,"line":7,"station_id":"JAY"},{"time":4,"line":0,"distance":1264,"station_id":"JAKK","station_name":"Jakarta Kota","transit":true,"i_long":106.812439,"is_transit":true,"i_lat":-6.137569},{"station_name":"Kampung Bandan","time":3,"line":0,"transit":true,"distance":1364,"is_transit":true,"i_lat":-6.132549,"i_long":106.826365,"station_id":"KPB"},{"i_long":106.836569,"line":11,"transit":false,"i_lat":-6.14505,"station_id":"RJW","station_name":"Rajawali","time":3,"is_transit":false,"distance":1444}]]}