{"data":[[{"line":2,"distance":0,"station_name":"Pasar Minggu Baru","i_lat":-6.263214,"time":0,"station_id":"PSMB","transit":false,"i_long":106.851577,"is_transit":false},{"station_name":"Pasar Minggu","line":2,"i_long":106.843999,"transit":false,"i_lat":-6.2842400000000005,"is_transit":false,"time":2,"distance":2380,"station_id":"PSM"},{"i_long":106.838896,"time":4,"distance":2820,"is_transit":false,"transit":false,"i_lat":-6.3080680000000005,"line":2,"station_id":"TNT","station_name":"Tanjung Barat"},{"time":3,"distance":2671,"station_id":"LNA","is_transit":false,"i_lat":-6.330363,"transit":false,"line":2,"station_name":"Lenteng Agung","i_long":106.832616},{"distance":1029,"station_id":"UP","station_name":"Univ. Pancasila","line":2,"transit":false,"i_long":106.834175,"is_transit":false,"i_lat":-6.339291,"time":2},{"is_transit":false,"distance":2264,"i_long":106.831474,"line":2,"transit":false,"station_id":"UI","station_name":"Univ. Indonesia","time":3,"i_lat":-6.360749},{"transit":false,"i_long":106.831114,"line":2,"time":2,"i_lat":-6.369073,"distance":1109,"station_id":"POC","is_transit":false,"station_name":"Pondok Cina"},{"i_long":106.819451,"distance":2727,"station_name":"Depokbaru","is_transit":false,"time":4,"transit":false,"station_id":"DPB","line":2,"i_lat":-6.391065}]]}