{"data":[[{"station_id":"PSMB","i_lat":-6.263214,"i_long":106.851577,"time":0,"transit":false,"is_transit":false,"line":2,"station_name":"Pasar Minggu Baru","distance":0},{"station_id":"PSM","is_transit":false,"station_name":"Pasar Minggu","time":2,"transit":false,"line":2,"i_lat":-6.2842400000000005,"i_long":106.843999,"distance":2380},{"line":2,"is_transit":false,"station_id":"TNT","transit":false,"distance":2820,"i_long":106.838896,"time":4,"station_name":"Tanjung Barat","i_lat":-6.3080680000000005},{"is_transit":false,"i_long":106.832616,"distance":2671,"transit":false,"i_lat":-6.330363,"time":3,"station_id":"LNA","station_name":"Lenteng Agung","line":2},{"station_id":"UP","station_name":"Univ. Pancasila","i_long":106.834175,"is_transit":false,"transit":false,"time":2,"line":2,"i_lat":-6.339291,"distance":1029},{"distance":2264,"i_long":106.831474,"time":3,"i_lat":-6.360749,"line":2,"transit":false,"station_name":"Univ. Indonesia","station_id":"UI","is_transit":false},{"line":2,"transit":false,"station_id":"POC","distance":1109,"i_long":106.831114,"is_transit":false,"time":2,"i_lat":-6.369073,"station_name":"Pondok Cina"},{"distance":2727,"station_name":"Depokbaru","is_transit":false,"time":4,"i_lat":-6.391065,"i_long":106.819451,"line":2,"transit":false,"station_id":"DPB"},{"i_long":106.816926,"station_id":"DP","i_lat":-6.405256,"line":2,"station_name":"Depok","transit":false,"is_transit":false,"distance":1584,"time":3}]]}