{"data":[[{"i_lat":-6.263214,"i_long":106.851577,"line":2,"is_transit":false,"station_id":"PSMB","transit":false,"station_name":"Pasar Minggu Baru","distance":0,"time":0},{"station_id":"DRN","transit":false,"i_lat":-6.255332,"i_long":106.85449,"line":2,"distance":824,"station_name":"Duren Kalibata","time":2,"is_transit":false},{"is_transit":false,"distance":1546,"station_id":"CW","station_name":"Cawang","time":3,"transit":false,"i_lat":-6.242512,"i_long":106.856607,"line":2},{"station_name":"Tebet","station_id":"TEB","is_transit":false,"transit":false,"i_long":106.857948,"line":2,"distance":1230,"time":2,"i_lat":-6.226659},{"line":2,"station_id":"MRI","station_name":"Manggarai","distance":2610,"is_transit":true,"transit":true,"i_long":106.84912,"time":4,"i_lat":-6.209883},{"station_id":"SUD","distance":3186,"time":4,"station_name":"Sudirman","transit":false,"i_lat":-6.202263,"line":1,"is_transit":false,"i_long":106.822649},{"time":1,"line":1,"i_long":106.819881,"is_transit":false,"i_lat":-6.201433,"station_id":"SUDB","transit":false,"station_name":"Sudirman Baru","distance":280},{"line":1,"i_long":106.816351,"station_name":"Karet","is_transit":false,"station_id":"KAT","transit":false,"i_lat":-6.20132,"distance":471,"time":1},{"station_name":"Tanah Abang","i_lat":-6.185545,"time":5,"transit":true,"i_long":106.811091,"distance":2029,"is_transit":true,"line":1,"station_id":"THB"},{"is_transit":false,"station_id":"PLM","transit":false,"time":6,"station_name":"Palmerah","i_lat":-6.207404,"i_long":106.79689,"line":6,"distance":3191},{"distance":3737,"i_long":106.780334,"station_name":"Kebayoran","line":6,"transit":false,"time":7,"i_lat":-6.237242,"is_transit":false,"station_id":"KBY"},{"distance":6218,"i_lat":-6.276362,"time":8,"i_long":106.74273,"is_transit":false,"station_name":"Pondokranji","line":6,"transit":false,"station_id":"PDJ"},{"distance":2179,"station_id":"JMU","i_lat":-6.288927,"is_transit":false,"transit":false,"station_name":"Jurangmangu","i_long":106.728916,"line":6,"time":3}],[{"distance":0,"line":2,"time":0,"is_transit":false,"i_long":106.851577,"station_id":"PSMB","transit":false,"i_lat":-6.263214,"station_name":"Pasar Minggu Baru"},{"i_long":106.85449,"station_name":"Duren Kalibata","distance":824,"time":2,"is_transit":false,"line":2,"transit":false,"station_id":"DRN","i_lat":-6.255332},{"distance":1546,"is_transit":false,"i_lat":-6.242512,"i_long":106.856607,"transit":false,"time":3,"line":2,"station_id":"CW","station_name":"Cawang"},{"line":2,"i_long":106.857948,"distance":1230,"station_id":"TEB","station_name":"Tebet","i_lat":-6.226659,"is_transit":false,"time":2,"transit":false},{"station_name":"Manggarai","i_lat":-6.209883,"time":4,"distance":2610,"is_transit":false,"i_long":106.84912,"transit":false,"line":2,"station_id":"MRI"},{"station_name":"Cikini","distance":1590,"time":4,"is_transit":false,"station_id":"CKI","transit":false,"i_long":106.840169,"i_lat":-6.198556,"line":2},{"line":2,"station_name":"Gondangdia","distance":1750,"transit":false,"station_id":"GDD","time":3,"is_transit":false,"i_long":106.832183,"i_lat":-6.186295},{"i_lat":-6.166716,"i_long":106.828284,"is_transit":false,"station_name":"Juanda","distance":2015,"station_id":"JUA","transit":false,"time":4,"line":2},{"station_id":"SW","time":2,"i_lat":-6.160725,"distance":1149,"i_long":106.827103,"transit":false,"station_name":"Sawah Besar","line":2,"is_transit":false},{"station_id":"MGB","distance":906,"time":2,"i_long":106.82482,"is_transit":false,"line":2,"station_name":"Manggabesar","transit":false,"i_lat":-6.149769},{"time":2,"distance":1080,"station_id":"JAY","transit":false,"is_transit":false,"station_name":"Jayakarta","i_lat":-6.141205,"i_long":106.820901,"line":2},{"time":4,"station_id":"JAKK","transit":true,"station_name":"Jakarta Kota","is_transit":true,"distance":1264,"i_long":106.812439,"i_lat":-6.137569,"line":2},{"i_lat":-6.132549,"is_transit":true,"time":3,"i_long":106.826365,"distance":1364,"line":4,"station_id":"KPB","station_name":"Kampung Bandan","transit":true},{"time":9,"is_transit":false,"station_id":"AK","station_name":"Angke","distance":4102,"line":1,"i_lat":-6.144674,"i_long":106.79867,"transit":false},{"time":4,"station_name":"Duri","line":1,"i_lat":-6.155215,"i_long":106.800832,"station_id":"DU","distance":1230,"is_transit":false,"transit":false},{"i_long":106.811091,"time":8,"line":1,"station_id":"THB","is_transit":true,"station_name":"Tanah Abang","i_lat":-6.185545,"distance":3632,"transit":true},{"line":6,"time":6,"station_name":"Palmerah","i_lat":-6.207404,"station_id":"PLM","is_transit":false,"transit":false,"distance":3191,"i_long":106.79689},{"station_name":"Kebayoran","time":7,"i_lat":-6.237242,"distance":3737,"line":6,"i_long":106.780334,"transit":false,"is_transit":false,"station_id":"KBY"},{"distance":6218,"line":6,"i_lat":-6.276362,"station_id":"PDJ","transit":false,"is_transit":false,"time":8,"station_name":"Pondokranji","i_long":106.74273},{"station_name":"Jurangmangu","distance":2179,"station_id":"JMU","i_lat":-6.288927,"time":3,"transit":false,"i_long":106.728916,"is_transit":false,"line":6}],[{"station_id":"PSMB","transit":false,"station_name":"Pasar Minggu Baru","time":0,"distance":0,"i_long":106.851577,"line":2,"i_lat":-6.263214,"is_transit":false},{"distance":824,"i_lat":-6.255332,"station_name":"Duren Kalibata","time":2,"line":2,"i_long":106.85449,"transit":false,"station_id":"DRN","is_transit":false},{"is_transit":false,"station_id":"CW","station_name":"Cawang","transit":false,"distance":1546,"time":3,"i_long":106.856607,"line":2,"i_lat":-6.242512},{"is_transit":false,"i_lat":-6.226659,"i_long":106.857948,"distance":1230,"line":2,"transit":false,"time":2,"station_name":"Tebet","station_id":"TEB"},{"i_long":106.84912,"transit":true,"station_id":"MRI","i_lat":-6.209883,"distance":2610,"is_transit":true,"station_name":"Manggarai","time":4,"line":2},{"time":2,"transit":false,"is_transit":false,"i_long":106.858896,"i_lat":-6.212485,"distance":1275,"station_id":"MTR","station_name":"Matraman","line":1},{"transit":true,"station_name":"Jatinegara","i_lat":-6.215091,"i_long":106.86807400000001,"time":8,"distance":1377,"line":1,"station_id":"JNG","is_transit":true},{"i_lat":-6.209188,"station_id":"POK","i_long":106.861737,"line":11,"distance":1236,"is_transit":false,"transit":false,"station_name":"Pondok Jati","time":2},{"i_lat":-6.193792,"line":11,"i_long":106.855437,"station_name":"Kramat","transit":false,"distance":1829,"station_id":"KMT","time":2,"is_transit":false},{"distance":973,"is_transit":false,"i_lat":-6.185975,"station_id":"GST","transit":false,"time":1,"i_long":106.850107,"line":11,"station_name":"Gang Sentiong"},{"time":8,"distance":1567,"line":11,"transit":false,"station_name":"Pasar Senen","i_lat":-6.174784,"station_id":"PSE","i_long":106.84368,"is_transit":false},{"distance":1436,"is_transit":false,"station_id":"KMO","station_name":"Kemayoran","transit":false,"line":11,"time":4,"i_lat":-6.161728,"i_long":106.839204},{"station_name":"Rajawali","station_id":"RJW","distance":1901,"time":5,"i_long":106.836569,"transit":false,"i_lat":-6.14505,"line":11,"is_transit":false},{"i_lat":-6.132549,"time":3,"i_long":106.826365,"line":4,"station_id":"KPB","is_transit":true,"station_name":"Kampung Bandan","transit":true,"distance":1444},{"station_name":"Angke","i_lat":-6.144674,"i_long":106.79867,"line":1,"is_transit":false,"station_id":"AK","transit":false,"time":9,"distance":4102},{"i_long":106.800832,"transit":false,"time":4,"station_name":"Duri","line":1,"station_id":"DU","is_transit":false,"distance":1230,"i_lat":-6.155215},{"station_id":"THB","is_transit":true,"station_name":"Tanah Abang","i_long":106.811091,"line":1,"distance":3632,"transit":true,"i_lat":-6.185545,"time":8},{"transit":false,"distance":3191,"i_lat":-6.207404,"time":6,"line":6,"station_id":"PLM","station_name":"Palmerah","is_transit":false,"i_long":106.79689},{"distance":3737,"i_lat":-6.237242,"is_transit":false,"station_name":"Kebayoran","station_id":"KBY","i_long":106.780334,"time":7,"transit":false,"line":6},{"distance":6218,"i_lat":-6.276362,"station_name":"Pondokranji","station_id":"PDJ","is_transit":false,"transit":false,"i_long":106.74273,"line":6,"time":8},{"station_id":"JMU","i_lat":-6.288927,"station_name":"Jurangmangu","distance":2179,"i_long":106.728916,"is_transit":false,"transit":false,"line":6,"time":3}]]}