{"data":[[{"distance":0,"time":0,"is_transit":false,"transit":false,"i_lat":-6.263214,"line":2,"i_long":106.851577,"station_id":"PSMB","station_name":"Pasar Minggu Baru"},{"station_name":"Duren Kalibata","station_id":"DRN","is_transit":false,"line":2,"time":2,"i_lat":-6.255332,"distance":824,"i_long":106.85449,"transit":false},{"i_lat":-6.242512,"is_transit":false,"transit":false,"distance":1546,"line":2,"time":3,"i_long":106.856607,"station_id":"CW","station_name":"Cawang"},{"line":2,"station_id":"TEB","i_lat":-6.226659,"distance":1230,"is_transit":false,"i_long":106.857948,"transit":false,"time":2,"station_name":"Tebet"},{"station_name":"Manggarai","i_long":106.84912,"line":2,"distance":2610,"transit":true,"i_lat":-6.209883,"is_transit":true,"time":4,"station_id":"MRI"},{"transit":false,"station_name":"Matraman","is_transit":false,"i_long":106.858896,"station_id":"MTR","i_lat":-6.212485,"line":1,"time":2,"distance":1275},{"i_long":106.86807400000001,"transit":false,"station_name":"Jatinegara","time":8,"i_lat":-6.215091,"line":1,"is_transit":false,"station_id":"JNG","distance":1377},{"i_lat":-6.2135,"line":1,"station_name":"Klender","time":3,"is_transit":false,"transit":false,"station_id":"KLD","distance":3395,"i_long":106.899548},{"line":1,"i_long":106.922662,"transit":false,"station_id":"BUA","station_name":"Buaran","distance":3100,"time":2,"i_lat":-6.215568,"is_transit":false},{"station_name":"Klenderbaru","station_id":"KLDB","transit":false,"i_lat":-6.217455,"distance":1305,"line":1,"is_transit":false,"i_long":106.939679,"time":1},{"station_id":"CUK","i_lat":-6.219053,"i_long":106.951283,"distance":1385,"station_name":"Cakung","is_transit":false,"time":8,"line":1,"transit":false},{"i_long":106.977657,"i_lat":-6.224515,"is_transit":false,"time":3,"transit":false,"station_name":"Kranji","distance":3097,"line":1,"station_id":"KRI"},{"station_id":"BKS","is_transit":false,"time":4,"station_name":"Bekasi","transit":false,"distance":2520,"i_lat":-6.236616,"line":1,"i_long":106.997013},{"is_transit":false,"time":2,"station_name":"Bekasi Timur","station_id":"BKST","i_lat":-6.248029,"i_long":107.016735,"transit":false,"line":1,"distance":2368},{"station_id":"TB","transit":false,"i_lat":-6.258864,"is_transit":false,"line":1,"i_long":107.055722,"station_name":"Tambun","distance":4460,"time":7},{"i_lat":-6.261877,"is_transit":false,"line":1,"distance":3420,"station_name":"Cibitung","i_long":107.083084,"transit":false,"time":3,"station_id":"CIT"},{"transit":false,"distance":2800,"i_long":107.093313,"time":2,"station_id":"TLM","line":1,"i_lat":-6.262938,"is_transit":false,"station_name":"Metland Telaga Murni"},{"station_id":"CKR","i_long":107.144613,"i_lat":-6.2553149999999995,"distance":3689,"time":4,"station_name":"Cikarang","line":1,"transit":false,"is_transit":false}],[{"time":0,"distance":0,"i_lat":-6.263214,"line":2,"station_id":"PSMB","transit":false,"i_long":106.851577,"station_name":"Pasar Minggu Baru","is_transit":false},{"i_lat":-6.255332,"transit":false,"time":2,"station_id":"DRN","is_transit":false,"i_long":106.85449,"distance":824,"station_name":"Duren Kalibata","line":2},{"distance":1546,"i_long":106.856607,"is_transit":false,"transit":false,"station_name":"Cawang","line":2,"station_id":"CW","time":3,"i_lat":-6.242512},{"transit":false,"station_name":"Tebet","station_id":"TEB","is_transit":false,"time":2,"distance":1230,"line":2,"i_long":106.857948,"i_lat":-6.226659},{"station_id":"MRI","line":2,"i_long":106.84912,"station_name":"Manggarai","is_transit":true,"distance":2610,"i_lat":-6.209883,"time":4,"transit":true},{"station_name":"Sudirman","time":4,"transit":false,"station_id":"SUD","i_lat":-6.202263,"i_long":106.822649,"line":1,"distance":3186,"is_transit":false},{"time":1,"i_lat":-6.201433,"is_transit":false,"transit":false,"station_id":"SUDB","distance":280,"line":1,"station_name":"Sudirman Baru","i_long":106.819881},{"station_name":"Karet","is_transit":false,"station_id":"KAT","line":1,"transit":false,"i_lat":-6.20132,"time":1,"distance":471,"i_long":106.816351},{"is_transit":false,"i_lat":-6.185545,"transit":false,"station_name":"Tanah Abang","distance":2029,"line":1,"time":5,"i_long":106.811091,"station_id":"THB"},{"transit":false,"station_id":"DU","i_long":106.800832,"is_transit":false,"time":8,"station_name":"Duri","i_lat":-6.155215,"line":1,"distance":3632},{"distance":1230,"transit":false,"i_lat":-6.144674,"i_long":106.79867,"time":4,"station_id":"AK","is_transit":false,"station_name":"Angke","line":1},{"is_transit":true,"line":4,"station_name":"Kampung Bandan","distance":4102,"i_lat":-6.132549,"transit":true,"i_long":106.826365,"time":9,"station_id":"KPB"},{"station_id":"RJW","transit":false,"time":3,"station_name":"Rajawali","i_lat":-6.14505,"line":11,"distance":1444,"is_transit":false,"i_long":106.836569},{"line":11,"is_transit":false,"station_id":"KMO","i_lat":-6.161728,"i_long":106.839204,"transit":false,"time":5,"distance":1901,"station_name":"Kemayoran"},{"i_long":106.84368,"line":11,"distance":1436,"time":4,"i_lat":-6.174784,"transit":false,"station_id":"PSE","is_transit":false,"station_name":"Pasar Senen"},{"i_long":106.850107,"transit":false,"station_id":"GST","is_transit":false,"station_name":"Gang Sentiong","i_lat":-6.185975,"line":11,"time":8,"distance":1567},{"is_transit":false,"time":1,"distance":973,"station_name":"Kramat","line":11,"i_long":106.855437,"station_id":"KMT","transit":false,"i_lat":-6.193792},{"time":2,"transit":false,"station_name":"Pondok Jati","distance":1829,"i_lat":-6.209188,"i_long":106.861737,"line":11,"station_id":"POK","is_transit":false},{"is_transit":true,"distance":1236,"transit":true,"i_long":106.86807400000001,"station_name":"Jatinegara","time":9,"i_lat":-6.215091,"line":1,"station_id":"JNG"},{"distance":3395,"is_transit":false,"station_id":"KLD","time":3,"transit":false,"i_long":106.899548,"station_name":"Klender","line":1,"i_lat":-6.2135},{"station_id":"BUA","i_long":106.922662,"line":1,"station_name":"Buaran","is_transit":false,"time":2,"distance":3100,"i_lat":-6.215568,"transit":false},{"station_id":"KLDB","transit":false,"is_transit":false,"i_lat":-6.217455,"time":1,"distance":1305,"i_long":106.939679,"line":1,"station_name":"Klenderbaru"},{"station_id":"CUK","time":8,"station_name":"Cakung","transit":false,"distance":1385,"line":1,"is_transit":false,"i_long":106.951283,"i_lat":-6.219053},{"station_name":"Kranji","is_transit":false,"i_lat":-6.224515,"i_long":106.977657,"line":1,"transit":false,"station_id":"KRI","distance":3097,"time":3},{"line":1,"transit":false,"station_name":"Bekasi","distance":2520,"time":4,"is_transit":false,"i_long":106.997013,"i_lat":-6.236616,"station_id":"BKS"},{"transit":false,"is_transit":false,"time":2,"i_long":107.016735,"distance":2368,"station_name":"Bekasi Timur","i_lat":-6.248029,"line":1,"station_id":"BKST"},{"transit":false,"line":1,"distance":4460,"time":7,"i_long":107.055722,"i_lat":-6.258864,"is_transit":false,"station_name":"Tambun","station_id":"TB"},{"i_long":107.083084,"i_lat":-6.261877,"is_transit":false,"line":1,"station_id":"CIT","distance":3420,"station_name":"Cibitung","transit":false,"time":3},{"station_name":"Metland Telaga Murni","is_transit":false,"time":2,"transit":false,"i_long":107.093313,"line":1,"distance":2800,"i_lat":-6.262938,"station_id":"TLM"},{"transit":false,"station_id":"CKR","time":4,"line":1,"is_transit":false,"i_long":107.144613,"i_lat":-6.2553149999999995,"station_name":"Cikarang","distance":3689}],[{"line":2,"i_long":106.851577,"i_lat":-6.263214,"time":0,"transit":false,"distance":0,"station_name":"Pasar Minggu Baru","station_id":"PSMB","is_transit":false},{"line":2,"transit":false,"station_id":"DRN","time":2,"i_lat":-6.255332,"distance":824,"is_transit":false,"station_name":"Duren Kalibata","i_long":106.85449},{"station_id":"CW","distance":1546,"i_lat":-6.242512,"line":2,"is_transit":false,"transit":false,"time":3,"i_long":106.856607,"station_name":"Cawang"},{"i_lat":-6.226659,"station_id":"TEB","time":2,"transit":false,"line":2,"is_transit":false,"distance":1230,"i_long":106.857948,"station_name":"Tebet"},{"station_name":"Manggarai","i_long":106.84912,"i_lat":-6.209883,"transit":false,"station_id":"MRI","distance":2610,"is_transit":false,"time":4,"line":2},{"time":4,"is_transit":false,"distance":1590,"transit":false,"line":2,"station_name":"Cikini","i_lat":-6.198556,"station_id":"CKI","i_long":106.840169},{"station_id":"GDD","distance":1750,"i_long":106.832183,"station_name":"Gondangdia","line":2,"time":3,"i_lat":-6.186295,"transit":false,"is_transit":false},{"station_name":"Juanda","i_lat":-6.166716,"i_long":106.828284,"time":4,"station_id":"JUA","is_transit":false,"distance":2015,"line":2,"transit":false},{"station_name":"Sawah Besar","transit":false,"line":2,"i_long":106.827103,"i_lat":-6.160725,"station_id":"SW","is_transit":false,"time":2,"distance":1149},{"station_id":"MGB","distance":906,"i_long":106.82482,"transit":false,"station_name":"Manggabesar","line":2,"is_transit":false,"time":2,"i_lat":-6.149769},{"station_name":"Jayakarta","transit":false,"i_lat":-6.141205,"distance":1080,"i_long":106.820901,"line":2,"station_id":"JAY","is_transit":false,"time":2},{"is_transit":true,"i_long":106.812439,"station_name":"Jakarta Kota","station_id":"JAKK","i_lat":-6.137569,"time":4,"transit":true,"distance":1264,"line":2},{"i_long":106.826365,"i_lat":-6.132549,"distance":1364,"is_transit":true,"transit":true,"station_id":"KPB","station_name":"Kampung Bandan","time":3,"line":4},{"station_name":"Rajawali","station_id":"RJW","is_transit":false,"time":3,"line":11,"transit":false,"i_lat":-6.14505,"distance":1444,"i_long":106.836569},{"line":11,"is_transit":false,"i_lat":-6.161728,"distance":1901,"transit":false,"i_long":106.839204,"time":5,"station_name":"Kemayoran","station_id":"KMO"},{"i_lat":-6.174784,"station_id":"PSE","is_transit":false,"distance":1436,"i_long":106.84368,"station_name":"Pasar Senen","line":11,"time":4,"transit":false},{"distance":1567,"i_lat":-6.185975,"i_long":106.850107,"transit":false,"line":11,"station_name":"Gang Sentiong","station_id":"GST","is_transit":false,"time":8},{"transit":false,"is_transit":false,"i_long":106.855437,"line":11,"station_id":"KMT","distance":973,"station_name":"Kramat","i_lat":-6.193792,"time":1},{"station_id":"POK","i_lat":-6.209188,"is_transit":false,"line":11,"time":2,"distance":1829,"station_name":"Pondok Jati","i_long":106.861737,"transit":false},{"time":9,"is_transit":true,"line":1,"transit":true,"station_id":"JNG","station_name":"Jatinegara","i_lat":-6.215091,"i_long":106.86807400000001,"distance":1236},{"is_transit":false,"i_long":106.899548,"time":3,"station_id":"KLD","station_name":"Klender","line":1,"distance":3395,"i_lat":-6.2135,"transit":false},{"station_name":"Buaran","time":2,"line":1,"distance":3100,"i_lat":-6.215568,"station_id":"BUA","i_long":106.922662,"transit":false,"is_transit":false},{"line":1,"i_lat":-6.217455,"is_transit":false,"station_id":"KLDB","station_name":"Klenderbaru","time":1,"transit":false,"distance":1305,"i_long":106.939679},{"station_id":"CUK","is_transit":false,"line":1,"station_name":"Cakung","i_lat":-6.219053,"i_long":106.951283,"transit":false,"time":8,"distance":1385},{"station_id":"KRI","i_lat":-6.224515,"station_name":"Kranji","is_transit":false,"transit":false,"time":3,"distance":3097,"i_long":106.977657,"line":1},{"i_long":106.997013,"time":4,"line":1,"distance":2520,"is_transit":false,"transit":false,"station_id":"BKS","i_lat":-6.236616,"station_name":"Bekasi"},{"transit":false,"station_id":"BKST","station_name":"Bekasi Timur","time":2,"distance":2368,"is_transit":false,"i_lat":-6.248029,"i_long":107.016735,"line":1},{"is_transit":false,"time":7,"i_lat":-6.258864,"distance":4460,"i_long":107.055722,"line":1,"station_name":"Tambun","transit":false,"station_id":"TB"},{"transit":false,"i_long":107.083084,"i_lat":-6.261877,"is_transit":false,"station_name":"Cibitung","station_id":"CIT","time":3,"distance":3420,"line":1},{"station_id":"TLM","i_long":107.093313,"station_name":"Metland Telaga Murni","is_transit":false,"distance":2800,"line":1,"transit":false,"i_lat":-6.262938,"time":2},{"i_lat":-6.2553149999999995,"is_transit":false,"i_long":107.144613,"transit":false,"line":1,"distance":3689,"station_id":"CKR","time":4,"station_name":"Cikarang"}]]}