{"data":[[{"i_long":106.851577,"station_id":"PSMB","is_transit":false,"station_name":"Pasar Minggu Baru","time":0,"i_lat":-6.263214,"line":2,"distance":0,"transit":false},{"distance":824,"is_transit":false,"time":2,"i_lat":-6.255332,"line":0,"station_id":"DRN","i_long":106.85449,"station_name":"Duren Kalibata","transit":false},{"distance":1546,"time":3,"transit":false,"line":0,"station_name":"Cawang","is_transit":false,"i_lat":-6.242512,"station_id":"CW","i_long":106.856607},{"time":2,"station_id":"TEB","distance":1230,"transit":false,"i_long":106.857948,"is_transit":false,"station_name":"Tebet","i_lat":-6.226659,"line":2},{"station_name":"Manggarai","line":0,"distance":2610,"is_transit":true,"i_long":106.84912,"time":4,"i_lat":-6.209883,"transit":true,"station_id":"MRI"},{"station_name":"Matraman","i_lat":-6.212485,"i_long":106.858896,"is_transit":false,"time":2,"line":1,"transit":false,"station_id":"MTR","distance":1275},{"line":0,"distance":1377,"is_transit":true,"i_long":106.86807400000001,"station_id":"JNG","transit":false,"i_lat":-6.215091,"time":8,"station_name":"Jatinegara"},{"station_name":"Klender","transit":false,"i_lat":-6.2135,"station_id":"KLD","time":3,"i_long":106.899548,"is_transit":false,"line":1,"distance":3395},{"transit":false,"i_long":106.922662,"i_lat":-6.215568,"distance":3100,"station_id":"BUA","time":2,"is_transit":false,"station_name":"Buaran","line":0},{"station_name":"Klenderbaru","line":1,"transit":false,"is_transit":false,"i_lat":-6.217455,"i_long":106.939679,"time":1,"distance":1305,"station_id":"KLDB"},{"station_name":"Cakung","i_lat":-6.219053,"is_transit":false,"distance":1385,"station_id":"CUK","i_long":106.951283,"transit":false,"line":0,"time":8},{"transit":false,"station_name":"Kranji","i_long":106.977657,"line":1,"time":3,"distance":3097,"is_transit":false,"station_id":"KRI","i_lat":-6.224515},{"distance":2520,"line":0,"transit":false,"station_id":"BKS","time":4,"is_transit":false,"i_lat":-6.236616,"i_long":106.997013,"station_name":"Bekasi"},{"i_lat":-6.248029,"line":0,"time":2,"distance":2368,"is_transit":false,"i_long":107.016735,"station_id":"BKST","station_name":"Bekasi Timur","transit":false}],[{"time":0,"line":2,"station_name":"Pasar Minggu Baru","distance":0,"i_lat":-6.263214,"transit":false,"station_id":"PSMB","is_transit":false,"i_long":106.851577},{"distance":824,"time":2,"i_long":106.85449,"line":0,"transit":false,"station_id":"DRN","station_name":"Duren Kalibata","is_transit":false,"i_lat":-6.255332},{"station_id":"CW","transit":false,"time":3,"distance":1546,"i_lat":-6.242512,"i_long":106.856607,"line":0,"is_transit":false,"station_name":"Cawang"},{"distance":1230,"station_id":"TEB","transit":false,"line":2,"station_name":"Tebet","i_long":106.857948,"is_transit":false,"time":2,"i_lat":-6.226659},{"distance":2610,"time":4,"i_lat":-6.209883,"station_id":"MRI","station_name":"Manggarai","line":0,"i_long":106.84912,"is_transit":true,"transit":true},{"i_lat":-6.202263,"distance":3186,"i_long":106.822649,"station_name":"Sudirman","is_transit":false,"line":1,"station_id":"SUD","transit":false,"time":4},{"i_lat":-6.201433,"is_transit":false,"station_id":"SUDB","time":1,"distance":280,"station_name":"Sudirman Baru","line":1,"transit":false,"i_long":106.819881},{"station_id":"KAT","transit":false,"line":1,"i_long":106.816351,"time":1,"distance":471,"station_name":"Karet","i_lat":-6.20132,"is_transit":false},{"transit":false,"distance":2029,"i_lat":-6.185545,"line":1,"station_name":"Tanah Abang","is_transit":true,"time":5,"i_long":106.811091,"station_id":"THB"},{"line":1,"is_transit":true,"i_lat":-6.155215,"transit":true,"i_long":106.800832,"station_id":"DU","station_name":"Duri","time":8,"distance":3632},{"line":0,"transit":false,"i_lat":-6.144674,"time":4,"is_transit":false,"i_long":106.79867,"distance":1230,"station_name":"Angke","station_id":"AK"},{"i_lat":-6.132549,"transit":true,"time":9,"i_long":106.826365,"line":0,"distance":4102,"is_transit":true,"station_id":"KPB","station_name":"Kampung Bandan"},{"transit":false,"i_lat":-6.14505,"station_id":"RJW","time":3,"line":11,"distance":1444,"is_transit":false,"i_long":106.836569,"station_name":"Rajawali"},{"distance":1901,"i_long":106.839204,"is_transit":false,"i_lat":-6.161728,"transit":false,"line":11,"station_id":"KMO","station_name":"Kemayoran","time":5},{"station_id":"PSE","is_transit":false,"i_lat":-6.174784,"i_long":106.84368,"transit":false,"line":11,"distance":1436,"time":4,"station_name":"Pasar Senen"},{"i_lat":-6.185975,"is_transit":false,"line":11,"distance":1567,"station_name":"Gang Sentiong","station_id":"GST","time":8,"i_long":106.850107,"transit":false},{"i_long":106.855437,"time":1,"transit":false,"i_lat":-6.193792,"distance":973,"is_transit":false,"station_name":"Kramat","line":11,"station_id":"KMT"},{"is_transit":false,"station_id":"POK","time":2,"i_lat":-6.209188,"line":11,"distance":1829,"station_name":"Pondok Jati","transit":false,"i_long":106.861737},{"station_name":"Jatinegara","station_id":"JNG","is_transit":true,"time":9,"i_long":106.86807400000001,"i_lat":-6.215091,"line":0,"distance":1236,"transit":true},{"transit":false,"distance":3395,"time":3,"i_lat":-6.2135,"station_id":"KLD","station_name":"Klender","is_transit":false,"i_long":106.899548,"line":1},{"i_lat":-6.215568,"station_name":"Buaran","is_transit":false,"transit":false,"time":2,"station_id":"BUA","i_long":106.922662,"line":0,"distance":3100},{"is_transit":false,"distance":1305,"i_long":106.939679,"time":1,"station_id":"KLDB","line":1,"i_lat":-6.217455,"station_name":"Klenderbaru","transit":false},{"line":0,"station_name":"Cakung","station_id":"CUK","transit":false,"i_lat":-6.219053,"distance":1385,"i_long":106.951283,"is_transit":false,"time":8},{"distance":3097,"i_lat":-6.224515,"time":3,"is_transit":false,"i_long":106.977657,"transit":false,"station_id":"KRI","line":1,"station_name":"Kranji"},{"transit":false,"distance":2520,"time":4,"line":0,"station_id":"BKS","i_long":106.997013,"is_transit":false,"i_lat":-6.236616,"station_name":"Bekasi"},{"time":2,"is_transit":false,"i_lat":-6.248029,"transit":false,"i_long":107.016735,"line":0,"station_id":"BKST","station_name":"Bekasi Timur","distance":2368}],[{"is_transit":false,"i_lat":-6.263214,"time":0,"station_id":"PSMB","distance":0,"i_long":106.851577,"line":2,"transit":false,"station_name":"Pasar Minggu Baru"},{"station_id":"DRN","distance":824,"is_transit":false,"transit":false,"i_lat":-6.255332,"i_long":106.85449,"line":0,"time":2,"station_name":"Duren Kalibata"},{"distance":1546,"i_lat":-6.242512,"station_id":"CW","station_name":"Cawang","i_long":106.856607,"is_transit":false,"line":0,"transit":false,"time":3},{"is_transit":false,"transit":false,"distance":1230,"time":2,"station_name":"Tebet","line":2,"station_id":"TEB","i_lat":-6.226659,"i_long":106.857948},{"transit":true,"i_lat":-6.209883,"distance":2610,"line":0,"i_long":106.84912,"time":4,"station_id":"MRI","is_transit":true,"station_name":"Manggarai"},{"distance":1590,"is_transit":false,"i_long":106.840169,"i_lat":-6.198556,"transit":false,"station_name":"Cikini","station_id":"CKI","line":0,"time":4},{"i_long":106.832183,"station_id":"GDD","line":2,"i_lat":-6.186295,"distance":1750,"station_name":"Gondangdia","time":3,"is_transit":false,"transit":false},{"line":2,"station_name":"Juanda","transit":false,"time":4,"distance":2015,"station_id":"JUA","i_lat":-6.166716,"i_long":106.828284,"is_transit":false},{"is_transit":false,"i_lat":-6.160725,"station_id":"SW","transit":false,"i_long":106.827103,"time":2,"distance":1149,"station_name":"Sawah Besar","line":2},{"i_long":106.82482,"i_lat":-6.149769,"station_id":"MGB","line":2,"time":2,"is_transit":false,"transit":false,"distance":906,"station_name":"Manggabesar"},{"distance":1080,"station_id":"JAY","line":7,"is_transit":false,"i_long":106.820901,"transit":false,"station_name":"Jayakarta","i_lat":-6.141205,"time":2},{"i_lat":-6.137569,"station_name":"Jakarta Kota","line":0,"transit":true,"time":4,"is_transit":true,"i_long":106.812439,"station_id":"JAKK","distance":1264},{"is_transit":true,"transit":true,"time":3,"i_lat":-6.132549,"station_id":"KPB","station_name":"Kampung Bandan","i_long":106.826365,"line":0,"distance":1364},{"is_transit":false,"i_lat":-6.14505,"line":11,"time":3,"station_id":"RJW","station_name":"Rajawali","distance":1444,"i_long":106.836569,"transit":false},{"transit":false,"time":5,"station_name":"Kemayoran","station_id":"KMO","distance":1901,"is_transit":false,"i_long":106.839204,"line":11,"i_lat":-6.161728},{"time":4,"i_lat":-6.174784,"distance":1436,"station_id":"PSE","line":11,"station_name":"Pasar Senen","transit":false,"is_transit":false,"i_long":106.84368},{"time":8,"i_long":106.850107,"transit":false,"i_lat":-6.185975,"is_transit":false,"distance":1567,"station_name":"Gang Sentiong","line":11,"station_id":"GST"},{"i_lat":-6.193792,"is_transit":false,"station_name":"Kramat","distance":973,"transit":false,"station_id":"KMT","time":1,"i_long":106.855437,"line":11},{"is_transit":false,"station_id":"POK","transit":false,"time":2,"i_lat":-6.209188,"i_long":106.861737,"distance":1829,"station_name":"Pondok Jati","line":11},{"station_name":"Jatinegara","time":9,"distance":1236,"i_long":106.86807400000001,"line":0,"transit":true,"is_transit":true,"station_id":"JNG","i_lat":-6.215091},{"time":3,"line":1,"i_lat":-6.2135,"distance":3395,"station_name":"Klender","is_transit":false,"i_long":106.899548,"station_id":"KLD","transit":false},{"is_transit":false,"station_name":"Buaran","transit":false,"station_id":"BUA","i_lat":-6.215568,"i_long":106.922662,"distance":3100,"time":2,"line":0},{"station_id":"KLDB","station_name":"Klenderbaru","transit":false,"distance":1305,"i_lat":-6.217455,"is_transit":false,"time":1,"i_long":106.939679,"line":1},{"distance":1385,"is_transit":false,"station_id":"CUK","time":8,"i_long":106.951283,"station_name":"Cakung","i_lat":-6.219053,"transit":false,"line":0},{"station_id":"KRI","i_long":106.977657,"line":1,"distance":3097,"time":3,"transit":false,"is_transit":false,"station_name":"Kranji","i_lat":-6.224515},{"i_long":106.997013,"station_name":"Bekasi","station_id":"BKS","i_lat":-6.236616,"distance":2520,"is_transit":false,"transit":false,"time":4,"line":0},{"station_id":"BKST","i_long":107.016735,"is_transit":false,"transit":false,"line":0,"time":2,"station_name":"Bekasi Timur","distance":2368,"i_lat":-6.248029}]]}