{"data":[[{"i_long":106.851577,"line":2,"station_name":"Pasar Minggu Baru","time":0,"is_transit":false,"distance":0,"station_id":"PSMB","i_lat":-6.263214,"transit":false},{"time":2,"line":2,"distance":824,"station_id":"DRN","station_name":"Duren Kalibata","is_transit":false,"i_lat":-6.255332,"transit":false,"i_long":106.85449},{"station_name":"Cawang","station_id":"CW","time":3,"is_transit":false,"distance":1546,"i_long":106.856607,"line":2,"i_lat":-6.242512,"transit":false},{"i_long":106.857948,"station_id":"TEB","time":2,"transit":false,"station_name":"Tebet","distance":1230,"i_lat":-6.226659,"line":2,"is_transit":false},{"i_lat":-6.209883,"transit":true,"station_id":"MRI","i_long":106.84912,"time":4,"distance":2610,"is_transit":true,"line":2,"station_name":"Manggarai"},{"station_id":"SUD","transit":false,"i_lat":-6.202263,"i_long":106.822649,"time":4,"station_name":"Sudirman","is_transit":false,"distance":3186,"line":1},{"time":1,"distance":280,"i_lat":-6.201433,"i_long":106.819881,"line":1,"station_id":"SUDB","transit":false,"station_name":"Sudirman Baru","is_transit":false},{"i_long":106.816351,"is_transit":false,"line":1,"time":1,"i_lat":-6.20132,"distance":471,"station_id":"KAT","station_name":"Karet","transit":false},{"station_id":"THB","transit":true,"distance":2029,"i_lat":-6.185545,"line":1,"station_name":"Tanah Abang","time":5,"is_transit":true,"i_long":106.811091},{"station_id":"PLM","i_long":106.79689,"line":6,"station_name":"Palmerah","i_lat":-6.207404,"time":6,"distance":3191,"is_transit":false,"transit":false},{"line":6,"time":7,"i_long":106.780334,"is_transit":false,"station_name":"Kebayoran","station_id":"KBY","transit":false,"distance":3737,"i_lat":-6.237242},{"transit":false,"station_id":"PDJ","i_long":106.74273,"line":6,"is_transit":false,"time":8,"station_name":"Pondokranji","distance":6218,"i_lat":-6.276362},{"station_id":"JMU","i_long":106.728916,"station_name":"Jurangmangu","is_transit":false,"transit":false,"distance":2179,"time":3,"line":6,"i_lat":-6.288927},{"line":6,"distance":1994,"is_transit":false,"i_long":106.712277,"transit":false,"station_name":"Sudimara","i_lat":-6.296963,"time":4,"station_id":"SDM"},{"line":6,"distance":4566,"time":6,"station_id":"RU","transit":false,"station_name":"Rawa Buntu","is_transit":false,"i_lat":-6.314823,"i_long":106.675475},{"line":6,"transit":false,"station_name":"Serpong","i_lat":-6.319871,"distance":2413,"station_id":"SRP","i_long":106.66566,"is_transit":false,"time":4},{"station_name":"Cisauk","distance":1784,"station_id":"CSK","time":4,"i_long":106.640411,"i_lat":-6.32484,"is_transit":false,"transit":false,"line":3},{"transit":false,"station_id":"CC","i_long":106.617853,"line":3,"distance":2519,"is_transit":false,"time":4,"i_lat":-6.329547,"station_name":"Cicayur"}],[{"transit":false,"station_id":"PSMB","time":0,"is_transit":false,"i_lat":-6.263214,"i_long":106.851577,"distance":0,"line":2,"station_name":"Pasar Minggu Baru"},{"i_long":106.85449,"is_transit":false,"line":2,"station_name":"Duren Kalibata","transit":false,"distance":824,"i_lat":-6.255332,"station_id":"DRN","time":2},{"is_transit":false,"i_long":106.856607,"line":2,"station_name":"Cawang","time":3,"transit":false,"i_lat":-6.242512,"distance":1546,"station_id":"CW"},{"line":2,"is_transit":false,"i_long":106.857948,"transit":false,"i_lat":-6.226659,"station_name":"Tebet","time":2,"station_id":"TEB","distance":1230},{"transit":false,"i_long":106.84912,"is_transit":false,"line":2,"distance":2610,"station_name":"Manggarai","time":4,"i_lat":-6.209883,"station_id":"MRI"},{"line":2,"distance":1590,"station_id":"CKI","is_transit":false,"time":4,"i_lat":-6.198556,"transit":false,"i_long":106.840169,"station_name":"Cikini"},{"i_lat":-6.186295,"i_long":106.832183,"line":2,"is_transit":false,"station_name":"Gondangdia","time":3,"distance":1750,"transit":false,"station_id":"GDD"},{"i_lat":-6.166716,"station_id":"JUA","time":4,"transit":false,"i_long":106.828284,"line":2,"is_transit":false,"station_name":"Juanda","distance":2015},{"distance":1149,"station_name":"Sawah Besar","time":2,"station_id":"SW","is_transit":false,"transit":false,"i_lat":-6.160725,"i_long":106.827103,"line":2},{"line":2,"transit":false,"distance":906,"station_name":"Manggabesar","i_lat":-6.149769,"time":2,"station_id":"MGB","is_transit":false,"i_long":106.82482},{"station_id":"JAY","is_transit":false,"distance":1080,"line":2,"time":2,"i_long":106.820901,"i_lat":-6.141205,"transit":false,"station_name":"Jayakarta"},{"station_name":"Jakarta Kota","station_id":"JAKK","is_transit":true,"line":2,"time":4,"i_lat":-6.137569,"distance":1264,"i_long":106.812439,"transit":true},{"station_name":"Kampung Bandan","station_id":"KPB","i_lat":-6.132549,"i_long":106.826365,"line":4,"is_transit":true,"time":3,"distance":1364,"transit":true},{"i_lat":-6.144674,"transit":false,"is_transit":false,"time":9,"i_long":106.79867,"station_name":"Angke","station_id":"AK","distance":4102,"line":1},{"line":1,"station_name":"Duri","i_lat":-6.155215,"is_transit":false,"distance":1230,"station_id":"DU","time":4,"transit":false,"i_long":106.800832},{"transit":true,"line":1,"i_long":106.811091,"time":8,"is_transit":true,"station_id":"THB","distance":3632,"station_name":"Tanah Abang","i_lat":-6.185545},{"is_transit":false,"i_lat":-6.207404,"transit":false,"time":6,"station_id":"PLM","station_name":"Palmerah","distance":3191,"line":6,"i_long":106.79689},{"is_transit":false,"distance":3737,"line":6,"station_name":"Kebayoran","i_long":106.780334,"i_lat":-6.237242,"time":7,"transit":false,"station_id":"KBY"},{"station_name":"Pondokranji","time":8,"transit":false,"i_long":106.74273,"is_transit":false,"station_id":"PDJ","i_lat":-6.276362,"line":6,"distance":6218},{"distance":2179,"i_lat":-6.288927,"time":3,"line":6,"i_long":106.728916,"station_id":"JMU","transit":false,"station_name":"Jurangmangu","is_transit":false},{"distance":1994,"i_long":106.712277,"time":4,"is_transit":false,"i_lat":-6.296963,"line":6,"station_name":"Sudimara","station_id":"SDM","transit":false},{"station_name":"Rawa Buntu","station_id":"RU","i_long":106.675475,"time":6,"is_transit":false,"transit":false,"distance":4566,"i_lat":-6.314823,"line":6},{"time":4,"distance":2413,"i_long":106.66566,"transit":false,"line":6,"i_lat":-6.319871,"station_name":"Serpong","station_id":"SRP","is_transit":false},{"distance":1784,"i_lat":-6.32484,"i_long":106.640411,"line":3,"time":4,"is_transit":false,"station_id":"CSK","transit":false,"station_name":"Cisauk"},{"line":3,"transit":false,"station_name":"Cicayur","i_lat":-6.329547,"station_id":"CC","is_transit":false,"i_long":106.617853,"distance":2519,"time":4}],[{"time":0,"station_name":"Pasar Minggu Baru","is_transit":false,"transit":false,"distance":0,"i_long":106.851577,"station_id":"PSMB","line":2,"i_lat":-6.263214},{"i_lat":-6.255332,"transit":false,"time":2,"station_id":"DRN","distance":824,"is_transit":false,"station_name":"Duren Kalibata","line":2,"i_long":106.85449},{"is_transit":false,"station_id":"CW","time":3,"station_name":"Cawang","i_lat":-6.242512,"i_long":106.856607,"transit":false,"distance":1546,"line":2},{"i_long":106.857948,"transit":false,"station_id":"TEB","is_transit":false,"distance":1230,"i_lat":-6.226659,"time":2,"line":2,"station_name":"Tebet"},{"i_lat":-6.209883,"i_long":106.84912,"is_transit":true,"line":2,"station_name":"Manggarai","time":4,"distance":2610,"station_id":"MRI","transit":true},{"i_long":106.858896,"time":2,"line":1,"station_id":"MTR","distance":1275,"i_lat":-6.212485,"is_transit":false,"station_name":"Matraman","transit":false},{"time":8,"transit":true,"station_name":"Jatinegara","distance":1377,"station_id":"JNG","i_lat":-6.215091,"is_transit":true,"i_long":106.86807400000001,"line":1},{"time":2,"transit":false,"i_long":106.861737,"station_name":"Pondok Jati","distance":1236,"station_id":"POK","i_lat":-6.209188,"line":11,"is_transit":false},{"line":11,"is_transit":false,"station_name":"Kramat","distance":1829,"station_id":"KMT","i_lat":-6.193792,"transit":false,"time":2,"i_long":106.855437},{"transit":false,"line":11,"station_id":"GST","i_lat":-6.185975,"is_transit":false,"time":1,"i_long":106.850107,"station_name":"Gang Sentiong","distance":973},{"transit":false,"line":11,"distance":1567,"i_lat":-6.174784,"is_transit":false,"station_id":"PSE","i_long":106.84368,"station_name":"Pasar Senen","time":8},{"line":11,"transit":false,"station_id":"KMO","station_name":"Kemayoran","time":4,"distance":1436,"i_long":106.839204,"is_transit":false,"i_lat":-6.161728},{"station_id":"RJW","distance":1901,"is_transit":false,"i_lat":-6.14505,"line":11,"time":5,"transit":false,"i_long":106.836569,"station_name":"Rajawali"},{"distance":1444,"i_long":106.826365,"is_transit":true,"time":3,"transit":true,"i_lat":-6.132549,"station_id":"KPB","line":4,"station_name":"Kampung Bandan"},{"station_name":"Angke","transit":false,"i_long":106.79867,"line":1,"time":9,"is_transit":false,"distance":4102,"station_id":"AK","i_lat":-6.144674},{"time":4,"distance":1230,"station_name":"Duri","is_transit":false,"i_lat":-6.155215,"line":1,"station_id":"DU","i_long":106.800832,"transit":false},{"i_long":106.811091,"is_transit":true,"i_lat":-6.185545,"distance":3632,"station_name":"Tanah Abang","line":1,"transit":true,"time":8,"station_id":"THB"},{"station_id":"PLM","line":6,"transit":false,"is_transit":false,"i_long":106.79689,"i_lat":-6.207404,"time":6,"distance":3191,"station_name":"Palmerah"},{"time":7,"is_transit":false,"station_name":"Kebayoran","transit":false,"line":6,"station_id":"KBY","i_lat":-6.237242,"distance":3737,"i_long":106.780334},{"distance":6218,"transit":false,"time":8,"station_id":"PDJ","i_lat":-6.276362,"is_transit":false,"station_name":"Pondokranji","line":6,"i_long":106.74273},{"distance":2179,"transit":false,"station_name":"Jurangmangu","i_long":106.728916,"i_lat":-6.288927,"time":3,"station_id":"JMU","is_transit":false,"line":6},{"is_transit":false,"station_id":"SDM","time":4,"transit":false,"distance":1994,"i_lat":-6.296963,"line":6,"station_name":"Sudimara","i_long":106.712277},{"time":6,"i_long":106.675475,"is_transit":false,"i_lat":-6.314823,"station_id":"RU","transit":false,"station_name":"Rawa Buntu","distance":4566,"line":6},{"station_id":"SRP","distance":2413,"transit":false,"station_name":"Serpong","is_transit":false,"i_long":106.66566,"time":4,"i_lat":-6.319871,"line":6},{"station_name":"Cisauk","i_long":106.640411,"distance":1784,"i_lat":-6.32484,"is_transit":false,"time":4,"line":3,"transit":false,"station_id":"CSK"},{"station_name":"Cicayur","distance":2519,"i_long":106.617853,"line":3,"time":4,"transit":false,"is_transit":false,"i_lat":-6.329547,"station_id":"CC"}]]}