{"data":[[{"station_name":"Pasar Minggu Baru","station_id":"PSMB","transit":false,"distance":0,"i_lat":-6.263214,"line":2,"is_transit":false,"time":0,"i_long":106.851577},{"is_transit":false,"distance":2380,"station_name":"Pasar Minggu","transit":false,"station_id":"PSM","i_lat":-6.2842400000000005,"i_long":106.843999,"line":2,"time":2},{"line":2,"station_name":"Tanjung Barat","i_lat":-6.3080680000000005,"is_transit":false,"station_id":"TNT","distance":2820,"time":4,"i_long":106.838896,"transit":false},{"time":3,"line":2,"i_lat":-6.330363,"i_long":106.832616,"is_transit":false,"station_id":"LNA","distance":2671,"station_name":"Lenteng Agung","transit":false},{"station_name":"Univ. Pancasila","i_long":106.834175,"station_id":"UP","line":2,"time":2,"i_lat":-6.339291,"distance":1029,"is_transit":false,"transit":false},{"line":2,"i_long":106.831474,"distance":2264,"time":3,"is_transit":false,"i_lat":-6.360749,"station_name":"Univ. Indonesia","station_id":"UI","transit":false},{"time":2,"station_id":"POC","transit":false,"i_long":106.831114,"i_lat":-6.369073,"line":2,"distance":1109,"is_transit":false,"station_name":"Pondok Cina"},{"i_lat":-6.391065,"time":4,"is_transit":false,"station_id":"DPB","transit":false,"line":0,"station_name":"Depokbaru","i_long":106.819451,"distance":2727}]]}