{"data":[[{"station_id":"PSMB","station_name":"Pasar Minggu Baru","time":0,"i_lat":-6.263214,"line":2,"i_long":106.851577,"is_transit":false,"distance":0,"transit":false},{"i_lat":-6.255332,"station_name":"Duren Kalibata","is_transit":false,"transit":false,"distance":824,"time":2,"line":2,"i_long":106.85449,"station_id":"DRN"},{"i_lat":-6.242512,"station_name":"Cawang","time":3,"is_transit":false,"transit":false,"distance":1546,"line":2,"station_id":"CW","i_long":106.856607},{"transit":false,"distance":1230,"i_long":106.857948,"station_id":"TEB","is_transit":false,"line":2,"time":2,"station_name":"Tebet","i_lat":-6.226659},{"i_lat":-6.209883,"line":2,"i_long":106.84912,"transit":true,"time":4,"station_name":"Manggarai","station_id":"MRI","distance":2610,"is_transit":true},{"distance":1275,"station_name":"Matraman","is_transit":false,"time":2,"station_id":"MTR","i_lat":-6.212485,"line":1,"transit":false,"i_long":106.858896},{"station_name":"Jatinegara","time":8,"line":1,"transit":false,"i_lat":-6.215091,"i_long":106.86807400000001,"is_transit":false,"distance":1377,"station_id":"JNG"},{"time":3,"station_id":"KLD","station_name":"Klender","transit":false,"i_long":106.899548,"distance":3395,"line":1,"i_lat":-6.2135,"is_transit":false},{"i_long":106.922662,"line":1,"transit":false,"station_name":"Buaran","is_transit":false,"station_id":"BUA","time":2,"distance":3100,"i_lat":-6.215568},{"station_id":"KLDB","is_transit":false,"transit":false,"time":1,"distance":1305,"line":1,"i_long":106.939679,"i_lat":-6.217455,"station_name":"Klenderbaru"},{"time":8,"station_name":"Cakung","line":1,"station_id":"CUK","distance":1385,"i_lat":-6.219053,"is_transit":false,"transit":false,"i_long":106.951283},{"i_lat":-6.224515,"i_long":106.977657,"transit":false,"station_name":"Kranji","line":1,"time":3,"station_id":"KRI","distance":3097,"is_transit":false},{"time":4,"line":1,"station_id":"BKS","distance":2520,"i_long":106.997013,"i_lat":-6.236616,"transit":false,"station_name":"Bekasi","is_transit":false},{"line":1,"is_transit":false,"transit":false,"station_id":"BKST","i_lat":-6.248029,"station_name":"Bekasi Timur","time":2,"distance":2368,"i_long":107.016735},{"line":1,"station_name":"Tambun","distance":4460,"transit":false,"i_lat":-6.258864,"i_long":107.055722,"is_transit":false,"time":7,"station_id":"TB"},{"i_lat":-6.261877,"station_id":"CIT","transit":false,"is_transit":false,"line":1,"time":3,"distance":3420,"station_name":"Cibitung","i_long":107.083084},{"station_name":"Metland Telaga Murni","station_id":"TLM","i_long":107.093313,"line":1,"distance":2800,"is_transit":false,"i_lat":-6.262938,"transit":false,"time":2},{"i_long":107.144613,"transit":false,"line":1,"station_name":"Cikarang","time":4,"i_lat":-6.2553149999999995,"distance":3689,"is_transit":false,"station_id":"CKR"}],[{"time":0,"line":2,"i_long":106.851577,"i_lat":-6.263214,"station_id":"PSMB","distance":0,"is_transit":false,"station_name":"Pasar Minggu Baru","transit":false},{"time":2,"distance":824,"is_transit":false,"station_id":"DRN","i_lat":-6.255332,"station_name":"Duren Kalibata","transit":false,"i_long":106.85449,"line":2},{"line":2,"time":3,"distance":1546,"station_name":"Cawang","is_transit":false,"transit":false,"station_id":"CW","i_lat":-6.242512,"i_long":106.856607},{"line":2,"transit":false,"time":2,"is_transit":false,"i_lat":-6.226659,"i_long":106.857948,"station_id":"TEB","station_name":"Tebet","distance":1230},{"station_id":"MRI","i_lat":-6.209883,"distance":2610,"station_name":"Manggarai","time":4,"is_transit":true,"transit":true,"i_long":106.84912,"line":2},{"time":4,"i_lat":-6.202263,"transit":false,"station_id":"SUD","distance":3186,"station_name":"Sudirman","is_transit":false,"line":1,"i_long":106.822649},{"transit":false,"i_lat":-6.201433,"station_name":"Sudirman Baru","is_transit":false,"station_id":"SUDB","time":1,"line":1,"i_long":106.819881,"distance":280},{"transit":false,"station_id":"KAT","station_name":"Karet","i_long":106.816351,"line":1,"distance":471,"i_lat":-6.20132,"is_transit":false,"time":1},{"station_id":"THB","transit":false,"time":5,"is_transit":false,"distance":2029,"line":1,"station_name":"Tanah Abang","i_lat":-6.185545,"i_long":106.811091},{"time":8,"transit":false,"i_lat":-6.155215,"station_name":"Duri","station_id":"DU","i_long":106.800832,"line":1,"distance":3632,"is_transit":false},{"transit":false,"i_lat":-6.144674,"is_transit":false,"time":4,"station_name":"Angke","line":1,"station_id":"AK","distance":1230,"i_long":106.79867},{"i_lat":-6.132549,"line":4,"is_transit":true,"i_long":106.826365,"distance":4102,"station_id":"KPB","transit":true,"time":9,"station_name":"Kampung Bandan"},{"i_lat":-6.14505,"transit":false,"time":3,"distance":1444,"is_transit":false,"station_id":"RJW","line":11,"station_name":"Rajawali","i_long":106.836569},{"time":5,"distance":1901,"transit":false,"i_lat":-6.161728,"is_transit":false,"i_long":106.839204,"station_id":"KMO","station_name":"Kemayoran","line":11},{"station_name":"Pasar Senen","time":4,"is_transit":false,"distance":1436,"transit":false,"station_id":"PSE","i_lat":-6.174784,"i_long":106.84368,"line":11},{"station_id":"GST","distance":1567,"time":8,"is_transit":false,"line":11,"transit":false,"i_lat":-6.185975,"station_name":"Gang Sentiong","i_long":106.850107},{"is_transit":false,"i_lat":-6.193792,"line":11,"distance":973,"transit":false,"station_id":"KMT","time":1,"i_long":106.855437,"station_name":"Kramat"},{"is_transit":false,"i_long":106.861737,"line":11,"distance":1829,"station_name":"Pondok Jati","i_lat":-6.209188,"transit":false,"time":2,"station_id":"POK"},{"station_id":"JNG","i_lat":-6.215091,"distance":1236,"transit":true,"i_long":106.86807400000001,"line":1,"station_name":"Jatinegara","time":9,"is_transit":true},{"distance":3395,"transit":false,"station_id":"KLD","i_long":106.899548,"station_name":"Klender","line":1,"i_lat":-6.2135,"is_transit":false,"time":3},{"line":1,"distance":3100,"is_transit":false,"transit":false,"time":2,"station_id":"BUA","station_name":"Buaran","i_long":106.922662,"i_lat":-6.215568},{"is_transit":false,"transit":false,"i_long":106.939679,"distance":1305,"time":1,"line":1,"i_lat":-6.217455,"station_id":"KLDB","station_name":"Klenderbaru"},{"distance":1385,"transit":false,"i_lat":-6.219053,"time":8,"station_name":"Cakung","is_transit":false,"line":1,"i_long":106.951283,"station_id":"CUK"},{"is_transit":false,"i_lat":-6.224515,"station_id":"KRI","distance":3097,"line":1,"station_name":"Kranji","time":3,"i_long":106.977657,"transit":false},{"transit":false,"time":4,"distance":2520,"i_lat":-6.236616,"line":1,"is_transit":false,"i_long":106.997013,"station_name":"Bekasi","station_id":"BKS"},{"i_long":107.016735,"is_transit":false,"i_lat":-6.248029,"station_id":"BKST","time":2,"station_name":"Bekasi Timur","line":1,"transit":false,"distance":2368},{"i_lat":-6.258864,"station_name":"Tambun","distance":4460,"is_transit":false,"time":7,"station_id":"TB","line":1,"i_long":107.055722,"transit":false},{"station_id":"CIT","transit":false,"is_transit":false,"i_lat":-6.261877,"i_long":107.083084,"time":3,"line":1,"distance":3420,"station_name":"Cibitung"},{"i_long":107.093313,"i_lat":-6.262938,"transit":false,"station_name":"Metland Telaga Murni","line":1,"is_transit":false,"station_id":"TLM","distance":2800,"time":2},{"station_name":"Cikarang","is_transit":false,"i_lat":-6.2553149999999995,"distance":3689,"transit":false,"i_long":107.144613,"station_id":"CKR","line":1,"time":4}],[{"transit":false,"i_lat":-6.263214,"time":0,"i_long":106.851577,"station_name":"Pasar Minggu Baru","line":2,"station_id":"PSMB","distance":0,"is_transit":false},{"is_transit":false,"station_name":"Duren Kalibata","transit":false,"distance":824,"i_lat":-6.255332,"time":2,"i_long":106.85449,"station_id":"DRN","line":2},{"line":2,"distance":1546,"station_id":"CW","is_transit":false,"transit":false,"i_long":106.856607,"i_lat":-6.242512,"time":3,"station_name":"Cawang"},{"transit":false,"station_id":"TEB","time":2,"is_transit":false,"i_lat":-6.226659,"line":2,"station_name":"Tebet","distance":1230,"i_long":106.857948},{"time":4,"i_long":106.84912,"is_transit":false,"line":2,"distance":2610,"station_id":"MRI","station_name":"Manggarai","transit":false,"i_lat":-6.209883},{"distance":1590,"i_long":106.840169,"time":4,"line":2,"station_name":"Cikini","transit":false,"i_lat":-6.198556,"is_transit":false,"station_id":"CKI"},{"time":3,"distance":1750,"i_lat":-6.186295,"station_name":"Gondangdia","line":2,"station_id":"GDD","transit":false,"is_transit":false,"i_long":106.832183},{"transit":false,"line":2,"station_id":"JUA","is_transit":false,"i_lat":-6.166716,"time":4,"i_long":106.828284,"station_name":"Juanda","distance":2015},{"distance":1149,"time":2,"station_id":"SW","transit":false,"i_lat":-6.160725,"line":2,"is_transit":false,"i_long":106.827103,"station_name":"Sawah Besar"},{"i_long":106.82482,"line":2,"time":2,"distance":906,"station_name":"Manggabesar","transit":false,"station_id":"MGB","is_transit":false,"i_lat":-6.149769},{"time":2,"i_lat":-6.141205,"i_long":106.820901,"transit":false,"station_id":"JAY","station_name":"Jayakarta","line":2,"distance":1080,"is_transit":false},{"i_lat":-6.137569,"is_transit":true,"transit":true,"distance":1264,"i_long":106.812439,"line":2,"time":4,"station_id":"JAKK","station_name":"Jakarta Kota"},{"line":4,"time":3,"is_transit":true,"transit":true,"i_lat":-6.132549,"i_long":106.826365,"station_name":"Kampung Bandan","station_id":"KPB","distance":1364},{"i_long":106.836569,"station_name":"Rajawali","i_lat":-6.14505,"distance":1444,"transit":false,"is_transit":false,"line":11,"station_id":"RJW","time":3},{"station_name":"Kemayoran","station_id":"KMO","is_transit":false,"time":5,"i_long":106.839204,"distance":1901,"line":11,"i_lat":-6.161728,"transit":false},{"distance":1436,"station_name":"Pasar Senen","is_transit":false,"time":4,"i_lat":-6.174784,"i_long":106.84368,"station_id":"PSE","transit":false,"line":11},{"station_name":"Gang Sentiong","time":8,"line":11,"transit":false,"station_id":"GST","distance":1567,"is_transit":false,"i_lat":-6.185975,"i_long":106.850107},{"station_name":"Kramat","i_lat":-6.193792,"i_long":106.855437,"line":11,"station_id":"KMT","is_transit":false,"distance":973,"transit":false,"time":1},{"time":2,"i_lat":-6.209188,"line":11,"station_id":"POK","i_long":106.861737,"transit":false,"is_transit":false,"distance":1829,"station_name":"Pondok Jati"},{"distance":1236,"transit":true,"time":9,"station_id":"JNG","is_transit":true,"i_long":106.86807400000001,"line":1,"i_lat":-6.215091,"station_name":"Jatinegara"},{"distance":3395,"is_transit":false,"line":1,"i_lat":-6.2135,"transit":false,"station_name":"Klender","time":3,"i_long":106.899548,"station_id":"KLD"},{"station_name":"Buaran","is_transit":false,"i_long":106.922662,"time":2,"i_lat":-6.215568,"transit":false,"station_id":"BUA","distance":3100,"line":1},{"station_id":"KLDB","is_transit":false,"distance":1305,"time":1,"station_name":"Klenderbaru","i_lat":-6.217455,"transit":false,"i_long":106.939679,"line":1},{"station_id":"CUK","line":1,"distance":1385,"time":8,"is_transit":false,"station_name":"Cakung","i_long":106.951283,"transit":false,"i_lat":-6.219053},{"station_name":"Kranji","i_lat":-6.224515,"i_long":106.977657,"is_transit":false,"transit":false,"time":3,"station_id":"KRI","line":1,"distance":3097},{"station_id":"BKS","transit":false,"station_name":"Bekasi","i_long":106.997013,"is_transit":false,"distance":2520,"line":1,"time":4,"i_lat":-6.236616},{"transit":false,"time":2,"station_id":"BKST","is_transit":false,"distance":2368,"line":1,"station_name":"Bekasi Timur","i_lat":-6.248029,"i_long":107.016735},{"time":7,"station_name":"Tambun","is_transit":false,"distance":4460,"i_lat":-6.258864,"station_id":"TB","transit":false,"i_long":107.055722,"line":1},{"station_name":"Cibitung","is_transit":false,"transit":false,"time":3,"station_id":"CIT","line":1,"i_lat":-6.261877,"distance":3420,"i_long":107.083084},{"transit":false,"is_transit":false,"i_long":107.093313,"station_id":"TLM","time":2,"line":1,"station_name":"Metland Telaga Murni","i_lat":-6.262938,"distance":2800},{"i_long":107.144613,"transit":false,"distance":3689,"station_id":"CKR","time":4,"station_name":"Cikarang","line":1,"is_transit":false,"i_lat":-6.2553149999999995}]]}