{"data":[[{"station_name":"Pasar Minggu Baru","line":2,"distance":0,"station_id":"PSMB","is_transit":false,"transit":false,"time":0,"i_long":106.851577,"i_lat":-6.263214},{"distance":2380,"line":2,"station_name":"Pasar Minggu","station_id":"PSM","is_transit":false,"i_long":106.843999,"time":2,"i_lat":-6.2842400000000005,"transit":false},{"station_id":"TNT","i_long":106.838896,"distance":2820,"transit":false,"time":4,"station_name":"Tanjung Barat","i_lat":-6.3080680000000005,"line":2,"is_transit":false},{"i_lat":-6.330363,"station_id":"LNA","station_name":"Lenteng Agung","is_transit":false,"distance":2671,"line":2,"i_long":106.832616,"transit":false,"time":3},{"station_id":"UP","station_name":"Univ. Pancasila","distance":1029,"time":2,"transit":false,"is_transit":false,"i_lat":-6.339291,"line":2,"i_long":106.834175},{"line":2,"i_lat":-6.360749,"i_long":106.831474,"station_name":"Univ. Indonesia","distance":2264,"station_id":"UI","transit":false,"time":3,"is_transit":false},{"i_lat":-6.369073,"line":2,"station_name":"Pondok Cina","transit":false,"station_id":"POC","is_transit":false,"time":2,"distance":1109,"i_long":106.831114},{"transit":false,"i_lat":-6.391065,"station_name":"Depokbaru","line":0,"i_long":106.819451,"is_transit":false,"time":4,"distance":2727,"station_id":"DPB"},{"transit":false,"station_name":"Depok","i_long":106.816926,"time":3,"line":0,"is_transit":false,"i_lat":-6.405256,"station_id":"DP","distance":1584}]]}