{"data":[[{"station_id":"PSMB","i_long":106.851577,"station_name":"Pasar Minggu Baru","distance":0,"time":0,"is_transit":false,"i_lat":-6.263214,"transit":false,"line":2},{"station_id":"DRN","i_lat":-6.255332,"i_long":106.85449,"distance":824,"station_name":"Duren Kalibata","transit":false,"is_transit":false,"time":2,"line":2},{"i_long":106.856607,"station_name":"Cawang","is_transit":false,"time":3,"transit":false,"station_id":"CW","i_lat":-6.242512,"line":2,"distance":1546},{"station_name":"Tebet","is_transit":false,"transit":false,"time":2,"station_id":"TEB","distance":1230,"i_lat":-6.226659,"i_long":106.857948,"line":2},{"line":2,"station_name":"Manggarai","distance":2610,"i_long":106.84912,"i_lat":-6.209883,"is_transit":true,"station_id":"MRI","transit":true,"time":4},{"station_name":"Sudirman","distance":3186,"is_transit":false,"station_id":"SUD","line":1,"time":4,"i_lat":-6.202263,"i_long":106.822649,"transit":false},{"line":1,"is_transit":false,"transit":false,"station_name":"Sudirman Baru","station_id":"SUDB","i_long":106.819881,"time":1,"distance":280,"i_lat":-6.201433},{"is_transit":false,"i_lat":-6.20132,"station_name":"Karet","time":1,"transit":false,"distance":471,"i_long":106.816351,"station_id":"KAT","line":1},{"line":1,"station_id":"THB","transit":true,"station_name":"Tanah Abang","is_transit":true,"distance":2029,"i_lat":-6.185545,"time":5,"i_long":106.811091},{"i_lat":-6.207404,"is_transit":false,"distance":3191,"time":6,"line":6,"station_name":"Palmerah","transit":false,"i_long":106.79689,"station_id":"PLM"},{"transit":false,"station_id":"KBY","time":7,"line":6,"distance":3737,"i_lat":-6.237242,"station_name":"Kebayoran","i_long":106.780334,"is_transit":false},{"i_lat":-6.276362,"line":6,"distance":6218,"station_name":"Pondokranji","transit":false,"i_long":106.74273,"station_id":"PDJ","is_transit":false,"time":8},{"transit":false,"station_name":"Jurangmangu","i_lat":-6.288927,"line":6,"is_transit":false,"i_long":106.728916,"distance":2179,"time":3,"station_id":"JMU"},{"station_id":"SDM","distance":1994,"i_long":106.712277,"station_name":"Sudimara","time":4,"transit":false,"is_transit":false,"line":6,"i_lat":-6.296963},{"station_id":"RU","station_name":"Rawa Buntu","distance":4566,"i_lat":-6.314823,"i_long":106.675475,"line":6,"transit":false,"is_transit":false,"time":6},{"line":6,"station_id":"SRP","i_lat":-6.319871,"time":4,"i_long":106.66566,"transit":false,"station_name":"Serpong","distance":2413,"is_transit":false},{"distance":1784,"time":4,"is_transit":false,"transit":false,"line":3,"i_lat":-6.32484,"i_long":106.640411,"station_name":"Cisauk","station_id":"CSK"},{"transit":false,"is_transit":false,"line":3,"station_name":"Cicayur","time":4,"i_lat":-6.329547,"i_long":106.617853,"distance":2519,"station_id":"CC"},{"time":8,"distance":5968,"station_name":"Parung Panjang","line":6,"i_lat":-6.3441410000000005,"i_long":106.568863,"is_transit":false,"transit":false,"station_id":"PRP"},{"i_lat":-6.354349,"station_id":"CJT","time":9,"i_long":106.508482,"line":3,"transit":false,"is_transit":false,"distance":7025,"station_name":"Cilejit"},{"is_transit":false,"line":0,"transit":false,"station_name":"Daru","time":6,"i_long":106.491338,"distance":2675,"i_lat":-6.338021,"station_id":"DAR"},{"time":5,"i_long":106.460812,"station_name":"Tenjo","line":6,"is_transit":false,"i_lat":-6.327251,"transit":false,"station_id":"TEJ","distance":3902},{"station_name":"Tigaraksa","i_long":106.425991,"transit":false,"line":6,"is_transit":false,"time":5,"i_lat":-6.328533,"distance":2974,"station_id":"TGS"},{"station_name":"Cikoya","is_transit":false,"distance":2651,"i_long":106.411216,"station_id":"CKY","line":3,"i_lat":-6.33561,"time":3,"transit":false},{"i_lat":-6.332307,"i_long":106.394373,"line":6,"distance":1853,"transit":false,"station_name":"Maja","station_id":"MJ","time":4,"is_transit":false},{"line":3,"station_name":"Citeras","is_transit":false,"distance":7293,"i_lat":-6.334892,"station_id":"CTR","i_long":106.332092,"transit":false,"time":10},{"i_long":106.250396,"time":13,"line":3,"transit":false,"distance":9847,"i_lat":-6.352675,"is_transit":false,"station_name":"Rangkasbitung","station_id":"RK"}],[{"transit":false,"time":0,"is_transit":false,"station_name":"Pasar Minggu Baru","station_id":"PSMB","i_lat":-6.263214,"i_long":106.851577,"line":2,"distance":0},{"is_transit":false,"distance":824,"i_long":106.85449,"time":2,"line":2,"transit":false,"station_name":"Duren Kalibata","i_lat":-6.255332,"station_id":"DRN"},{"i_long":106.856607,"i_lat":-6.242512,"is_transit":false,"time":3,"station_name":"Cawang","line":2,"station_id":"CW","transit":false,"distance":1546},{"station_name":"Tebet","line":2,"i_long":106.857948,"station_id":"TEB","is_transit":false,"time":2,"i_lat":-6.226659,"distance":1230,"transit":false},{"time":4,"station_id":"MRI","distance":2610,"transit":false,"i_long":106.84912,"is_transit":false,"line":2,"station_name":"Manggarai","i_lat":-6.209883},{"transit":false,"station_id":"CKI","line":2,"distance":1590,"is_transit":false,"station_name":"Cikini","i_lat":-6.198556,"i_long":106.840169,"time":4},{"station_id":"GDD","i_lat":-6.186295,"i_long":106.832183,"line":2,"transit":false,"station_name":"Gondangdia","time":3,"distance":1750,"is_transit":false},{"distance":2015,"transit":false,"station_id":"JUA","is_transit":false,"time":4,"i_lat":-6.166716,"line":2,"i_long":106.828284,"station_name":"Juanda"},{"station_id":"SW","time":2,"is_transit":false,"line":2,"i_lat":-6.160725,"transit":false,"distance":1149,"station_name":"Sawah Besar","i_long":106.827103},{"i_lat":-6.149769,"i_long":106.82482,"time":2,"station_id":"MGB","line":2,"transit":false,"is_transit":false,"distance":906,"station_name":"Manggabesar"},{"i_long":106.820901,"is_transit":false,"transit":false,"distance":1080,"line":2,"i_lat":-6.141205,"station_name":"Jayakarta","station_id":"JAY","time":2},{"i_lat":-6.137569,"line":2,"time":4,"station_name":"Jakarta Kota","is_transit":true,"i_long":106.812439,"transit":true,"station_id":"JAKK","distance":1264},{"i_long":106.826365,"line":4,"station_name":"Kampung Bandan","distance":1364,"station_id":"KPB","transit":true,"is_transit":true,"time":3,"i_lat":-6.132549},{"station_id":"AK","time":9,"distance":4102,"i_lat":-6.144674,"i_long":106.79867,"station_name":"Angke","transit":false,"is_transit":false,"line":1},{"time":4,"is_transit":false,"i_long":106.800832,"distance":1230,"line":1,"station_name":"Duri","station_id":"DU","i_lat":-6.155215,"transit":false},{"line":1,"i_long":106.811091,"is_transit":true,"i_lat":-6.185545,"distance":3632,"station_id":"THB","station_name":"Tanah Abang","transit":true,"time":8},{"i_lat":-6.207404,"distance":3191,"time":6,"station_name":"Palmerah","station_id":"PLM","transit":false,"i_long":106.79689,"is_transit":false,"line":6},{"line":6,"i_lat":-6.237242,"distance":3737,"transit":false,"time":7,"station_id":"KBY","is_transit":false,"station_name":"Kebayoran","i_long":106.780334},{"time":8,"transit":false,"station_id":"PDJ","station_name":"Pondokranji","i_long":106.74273,"line":6,"is_transit":false,"distance":6218,"i_lat":-6.276362},{"i_lat":-6.288927,"transit":false,"is_transit":false,"time":3,"distance":2179,"station_name":"Jurangmangu","station_id":"JMU","i_long":106.728916,"line":6},{"i_lat":-6.296963,"station_id":"SDM","is_transit":false,"distance":1994,"station_name":"Sudimara","i_long":106.712277,"line":6,"time":4,"transit":false},{"station_id":"RU","is_transit":false,"line":6,"distance":4566,"i_long":106.675475,"time":6,"transit":false,"i_lat":-6.314823,"station_name":"Rawa Buntu"},{"distance":2413,"time":4,"transit":false,"i_long":106.66566,"line":6,"station_id":"SRP","is_transit":false,"station_name":"Serpong","i_lat":-6.319871},{"distance":1784,"transit":false,"station_name":"Cisauk","i_long":106.640411,"station_id":"CSK","i_lat":-6.32484,"is_transit":false,"line":3,"time":4},{"station_name":"Cicayur","distance":2519,"station_id":"CC","i_long":106.617853,"line":3,"time":4,"is_transit":false,"i_lat":-6.329547,"transit":false},{"station_name":"Parung Panjang","i_lat":-6.3441410000000005,"i_long":106.568863,"station_id":"PRP","distance":5968,"is_transit":false,"time":8,"transit":false,"line":6},{"transit":false,"station_name":"Cilejit","is_transit":false,"time":9,"i_lat":-6.354349,"station_id":"CJT","line":3,"distance":7025,"i_long":106.508482},{"time":6,"station_name":"Daru","distance":2675,"is_transit":false,"transit":false,"station_id":"DAR","i_long":106.491338,"line":0,"i_lat":-6.338021},{"line":6,"i_lat":-6.327251,"i_long":106.460812,"transit":false,"station_name":"Tenjo","station_id":"TEJ","is_transit":false,"time":5,"distance":3902},{"line":6,"i_long":106.425991,"i_lat":-6.328533,"station_name":"Tigaraksa","station_id":"TGS","time":5,"is_transit":false,"distance":2974,"transit":false},{"is_transit":false,"transit":false,"i_long":106.411216,"station_name":"Cikoya","station_id":"CKY","line":3,"i_lat":-6.33561,"time":3,"distance":2651},{"is_transit":false,"station_id":"MJ","i_long":106.394373,"time":4,"distance":1853,"station_name":"Maja","transit":false,"i_lat":-6.332307,"line":6},{"transit":false,"time":10,"i_long":106.332092,"is_transit":false,"line":3,"distance":7293,"station_id":"CTR","i_lat":-6.334892,"station_name":"Citeras"},{"line":3,"i_lat":-6.352675,"station_id":"RK","station_name":"Rangkasbitung","distance":9847,"time":13,"transit":false,"is_transit":false,"i_long":106.250396}],[{"time":0,"line":2,"transit":false,"distance":0,"i_lat":-6.263214,"i_long":106.851577,"station_name":"Pasar Minggu Baru","station_id":"PSMB","is_transit":false},{"time":2,"line":2,"transit":false,"distance":824,"is_transit":false,"i_lat":-6.255332,"station_id":"DRN","station_name":"Duren Kalibata","i_long":106.85449},{"i_lat":-6.242512,"i_long":106.856607,"transit":false,"station_id":"CW","time":3,"distance":1546,"line":2,"is_transit":false,"station_name":"Cawang"},{"station_id":"TEB","i_long":106.857948,"transit":false,"time":2,"station_name":"Tebet","line":2,"is_transit":false,"distance":1230,"i_lat":-6.226659},{"station_id":"MRI","distance":2610,"i_lat":-6.209883,"station_name":"Manggarai","time":4,"transit":true,"i_long":106.84912,"is_transit":true,"line":2},{"i_lat":-6.212485,"i_long":106.858896,"distance":1275,"is_transit":false,"transit":false,"station_id":"MTR","time":2,"line":1,"station_name":"Matraman"},{"station_name":"Jatinegara","transit":true,"i_lat":-6.215091,"distance":1377,"station_id":"JNG","i_long":106.86807400000001,"line":1,"is_transit":true,"time":8},{"i_long":106.861737,"is_transit":false,"line":11,"transit":false,"time":2,"i_lat":-6.209188,"station_name":"Pondok Jati","station_id":"POK","distance":1236},{"i_lat":-6.193792,"station_id":"KMT","i_long":106.855437,"line":11,"transit":false,"station_name":"Kramat","is_transit":false,"time":2,"distance":1829},{"line":11,"is_transit":false,"i_lat":-6.185975,"station_name":"Gang Sentiong","distance":973,"transit":false,"station_id":"GST","time":1,"i_long":106.850107},{"station_name":"Pasar Senen","transit":false,"station_id":"PSE","is_transit":false,"distance":1567,"i_lat":-6.174784,"line":11,"time":8,"i_long":106.84368},{"station_id":"KMO","transit":false,"station_name":"Kemayoran","distance":1436,"line":11,"time":4,"i_long":106.839204,"is_transit":false,"i_lat":-6.161728},{"is_transit":false,"station_id":"RJW","time":5,"distance":1901,"station_name":"Rajawali","i_lat":-6.14505,"line":11,"i_long":106.836569,"transit":false},{"distance":1444,"i_long":106.826365,"station_name":"Kampung Bandan","line":4,"station_id":"KPB","time":3,"is_transit":true,"i_lat":-6.132549,"transit":true},{"distance":4102,"station_name":"Angke","time":9,"station_id":"AK","i_lat":-6.144674,"transit":false,"i_long":106.79867,"line":1,"is_transit":false},{"is_transit":false,"time":4,"distance":1230,"transit":false,"station_name":"Duri","i_lat":-6.155215,"i_long":106.800832,"station_id":"DU","line":1},{"i_long":106.811091,"i_lat":-6.185545,"transit":true,"station_name":"Tanah Abang","station_id":"THB","distance":3632,"is_transit":true,"line":1,"time":8},{"line":6,"time":6,"distance":3191,"station_id":"PLM","is_transit":false,"i_long":106.79689,"station_name":"Palmerah","transit":false,"i_lat":-6.207404},{"i_long":106.780334,"distance":3737,"station_name":"Kebayoran","line":6,"i_lat":-6.237242,"transit":false,"station_id":"KBY","is_transit":false,"time":7},{"station_name":"Pondokranji","distance":6218,"i_lat":-6.276362,"i_long":106.74273,"time":8,"transit":false,"line":6,"is_transit":false,"station_id":"PDJ"},{"i_lat":-6.288927,"i_long":106.728916,"time":3,"transit":false,"distance":2179,"station_id":"JMU","is_transit":false,"station_name":"Jurangmangu","line":6},{"station_name":"Sudimara","station_id":"SDM","line":6,"i_long":106.712277,"i_lat":-6.296963,"time":4,"is_transit":false,"transit":false,"distance":1994},{"transit":false,"station_name":"Rawa Buntu","time":6,"station_id":"RU","distance":4566,"i_lat":-6.314823,"line":6,"is_transit":false,"i_long":106.675475},{"i_long":106.66566,"is_transit":false,"station_name":"Serpong","station_id":"SRP","i_lat":-6.319871,"line":6,"distance":2413,"time":4,"transit":false},{"line":3,"time":4,"i_long":106.640411,"station_id":"CSK","is_transit":false,"transit":false,"station_name":"Cisauk","i_lat":-6.32484,"distance":1784},{"time":4,"distance":2519,"i_lat":-6.329547,"is_transit":false,"line":3,"i_long":106.617853,"station_id":"CC","station_name":"Cicayur","transit":false},{"transit":false,"station_name":"Parung Panjang","i_lat":-6.3441410000000005,"station_id":"PRP","is_transit":false,"time":8,"distance":5968,"i_long":106.568863,"line":6},{"transit":false,"i_lat":-6.354349,"time":9,"station_name":"Cilejit","station_id":"CJT","line":3,"is_transit":false,"distance":7025,"i_long":106.508482},{"transit":false,"station_id":"DAR","i_lat":-6.338021,"station_name":"Daru","line":0,"is_transit":false,"distance":2675,"time":6,"i_long":106.491338},{"is_transit":false,"i_long":106.460812,"i_lat":-6.327251,"transit":false,"station_name":"Tenjo","time":5,"distance":3902,"station_id":"TEJ","line":6},{"distance":2974,"station_name":"Tigaraksa","time":5,"transit":false,"i_long":106.425991,"is_transit":false,"line":6,"i_lat":-6.328533,"station_id":"TGS"},{"transit":false,"station_id":"CKY","distance":2651,"station_name":"Cikoya","i_long":106.411216,"time":3,"i_lat":-6.33561,"line":3,"is_transit":false},{"time":4,"transit":false,"station_name":"Maja","is_transit":false,"station_id":"MJ","i_lat":-6.332307,"line":6,"i_long":106.394373,"distance":1853},{"station_id":"CTR","transit":false,"i_long":106.332092,"time":10,"line":3,"is_transit":false,"station_name":"Citeras","distance":7293,"i_lat":-6.334892},{"i_lat":-6.352675,"distance":9847,"time":13,"i_long":106.250396,"line":3,"transit":false,"station_id":"RK","station_name":"Rangkasbitung","is_transit":false}]]}