{"data":[[{"distance":0,"station_name":"Pasar Minggu Baru","station_id":"PSMB","line":2,"is_transit":false,"time":0,"i_lat":-6.263214,"i_long":106.851577,"transit":false},{"is_transit":false,"distance":824,"station_id":"DRN","time":2,"i_long":106.85449,"i_lat":-6.255332,"transit":false,"line":2,"station_name":"Duren Kalibata"},{"station_id":"CW","i_lat":-6.242512,"station_name":"Cawang","is_transit":false,"i_long":106.856607,"time":3,"line":2,"transit":false,"distance":1546},{"line":2,"transit":false,"is_transit":false,"station_name":"Tebet","i_lat":-6.226659,"distance":1230,"time":2,"station_id":"TEB","i_long":106.857948},{"transit":true,"line":2,"i_long":106.84912,"time":4,"station_id":"MRI","station_name":"Manggarai","is_transit":true,"distance":2610,"i_lat":-6.209883},{"station_name":"Sudirman","line":1,"transit":false,"is_transit":false,"time":4,"station_id":"SUD","i_lat":-6.202263,"i_long":106.822649,"distance":3186},{"time":1,"i_long":106.819881,"is_transit":false,"station_name":"Sudirman Baru","distance":280,"i_lat":-6.201433,"transit":false,"line":1,"station_id":"SUDB"},{"time":1,"transit":false,"station_id":"KAT","station_name":"Karet","is_transit":false,"i_lat":-6.20132,"i_long":106.816351,"line":1,"distance":471},{"is_transit":true,"station_name":"Tanah Abang","time":5,"station_id":"THB","i_lat":-6.185545,"i_long":106.811091,"transit":true,"line":1,"distance":2029},{"transit":false,"i_lat":-6.207404,"i_long":106.79689,"distance":3191,"station_name":"Palmerah","line":6,"station_id":"PLM","time":6,"is_transit":false},{"time":7,"line":6,"distance":3737,"transit":false,"station_name":"Kebayoran","i_lat":-6.237242,"is_transit":false,"station_id":"KBY","i_long":106.780334},{"line":6,"station_id":"PDJ","time":8,"i_long":106.74273,"is_transit":false,"station_name":"Pondokranji","distance":6218,"transit":false,"i_lat":-6.276362},{"station_id":"JMU","i_long":106.728916,"line":6,"is_transit":false,"distance":2179,"i_lat":-6.288927,"transit":false,"station_name":"Jurangmangu","time":3},{"transit":false,"i_lat":-6.296963,"distance":1994,"station_id":"SDM","station_name":"Sudimara","time":4,"line":6,"is_transit":false,"i_long":106.712277},{"i_lat":-6.314823,"i_long":106.675475,"line":6,"is_transit":false,"distance":4566,"station_id":"RU","station_name":"Rawa Buntu","time":6,"transit":false},{"line":6,"distance":2413,"station_id":"SRP","is_transit":false,"station_name":"Serpong","time":4,"transit":false,"i_lat":-6.319871,"i_long":106.66566},{"transit":false,"is_transit":false,"station_name":"Cisauk","distance":1784,"i_long":106.640411,"time":4,"station_id":"CSK","i_lat":-6.32484,"line":3},{"distance":2519,"time":4,"is_transit":false,"i_long":106.617853,"transit":false,"i_lat":-6.329547,"station_id":"CC","line":3,"station_name":"Cicayur"},{"station_name":"Parung Panjang","i_lat":-6.3441410000000005,"station_id":"PRP","is_transit":false,"line":6,"i_long":106.568863,"time":8,"distance":5968,"transit":false},{"station_id":"CJT","i_long":106.508482,"i_lat":-6.354349,"station_name":"Cilejit","is_transit":false,"line":3,"time":9,"transit":false,"distance":7025},{"station_name":"Daru","i_lat":-6.338021,"distance":2675,"transit":false,"station_id":"DAR","is_transit":false,"line":0,"i_long":106.491338,"time":6},{"i_long":106.460812,"station_name":"Tenjo","is_transit":false,"i_lat":-6.327251,"time":5,"distance":3902,"station_id":"TEJ","line":6,"transit":false}],[{"station_id":"PSMB","is_transit":false,"distance":0,"i_lat":-6.263214,"time":0,"i_long":106.851577,"line":2,"station_name":"Pasar Minggu Baru","transit":false},{"is_transit":false,"i_lat":-6.255332,"distance":824,"time":2,"station_id":"DRN","transit":false,"i_long":106.85449,"line":2,"station_name":"Duren Kalibata"},{"i_lat":-6.242512,"i_long":106.856607,"distance":1546,"line":2,"time":3,"station_name":"Cawang","transit":false,"station_id":"CW","is_transit":false},{"is_transit":false,"i_long":106.857948,"transit":false,"line":2,"station_name":"Tebet","station_id":"TEB","i_lat":-6.226659,"time":2,"distance":1230},{"is_transit":false,"station_id":"MRI","i_lat":-6.209883,"distance":2610,"station_name":"Manggarai","transit":false,"i_long":106.84912,"line":2,"time":4},{"transit":false,"station_name":"Cikini","time":4,"distance":1590,"station_id":"CKI","is_transit":false,"i_long":106.840169,"i_lat":-6.198556,"line":2},{"is_transit":false,"station_id":"GDD","i_long":106.832183,"line":2,"station_name":"Gondangdia","transit":false,"distance":1750,"time":3,"i_lat":-6.186295},{"time":4,"i_lat":-6.166716,"distance":2015,"station_name":"Juanda","line":2,"transit":false,"station_id":"JUA","is_transit":false,"i_long":106.828284},{"i_long":106.827103,"distance":1149,"station_name":"Sawah Besar","transit":false,"time":2,"station_id":"SW","i_lat":-6.160725,"line":2,"is_transit":false},{"transit":false,"time":2,"station_name":"Manggabesar","is_transit":false,"station_id":"MGB","i_lat":-6.149769,"line":2,"distance":906,"i_long":106.82482},{"distance":1080,"i_lat":-6.141205,"line":2,"transit":false,"station_name":"Jayakarta","is_transit":false,"i_long":106.820901,"station_id":"JAY","time":2},{"time":4,"i_lat":-6.137569,"is_transit":true,"station_id":"JAKK","i_long":106.812439,"transit":true,"distance":1264,"station_name":"Jakarta Kota","line":2},{"station_name":"Kampung Bandan","station_id":"KPB","i_long":106.826365,"time":3,"i_lat":-6.132549,"distance":1364,"transit":true,"line":4,"is_transit":true},{"i_lat":-6.144674,"time":9,"distance":4102,"station_id":"AK","i_long":106.79867,"line":1,"transit":false,"is_transit":false,"station_name":"Angke"},{"station_id":"DU","is_transit":false,"i_lat":-6.155215,"transit":false,"time":4,"i_long":106.800832,"station_name":"Duri","line":1,"distance":1230},{"distance":3632,"time":8,"transit":true,"is_transit":true,"i_long":106.811091,"station_name":"Tanah Abang","line":1,"station_id":"THB","i_lat":-6.185545},{"station_name":"Palmerah","time":6,"i_lat":-6.207404,"i_long":106.79689,"is_transit":false,"distance":3191,"station_id":"PLM","line":6,"transit":false},{"station_id":"KBY","distance":3737,"is_transit":false,"i_long":106.780334,"transit":false,"time":7,"station_name":"Kebayoran","line":6,"i_lat":-6.237242},{"is_transit":false,"i_long":106.74273,"station_id":"PDJ","distance":6218,"time":8,"transit":false,"station_name":"Pondokranji","i_lat":-6.276362,"line":6},{"is_transit":false,"station_name":"Jurangmangu","transit":false,"station_id":"JMU","line":6,"time":3,"distance":2179,"i_long":106.728916,"i_lat":-6.288927},{"station_id":"SDM","distance":1994,"i_lat":-6.296963,"time":4,"line":6,"transit":false,"is_transit":false,"station_name":"Sudimara","i_long":106.712277},{"i_lat":-6.314823,"time":6,"transit":false,"is_transit":false,"i_long":106.675475,"station_id":"RU","station_name":"Rawa Buntu","line":6,"distance":4566},{"station_id":"SRP","time":4,"is_transit":false,"station_name":"Serpong","transit":false,"i_long":106.66566,"distance":2413,"line":6,"i_lat":-6.319871},{"distance":1784,"transit":false,"time":4,"station_id":"CSK","i_long":106.640411,"station_name":"Cisauk","is_transit":false,"i_lat":-6.32484,"line":3},{"station_id":"CC","is_transit":false,"i_long":106.617853,"distance":2519,"time":4,"station_name":"Cicayur","line":3,"transit":false,"i_lat":-6.329547},{"i_lat":-6.3441410000000005,"distance":5968,"transit":false,"time":8,"is_transit":false,"i_long":106.568863,"station_name":"Parung Panjang","line":6,"station_id":"PRP"},{"station_name":"Cilejit","i_long":106.508482,"time":9,"is_transit":false,"i_lat":-6.354349,"line":3,"station_id":"CJT","transit":false,"distance":7025},{"distance":2675,"transit":false,"time":6,"station_name":"Daru","line":0,"station_id":"DAR","is_transit":false,"i_lat":-6.338021,"i_long":106.491338},{"line":6,"distance":3902,"station_name":"Tenjo","is_transit":false,"time":5,"i_lat":-6.327251,"i_long":106.460812,"transit":false,"station_id":"TEJ"}],[{"time":0,"is_transit":false,"distance":0,"i_lat":-6.263214,"line":2,"station_name":"Pasar Minggu Baru","transit":false,"station_id":"PSMB","i_long":106.851577},{"transit":false,"i_long":106.85449,"station_name":"Duren Kalibata","i_lat":-6.255332,"line":2,"station_id":"DRN","is_transit":false,"time":2,"distance":824},{"station_name":"Cawang","distance":1546,"is_transit":false,"line":2,"i_long":106.856607,"time":3,"station_id":"CW","i_lat":-6.242512,"transit":false},{"time":2,"station_name":"Tebet","line":2,"transit":false,"station_id":"TEB","i_lat":-6.226659,"i_long":106.857948,"is_transit":false,"distance":1230},{"time":4,"station_id":"MRI","i_long":106.84912,"station_name":"Manggarai","line":2,"transit":true,"distance":2610,"is_transit":true,"i_lat":-6.209883},{"transit":false,"i_long":106.858896,"time":2,"line":1,"is_transit":false,"distance":1275,"station_id":"MTR","i_lat":-6.212485,"station_name":"Matraman"},{"station_name":"Jatinegara","is_transit":true,"transit":true,"time":8,"distance":1377,"i_lat":-6.215091,"line":1,"station_id":"JNG","i_long":106.86807400000001},{"station_name":"Pondok Jati","transit":false,"line":11,"i_lat":-6.209188,"distance":1236,"station_id":"POK","is_transit":false,"i_long":106.861737,"time":2},{"time":2,"transit":false,"i_lat":-6.193792,"i_long":106.855437,"line":11,"distance":1829,"station_name":"Kramat","station_id":"KMT","is_transit":false},{"transit":false,"station_id":"GST","time":1,"is_transit":false,"i_lat":-6.185975,"i_long":106.850107,"distance":973,"station_name":"Gang Sentiong","line":11},{"transit":false,"station_name":"Pasar Senen","station_id":"PSE","line":11,"i_lat":-6.174784,"i_long":106.84368,"distance":1567,"is_transit":false,"time":8},{"distance":1436,"time":4,"i_lat":-6.161728,"station_id":"KMO","line":11,"station_name":"Kemayoran","i_long":106.839204,"is_transit":false,"transit":false},{"distance":1901,"time":5,"station_id":"RJW","i_lat":-6.14505,"station_name":"Rajawali","is_transit":false,"transit":false,"i_long":106.836569,"line":11},{"distance":1444,"time":3,"station_id":"KPB","i_long":106.826365,"transit":true,"is_transit":true,"station_name":"Kampung Bandan","i_lat":-6.132549,"line":4},{"i_long":106.79867,"distance":4102,"station_name":"Angke","transit":false,"i_lat":-6.144674,"line":1,"time":9,"station_id":"AK","is_transit":false},{"i_long":106.800832,"station_name":"Duri","time":4,"transit":false,"station_id":"DU","i_lat":-6.155215,"line":1,"distance":1230,"is_transit":false},{"distance":3632,"station_name":"Tanah Abang","transit":true,"station_id":"THB","i_lat":-6.185545,"i_long":106.811091,"is_transit":true,"line":1,"time":8},{"i_lat":-6.207404,"transit":false,"station_id":"PLM","distance":3191,"time":6,"is_transit":false,"line":6,"i_long":106.79689,"station_name":"Palmerah"},{"station_id":"KBY","is_transit":false,"distance":3737,"transit":false,"i_lat":-6.237242,"line":6,"time":7,"i_long":106.780334,"station_name":"Kebayoran"},{"line":6,"i_lat":-6.276362,"is_transit":false,"i_long":106.74273,"distance":6218,"station_name":"Pondokranji","transit":false,"station_id":"PDJ","time":8},{"distance":2179,"line":6,"i_lat":-6.288927,"is_transit":false,"station_id":"JMU","time":3,"transit":false,"station_name":"Jurangmangu","i_long":106.728916},{"station_id":"SDM","distance":1994,"is_transit":false,"i_long":106.712277,"line":6,"i_lat":-6.296963,"time":4,"station_name":"Sudimara","transit":false},{"station_id":"RU","transit":false,"distance":4566,"station_name":"Rawa Buntu","is_transit":false,"i_lat":-6.314823,"i_long":106.675475,"line":6,"time":6},{"transit":false,"is_transit":false,"i_lat":-6.319871,"line":6,"station_id":"SRP","i_long":106.66566,"time":4,"distance":2413,"station_name":"Serpong"},{"transit":false,"station_id":"CSK","distance":1784,"station_name":"Cisauk","line":3,"time":4,"is_transit":false,"i_lat":-6.32484,"i_long":106.640411},{"time":4,"station_name":"Cicayur","i_long":106.617853,"distance":2519,"is_transit":false,"line":3,"i_lat":-6.329547,"transit":false,"station_id":"CC"},{"distance":5968,"transit":false,"time":8,"station_name":"Parung Panjang","station_id":"PRP","is_transit":false,"i_lat":-6.3441410000000005,"line":6,"i_long":106.568863},{"distance":7025,"i_long":106.508482,"i_lat":-6.354349,"station_name":"Cilejit","transit":false,"line":3,"time":9,"station_id":"CJT","is_transit":false},{"line":0,"station_name":"Daru","distance":2675,"station_id":"DAR","is_transit":false,"i_long":106.491338,"time":6,"transit":false,"i_lat":-6.338021},{"transit":false,"i_long":106.460812,"is_transit":false,"i_lat":-6.327251,"line":6,"station_name":"Tenjo","station_id":"TEJ","distance":3902,"time":5}]]}