{"data":[[{"line":2,"i_long":106.851577,"transit":false,"time":0,"station_name":"Pasar Minggu Baru","is_transit":false,"distance":0,"station_id":"PSMB","i_lat":-6.263214},{"distance":2380,"station_name":"Pasar Minggu","is_transit":false,"station_id":"PSM","line":2,"transit":false,"time":2,"i_long":106.843999,"i_lat":-6.2842400000000005},{"transit":false,"is_transit":false,"time":4,"i_lat":-6.3080680000000005,"i_long":106.838896,"distance":2820,"station_id":"TNT","line":2,"station_name":"Tanjung Barat"},{"station_id":"LNA","i_lat":-6.330363,"station_name":"Lenteng Agung","is_transit":false,"time":3,"i_long":106.832616,"transit":false,"line":2,"distance":2671},{"i_lat":-6.339291,"transit":false,"station_name":"Univ. Pancasila","i_long":106.834175,"time":2,"is_transit":false,"station_id":"UP","line":2,"distance":1029},{"station_name":"Univ. Indonesia","distance":2264,"i_lat":-6.360749,"line":2,"station_id":"UI","is_transit":false,"i_long":106.831474,"time":3,"transit":false}]]}