{"data":[[{"time":0,"station_name":"Pasar Minggu Baru","line":2,"station_id":"PSMB","distance":0,"i_lat":-6.263214,"is_transit":false,"transit":false,"i_long":106.851577},{"i_lat":-6.255332,"station_id":"DRN","line":2,"transit":false,"station_name":"Duren Kalibata","time":2,"i_long":106.85449,"is_transit":false,"distance":824},{"i_lat":-6.242512,"i_long":106.856607,"time":3,"station_id":"CW","distance":1546,"line":2,"is_transit":false,"transit":false,"station_name":"Cawang"},{"distance":1230,"is_transit":false,"transit":false,"time":2,"station_name":"Tebet","i_lat":-6.226659,"line":2,"i_long":106.857948,"station_id":"TEB"},{"i_long":106.84912,"i_lat":-6.209883,"time":4,"transit":true,"station_name":"Manggarai","distance":2610,"station_id":"MRI","line":2,"is_transit":true},{"time":2,"line":1,"distance":1275,"station_name":"Matraman","is_transit":false,"transit":false,"i_lat":-6.212485,"i_long":106.858896,"station_id":"MTR"},{"station_id":"JNG","distance":1377,"i_long":106.86807400000001,"line":1,"is_transit":true,"time":8,"transit":true,"station_name":"Jatinegara","i_lat":-6.215091},{"transit":false,"station_name":"Pondok Jati","distance":1236,"station_id":"POK","i_long":106.861737,"i_lat":-6.209188,"line":11,"is_transit":false,"time":2},{"is_transit":false,"station_id":"KMT","station_name":"Kramat","i_lat":-6.193792,"distance":1829,"time":2,"i_long":106.855437,"transit":false,"line":11},{"station_id":"GST","time":1,"i_lat":-6.185975,"distance":973,"station_name":"Gang Sentiong","is_transit":false,"line":11,"i_long":106.850107,"transit":false},{"i_lat":-6.174784,"line":11,"is_transit":false,"i_long":106.84368,"station_id":"PSE","station_name":"Pasar Senen","time":8,"distance":1567,"transit":false},{"transit":false,"time":4,"i_lat":-6.161728,"station_id":"KMO","station_name":"Kemayoran","distance":1436,"line":11,"is_transit":false,"i_long":106.839204},{"is_transit":false,"transit":false,"i_lat":-6.14505,"distance":1901,"i_long":106.836569,"line":11,"time":5,"station_name":"Rajawali","station_id":"RJW"}],[{"line":2,"distance":0,"station_name":"Pasar Minggu Baru","station_id":"PSMB","transit":false,"is_transit":false,"i_lat":-6.263214,"time":0,"i_long":106.851577},{"time":2,"distance":824,"i_lat":-6.255332,"transit":false,"station_name":"Duren Kalibata","line":2,"i_long":106.85449,"station_id":"DRN","is_transit":false},{"is_transit":false,"line":2,"transit":false,"distance":1546,"i_lat":-6.242512,"station_id":"CW","station_name":"Cawang","i_long":106.856607,"time":3},{"transit":false,"distance":1230,"station_name":"Tebet","station_id":"TEB","is_transit":false,"time":2,"i_long":106.857948,"line":2,"i_lat":-6.226659},{"is_transit":true,"distance":2610,"station_id":"MRI","i_lat":-6.209883,"transit":true,"i_long":106.84912,"station_name":"Manggarai","line":2,"time":4},{"station_id":"SUD","time":4,"distance":3186,"i_lat":-6.202263,"line":1,"station_name":"Sudirman","i_long":106.822649,"is_transit":false,"transit":false},{"line":1,"station_name":"Sudirman Baru","station_id":"SUDB","i_long":106.819881,"transit":false,"is_transit":false,"time":1,"i_lat":-6.201433,"distance":280},{"time":1,"station_id":"KAT","i_long":106.816351,"is_transit":false,"transit":false,"distance":471,"i_lat":-6.20132,"line":1,"station_name":"Karet"},{"i_long":106.811091,"transit":false,"station_name":"Tanah Abang","station_id":"THB","is_transit":false,"time":5,"i_lat":-6.185545,"distance":2029,"line":1},{"station_id":"DU","is_transit":false,"line":1,"i_lat":-6.155215,"time":8,"transit":false,"station_name":"Duri","distance":3632,"i_long":106.800832},{"distance":1230,"is_transit":false,"line":1,"transit":false,"i_lat":-6.144674,"i_long":106.79867,"station_name":"Angke","station_id":"AK","time":4},{"distance":4102,"time":9,"transit":true,"i_lat":-6.132549,"line":4,"station_id":"KPB","i_long":106.826365,"station_name":"Kampung Bandan","is_transit":true},{"is_transit":false,"distance":1444,"station_name":"Rajawali","transit":false,"i_lat":-6.14505,"line":11,"station_id":"RJW","i_long":106.836569,"time":3}],[{"transit":false,"line":2,"time":0,"distance":0,"station_id":"PSMB","station_name":"Pasar Minggu Baru","i_lat":-6.263214,"is_transit":false,"i_long":106.851577},{"i_long":106.85449,"station_name":"Duren Kalibata","station_id":"DRN","i_lat":-6.255332,"is_transit":false,"distance":824,"time":2,"transit":false,"line":2},{"time":3,"line":2,"station_name":"Cawang","i_long":106.856607,"transit":false,"station_id":"CW","distance":1546,"i_lat":-6.242512,"is_transit":false},{"time":2,"distance":1230,"is_transit":false,"i_long":106.857948,"i_lat":-6.226659,"line":2,"station_name":"Tebet","station_id":"TEB","transit":false},{"station_id":"MRI","time":4,"transit":false,"is_transit":false,"i_lat":-6.209883,"distance":2610,"i_long":106.84912,"line":2,"station_name":"Manggarai"},{"i_lat":-6.198556,"i_long":106.840169,"time":4,"line":2,"transit":false,"station_id":"CKI","distance":1590,"station_name":"Cikini","is_transit":false},{"station_id":"GDD","i_lat":-6.186295,"transit":false,"line":2,"station_name":"Gondangdia","is_transit":false,"time":3,"distance":1750,"i_long":106.832183},{"transit":false,"line":2,"distance":2015,"i_lat":-6.166716,"station_id":"JUA","is_transit":false,"i_long":106.828284,"station_name":"Juanda","time":4},{"station_id":"SW","i_long":106.827103,"station_name":"Sawah Besar","distance":1149,"line":2,"is_transit":false,"transit":false,"time":2,"i_lat":-6.160725},{"transit":false,"line":2,"i_lat":-6.149769,"is_transit":false,"station_name":"Manggabesar","station_id":"MGB","time":2,"distance":906,"i_long":106.82482},{"i_long":106.820901,"line":2,"transit":false,"station_id":"JAY","is_transit":false,"distance":1080,"time":2,"station_name":"Jayakarta","i_lat":-6.141205},{"station_id":"JAKK","distance":1264,"i_lat":-6.137569,"i_long":106.812439,"line":2,"is_transit":true,"transit":true,"station_name":"Jakarta Kota","time":4},{"transit":true,"is_transit":true,"time":3,"distance":1364,"i_lat":-6.132549,"line":4,"station_id":"KPB","i_long":106.826365,"station_name":"Kampung Bandan"},{"station_name":"Rajawali","distance":1444,"time":3,"i_lat":-6.14505,"transit":false,"is_transit":false,"i_long":106.836569,"line":11,"station_id":"RJW"}]]}