{"data":[[{"i_long":106.851577,"station_name":"Pasar Minggu Baru","distance":0,"station_id":"PSMB","is_transit":false,"i_lat":-6.263214,"line":2,"time":0,"transit":false},{"time":2,"is_transit":false,"distance":2380,"i_long":106.843999,"line":2,"transit":false,"station_id":"PSM","station_name":"Pasar Minggu","i_lat":-6.2842400000000005},{"station_name":"Tanjung Barat","station_id":"TNT","i_long":106.838896,"distance":2820,"line":2,"i_lat":-6.3080680000000005,"transit":false,"is_transit":false,"time":4},{"distance":2671,"station_id":"LNA","is_transit":false,"station_name":"Lenteng Agung","i_long":106.832616,"transit":false,"time":3,"i_lat":-6.330363,"line":2},{"is_transit":false,"i_long":106.834175,"station_name":"Univ. Pancasila","i_lat":-6.339291,"line":2,"distance":1029,"time":2,"station_id":"UP","transit":false},{"is_transit":false,"line":2,"time":3,"i_long":106.831474,"station_name":"Univ. Indonesia","transit":false,"i_lat":-6.360749,"station_id":"UI","distance":2264}]]}