{"data":[[{"transit":false,"i_lat":-6.263214,"i_long":106.851577,"distance":0,"is_transit":false,"time":0,"station_id":"PSMB","station_name":"Pasar Minggu Baru","line":2},{"i_lat":-6.2842400000000005,"station_id":"PSM","station_name":"Pasar Minggu","distance":2380,"i_long":106.843999,"is_transit":false,"line":2,"transit":false,"time":2},{"station_id":"TNT","i_long":106.838896,"distance":2820,"line":2,"i_lat":-6.3080680000000005,"is_transit":false,"transit":false,"station_name":"Tanjung Barat","time":4},{"station_id":"LNA","i_lat":-6.330363,"is_transit":false,"i_long":106.832616,"line":2,"station_name":"Lenteng Agung","time":3,"transit":false,"distance":2671},{"is_transit":false,"distance":1029,"i_lat":-6.339291,"station_name":"Univ. Pancasila","transit":false,"line":2,"time":2,"station_id":"UP","i_long":106.834175},{"distance":2264,"i_lat":-6.360749,"station_id":"UI","i_long":106.831474,"line":2,"is_transit":false,"transit":false,"station_name":"Univ. Indonesia","time":3},{"i_long":106.831114,"transit":false,"time":2,"station_id":"POC","station_name":"Pondok Cina","is_transit":false,"distance":1109,"i_lat":-6.369073,"line":2},{"is_transit":false,"transit":false,"i_long":106.819451,"line":2,"i_lat":-6.391065,"station_id":"DPB","station_name":"Depokbaru","time":4,"distance":2727}]]}