{"data":[[{"transit":false,"time":0,"i_lat":-6.263214,"i_long":106.851577,"station_name":"Pasar Minggu Baru","line":2,"station_id":"PSMB","is_transit":false,"distance":0},{"line":2,"i_lat":-6.255332,"station_id":"DRN","time":2,"is_transit":false,"i_long":106.85449,"transit":false,"distance":824,"station_name":"Duren Kalibata"},{"is_transit":false,"i_long":106.856607,"line":2,"time":3,"transit":false,"station_name":"Cawang","distance":1546,"station_id":"CW","i_lat":-6.242512},{"line":2,"station_name":"Tebet","is_transit":false,"i_long":106.857948,"time":2,"i_lat":-6.226659,"distance":1230,"station_id":"TEB","transit":false},{"time":4,"transit":true,"i_long":106.84912,"distance":2610,"station_id":"MRI","is_transit":true,"station_name":"Manggarai","line":2,"i_lat":-6.209883},{"is_transit":false,"transit":false,"i_long":106.858896,"line":1,"station_id":"MTR","station_name":"Matraman","time":2,"i_lat":-6.212485,"distance":1275},{"distance":1377,"i_long":106.86807400000001,"station_name":"Jatinegara","transit":false,"station_id":"JNG","is_transit":false,"time":8,"i_lat":-6.215091,"line":1},{"time":3,"station_id":"KLD","station_name":"Klender","is_transit":false,"transit":false,"i_lat":-6.2135,"line":1,"distance":3395,"i_long":106.899548},{"station_id":"BUA","station_name":"Buaran","i_long":106.922662,"line":1,"transit":false,"is_transit":false,"i_lat":-6.215568,"distance":3100,"time":2},{"is_transit":false,"i_long":106.939679,"distance":1305,"station_id":"KLDB","line":1,"i_lat":-6.217455,"transit":false,"station_name":"Klenderbaru","time":1},{"station_id":"CUK","line":1,"time":8,"transit":false,"distance":1385,"i_lat":-6.219053,"i_long":106.951283,"station_name":"Cakung","is_transit":false},{"station_id":"KRI","transit":false,"i_lat":-6.224515,"line":1,"station_name":"Kranji","distance":3097,"is_transit":false,"i_long":106.977657,"time":3},{"is_transit":false,"line":1,"time":4,"distance":2520,"station_name":"Bekasi","i_long":106.997013,"station_id":"BKS","i_lat":-6.236616,"transit":false},{"distance":2368,"transit":false,"station_id":"BKST","i_lat":-6.248029,"time":2,"line":1,"i_long":107.016735,"station_name":"Bekasi Timur","is_transit":false}],[{"i_lat":-6.263214,"i_long":106.851577,"station_id":"PSMB","time":0,"transit":false,"is_transit":false,"station_name":"Pasar Minggu Baru","line":2,"distance":0},{"is_transit":false,"i_long":106.85449,"time":2,"i_lat":-6.255332,"transit":false,"distance":824,"station_id":"DRN","line":2,"station_name":"Duren Kalibata"},{"distance":1546,"line":2,"time":3,"i_lat":-6.242512,"i_long":106.856607,"station_id":"CW","transit":false,"station_name":"Cawang","is_transit":false},{"line":2,"is_transit":false,"time":2,"distance":1230,"station_name":"Tebet","transit":false,"station_id":"TEB","i_lat":-6.226659,"i_long":106.857948},{"station_id":"MRI","distance":2610,"time":4,"is_transit":true,"transit":true,"i_lat":-6.209883,"line":2,"station_name":"Manggarai","i_long":106.84912},{"distance":3186,"station_id":"SUD","i_lat":-6.202263,"i_long":106.822649,"time":4,"is_transit":false,"transit":false,"line":1,"station_name":"Sudirman"},{"time":1,"distance":280,"i_lat":-6.201433,"i_long":106.819881,"line":1,"station_id":"SUDB","station_name":"Sudirman Baru","transit":false,"is_transit":false},{"station_name":"Karet","transit":false,"station_id":"KAT","i_long":106.816351,"line":1,"time":1,"is_transit":false,"distance":471,"i_lat":-6.20132},{"time":5,"is_transit":false,"transit":false,"i_lat":-6.185545,"i_long":106.811091,"line":1,"distance":2029,"station_id":"THB","station_name":"Tanah Abang"},{"station_id":"DU","transit":false,"station_name":"Duri","i_long":106.800832,"line":1,"distance":3632,"i_lat":-6.155215,"is_transit":false,"time":8},{"is_transit":false,"transit":false,"distance":1230,"station_name":"Angke","i_lat":-6.144674,"station_id":"AK","time":4,"i_long":106.79867,"line":1},{"line":4,"i_long":106.826365,"time":9,"station_name":"Kampung Bandan","transit":true,"i_lat":-6.132549,"distance":4102,"station_id":"KPB","is_transit":true},{"distance":1444,"is_transit":false,"transit":false,"i_lat":-6.14505,"i_long":106.836569,"station_name":"Rajawali","line":11,"station_id":"RJW","time":3},{"i_lat":-6.161728,"station_id":"KMO","station_name":"Kemayoran","transit":false,"line":11,"is_transit":false,"time":5,"i_long":106.839204,"distance":1901},{"distance":1436,"line":11,"transit":false,"time":4,"i_lat":-6.174784,"is_transit":false,"i_long":106.84368,"station_id":"PSE","station_name":"Pasar Senen"},{"transit":false,"time":8,"distance":1567,"is_transit":false,"line":11,"i_lat":-6.185975,"i_long":106.850107,"station_name":"Gang Sentiong","station_id":"GST"},{"distance":973,"time":1,"station_id":"KMT","line":11,"i_long":106.855437,"station_name":"Kramat","transit":false,"is_transit":false,"i_lat":-6.193792},{"is_transit":false,"transit":false,"station_name":"Pondok Jati","i_long":106.861737,"time":2,"distance":1829,"line":11,"station_id":"POK","i_lat":-6.209188},{"line":1,"transit":true,"station_id":"JNG","is_transit":true,"time":9,"distance":1236,"station_name":"Jatinegara","i_lat":-6.215091,"i_long":106.86807400000001},{"i_long":106.899548,"is_transit":false,"station_id":"KLD","time":3,"i_lat":-6.2135,"transit":false,"distance":3395,"station_name":"Klender","line":1},{"is_transit":false,"i_lat":-6.215568,"station_name":"Buaran","distance":3100,"time":2,"station_id":"BUA","i_long":106.922662,"line":1,"transit":false},{"station_id":"KLDB","is_transit":false,"transit":false,"time":1,"i_lat":-6.217455,"station_name":"Klenderbaru","line":1,"i_long":106.939679,"distance":1305},{"time":8,"distance":1385,"line":1,"i_lat":-6.219053,"is_transit":false,"transit":false,"station_name":"Cakung","station_id":"CUK","i_long":106.951283},{"time":3,"transit":false,"distance":3097,"station_id":"KRI","line":1,"station_name":"Kranji","i_long":106.977657,"i_lat":-6.224515,"is_transit":false},{"transit":false,"line":1,"i_long":106.997013,"station_name":"Bekasi","is_transit":false,"station_id":"BKS","distance":2520,"i_lat":-6.236616,"time":4},{"time":2,"i_lat":-6.248029,"line":1,"distance":2368,"station_name":"Bekasi Timur","i_long":107.016735,"is_transit":false,"station_id":"BKST","transit":false}],[{"station_id":"PSMB","station_name":"Pasar Minggu Baru","distance":0,"is_transit":false,"transit":false,"i_lat":-6.263214,"i_long":106.851577,"time":0,"line":2},{"transit":false,"station_name":"Duren Kalibata","time":2,"station_id":"DRN","i_lat":-6.255332,"i_long":106.85449,"line":2,"is_transit":false,"distance":824},{"i_long":106.856607,"station_name":"Cawang","station_id":"CW","distance":1546,"time":3,"is_transit":false,"i_lat":-6.242512,"transit":false,"line":2},{"i_long":106.857948,"distance":1230,"line":2,"station_name":"Tebet","time":2,"is_transit":false,"station_id":"TEB","i_lat":-6.226659,"transit":false},{"i_long":106.84912,"distance":2610,"station_id":"MRI","is_transit":false,"i_lat":-6.209883,"time":4,"transit":false,"line":2,"station_name":"Manggarai"},{"distance":1590,"i_lat":-6.198556,"is_transit":false,"i_long":106.840169,"line":2,"station_name":"Cikini","transit":false,"station_id":"CKI","time":4},{"station_name":"Gondangdia","is_transit":false,"time":3,"distance":1750,"i_long":106.832183,"i_lat":-6.186295,"line":2,"transit":false,"station_id":"GDD"},{"station_id":"JUA","i_lat":-6.166716,"time":4,"line":2,"station_name":"Juanda","distance":2015,"i_long":106.828284,"is_transit":false,"transit":false},{"i_long":106.827103,"i_lat":-6.160725,"line":2,"time":2,"transit":false,"is_transit":false,"station_id":"SW","distance":1149,"station_name":"Sawah Besar"},{"station_id":"MGB","transit":false,"is_transit":false,"i_lat":-6.149769,"station_name":"Manggabesar","time":2,"i_long":106.82482,"line":2,"distance":906},{"time":2,"station_name":"Jayakarta","distance":1080,"line":2,"transit":false,"station_id":"JAY","i_long":106.820901,"i_lat":-6.141205,"is_transit":false},{"station_id":"JAKK","time":4,"station_name":"Jakarta Kota","i_lat":-6.137569,"distance":1264,"i_long":106.812439,"transit":true,"is_transit":true,"line":2},{"i_long":106.826365,"distance":1364,"line":4,"station_id":"KPB","is_transit":true,"i_lat":-6.132549,"transit":true,"time":3,"station_name":"Kampung Bandan"},{"station_name":"Rajawali","line":11,"time":3,"distance":1444,"station_id":"RJW","i_long":106.836569,"transit":false,"i_lat":-6.14505,"is_transit":false},{"time":5,"distance":1901,"transit":false,"i_lat":-6.161728,"station_name":"Kemayoran","line":11,"is_transit":false,"station_id":"KMO","i_long":106.839204},{"time":4,"station_id":"PSE","line":11,"is_transit":false,"transit":false,"station_name":"Pasar Senen","i_lat":-6.174784,"i_long":106.84368,"distance":1436},{"line":11,"i_long":106.850107,"transit":false,"station_name":"Gang Sentiong","station_id":"GST","time":8,"distance":1567,"is_transit":false,"i_lat":-6.185975},{"i_lat":-6.193792,"line":11,"transit":false,"time":1,"is_transit":false,"i_long":106.855437,"station_name":"Kramat","distance":973,"station_id":"KMT"},{"time":2,"i_lat":-6.209188,"transit":false,"line":11,"is_transit":false,"distance":1829,"station_id":"POK","i_long":106.861737,"station_name":"Pondok Jati"},{"i_lat":-6.215091,"i_long":106.86807400000001,"distance":1236,"station_name":"Jatinegara","line":1,"station_id":"JNG","transit":true,"is_transit":true,"time":9},{"i_long":106.899548,"i_lat":-6.2135,"station_name":"Klender","line":1,"is_transit":false,"transit":false,"time":3,"station_id":"KLD","distance":3395},{"time":2,"distance":3100,"station_id":"BUA","i_long":106.922662,"line":1,"transit":false,"is_transit":false,"station_name":"Buaran","i_lat":-6.215568},{"station_id":"KLDB","station_name":"Klenderbaru","i_lat":-6.217455,"i_long":106.939679,"line":1,"distance":1305,"time":1,"is_transit":false,"transit":false},{"i_long":106.951283,"station_id":"CUK","is_transit":false,"transit":false,"distance":1385,"time":8,"i_lat":-6.219053,"line":1,"station_name":"Cakung"},{"transit":false,"station_name":"Kranji","station_id":"KRI","distance":3097,"i_lat":-6.224515,"i_long":106.977657,"is_transit":false,"time":3,"line":1},{"i_long":106.997013,"distance":2520,"is_transit":false,"station_id":"BKS","time":4,"transit":false,"line":1,"station_name":"Bekasi","i_lat":-6.236616},{"i_lat":-6.248029,"transit":false,"is_transit":false,"station_name":"Bekasi Timur","distance":2368,"time":2,"station_id":"BKST","i_long":107.016735,"line":1}]]}