{"data":[[{"time":0,"is_transit":false,"station_name":"Pasar Minggu Baru","i_long":106.851577,"distance":0,"i_lat":-6.263214,"station_id":"PSMB","transit":false,"line":2},{"i_lat":-6.255332,"station_name":"Duren Kalibata","is_transit":false,"station_id":"DRN","distance":824,"i_long":106.85449,"transit":false,"line":2,"time":2},{"time":3,"transit":false,"i_lat":-6.242512,"station_id":"CW","line":2,"distance":1546,"is_transit":false,"i_long":106.856607,"station_name":"Cawang"},{"distance":1230,"i_lat":-6.226659,"i_long":106.857948,"line":2,"station_name":"Tebet","station_id":"TEB","is_transit":false,"transit":false,"time":2},{"time":4,"transit":true,"station_id":"MRI","line":2,"station_name":"Manggarai","distance":2610,"is_transit":true,"i_long":106.84912,"i_lat":-6.209883},{"distance":3186,"is_transit":false,"station_name":"Sudirman","station_id":"SUD","transit":false,"i_lat":-6.202263,"line":1,"i_long":106.822649,"time":4},{"i_long":106.819881,"distance":280,"station_id":"SUDB","time":1,"line":1,"i_lat":-6.201433,"station_name":"Sudirman Baru","is_transit":false,"transit":false},{"i_long":106.816351,"station_id":"KAT","transit":false,"i_lat":-6.20132,"distance":471,"is_transit":false,"time":1,"station_name":"Karet","line":1},{"time":5,"distance":2029,"station_id":"THB","station_name":"Tanah Abang","i_lat":-6.185545,"is_transit":true,"line":1,"transit":true,"i_long":106.811091},{"i_long":106.79689,"is_transit":false,"i_lat":-6.207404,"line":6,"station_id":"PLM","station_name":"Palmerah","time":6,"distance":3191,"transit":false},{"station_id":"KBY","station_name":"Kebayoran","transit":false,"time":7,"is_transit":false,"i_lat":-6.237242,"i_long":106.780334,"line":6,"distance":3737},{"line":6,"time":8,"distance":6218,"is_transit":false,"station_id":"PDJ","i_long":106.74273,"transit":false,"station_name":"Pondokranji","i_lat":-6.276362},{"time":3,"distance":2179,"station_name":"Jurangmangu","is_transit":false,"transit":false,"i_lat":-6.288927,"i_long":106.728916,"station_id":"JMU","line":6}],[{"distance":0,"i_lat":-6.263214,"time":0,"station_name":"Pasar Minggu Baru","is_transit":false,"line":2,"transit":false,"i_long":106.851577,"station_id":"PSMB"},{"is_transit":false,"distance":824,"i_long":106.85449,"line":2,"time":2,"station_name":"Duren Kalibata","i_lat":-6.255332,"transit":false,"station_id":"DRN"},{"line":2,"transit":false,"station_id":"CW","i_lat":-6.242512,"distance":1546,"station_name":"Cawang","i_long":106.856607,"time":3,"is_transit":false},{"time":2,"transit":false,"i_lat":-6.226659,"distance":1230,"station_name":"Tebet","is_transit":false,"line":2,"station_id":"TEB","i_long":106.857948},{"time":4,"distance":2610,"station_id":"MRI","station_name":"Manggarai","line":2,"transit":false,"is_transit":false,"i_lat":-6.209883,"i_long":106.84912},{"time":4,"station_id":"CKI","distance":1590,"i_long":106.840169,"station_name":"Cikini","is_transit":false,"line":2,"transit":false,"i_lat":-6.198556},{"distance":1750,"line":2,"time":3,"i_lat":-6.186295,"transit":false,"is_transit":false,"station_id":"GDD","station_name":"Gondangdia","i_long":106.832183},{"time":4,"transit":false,"station_name":"Juanda","station_id":"JUA","is_transit":false,"line":2,"i_long":106.828284,"distance":2015,"i_lat":-6.166716},{"i_lat":-6.160725,"line":2,"is_transit":false,"time":2,"station_id":"SW","station_name":"Sawah Besar","i_long":106.827103,"distance":1149,"transit":false},{"i_lat":-6.149769,"distance":906,"line":2,"station_id":"MGB","station_name":"Manggabesar","time":2,"i_long":106.82482,"is_transit":false,"transit":false},{"i_lat":-6.141205,"station_name":"Jayakarta","distance":1080,"time":2,"station_id":"JAY","line":2,"i_long":106.820901,"transit":false,"is_transit":false},{"i_lat":-6.137569,"i_long":106.812439,"line":2,"station_id":"JAKK","is_transit":true,"transit":true,"distance":1264,"time":4,"station_name":"Jakarta Kota"},{"distance":1364,"station_id":"KPB","time":3,"i_long":106.826365,"line":4,"transit":true,"station_name":"Kampung Bandan","is_transit":true,"i_lat":-6.132549},{"time":9,"station_name":"Angke","is_transit":false,"transit":false,"i_lat":-6.144674,"i_long":106.79867,"distance":4102,"station_id":"AK","line":1},{"distance":1230,"is_transit":false,"time":4,"station_name":"Duri","i_long":106.800832,"transit":false,"i_lat":-6.155215,"station_id":"DU","line":1},{"is_transit":true,"station_id":"THB","station_name":"Tanah Abang","line":1,"time":8,"distance":3632,"transit":true,"i_long":106.811091,"i_lat":-6.185545},{"time":6,"is_transit":false,"transit":false,"line":6,"distance":3191,"station_id":"PLM","i_lat":-6.207404,"i_long":106.79689,"station_name":"Palmerah"},{"time":7,"station_id":"KBY","i_long":106.780334,"transit":false,"i_lat":-6.237242,"is_transit":false,"distance":3737,"station_name":"Kebayoran","line":6},{"time":8,"i_lat":-6.276362,"line":6,"i_long":106.74273,"distance":6218,"station_id":"PDJ","is_transit":false,"station_name":"Pondokranji","transit":false},{"station_name":"Jurangmangu","transit":false,"i_lat":-6.288927,"i_long":106.728916,"time":3,"is_transit":false,"line":6,"distance":2179,"station_id":"JMU"}],[{"station_id":"PSMB","line":2,"distance":0,"i_lat":-6.263214,"i_long":106.851577,"is_transit":false,"transit":false,"time":0,"station_name":"Pasar Minggu Baru"},{"station_name":"Duren Kalibata","distance":824,"time":2,"is_transit":false,"i_lat":-6.255332,"i_long":106.85449,"station_id":"DRN","transit":false,"line":2},{"i_lat":-6.242512,"station_id":"CW","distance":1546,"is_transit":false,"transit":false,"time":3,"station_name":"Cawang","line":2,"i_long":106.856607},{"transit":false,"station_name":"Tebet","time":2,"station_id":"TEB","i_lat":-6.226659,"i_long":106.857948,"is_transit":false,"line":2,"distance":1230},{"station_name":"Manggarai","time":4,"line":2,"i_long":106.84912,"distance":2610,"station_id":"MRI","i_lat":-6.209883,"is_transit":true,"transit":true},{"is_transit":false,"time":2,"station_id":"MTR","line":1,"i_lat":-6.212485,"station_name":"Matraman","distance":1275,"transit":false,"i_long":106.858896},{"transit":true,"line":1,"is_transit":true,"station_id":"JNG","time":8,"distance":1377,"station_name":"Jatinegara","i_lat":-6.215091,"i_long":106.86807400000001},{"time":2,"transit":false,"station_name":"Pondok Jati","distance":1236,"i_lat":-6.209188,"i_long":106.861737,"line":11,"station_id":"POK","is_transit":false},{"is_transit":false,"transit":false,"i_lat":-6.193792,"i_long":106.855437,"line":11,"station_name":"Kramat","time":2,"distance":1829,"station_id":"KMT"},{"i_lat":-6.185975,"station_id":"GST","line":11,"is_transit":false,"transit":false,"time":1,"i_long":106.850107,"distance":973,"station_name":"Gang Sentiong"},{"transit":false,"station_id":"PSE","line":11,"time":8,"i_lat":-6.174784,"station_name":"Pasar Senen","distance":1567,"is_transit":false,"i_long":106.84368},{"station_id":"KMO","i_lat":-6.161728,"is_transit":false,"i_long":106.839204,"distance":1436,"line":11,"time":4,"station_name":"Kemayoran","transit":false},{"is_transit":false,"station_name":"Rajawali","station_id":"RJW","i_lat":-6.14505,"distance":1901,"time":5,"line":11,"transit":false,"i_long":106.836569},{"is_transit":true,"station_id":"KPB","line":4,"transit":true,"station_name":"Kampung Bandan","time":3,"i_lat":-6.132549,"distance":1444,"i_long":106.826365},{"distance":4102,"line":1,"i_lat":-6.144674,"i_long":106.79867,"is_transit":false,"time":9,"transit":false,"station_name":"Angke","station_id":"AK"},{"is_transit":false,"line":1,"distance":1230,"i_long":106.800832,"station_name":"Duri","time":4,"station_id":"DU","transit":false,"i_lat":-6.155215},{"line":1,"transit":true,"time":8,"station_name":"Tanah Abang","station_id":"THB","is_transit":true,"distance":3632,"i_lat":-6.185545,"i_long":106.811091},{"line":6,"transit":false,"distance":3191,"station_name":"Palmerah","i_lat":-6.207404,"station_id":"PLM","i_long":106.79689,"is_transit":false,"time":6},{"is_transit":false,"line":6,"i_lat":-6.237242,"time":7,"station_id":"KBY","transit":false,"distance":3737,"station_name":"Kebayoran","i_long":106.780334},{"i_long":106.74273,"is_transit":false,"line":6,"time":8,"transit":false,"station_id":"PDJ","station_name":"Pondokranji","distance":6218,"i_lat":-6.276362},{"time":3,"is_transit":false,"line":6,"transit":false,"station_id":"JMU","i_lat":-6.288927,"distance":2179,"station_name":"Jurangmangu","i_long":106.728916}]]}