{"data":[[{"transit":false,"distance":0,"station_id":"PSMB","is_transit":false,"station_name":"Pasar Minggu Baru","i_long":106.851577,"time":0,"i_lat":-6.263214,"line":2},{"station_id":"DRN","distance":824,"line":0,"time":2,"transit":false,"station_name":"Duren Kalibata","is_transit":false,"i_long":106.85449,"i_lat":-6.255332},{"i_lat":-6.242512,"transit":false,"is_transit":false,"time":3,"station_id":"CW","station_name":"Cawang","i_long":106.856607,"line":0,"distance":1546},{"station_name":"Tebet","distance":1230,"transit":false,"i_lat":-6.226659,"is_transit":false,"line":2,"i_long":106.857948,"station_id":"TEB","time":2},{"i_long":106.84912,"line":0,"station_name":"Manggarai","time":4,"i_lat":-6.209883,"station_id":"MRI","transit":true,"is_transit":true,"distance":2610},{"station_id":"SUD","transit":false,"i_long":106.822649,"time":4,"station_name":"Sudirman","line":1,"i_lat":-6.202263,"distance":3186,"is_transit":false},{"i_lat":-6.201433,"distance":280,"station_id":"SUDB","transit":false,"time":1,"i_long":106.819881,"is_transit":false,"line":1,"station_name":"Sudirman Baru"},{"line":1,"distance":471,"is_transit":false,"station_name":"Karet","station_id":"KAT","transit":false,"time":1,"i_lat":-6.20132,"i_long":106.816351},{"distance":2029,"is_transit":true,"time":5,"i_lat":-6.185545,"station_id":"THB","station_name":"Tanah Abang","transit":true,"line":1,"i_long":106.811091},{"transit":false,"is_transit":false,"i_lat":-6.207404,"i_long":106.79689,"station_id":"PLM","line":6,"station_name":"Palmerah","distance":3191,"time":6},{"line":6,"transit":false,"i_long":106.780334,"station_name":"Kebayoran","time":7,"distance":3737,"is_transit":false,"i_lat":-6.237242,"station_id":"KBY"},{"i_long":106.74273,"station_name":"Pondokranji","time":8,"distance":6218,"i_lat":-6.276362,"station_id":"PDJ","line":6,"is_transit":false,"transit":false},{"station_name":"Jurangmangu","time":3,"line":6,"station_id":"JMU","i_lat":-6.288927,"i_long":106.728916,"transit":false,"distance":2179,"is_transit":false},{"station_id":"SDM","i_long":106.712277,"station_name":"Sudimara","line":6,"distance":1994,"transit":false,"i_lat":-6.296963,"is_transit":false,"time":4},{"is_transit":false,"station_name":"Rawa Buntu","distance":4566,"station_id":"RU","i_lat":-6.314823,"time":6,"transit":false,"i_long":106.675475,"line":6},{"distance":2413,"i_lat":-6.319871,"is_transit":false,"station_id":"SRP","transit":false,"i_long":106.66566,"line":6,"time":4,"station_name":"Serpong"},{"i_long":106.640411,"distance":1784,"station_id":"CSK","station_name":"Cisauk","time":4,"i_lat":-6.32484,"line":0,"is_transit":false,"transit":false},{"distance":2519,"line":0,"is_transit":false,"transit":false,"station_id":"CC","station_name":"Cicayur","time":4,"i_lat":-6.329547,"i_long":106.617853}],[{"is_transit":false,"time":0,"distance":0,"i_long":106.851577,"line":2,"i_lat":-6.263214,"station_id":"PSMB","station_name":"Pasar Minggu Baru","transit":false},{"is_transit":false,"station_id":"DRN","station_name":"Duren Kalibata","distance":824,"transit":false,"i_lat":-6.255332,"line":0,"i_long":106.85449,"time":2},{"line":0,"i_long":106.856607,"distance":1546,"time":3,"station_id":"CW","station_name":"Cawang","transit":false,"is_transit":false,"i_lat":-6.242512},{"is_transit":false,"i_long":106.857948,"i_lat":-6.226659,"station_id":"TEB","time":2,"station_name":"Tebet","distance":1230,"transit":false,"line":2},{"station_name":"Manggarai","i_lat":-6.209883,"station_id":"MRI","time":4,"distance":2610,"transit":true,"i_long":106.84912,"line":0,"is_transit":true},{"is_transit":false,"distance":1590,"line":0,"transit":false,"station_id":"CKI","station_name":"Cikini","i_lat":-6.198556,"time":4,"i_long":106.840169},{"distance":1750,"is_transit":false,"transit":false,"station_id":"GDD","i_lat":-6.186295,"line":2,"i_long":106.832183,"station_name":"Gondangdia","time":3},{"i_lat":-6.166716,"transit":false,"time":4,"i_long":106.828284,"line":2,"station_id":"JUA","distance":2015,"is_transit":false,"station_name":"Juanda"},{"i_lat":-6.160725,"station_name":"Sawah Besar","line":2,"is_transit":false,"time":2,"transit":false,"station_id":"SW","distance":1149,"i_long":106.827103},{"station_id":"MGB","station_name":"Manggabesar","transit":false,"distance":906,"is_transit":false,"i_lat":-6.149769,"i_long":106.82482,"line":2,"time":2},{"station_id":"JAY","transit":false,"is_transit":false,"i_long":106.820901,"time":2,"line":7,"i_lat":-6.141205,"station_name":"Jayakarta","distance":1080},{"transit":true,"line":0,"distance":1264,"time":4,"station_name":"Jakarta Kota","i_long":106.812439,"i_lat":-6.137569,"station_id":"JAKK","is_transit":true},{"transit":false,"station_name":"Kampung Bandan","is_transit":true,"time":3,"i_long":106.826365,"distance":1364,"line":0,"station_id":"KPB","i_lat":-6.132549},{"i_long":106.79867,"distance":4102,"transit":false,"is_transit":false,"line":0,"i_lat":-6.144674,"station_id":"AK","time":9,"station_name":"Angke"},{"is_transit":true,"transit":true,"distance":1230,"i_long":106.800832,"station_name":"Duri","station_id":"DU","time":4,"line":1,"i_lat":-6.155215},{"distance":3632,"line":1,"station_name":"Tanah Abang","station_id":"THB","i_long":106.811091,"transit":true,"time":8,"is_transit":true,"i_lat":-6.185545},{"station_name":"Palmerah","line":6,"distance":3191,"station_id":"PLM","i_long":106.79689,"i_lat":-6.207404,"is_transit":false,"transit":false,"time":6},{"station_id":"KBY","line":6,"distance":3737,"station_name":"Kebayoran","transit":false,"is_transit":false,"time":7,"i_lat":-6.237242,"i_long":106.780334},{"station_id":"PDJ","i_lat":-6.276362,"i_long":106.74273,"time":8,"transit":false,"line":6,"is_transit":false,"distance":6218,"station_name":"Pondokranji"},{"transit":false,"distance":2179,"station_name":"Jurangmangu","time":3,"line":6,"i_long":106.728916,"is_transit":false,"station_id":"JMU","i_lat":-6.288927},{"i_lat":-6.296963,"i_long":106.712277,"is_transit":false,"station_name":"Sudimara","transit":false,"distance":1994,"time":4,"line":6,"station_id":"SDM"},{"distance":4566,"station_name":"Rawa Buntu","transit":false,"time":6,"i_lat":-6.314823,"i_long":106.675475,"line":6,"station_id":"RU","is_transit":false},{"transit":false,"time":4,"i_long":106.66566,"station_id":"SRP","line":6,"i_lat":-6.319871,"distance":2413,"station_name":"Serpong","is_transit":false},{"is_transit":false,"station_name":"Cisauk","transit":false,"distance":1784,"i_lat":-6.32484,"station_id":"CSK","line":0,"time":4,"i_long":106.640411},{"is_transit":false,"i_long":106.617853,"station_id":"CC","distance":2519,"transit":false,"time":4,"i_lat":-6.329547,"station_name":"Cicayur","line":0}],[{"time":0,"transit":false,"i_lat":-6.263214,"station_name":"Pasar Minggu Baru","line":2,"distance":0,"station_id":"PSMB","i_long":106.851577,"is_transit":false},{"i_long":106.85449,"line":0,"transit":false,"i_lat":-6.255332,"station_name":"Duren Kalibata","is_transit":false,"distance":824,"station_id":"DRN","time":2},{"transit":false,"line":0,"i_long":106.856607,"i_lat":-6.242512,"station_id":"CW","distance":1546,"station_name":"Cawang","is_transit":false,"time":3},{"station_name":"Tebet","i_long":106.857948,"line":2,"distance":1230,"transit":false,"time":2,"station_id":"TEB","i_lat":-6.226659,"is_transit":false},{"distance":2610,"is_transit":true,"i_lat":-6.209883,"station_name":"Manggarai","i_long":106.84912,"station_id":"MRI","line":0,"transit":true,"time":4},{"i_lat":-6.212485,"i_long":106.858896,"station_id":"MTR","time":2,"line":1,"distance":1275,"station_name":"Matraman","transit":false,"is_transit":false},{"i_lat":-6.215091,"distance":1377,"station_name":"Jatinegara","transit":true,"is_transit":true,"station_id":"JNG","time":8,"i_long":106.86807400000001,"line":0},{"is_transit":false,"transit":false,"station_name":"Pondok Jati","i_long":106.861737,"station_id":"POK","time":2,"distance":1236,"line":11,"i_lat":-6.209188},{"station_id":"KMT","distance":1829,"time":2,"transit":false,"line":11,"i_lat":-6.193792,"is_transit":false,"i_long":106.855437,"station_name":"Kramat"},{"i_long":106.850107,"distance":973,"station_name":"Gang Sentiong","station_id":"GST","line":11,"time":1,"transit":false,"i_lat":-6.185975,"is_transit":false},{"is_transit":false,"transit":false,"station_id":"PSE","line":11,"i_lat":-6.174784,"time":8,"distance":1567,"station_name":"Pasar Senen","i_long":106.84368},{"i_lat":-6.161728,"is_transit":false,"distance":1436,"i_long":106.839204,"line":11,"time":4,"transit":false,"station_name":"Kemayoran","station_id":"KMO"},{"station_name":"Rajawali","distance":1901,"i_lat":-6.14505,"transit":false,"time":5,"station_id":"RJW","is_transit":false,"i_long":106.836569,"line":11},{"transit":true,"i_lat":-6.132549,"is_transit":true,"line":0,"station_id":"KPB","time":3,"i_long":106.826365,"distance":1444,"station_name":"Kampung Bandan"},{"i_lat":-6.144674,"distance":4102,"is_transit":false,"line":0,"transit":false,"time":9,"i_long":106.79867,"station_name":"Angke","station_id":"AK"},{"i_long":106.800832,"is_transit":true,"line":1,"i_lat":-6.155215,"station_id":"DU","distance":1230,"time":4,"station_name":"Duri","transit":true},{"distance":3632,"line":1,"station_id":"THB","i_long":106.811091,"is_transit":true,"time":8,"station_name":"Tanah Abang","transit":true,"i_lat":-6.185545},{"transit":false,"distance":3191,"i_lat":-6.207404,"i_long":106.79689,"station_name":"Palmerah","is_transit":false,"station_id":"PLM","time":6,"line":6},{"is_transit":false,"station_id":"KBY","distance":3737,"station_name":"Kebayoran","transit":false,"time":7,"i_long":106.780334,"i_lat":-6.237242,"line":6},{"distance":6218,"i_lat":-6.276362,"time":8,"line":6,"i_long":106.74273,"station_id":"PDJ","is_transit":false,"station_name":"Pondokranji","transit":false},{"i_long":106.728916,"transit":false,"time":3,"distance":2179,"is_transit":false,"station_id":"JMU","station_name":"Jurangmangu","i_lat":-6.288927,"line":6},{"station_id":"SDM","i_long":106.712277,"distance":1994,"transit":false,"is_transit":false,"line":6,"time":4,"i_lat":-6.296963,"station_name":"Sudimara"},{"i_lat":-6.314823,"line":6,"time":6,"is_transit":false,"distance":4566,"station_id":"RU","transit":false,"i_long":106.675475,"station_name":"Rawa Buntu"},{"i_long":106.66566,"is_transit":false,"distance":2413,"station_id":"SRP","station_name":"Serpong","transit":false,"time":4,"i_lat":-6.319871,"line":6},{"station_name":"Cisauk","time":4,"line":0,"i_long":106.640411,"station_id":"CSK","i_lat":-6.32484,"transit":false,"distance":1784,"is_transit":false},{"time":4,"line":0,"i_long":106.617853,"station_id":"CC","station_name":"Cicayur","i_lat":-6.329547,"transit":false,"distance":2519,"is_transit":false}]]}