{"data":[[{"station_name":"Purwosari","distance":0,"transit":false,"time":0,"i_lat":-7.561362,"is_transit":false,"i_long":110.796655,"line":7,"station_id":"PWS"},{"station_name":"Gawok","distance":6639,"is_transit":false,"station_id":"GW","line":7,"i_lat":-7.589036,"transit":false,"time":7,"i_long":110.744432},{"station_name":"Delanggu","transit":false,"i_lat":-7.62181,"time":6,"station_id":"DL","i_long":110.706679,"distance":5543,"is_transit":false,"line":7},{"distance":6271,"station_name":"Ceper","is_transit":false,"station_id":"CE","i_long":110.674861,"line":7,"transit":false,"time":7,"i_lat":-7.668597},{"is_transit":false,"i_long":110.602981,"line":7,"time":9,"station_id":"KT","station_name":"Klaten","distance":9279,"transit":false,"i_lat":-7.712087},{"time":8,"station_id":"SWT","i_lat":-7.74111,"i_long":110.548972,"line":7,"transit":false,"station_name":"Srowot","distance":6738,"is_transit":false},{"is_transit":false,"i_lat":-7.756284,"station_name":"Brambanan","i_long":110.500451,"station_id":"BBN","transit":false,"line":0,"distance":5850,"time":7},{"station_name":"Maguwo","distance":7905,"transit":false,"station_id":"MGW","time":8,"is_transit":false,"i_lat":-7.784476,"i_long":110.436791,"line":7},{"i_long":110.375434,"station_id":"LPN","transit":false,"line":7,"distance":6799,"i_lat":-7.790018,"is_transit":false,"station_name":"Lempuyangan","time":7},{"station_name":"Yogyakarta","i_lat":-7.788961,"transit":false,"station_id":"YK","i_long":110.36345,"line":7,"time":6,"distance":1307,"is_transit":false}]]}