{"data":[[{"i_long":110.796655,"station_id":"PWS","time":0,"i_lat":-7.561362,"distance":0,"line":7,"transit":false,"is_transit":false,"station_name":"Purwosari"},{"station_name":"Gawok","distance":6639,"transit":false,"station_id":"GW","is_transit":false,"line":7,"i_lat":-7.589036,"i_long":110.744432,"time":7},{"line":7,"transit":false,"i_lat":-7.62181,"distance":5543,"station_id":"DL","station_name":"Delanggu","is_transit":false,"i_long":110.706679,"time":6},{"distance":6271,"transit":false,"station_name":"Ceper","i_long":110.674861,"line":7,"i_lat":-7.668597,"time":7,"station_id":"CE","is_transit":false},{"time":9,"i_long":110.602981,"station_id":"KT","i_lat":-7.712087,"station_name":"Klaten","transit":false,"distance":9279,"line":7,"is_transit":false},{"i_lat":-7.74111,"distance":6738,"line":7,"is_transit":false,"time":8,"i_long":110.548972,"station_id":"SWT","transit":false,"station_name":"Srowot"},{"line":0,"i_long":110.500451,"i_lat":-7.756284,"time":7,"station_name":"Brambanan","distance":5850,"transit":false,"station_id":"BBN","is_transit":false},{"station_name":"Maguwo","line":7,"distance":7905,"station_id":"MGW","is_transit":false,"i_long":110.436791,"i_lat":-7.784476,"time":8,"transit":false},{"i_lat":-7.790018,"time":7,"transit":false,"is_transit":false,"i_long":110.375434,"line":7,"station_id":"LPN","station_name":"Lempuyangan","distance":6799},{"station_id":"YK","time":6,"i_lat":-7.788961,"line":7,"i_long":110.36345,"station_name":"Yogyakarta","transit":false,"is_transit":false,"distance":1307},{"station_id":"PTN","i_long":110.32542,"station_name":"Patukan","line":7,"i_lat":-7.790605,"transit":false,"is_transit":false,"time":5,"distance":4241},{"time":4,"line":7,"distance":4579,"station_name":"Rewulu","is_transit":false,"i_lat":-7.797702,"i_long":110.279205,"transit":false,"station_id":"RWL"},{"transit":false,"line":0,"i_long":110.220122,"station_name":"Sentolo","station_id":"STL","distance":9041,"is_transit":false,"i_lat":-7.832939,"time":8},{"station_name":"Wates","distance":10145,"i_long":110.158003,"is_transit":false,"i_lat":-7.859237,"line":7,"time":25,"transit":false,"station_id":"WT"},{"i_long":110.040449,"transit":false,"distance":13652,"is_transit":false,"time":15,"line":7,"station_name":"Wojo","station_id":"WJ","i_lat":-7.861626},{"line":0,"i_long":110.000548,"station_name":"Jenar","distance":8393,"transit":false,"time":10,"station_id":"JN","is_transit":false,"i_lat":-7.801845},{"station_id":"KTA","i_lat":-7.725824,"is_transit":false,"distance":10145,"station_name":"Kutoarjo","i_long":109.90723,"transit":false,"time":16,"line":0}]]}