{"data":[[{"i_long":110.796655,"line":7,"is_transit":false,"station_id":"PWS","i_lat":-7.561362,"distance":0,"station_name":"Purwosari","time":0,"transit":false},{"i_lat":-7.589036,"i_long":110.744432,"line":7,"distance":6639,"transit":false,"is_transit":false,"station_id":"GW","time":7,"station_name":"Gawok"},{"distance":5543,"transit":false,"station_name":"Delanggu","time":6,"station_id":"DL","i_lat":-7.62181,"line":7,"i_long":110.706679,"is_transit":false},{"i_lat":-7.668597,"is_transit":false,"distance":6271,"line":7,"time":7,"station_id":"CE","transit":false,"i_long":110.674861,"station_name":"Ceper"},{"time":9,"i_long":110.602981,"transit":false,"distance":9279,"line":7,"station_id":"KT","is_transit":false,"station_name":"Klaten","i_lat":-7.712087},{"line":7,"is_transit":false,"i_long":110.548972,"i_lat":-7.74111,"distance":6738,"station_id":"SWT","transit":false,"station_name":"Srowot","time":8},{"station_id":"BBN","time":7,"station_name":"Brambanan","transit":false,"i_long":110.500451,"i_lat":-7.756284,"is_transit":false,"line":0,"distance":5850},{"distance":7905,"i_long":110.436791,"line":7,"i_lat":-7.784476,"station_name":"Maguwo","transit":false,"station_id":"MGW","time":8,"is_transit":false},{"line":7,"distance":6799,"station_id":"LPN","i_lat":-7.790018,"time":7,"i_long":110.375434,"is_transit":false,"transit":false,"station_name":"Lempuyangan"},{"i_lat":-7.788961,"transit":false,"line":7,"is_transit":false,"station_id":"YK","time":6,"distance":1307,"station_name":"Yogyakarta","i_long":110.36345},{"transit":false,"distance":4241,"station_name":"Patukan","i_long":110.32542,"line":7,"station_id":"PTN","time":5,"is_transit":false,"i_lat":-7.790605},{"line":7,"station_id":"RWL","time":4,"distance":4579,"is_transit":false,"station_name":"Rewulu","i_long":110.279205,"i_lat":-7.797702,"transit":false},{"station_id":"STL","distance":9041,"station_name":"Sentolo","time":8,"i_lat":-7.832939,"is_transit":false,"line":0,"i_long":110.220122,"transit":false},{"transit":false,"station_id":"WT","is_transit":false,"i_lat":-7.859237,"station_name":"Wates","time":25,"distance":10145,"i_long":110.158003,"line":7},{"is_transit":false,"time":15,"i_lat":-7.861626,"line":7,"station_id":"WJ","station_name":"Wojo","transit":false,"i_long":110.040449,"distance":13652},{"time":10,"is_transit":false,"i_long":110.000548,"line":0,"station_id":"JN","station_name":"Jenar","transit":false,"i_lat":-7.801845,"distance":8393},{"transit":false,"distance":10145,"time":16,"station_id":"KTA","station_name":"Kutoarjo","is_transit":false,"i_lat":-7.725824,"i_long":109.90723,"line":0}]]}