{"data":[[{"transit":false,"station_id":"PWS","station_name":"Purwosari","line":7,"is_transit":false,"i_long":110.796655,"time":0,"i_lat":-7.561362,"distance":0},{"line":7,"station_name":"Gawok","time":7,"i_long":110.744432,"i_lat":-7.589036,"transit":false,"distance":6639,"station_id":"GW","is_transit":false},{"station_name":"Delanggu","station_id":"DL","time":6,"i_long":110.706679,"distance":5543,"is_transit":false,"transit":false,"i_lat":-7.62181,"line":7},{"i_lat":-7.668597,"station_id":"CE","station_name":"Ceper","is_transit":false,"line":7,"i_long":110.674861,"distance":6271,"transit":false,"time":7},{"i_long":110.602981,"line":7,"distance":9279,"time":9,"station_id":"KT","is_transit":false,"i_lat":-7.712087,"station_name":"Klaten","transit":false},{"i_long":110.548972,"station_name":"Srowot","time":8,"i_lat":-7.74111,"station_id":"SWT","distance":6738,"line":7,"transit":false,"is_transit":false},{"distance":5850,"station_id":"BBN","transit":false,"i_long":110.500451,"station_name":"Brambanan","i_lat":-7.756284,"line":0,"is_transit":false,"time":7},{"station_name":"Maguwo","station_id":"MGW","transit":false,"time":8,"i_lat":-7.784476,"is_transit":false,"i_long":110.436791,"distance":7905,"line":7},{"station_id":"LPN","i_lat":-7.790018,"transit":false,"station_name":"Lempuyangan","time":7,"distance":6799,"is_transit":false,"line":7,"i_long":110.375434},{"i_long":110.36345,"i_lat":-7.788961,"line":7,"distance":1307,"station_name":"Yogyakarta","transit":false,"station_id":"YK","time":6,"is_transit":false},{"transit":false,"distance":4241,"station_id":"PTN","i_lat":-7.790605,"is_transit":false,"i_long":110.32542,"line":7,"time":5,"station_name":"Patukan"},{"station_name":"Rewulu","i_long":110.279205,"is_transit":false,"line":7,"transit":false,"station_id":"RWL","distance":4579,"i_lat":-7.797702,"time":4},{"time":8,"distance":9041,"station_id":"STL","i_long":110.220122,"station_name":"Sentolo","line":0,"transit":false,"is_transit":false,"i_lat":-7.832939},{"station_name":"Wates","i_lat":-7.859237,"line":7,"station_id":"WT","distance":10145,"i_long":110.158003,"transit":false,"is_transit":false,"time":25},{"i_long":110.040449,"distance":13652,"i_lat":-7.861626,"is_transit":false,"time":15,"line":7,"station_id":"WJ","station_name":"Wojo","transit":false},{"i_lat":-7.801845,"line":0,"is_transit":false,"i_long":110.000548,"distance":8393,"station_name":"Jenar","time":10,"transit":false,"station_id":"JN"},{"i_long":109.90723,"time":16,"i_lat":-7.725824,"is_transit":false,"station_name":"Kutoarjo","station_id":"KTA","transit":false,"distance":10145,"line":0}]]}