{"data":[[{"line":7,"is_transit":false,"station_name":"Purwosari","distance":0,"i_lat":-7.561362,"transit":false,"i_long":110.796655,"station_id":"PWS","time":0},{"line":7,"transit":false,"i_long":110.744432,"station_name":"Gawok","is_transit":false,"station_id":"GW","distance":6639,"time":7,"i_lat":-7.589036},{"time":6,"i_lat":-7.62181,"transit":false,"distance":5543,"is_transit":false,"station_id":"DL","line":0,"i_long":110.706679,"station_name":"Delanggu"},{"distance":6271,"time":7,"i_lat":-7.668597,"transit":false,"i_long":110.674861,"is_transit":false,"station_name":"Ceper","line":0,"station_id":"CE"},{"line":7,"distance":9279,"station_name":"Klaten","i_long":110.602981,"station_id":"KT","transit":false,"is_transit":false,"time":9,"i_lat":-7.712087},{"distance":6738,"station_name":"Srowot","station_id":"SWT","is_transit":false,"i_lat":-7.74111,"i_long":110.548972,"time":8,"line":7,"transit":false},{"station_id":"BBN","is_transit":false,"station_name":"Brambanan","i_lat":-7.756284,"time":7,"distance":5850,"i_long":110.500451,"transit":false,"line":0},{"distance":7905,"transit":false,"is_transit":false,"station_id":"MGW","i_long":110.436791,"line":7,"time":8,"station_name":"Maguwo","i_lat":-7.784476},{"line":7,"time":7,"station_id":"LPN","distance":6799,"i_lat":-7.790018,"is_transit":false,"i_long":110.375434,"station_name":"Lempuyangan","transit":false},{"is_transit":false,"distance":1307,"transit":false,"station_id":"YK","i_lat":-7.788961,"i_long":110.36345,"line":7,"station_name":"Yogyakarta","time":6}]]}