{"data":[[{"transit":false,"time":0,"station_id":"PWS","station_name":"Purwosari","distance":0,"i_long":110.796655,"i_lat":-7.561362,"is_transit":false,"line":7},{"is_transit":false,"i_long":110.744432,"station_id":"GW","time":7,"i_lat":-7.589036,"line":7,"station_name":"Gawok","transit":false,"distance":6639},{"station_name":"Delanggu","time":6,"line":0,"distance":5543,"is_transit":false,"i_long":110.706679,"station_id":"DL","transit":false,"i_lat":-7.62181},{"station_name":"Ceper","station_id":"CE","i_long":110.674861,"i_lat":-7.668597,"distance":6271,"is_transit":false,"transit":false,"line":0,"time":7},{"i_long":110.602981,"transit":false,"distance":9279,"i_lat":-7.712087,"station_name":"Klaten","line":7,"is_transit":false,"station_id":"KT","time":9},{"station_name":"Srowot","transit":false,"i_lat":-7.74111,"line":7,"i_long":110.548972,"is_transit":false,"distance":6738,"time":8,"station_id":"SWT"},{"station_id":"BBN","is_transit":false,"line":0,"i_lat":-7.756284,"time":7,"transit":false,"station_name":"Brambanan","distance":5850,"i_long":110.500451},{"distance":7905,"transit":false,"time":8,"station_id":"MGW","line":7,"i_long":110.436791,"station_name":"Maguwo","is_transit":false,"i_lat":-7.784476},{"station_id":"LPN","i_lat":-7.790018,"line":7,"is_transit":false,"i_long":110.375434,"transit":false,"station_name":"Lempuyangan","distance":6799,"time":7},{"i_lat":-7.788961,"i_long":110.36345,"distance":1307,"time":6,"station_id":"YK","transit":false,"line":7,"is_transit":false,"station_name":"Yogyakarta"},{"station_id":"PTN","is_transit":false,"time":5,"i_long":110.32542,"distance":4241,"line":7,"station_name":"Patukan","transit":false,"i_lat":-7.790605},{"distance":4579,"transit":false,"station_name":"Rewulu","is_transit":false,"station_id":"RWL","i_lat":-7.797702,"time":4,"line":7,"i_long":110.279205},{"transit":false,"line":7,"i_long":110.220122,"distance":9041,"time":8,"i_lat":-7.832939,"is_transit":false,"station_name":"Sentolo","station_id":"STL"},{"distance":10145,"station_id":"WT","line":7,"is_transit":false,"station_name":"Wates","transit":false,"time":25,"i_long":110.158003,"i_lat":-7.859237},{"is_transit":false,"distance":13652,"station_name":"Wojo","station_id":"WJ","time":15,"i_lat":-7.861626,"transit":false,"line":7,"i_long":110.040449},{"i_long":110.000548,"is_transit":false,"transit":false,"time":10,"station_id":"JN","i_lat":-7.801845,"distance":8393,"line":7,"station_name":"Jenar"},{"line":7,"distance":10145,"station_name":"Kutoarjo","transit":false,"station_id":"KTA","is_transit":false,"i_lat":-7.725824,"i_long":109.90723,"time":16}]]}