{"data":[[{"i_long":110.796655,"time":0,"station_id":"PWS","is_transit":false,"transit":false,"station_name":"Purwosari","distance":0,"line":7,"i_lat":-7.561362},{"transit":false,"station_name":"Gawok","distance":6639,"i_long":110.744432,"is_transit":false,"line":7,"station_id":"GW","time":7,"i_lat":-7.589036},{"line":7,"distance":5543,"i_long":110.706679,"transit":false,"time":6,"i_lat":-7.62181,"station_name":"Delanggu","station_id":"DL","is_transit":false},{"i_long":110.674861,"line":7,"transit":false,"station_id":"CE","distance":6271,"i_lat":-7.668597,"station_name":"Ceper","is_transit":false,"time":7},{"station_name":"Klaten","line":7,"station_id":"KT","time":9,"i_lat":-7.712087,"i_long":110.602981,"transit":false,"is_transit":false,"distance":9279},{"transit":false,"station_id":"SWT","time":8,"station_name":"Srowot","is_transit":false,"distance":6738,"line":7,"i_long":110.548972,"i_lat":-7.74111},{"time":7,"station_id":"BBN","distance":5850,"i_lat":-7.756284,"line":0,"transit":false,"station_name":"Brambanan","is_transit":false,"i_long":110.500451},{"station_name":"Maguwo","time":8,"line":7,"is_transit":false,"i_long":110.436791,"transit":false,"distance":7905,"i_lat":-7.784476,"station_id":"MGW"},{"station_name":"Lempuyangan","distance":6799,"time":7,"is_transit":false,"i_lat":-7.790018,"line":7,"station_id":"LPN","i_long":110.375434,"transit":false},{"time":6,"i_long":110.36345,"line":7,"transit":false,"station_name":"Yogyakarta","distance":1307,"is_transit":false,"station_id":"YK","i_lat":-7.788961}]]}