{"data":[[{"is_transit":false,"station_name":"Purwosari","distance":0,"time":0,"transit":false,"i_lat":-7.561362,"i_long":110.796655,"line":7,"station_id":"PWS"},{"line":7,"station_id":"GW","i_long":110.744432,"transit":false,"station_name":"Gawok","distance":6639,"time":7,"is_transit":false,"i_lat":-7.589036},{"station_name":"Delanggu","transit":false,"i_long":110.706679,"i_lat":-7.62181,"distance":5543,"line":7,"time":6,"is_transit":false,"station_id":"DL"},{"distance":6271,"is_transit":false,"transit":false,"station_name":"Ceper","station_id":"CE","i_lat":-7.668597,"time":7,"line":7,"i_long":110.674861},{"transit":false,"station_name":"Klaten","line":7,"is_transit":false,"i_lat":-7.712087,"i_long":110.602981,"station_id":"KT","time":9,"distance":9279},{"i_long":110.548972,"station_name":"Srowot","station_id":"SWT","i_lat":-7.74111,"time":8,"is_transit":false,"line":7,"transit":false,"distance":6738},{"time":7,"i_lat":-7.756284,"station_name":"Brambanan","station_id":"BBN","line":0,"is_transit":false,"transit":false,"i_long":110.500451,"distance":5850},{"is_transit":false,"station_id":"MGW","i_lat":-7.784476,"i_long":110.436791,"distance":7905,"time":8,"transit":false,"line":7,"station_name":"Maguwo"},{"is_transit":false,"line":7,"time":7,"i_lat":-7.790018,"i_long":110.375434,"station_id":"LPN","distance":6799,"transit":false,"station_name":"Lempuyangan"},{"line":7,"time":6,"transit":false,"i_lat":-7.788961,"distance":1307,"is_transit":false,"station_name":"Yogyakarta","station_id":"YK","i_long":110.36345}]]}