{"data":[[{"station_id":"RJW","station_name":"Rajawali","distance":0,"i_lat":-6.14505,"is_transit":false,"time":0,"line":11,"i_long":106.836569,"transit":false},{"distance":1901,"station_id":"KMO","line":11,"i_lat":-6.161728,"i_long":106.839204,"transit":false,"station_name":"Kemayoran","is_transit":false,"time":5},{"transit":false,"station_id":"PSE","is_transit":false,"time":4,"distance":1436,"i_long":106.84368,"i_lat":-6.174784,"line":11,"station_name":"Pasar Senen"},{"i_lat":-6.185975,"line":11,"transit":false,"i_long":106.850107,"station_id":"GST","is_transit":false,"time":8,"station_name":"Gang Sentiong","distance":1567},{"station_id":"KMT","time":1,"i_lat":-6.193792,"distance":973,"i_long":106.855437,"line":11,"is_transit":false,"station_name":"Kramat","transit":false},{"station_name":"Pondok Jati","i_long":106.861737,"line":11,"i_lat":-6.209188,"is_transit":false,"station_id":"POK","time":2,"distance":1829,"transit":false},{"time":9,"station_name":"Jatinegara","i_long":106.86807400000001,"i_lat":-6.215091,"line":1,"distance":1236,"is_transit":true,"station_id":"JNG","transit":true},{"time":3,"line":1,"is_transit":false,"transit":false,"i_lat":-6.2135,"station_id":"KLD","distance":3395,"station_name":"Klender","i_long":106.899548}],[{"station_id":"RJW","transit":false,"distance":0,"i_long":106.836569,"station_name":"Rajawali","is_transit":false,"line":11,"time":0,"i_lat":-6.14505},{"distance":1444,"station_name":"Kampung Bandan","is_transit":true,"i_lat":-6.132549,"i_long":106.826365,"time":3,"line":4,"station_id":"KPB","transit":true},{"i_long":106.79867,"i_lat":-6.144674,"line":1,"station_id":"AK","is_transit":false,"transit":false,"time":9,"distance":4102,"station_name":"Angke"},{"station_id":"DU","station_name":"Duri","time":4,"transit":false,"i_lat":-6.155215,"line":1,"is_transit":false,"distance":1230,"i_long":106.800832},{"i_long":106.811091,"line":1,"station_name":"Tanah Abang","transit":false,"distance":3632,"is_transit":false,"time":8,"station_id":"THB","i_lat":-6.185545},{"line":1,"station_id":"KAT","transit":false,"is_transit":false,"distance":2029,"i_lat":-6.20132,"i_long":106.816351,"time":5,"station_name":"Karet"},{"distance":471,"i_lat":-6.201433,"line":1,"time":1,"station_name":"Sudirman Baru","station_id":"SUDB","i_long":106.819881,"is_transit":false,"transit":false},{"transit":false,"time":1,"is_transit":false,"i_lat":-6.202263,"line":1,"station_name":"Sudirman","distance":280,"station_id":"SUD","i_long":106.822649},{"distance":3186,"i_long":106.84912,"is_transit":false,"station_id":"MRI","transit":false,"i_lat":-6.209883,"line":2,"time":4,"station_name":"Manggarai"},{"station_name":"Matraman","station_id":"MTR","is_transit":false,"i_lat":-6.212485,"transit":false,"i_long":106.858896,"line":1,"time":2,"distance":1275},{"is_transit":false,"i_lat":-6.215091,"station_name":"Jatinegara","station_id":"JNG","distance":1377,"line":1,"transit":false,"i_long":106.86807400000001,"time":8},{"is_transit":false,"time":3,"station_name":"Klender","distance":3395,"i_lat":-6.2135,"i_long":106.899548,"transit":false,"station_id":"KLD","line":1}],[{"i_lat":-6.14505,"i_long":106.836569,"distance":0,"time":0,"line":11,"transit":false,"station_id":"RJW","is_transit":false,"station_name":"Rajawali"},{"i_lat":-6.132549,"station_id":"KPB","line":4,"time":3,"distance":1444,"transit":true,"i_long":106.826365,"is_transit":true,"station_name":"Kampung Bandan"},{"station_id":"JAKK","transit":true,"distance":1364,"station_name":"Jakarta Kota","time":3,"i_long":106.812439,"is_transit":true,"i_lat":-6.137569,"line":2},{"i_lat":-6.141205,"distance":1264,"is_transit":false,"station_id":"JAY","transit":false,"station_name":"Jayakarta","i_long":106.820901,"line":2,"time":4},{"is_transit":false,"transit":false,"line":2,"station_id":"MGB","time":2,"i_lat":-6.149769,"distance":1080,"i_long":106.82482,"station_name":"Manggabesar"},{"i_long":106.827103,"station_id":"SW","distance":906,"line":2,"transit":false,"station_name":"Sawah Besar","time":2,"is_transit":false,"i_lat":-6.160725},{"line":2,"is_transit":false,"transit":false,"i_long":106.828284,"station_id":"JUA","distance":1149,"i_lat":-6.166716,"time":2,"station_name":"Juanda"},{"time":4,"i_long":106.832183,"distance":2015,"station_name":"Gondangdia","i_lat":-6.186295,"line":2,"station_id":"GDD","transit":false,"is_transit":false},{"i_long":106.840169,"time":3,"distance":1750,"i_lat":-6.198556,"transit":false,"station_id":"CKI","is_transit":false,"line":2,"station_name":"Cikini"},{"transit":true,"station_name":"Manggarai","station_id":"MRI","time":4,"is_transit":true,"distance":1590,"i_long":106.84912,"line":2,"i_lat":-6.209883},{"distance":1275,"is_transit":false,"station_name":"Matraman","i_lat":-6.212485,"station_id":"MTR","line":1,"transit":false,"i_long":106.858896,"time":2},{"time":8,"is_transit":false,"i_lat":-6.215091,"station_name":"Jatinegara","i_long":106.86807400000001,"distance":1377,"transit":false,"line":1,"station_id":"JNG"},{"station_name":"Klender","i_lat":-6.2135,"is_transit":false,"transit":false,"station_id":"KLD","time":3,"distance":3395,"i_long":106.899548,"line":1}]]}