{"data":[[{"station_id":"RJW","transit":false,"i_long":106.836569,"is_transit":false,"line":11,"i_lat":-6.14505,"time":0,"distance":0,"station_name":"Rajawali"},{"station_name":"Kemayoran","time":5,"distance":1901,"line":11,"is_transit":false,"station_id":"KMO","transit":false,"i_long":106.839204,"i_lat":-6.161728},{"time":4,"station_name":"Pasar Senen","i_lat":-6.174784,"distance":1436,"i_long":106.84368,"line":11,"station_id":"PSE","is_transit":false,"transit":false},{"time":8,"i_long":106.850107,"i_lat":-6.185975,"station_id":"GST","station_name":"Gang Sentiong","is_transit":false,"transit":false,"line":11,"distance":1567},{"is_transit":false,"i_long":106.855437,"line":11,"i_lat":-6.193792,"transit":false,"station_id":"KMT","distance":973,"time":1,"station_name":"Kramat"},{"station_name":"Pondok Jati","is_transit":false,"line":11,"transit":false,"i_lat":-6.209188,"distance":1829,"i_long":106.861737,"station_id":"POK","time":2},{"is_transit":true,"distance":1236,"transit":true,"i_lat":-6.215091,"time":9,"i_long":106.86807400000001,"line":1,"station_id":"JNG","station_name":"Jatinegara"},{"i_long":106.858896,"is_transit":false,"line":1,"transit":false,"station_name":"Matraman","i_lat":-6.212485,"station_id":"MTR","time":2,"distance":1377},{"station_id":"MRI","distance":1275,"transit":true,"line":2,"station_name":"Manggarai","i_lat":-6.209883,"time":2,"is_transit":true,"i_long":106.84912},{"station_name":"Tebet","is_transit":false,"i_lat":-6.226659,"i_long":106.857948,"station_id":"TEB","distance":2610,"transit":false,"line":2,"time":4},{"is_transit":false,"line":2,"distance":1230,"station_name":"Cawang","transit":false,"i_lat":-6.242512,"i_long":106.856607,"station_id":"CW","time":2},{"station_id":"DRN","transit":false,"i_lat":-6.255332,"line":2,"station_name":"Duren Kalibata","i_long":106.85449,"distance":1546,"time":3,"is_transit":false},{"time":2,"i_lat":-6.263214,"line":2,"transit":false,"i_long":106.851577,"station_name":"Pasar Minggu Baru","distance":824,"station_id":"PSMB","is_transit":false}],[{"distance":0,"station_name":"Rajawali","line":11,"transit":false,"is_transit":false,"i_long":106.836569,"time":0,"i_lat":-6.14505,"station_id":"RJW"},{"station_id":"KPB","i_lat":-6.132549,"distance":1444,"time":3,"transit":true,"i_long":106.826365,"line":4,"station_name":"Kampung Bandan","is_transit":true},{"station_id":"AK","station_name":"Angke","i_long":106.79867,"i_lat":-6.144674,"transit":false,"distance":4102,"time":9,"is_transit":false,"line":1},{"time":4,"station_id":"DU","i_lat":-6.155215,"i_long":106.800832,"line":1,"station_name":"Duri","is_transit":false,"transit":false,"distance":1230},{"time":8,"transit":false,"distance":3632,"station_id":"THB","station_name":"Tanah Abang","is_transit":false,"i_lat":-6.185545,"i_long":106.811091,"line":1},{"station_name":"Karet","transit":false,"i_long":106.816351,"is_transit":false,"distance":2029,"i_lat":-6.20132,"time":5,"station_id":"KAT","line":1},{"time":1,"is_transit":false,"distance":471,"station_name":"Sudirman Baru","line":1,"transit":false,"station_id":"SUDB","i_lat":-6.201433,"i_long":106.819881},{"time":1,"transit":false,"is_transit":false,"i_lat":-6.202263,"distance":280,"line":1,"i_long":106.822649,"station_id":"SUD","station_name":"Sudirman"},{"distance":3186,"station_id":"MRI","i_long":106.84912,"transit":true,"time":4,"is_transit":true,"station_name":"Manggarai","line":2,"i_lat":-6.209883},{"station_id":"TEB","transit":false,"is_transit":false,"i_long":106.857948,"station_name":"Tebet","time":4,"distance":2610,"i_lat":-6.226659,"line":2},{"is_transit":false,"i_lat":-6.242512,"i_long":106.856607,"station_id":"CW","line":2,"station_name":"Cawang","transit":false,"time":2,"distance":1230},{"station_name":"Duren Kalibata","time":3,"line":2,"is_transit":false,"i_long":106.85449,"i_lat":-6.255332,"transit":false,"station_id":"DRN","distance":1546},{"time":2,"distance":824,"i_lat":-6.263214,"station_id":"PSMB","is_transit":false,"transit":false,"station_name":"Pasar Minggu Baru","i_long":106.851577,"line":2}],[{"is_transit":false,"i_long":106.836569,"station_id":"RJW","time":0,"station_name":"Rajawali","transit":false,"i_lat":-6.14505,"distance":0,"line":11},{"is_transit":true,"i_long":106.826365,"time":3,"transit":true,"i_lat":-6.132549,"line":4,"distance":1444,"station_name":"Kampung Bandan","station_id":"KPB"},{"transit":true,"line":2,"i_lat":-6.137569,"time":3,"station_name":"Jakarta Kota","distance":1364,"is_transit":true,"i_long":106.812439,"station_id":"JAKK"},{"station_id":"JAY","line":2,"time":4,"is_transit":false,"distance":1264,"i_long":106.820901,"station_name":"Jayakarta","i_lat":-6.141205,"transit":false},{"i_lat":-6.149769,"transit":false,"distance":1080,"i_long":106.82482,"is_transit":false,"time":2,"station_id":"MGB","station_name":"Manggabesar","line":2},{"is_transit":false,"station_name":"Sawah Besar","i_long":106.827103,"transit":false,"station_id":"SW","i_lat":-6.160725,"line":2,"time":2,"distance":906},{"time":2,"transit":false,"i_lat":-6.166716,"station_id":"JUA","distance":1149,"i_long":106.828284,"station_name":"Juanda","line":2,"is_transit":false},{"line":2,"i_long":106.832183,"station_name":"Gondangdia","transit":false,"distance":2015,"time":4,"station_id":"GDD","is_transit":false,"i_lat":-6.186295},{"time":3,"is_transit":false,"i_lat":-6.198556,"i_long":106.840169,"distance":1750,"station_id":"CKI","line":2,"station_name":"Cikini","transit":false},{"distance":1590,"is_transit":false,"i_long":106.84912,"time":4,"station_name":"Manggarai","i_lat":-6.209883,"station_id":"MRI","transit":false,"line":2},{"time":4,"is_transit":false,"transit":false,"station_name":"Tebet","station_id":"TEB","distance":2610,"line":2,"i_lat":-6.226659,"i_long":106.857948},{"is_transit":false,"distance":1230,"time":2,"station_name":"Cawang","i_lat":-6.242512,"line":2,"station_id":"CW","i_long":106.856607,"transit":false},{"time":3,"station_id":"DRN","i_lat":-6.255332,"is_transit":false,"transit":false,"i_long":106.85449,"distance":1546,"station_name":"Duren Kalibata","line":2},{"station_id":"PSMB","is_transit":false,"line":2,"i_lat":-6.263214,"transit":false,"distance":824,"station_name":"Pasar Minggu Baru","i_long":106.851577,"time":2}]]}