{"data":[[{"i_lat":-6.14505,"is_transit":false,"distance":0,"station_id":"RJW","i_long":106.836569,"time":0,"line":11,"transit":false,"station_name":"Rajawali"},{"station_id":"KPB","distance":1444,"station_name":"Kampung Bandan","i_lat":-6.132549,"is_transit":true,"line":4,"time":3,"i_long":106.826365,"transit":true},{"station_id":"AK","distance":4102,"line":1,"station_name":"Angke","is_transit":false,"time":9,"i_lat":-6.144674,"i_long":106.79867,"transit":false},{"i_lat":-6.155215,"station_name":"Duri","line":1,"transit":false,"station_id":"DU","is_transit":false,"i_long":106.800832,"time":4,"distance":1230},{"line":1,"i_lat":-6.185545,"transit":true,"distance":3632,"station_id":"THB","station_name":"Tanah Abang","is_transit":true,"time":8,"i_long":106.811091},{"is_transit":false,"distance":3191,"i_long":106.79689,"time":6,"i_lat":-6.207404,"station_id":"PLM","line":6,"transit":false,"station_name":"Palmerah"}],[{"i_lat":-6.14505,"time":0,"station_id":"RJW","station_name":"Rajawali","transit":false,"is_transit":false,"line":11,"distance":0,"i_long":106.836569},{"distance":1901,"i_lat":-6.161728,"station_id":"KMO","station_name":"Kemayoran","is_transit":false,"time":5,"i_long":106.839204,"line":11,"transit":false},{"station_id":"PSE","time":4,"i_lat":-6.174784,"line":11,"station_name":"Pasar Senen","transit":false,"i_long":106.84368,"is_transit":false,"distance":1436},{"line":11,"station_name":"Gang Sentiong","is_transit":false,"distance":1567,"i_long":106.850107,"time":8,"transit":false,"station_id":"GST","i_lat":-6.185975},{"station_name":"Kramat","is_transit":false,"i_lat":-6.193792,"distance":973,"station_id":"KMT","line":11,"i_long":106.855437,"transit":false,"time":1},{"transit":false,"i_lat":-6.209188,"i_long":106.861737,"station_id":"POK","time":2,"line":11,"is_transit":false,"station_name":"Pondok Jati","distance":1829},{"transit":true,"i_long":106.86807400000001,"line":1,"station_name":"Jatinegara","time":9,"distance":1236,"station_id":"JNG","i_lat":-6.215091,"is_transit":true},{"i_lat":-6.212485,"time":2,"line":1,"is_transit":false,"i_long":106.858896,"station_id":"MTR","transit":false,"station_name":"Matraman","distance":1377},{"time":2,"line":2,"station_name":"Manggarai","i_long":106.84912,"transit":false,"station_id":"MRI","is_transit":false,"distance":1275,"i_lat":-6.209883},{"line":1,"is_transit":false,"time":4,"station_name":"Sudirman","transit":false,"station_id":"SUD","distance":3186,"i_lat":-6.202263,"i_long":106.822649},{"transit":false,"distance":280,"is_transit":false,"time":1,"station_id":"SUDB","i_long":106.819881,"line":1,"i_lat":-6.201433,"station_name":"Sudirman Baru"},{"i_lat":-6.20132,"transit":false,"i_long":106.816351,"distance":471,"is_transit":false,"station_name":"Karet","time":1,"line":1,"station_id":"KAT"},{"station_id":"THB","is_transit":true,"time":5,"i_lat":-6.185545,"line":1,"i_long":106.811091,"distance":2029,"transit":true,"station_name":"Tanah Abang"},{"distance":3191,"i_long":106.79689,"transit":false,"i_lat":-6.207404,"station_id":"PLM","station_name":"Palmerah","time":6,"line":6,"is_transit":false}],[{"station_name":"Rajawali","is_transit":false,"time":0,"station_id":"RJW","distance":0,"transit":false,"i_long":106.836569,"i_lat":-6.14505,"line":11},{"transit":true,"is_transit":true,"line":4,"i_long":106.826365,"station_id":"KPB","time":3,"station_name":"Kampung Bandan","distance":1444,"i_lat":-6.132549},{"time":3,"station_id":"JAKK","station_name":"Jakarta Kota","i_long":106.812439,"transit":true,"distance":1364,"i_lat":-6.137569,"line":2,"is_transit":true},{"i_lat":-6.141205,"time":4,"station_id":"JAY","i_long":106.820901,"distance":1264,"transit":false,"line":2,"is_transit":false,"station_name":"Jayakarta"},{"station_id":"MGB","transit":false,"is_transit":false,"line":2,"i_lat":-6.149769,"distance":1080,"time":2,"i_long":106.82482,"station_name":"Manggabesar"},{"distance":906,"is_transit":false,"station_name":"Sawah Besar","i_lat":-6.160725,"i_long":106.827103,"line":2,"transit":false,"time":2,"station_id":"SW"},{"station_name":"Juanda","station_id":"JUA","i_long":106.828284,"is_transit":false,"time":2,"transit":false,"line":2,"distance":1149,"i_lat":-6.166716},{"is_transit":false,"line":2,"station_name":"Gondangdia","i_lat":-6.186295,"transit":false,"station_id":"GDD","time":4,"i_long":106.832183,"distance":2015},{"time":3,"distance":1750,"is_transit":false,"station_name":"Cikini","transit":false,"station_id":"CKI","i_lat":-6.198556,"i_long":106.840169,"line":2},{"line":2,"transit":true,"i_lat":-6.209883,"is_transit":true,"station_name":"Manggarai","station_id":"MRI","time":4,"distance":1590,"i_long":106.84912},{"station_id":"SUD","is_transit":false,"i_long":106.822649,"transit":false,"station_name":"Sudirman","line":1,"distance":3186,"time":4,"i_lat":-6.202263},{"line":1,"station_id":"SUDB","transit":false,"station_name":"Sudirman Baru","i_lat":-6.201433,"i_long":106.819881,"distance":280,"time":1,"is_transit":false},{"line":1,"i_long":106.816351,"i_lat":-6.20132,"station_id":"KAT","distance":471,"time":1,"is_transit":false,"transit":false,"station_name":"Karet"},{"i_lat":-6.185545,"line":1,"distance":2029,"time":5,"i_long":106.811091,"transit":true,"station_name":"Tanah Abang","station_id":"THB","is_transit":true},{"station_id":"PLM","is_transit":false,"distance":3191,"i_lat":-6.207404,"station_name":"Palmerah","time":6,"line":6,"transit":false,"i_long":106.79689}],[{"station_id":"RJW","transit":false,"is_transit":false,"i_long":106.836569,"time":0,"station_name":"Rajawali","line":11,"i_lat":-6.14505,"distance":0},{"station_name":"Kemayoran","i_long":106.839204,"distance":1901,"is_transit":false,"i_lat":-6.161728,"line":11,"station_id":"KMO","transit":false,"time":5},{"is_transit":false,"i_long":106.84368,"station_id":"PSE","distance":1436,"i_lat":-6.174784,"station_name":"Pasar Senen","line":11,"transit":false,"time":4},{"distance":1567,"time":8,"i_lat":-6.185975,"station_id":"GST","station_name":"Gang Sentiong","is_transit":false,"line":11,"i_long":106.850107,"transit":false},{"station_id":"KMT","i_long":106.855437,"line":11,"distance":973,"transit":false,"time":1,"i_lat":-6.193792,"station_name":"Kramat","is_transit":false},{"distance":1829,"station_id":"POK","station_name":"Pondok Jati","transit":false,"is_transit":false,"i_lat":-6.209188,"time":2,"i_long":106.861737,"line":11},{"station_name":"Jatinegara","station_id":"JNG","line":1,"i_lat":-6.215091,"distance":1236,"i_long":106.86807400000001,"transit":true,"time":9,"is_transit":true},{"is_transit":false,"i_lat":-6.212485,"distance":1377,"i_long":106.858896,"line":1,"station_name":"Matraman","station_id":"MTR","time":2,"transit":false},{"line":2,"time":2,"transit":true,"station_id":"MRI","distance":1275,"is_transit":true,"station_name":"Manggarai","i_lat":-6.209883,"i_long":106.84912},{"station_name":"Cikini","distance":1590,"line":2,"i_lat":-6.198556,"transit":false,"is_transit":false,"station_id":"CKI","time":4,"i_long":106.840169},{"time":3,"line":2,"station_id":"GDD","distance":1750,"i_long":106.832183,"transit":false,"i_lat":-6.186295,"station_name":"Gondangdia","is_transit":false},{"i_long":106.828284,"station_id":"JUA","line":2,"is_transit":false,"time":4,"transit":false,"i_lat":-6.166716,"station_name":"Juanda","distance":2015},{"distance":1149,"line":2,"i_long":106.827103,"station_name":"Sawah Besar","i_lat":-6.160725,"time":2,"is_transit":false,"transit":false,"station_id":"SW"},{"distance":906,"i_lat":-6.149769,"station_id":"MGB","is_transit":false,"i_long":106.82482,"station_name":"Manggabesar","transit":false,"time":2,"line":2},{"station_name":"Jayakarta","transit":false,"time":2,"station_id":"JAY","distance":1080,"is_transit":false,"i_lat":-6.141205,"i_long":106.820901,"line":2},{"station_id":"JAKK","is_transit":true,"station_name":"Jakarta Kota","time":4,"i_long":106.812439,"distance":1264,"i_lat":-6.137569,"line":2,"transit":true},{"i_long":106.826365,"time":3,"is_transit":true,"station_id":"KPB","distance":1364,"i_lat":-6.132549,"line":4,"station_name":"Kampung Bandan","transit":true},{"is_transit":false,"line":1,"time":9,"station_id":"AK","distance":4102,"i_lat":-6.144674,"station_name":"Angke","i_long":106.79867,"transit":false},{"distance":1230,"is_transit":false,"time":4,"i_lat":-6.155215,"station_id":"DU","i_long":106.800832,"line":1,"station_name":"Duri","transit":false},{"line":1,"distance":3632,"is_transit":true,"station_id":"THB","time":8,"i_lat":-6.185545,"transit":true,"station_name":"Tanah Abang","i_long":106.811091},{"i_long":106.79689,"station_name":"Palmerah","time":6,"station_id":"PLM","i_lat":-6.207404,"line":6,"transit":false,"distance":3191,"is_transit":false}]]}