{"data":[[{"is_transit":false,"transit":false,"time":0,"i_lat":-6.14505,"i_long":106.836569,"line":11,"station_id":"RJW","distance":0,"station_name":"Rajawali"},{"i_long":106.826365,"distance":1444,"is_transit":true,"time":3,"i_lat":-6.132549,"transit":true,"line":4,"station_name":"Kampung Bandan","station_id":"KPB"},{"time":9,"line":1,"i_lat":-6.144674,"station_id":"AK","is_transit":false,"i_long":106.79867,"distance":4102,"transit":false,"station_name":"Angke"},{"i_lat":-6.155215,"station_id":"DU","distance":1230,"time":4,"station_name":"Duri","is_transit":false,"i_long":106.800832,"transit":false,"line":1},{"station_name":"Tanah Abang","is_transit":true,"i_lat":-6.185545,"distance":3632,"line":1,"station_id":"THB","transit":true,"i_long":106.811091,"time":8},{"transit":false,"i_long":106.79689,"station_id":"PLM","line":6,"distance":3191,"station_name":"Palmerah","i_lat":-6.207404,"is_transit":false,"time":6},{"time":7,"i_lat":-6.237242,"is_transit":false,"distance":3737,"i_long":106.780334,"line":6,"station_name":"Kebayoran","transit":false,"station_id":"KBY"},{"time":8,"i_lat":-6.276362,"i_long":106.74273,"station_name":"Pondokranji","distance":6218,"station_id":"PDJ","transit":false,"is_transit":false,"line":6},{"transit":false,"i_long":106.728916,"line":6,"time":3,"distance":2179,"station_id":"JMU","i_lat":-6.288927,"station_name":"Jurangmangu","is_transit":false},{"is_transit":false,"station_id":"SDM","i_long":106.712277,"distance":1994,"station_name":"Sudimara","time":4,"i_lat":-6.296963,"line":6,"transit":false},{"i_lat":-6.314823,"station_id":"RU","line":6,"i_long":106.675475,"transit":false,"station_name":"Rawa Buntu","distance":4566,"time":6,"is_transit":false},{"transit":false,"station_name":"Serpong","time":4,"line":6,"i_long":106.66566,"station_id":"SRP","i_lat":-6.319871,"distance":2413,"is_transit":false},{"transit":false,"station_name":"Cisauk","i_lat":-6.32484,"station_id":"CSK","i_long":106.640411,"distance":1784,"line":3,"is_transit":false,"time":4},{"station_id":"CC","station_name":"Cicayur","is_transit":false,"time":4,"distance":2519,"transit":false,"i_lat":-6.329547,"i_long":106.617853,"line":3},{"station_id":"PRP","station_name":"Parung Panjang","line":6,"time":8,"transit":false,"i_long":106.568863,"i_lat":-6.3441410000000005,"is_transit":false,"distance":5968}],[{"is_transit":false,"station_name":"Rajawali","i_long":106.836569,"line":11,"i_lat":-6.14505,"station_id":"RJW","transit":false,"distance":0,"time":0},{"i_long":106.839204,"station_id":"KMO","line":11,"transit":false,"station_name":"Kemayoran","distance":1901,"i_lat":-6.161728,"time":5,"is_transit":false},{"time":4,"station_name":"Pasar Senen","station_id":"PSE","i_lat":-6.174784,"is_transit":false,"distance":1436,"transit":false,"i_long":106.84368,"line":11},{"distance":1567,"is_transit":false,"i_long":106.850107,"line":11,"station_name":"Gang Sentiong","station_id":"GST","time":8,"i_lat":-6.185975,"transit":false},{"station_name":"Kramat","i_long":106.855437,"distance":973,"i_lat":-6.193792,"is_transit":false,"station_id":"KMT","line":11,"time":1,"transit":false},{"transit":false,"station_id":"POK","station_name":"Pondok Jati","distance":1829,"is_transit":false,"time":2,"line":11,"i_long":106.861737,"i_lat":-6.209188},{"i_lat":-6.215091,"time":9,"transit":true,"line":1,"station_id":"JNG","station_name":"Jatinegara","i_long":106.86807400000001,"is_transit":true,"distance":1236},{"is_transit":false,"station_id":"MTR","i_long":106.858896,"transit":false,"time":2,"distance":1377,"i_lat":-6.212485,"line":1,"station_name":"Matraman"},{"i_lat":-6.209883,"distance":1275,"i_long":106.84912,"transit":false,"line":2,"station_id":"MRI","station_name":"Manggarai","time":2,"is_transit":false},{"i_long":106.822649,"station_id":"SUD","line":1,"distance":3186,"time":4,"transit":false,"station_name":"Sudirman","is_transit":false,"i_lat":-6.202263},{"i_long":106.819881,"distance":280,"line":1,"station_id":"SUDB","time":1,"station_name":"Sudirman Baru","transit":false,"is_transit":false,"i_lat":-6.201433},{"station_name":"Karet","station_id":"KAT","i_lat":-6.20132,"i_long":106.816351,"time":1,"line":1,"is_transit":false,"transit":false,"distance":471},{"i_lat":-6.185545,"i_long":106.811091,"time":5,"station_id":"THB","line":1,"station_name":"Tanah Abang","is_transit":true,"transit":true,"distance":2029},{"distance":3191,"i_lat":-6.207404,"line":6,"time":6,"station_name":"Palmerah","station_id":"PLM","i_long":106.79689,"transit":false,"is_transit":false},{"station_id":"KBY","time":7,"distance":3737,"i_lat":-6.237242,"i_long":106.780334,"transit":false,"station_name":"Kebayoran","is_transit":false,"line":6},{"is_transit":false,"distance":6218,"station_name":"Pondokranji","i_long":106.74273,"line":6,"transit":false,"time":8,"station_id":"PDJ","i_lat":-6.276362},{"station_id":"JMU","time":3,"distance":2179,"i_long":106.728916,"line":6,"i_lat":-6.288927,"station_name":"Jurangmangu","is_transit":false,"transit":false},{"line":6,"station_name":"Sudimara","transit":false,"i_lat":-6.296963,"i_long":106.712277,"is_transit":false,"time":4,"station_id":"SDM","distance":1994},{"line":6,"station_id":"RU","is_transit":false,"transit":false,"distance":4566,"time":6,"i_lat":-6.314823,"i_long":106.675475,"station_name":"Rawa Buntu"},{"station_id":"SRP","line":6,"i_long":106.66566,"transit":false,"i_lat":-6.319871,"is_transit":false,"station_name":"Serpong","distance":2413,"time":4},{"station_id":"CSK","station_name":"Cisauk","time":4,"i_lat":-6.32484,"i_long":106.640411,"distance":1784,"transit":false,"line":3,"is_transit":false},{"transit":false,"i_lat":-6.329547,"time":4,"station_name":"Cicayur","i_long":106.617853,"line":3,"station_id":"CC","is_transit":false,"distance":2519},{"i_lat":-6.3441410000000005,"line":6,"i_long":106.568863,"station_name":"Parung Panjang","station_id":"PRP","is_transit":false,"distance":5968,"transit":false,"time":8}],[{"distance":0,"i_lat":-6.14505,"time":0,"is_transit":false,"i_long":106.836569,"transit":false,"station_id":"RJW","line":11,"station_name":"Rajawali"},{"station_name":"Kampung Bandan","time":3,"station_id":"KPB","i_long":106.826365,"line":4,"transit":true,"distance":1444,"is_transit":true,"i_lat":-6.132549},{"is_transit":true,"line":2,"time":3,"distance":1364,"transit":true,"station_id":"JAKK","i_lat":-6.137569,"i_long":106.812439,"station_name":"Jakarta Kota"},{"distance":1264,"station_id":"JAY","time":4,"i_long":106.820901,"line":2,"i_lat":-6.141205,"is_transit":false,"station_name":"Jayakarta","transit":false},{"line":2,"time":2,"is_transit":false,"station_id":"MGB","station_name":"Manggabesar","distance":1080,"i_lat":-6.149769,"transit":false,"i_long":106.82482},{"i_long":106.827103,"station_name":"Sawah Besar","time":2,"line":2,"transit":false,"station_id":"SW","i_lat":-6.160725,"distance":906,"is_transit":false},{"line":2,"time":2,"i_lat":-6.166716,"station_name":"Juanda","distance":1149,"i_long":106.828284,"transit":false,"is_transit":false,"station_id":"JUA"},{"is_transit":false,"i_lat":-6.186295,"time":4,"distance":2015,"line":2,"transit":false,"station_name":"Gondangdia","station_id":"GDD","i_long":106.832183},{"station_name":"Cikini","i_lat":-6.198556,"i_long":106.840169,"station_id":"CKI","line":2,"distance":1750,"time":3,"transit":false,"is_transit":false},{"i_long":106.84912,"is_transit":true,"station_name":"Manggarai","distance":1590,"i_lat":-6.209883,"transit":true,"line":2,"time":4,"station_id":"MRI"},{"transit":false,"line":1,"i_long":106.822649,"station_name":"Sudirman","i_lat":-6.202263,"distance":3186,"is_transit":false,"time":4,"station_id":"SUD"},{"i_long":106.819881,"i_lat":-6.201433,"time":1,"is_transit":false,"station_id":"SUDB","transit":false,"line":1,"station_name":"Sudirman Baru","distance":280},{"station_id":"KAT","distance":471,"is_transit":false,"transit":false,"line":1,"time":1,"i_lat":-6.20132,"station_name":"Karet","i_long":106.816351},{"transit":true,"i_lat":-6.185545,"station_name":"Tanah Abang","is_transit":true,"distance":2029,"station_id":"THB","time":5,"i_long":106.811091,"line":1},{"i_long":106.79689,"distance":3191,"transit":false,"i_lat":-6.207404,"line":6,"station_id":"PLM","is_transit":false,"time":6,"station_name":"Palmerah"},{"time":7,"transit":false,"is_transit":false,"i_long":106.780334,"line":6,"station_id":"KBY","i_lat":-6.237242,"station_name":"Kebayoran","distance":3737},{"time":8,"i_lat":-6.276362,"i_long":106.74273,"line":6,"station_name":"Pondokranji","transit":false,"distance":6218,"is_transit":false,"station_id":"PDJ"},{"line":6,"is_transit":false,"distance":2179,"time":3,"i_lat":-6.288927,"station_name":"Jurangmangu","station_id":"JMU","transit":false,"i_long":106.728916},{"distance":1994,"line":6,"i_long":106.712277,"i_lat":-6.296963,"station_name":"Sudimara","station_id":"SDM","transit":false,"time":4,"is_transit":false},{"transit":false,"is_transit":false,"i_lat":-6.314823,"i_long":106.675475,"line":6,"time":6,"distance":4566,"station_name":"Rawa Buntu","station_id":"RU"},{"station_id":"SRP","distance":2413,"i_long":106.66566,"station_name":"Serpong","i_lat":-6.319871,"time":4,"transit":false,"is_transit":false,"line":6},{"is_transit":false,"i_lat":-6.32484,"station_name":"Cisauk","time":4,"distance":1784,"transit":false,"line":3,"i_long":106.640411,"station_id":"CSK"},{"i_lat":-6.329547,"station_name":"Cicayur","i_long":106.617853,"station_id":"CC","is_transit":false,"time":4,"line":3,"distance":2519,"transit":false},{"station_id":"PRP","distance":5968,"i_lat":-6.3441410000000005,"transit":false,"i_long":106.568863,"line":6,"is_transit":false,"time":8,"station_name":"Parung Panjang"}],[{"time":0,"i_lat":-6.14505,"distance":0,"line":11,"station_id":"RJW","transit":false,"i_long":106.836569,"is_transit":false,"station_name":"Rajawali"},{"station_name":"Kemayoran","is_transit":false,"station_id":"KMO","time":5,"transit":false,"i_lat":-6.161728,"line":11,"i_long":106.839204,"distance":1901},{"i_long":106.84368,"line":11,"time":4,"station_name":"Pasar Senen","i_lat":-6.174784,"station_id":"PSE","distance":1436,"is_transit":false,"transit":false},{"i_long":106.850107,"time":8,"transit":false,"station_name":"Gang Sentiong","line":11,"distance":1567,"is_transit":false,"i_lat":-6.185975,"station_id":"GST"},{"time":1,"transit":false,"is_transit":false,"i_long":106.855437,"i_lat":-6.193792,"station_id":"KMT","line":11,"distance":973,"station_name":"Kramat"},{"station_id":"POK","station_name":"Pondok Jati","i_lat":-6.209188,"i_long":106.861737,"line":11,"time":2,"transit":false,"is_transit":false,"distance":1829},{"i_lat":-6.215091,"station_id":"JNG","i_long":106.86807400000001,"line":1,"is_transit":true,"distance":1236,"transit":true,"time":9,"station_name":"Jatinegara"},{"line":1,"i_long":106.858896,"time":2,"station_id":"MTR","distance":1377,"i_lat":-6.212485,"is_transit":false,"transit":false,"station_name":"Matraman"},{"time":2,"distance":1275,"transit":true,"i_long":106.84912,"is_transit":true,"station_id":"MRI","station_name":"Manggarai","line":2,"i_lat":-6.209883},{"line":2,"transit":false,"i_long":106.840169,"is_transit":false,"distance":1590,"station_name":"Cikini","station_id":"CKI","time":4,"i_lat":-6.198556},{"line":2,"is_transit":false,"station_id":"GDD","distance":1750,"time":3,"i_long":106.832183,"transit":false,"station_name":"Gondangdia","i_lat":-6.186295},{"transit":false,"station_id":"JUA","i_lat":-6.166716,"is_transit":false,"distance":2015,"time":4,"line":2,"station_name":"Juanda","i_long":106.828284},{"line":2,"station_name":"Sawah Besar","time":2,"station_id":"SW","i_lat":-6.160725,"distance":1149,"i_long":106.827103,"is_transit":false,"transit":false},{"station_name":"Manggabesar","line":2,"distance":906,"i_lat":-6.149769,"i_long":106.82482,"time":2,"transit":false,"is_transit":false,"station_id":"MGB"},{"station_id":"JAY","i_long":106.820901,"is_transit":false,"station_name":"Jayakarta","transit":false,"i_lat":-6.141205,"time":2,"line":2,"distance":1080},{"station_name":"Jakarta Kota","station_id":"JAKK","time":4,"transit":true,"is_transit":true,"i_lat":-6.137569,"distance":1264,"i_long":106.812439,"line":2},{"is_transit":true,"transit":true,"time":3,"distance":1364,"station_name":"Kampung Bandan","station_id":"KPB","i_lat":-6.132549,"i_long":106.826365,"line":4},{"station_name":"Angke","distance":4102,"time":9,"i_long":106.79867,"station_id":"AK","transit":false,"i_lat":-6.144674,"is_transit":false,"line":1},{"is_transit":false,"station_id":"DU","line":1,"i_long":106.800832,"distance":1230,"transit":false,"station_name":"Duri","time":4,"i_lat":-6.155215},{"distance":3632,"time":8,"station_name":"Tanah Abang","i_lat":-6.185545,"is_transit":true,"transit":true,"i_long":106.811091,"station_id":"THB","line":1},{"time":6,"transit":false,"distance":3191,"i_lat":-6.207404,"line":6,"station_name":"Palmerah","i_long":106.79689,"is_transit":false,"station_id":"PLM"},{"station_name":"Kebayoran","is_transit":false,"time":7,"distance":3737,"i_lat":-6.237242,"station_id":"KBY","line":6,"i_long":106.780334,"transit":false},{"station_id":"PDJ","i_long":106.74273,"line":6,"distance":6218,"transit":false,"time":8,"is_transit":false,"i_lat":-6.276362,"station_name":"Pondokranji"},{"transit":false,"time":3,"station_id":"JMU","line":6,"is_transit":false,"station_name":"Jurangmangu","i_long":106.728916,"distance":2179,"i_lat":-6.288927},{"time":4,"station_name":"Sudimara","transit":false,"is_transit":false,"distance":1994,"i_long":106.712277,"station_id":"SDM","line":6,"i_lat":-6.296963},{"is_transit":false,"station_id":"RU","distance":4566,"transit":false,"time":6,"i_lat":-6.314823,"i_long":106.675475,"line":6,"station_name":"Rawa Buntu"},{"i_long":106.66566,"i_lat":-6.319871,"station_id":"SRP","transit":false,"is_transit":false,"distance":2413,"time":4,"line":6,"station_name":"Serpong"},{"transit":false,"station_name":"Cisauk","is_transit":false,"line":3,"i_lat":-6.32484,"distance":1784,"time":4,"i_long":106.640411,"station_id":"CSK"},{"is_transit":false,"distance":2519,"i_lat":-6.329547,"line":3,"transit":false,"i_long":106.617853,"station_id":"CC","time":4,"station_name":"Cicayur"},{"i_long":106.568863,"station_name":"Parung Panjang","is_transit":false,"station_id":"PRP","transit":false,"distance":5968,"line":6,"i_lat":-6.3441410000000005,"time":8}]]}