{"data":[[{"i_lat":-6.14505,"i_long":106.836569,"time":0,"distance":0,"is_transit":false,"station_name":"Rajawali","transit":false,"station_id":"RJW","line":11},{"station_id":"KPB","transit":false,"station_name":"Kampung Bandan","line":4,"i_lat":-6.132549,"i_long":106.826365,"time":3,"distance":1444,"is_transit":false}],[{"transit":false,"i_long":106.836569,"station_name":"Rajawali","line":11,"station_id":"RJW","time":0,"i_lat":-6.14505,"is_transit":false,"distance":0},{"line":11,"station_name":"Kemayoran","distance":1901,"transit":false,"time":5,"is_transit":false,"i_lat":-6.161728,"station_id":"KMO","i_long":106.839204},{"is_transit":false,"station_name":"Pasar Senen","station_id":"PSE","transit":false,"i_lat":-6.174784,"i_long":106.84368,"time":4,"line":11,"distance":1436},{"i_lat":-6.185975,"transit":false,"line":11,"time":8,"station_id":"GST","is_transit":false,"i_long":106.850107,"distance":1567,"station_name":"Gang Sentiong"},{"is_transit":false,"i_lat":-6.193792,"distance":973,"station_id":"KMT","transit":false,"station_name":"Kramat","i_long":106.855437,"time":1,"line":11},{"i_long":106.861737,"distance":1829,"station_name":"Pondok Jati","station_id":"POK","transit":false,"line":11,"time":2,"is_transit":false,"i_lat":-6.209188},{"distance":1236,"i_lat":-6.215091,"i_long":106.86807400000001,"time":9,"station_id":"JNG","station_name":"Jatinegara","line":1,"transit":true,"is_transit":true},{"time":2,"i_lat":-6.212485,"i_long":106.858896,"distance":1377,"transit":false,"line":1,"station_id":"MTR","is_transit":false,"station_name":"Matraman"},{"station_name":"Manggarai","station_id":"MRI","distance":1275,"i_long":106.84912,"line":2,"is_transit":false,"i_lat":-6.209883,"transit":false,"time":2},{"station_name":"Sudirman","is_transit":false,"transit":false,"i_lat":-6.202263,"distance":3186,"i_long":106.822649,"line":1,"time":4,"station_id":"SUD"},{"i_lat":-6.201433,"time":1,"line":1,"i_long":106.819881,"station_id":"SUDB","station_name":"Sudirman Baru","distance":280,"is_transit":false,"transit":false},{"time":1,"station_id":"KAT","line":1,"is_transit":false,"i_lat":-6.20132,"i_long":106.816351,"transit":false,"distance":471,"station_name":"Karet"},{"line":1,"i_lat":-6.185545,"station_name":"Tanah Abang","i_long":106.811091,"distance":2029,"time":5,"is_transit":false,"station_id":"THB","transit":false},{"line":1,"station_id":"DU","distance":3632,"transit":false,"is_transit":false,"i_lat":-6.155215,"time":8,"i_long":106.800832,"station_name":"Duri"},{"transit":false,"station_name":"Angke","i_lat":-6.144674,"station_id":"AK","time":4,"i_long":106.79867,"line":1,"distance":1230,"is_transit":false},{"i_lat":-6.132549,"line":4,"station_name":"Kampung Bandan","station_id":"KPB","is_transit":false,"distance":4102,"transit":false,"i_long":106.826365,"time":9}],[{"station_name":"Rajawali","transit":false,"i_lat":-6.14505,"i_long":106.836569,"distance":0,"station_id":"RJW","time":0,"is_transit":false,"line":11},{"time":5,"distance":1901,"station_name":"Kemayoran","i_lat":-6.161728,"station_id":"KMO","transit":false,"i_long":106.839204,"line":11,"is_transit":false},{"i_lat":-6.174784,"line":11,"station_name":"Pasar Senen","station_id":"PSE","transit":false,"distance":1436,"i_long":106.84368,"is_transit":false,"time":4},{"distance":1567,"i_long":106.850107,"is_transit":false,"station_id":"GST","transit":false,"station_name":"Gang Sentiong","i_lat":-6.185975,"line":11,"time":8},{"line":11,"i_long":106.855437,"transit":false,"station_name":"Kramat","is_transit":false,"i_lat":-6.193792,"station_id":"KMT","distance":973,"time":1},{"line":11,"transit":false,"i_lat":-6.209188,"i_long":106.861737,"distance":1829,"station_name":"Pondok Jati","time":2,"station_id":"POK","is_transit":false},{"time":9,"i_lat":-6.215091,"transit":true,"station_name":"Jatinegara","is_transit":true,"line":1,"i_long":106.86807400000001,"distance":1236,"station_id":"JNG"},{"distance":1377,"time":2,"station_id":"MTR","is_transit":false,"i_long":106.858896,"line":1,"station_name":"Matraman","i_lat":-6.212485,"transit":false},{"is_transit":true,"station_name":"Manggarai","station_id":"MRI","distance":1275,"transit":true,"i_long":106.84912,"line":2,"i_lat":-6.209883,"time":2},{"distance":1590,"station_id":"CKI","i_long":106.840169,"i_lat":-6.198556,"transit":false,"line":2,"station_name":"Cikini","time":4,"is_transit":false},{"distance":1750,"i_lat":-6.186295,"station_id":"GDD","line":2,"is_transit":false,"transit":false,"station_name":"Gondangdia","i_long":106.832183,"time":3},{"i_lat":-6.166716,"line":2,"is_transit":false,"station_name":"Juanda","distance":2015,"transit":false,"station_id":"JUA","time":4,"i_long":106.828284},{"is_transit":false,"i_long":106.827103,"line":2,"time":2,"station_name":"Sawah Besar","station_id":"SW","i_lat":-6.160725,"distance":1149,"transit":false},{"station_id":"MGB","i_lat":-6.149769,"line":2,"distance":906,"is_transit":false,"time":2,"station_name":"Manggabesar","transit":false,"i_long":106.82482},{"distance":1080,"i_long":106.820901,"station_id":"JAY","transit":false,"is_transit":false,"time":2,"i_lat":-6.141205,"station_name":"Jayakarta","line":2},{"line":2,"station_name":"Jakarta Kota","i_long":106.812439,"i_lat":-6.137569,"time":4,"is_transit":true,"distance":1264,"station_id":"JAKK","transit":true},{"station_name":"Kampung Bandan","i_long":106.826365,"transit":false,"i_lat":-6.132549,"line":4,"station_id":"KPB","distance":1364,"is_transit":false,"time":3}]]}