{"data":[[{"time":0,"i_long":106.836569,"station_name":"Rajawali","i_lat":-6.14505,"is_transit":false,"transit":false,"line":11,"station_id":"RJW","distance":0},{"station_name":"Kemayoran","time":5,"i_lat":-6.161728,"distance":1901,"line":11,"station_id":"KMO","i_long":106.839204,"is_transit":false,"transit":false},{"i_long":106.84368,"station_id":"PSE","station_name":"Pasar Senen","i_lat":-6.174784,"time":4,"is_transit":false,"transit":false,"distance":1436,"line":11},{"i_lat":-6.185975,"i_long":106.850107,"is_transit":false,"time":8,"distance":1567,"station_id":"GST","transit":false,"line":11,"station_name":"Gang Sentiong"},{"time":1,"transit":false,"station_id":"KMT","distance":973,"station_name":"Kramat","i_lat":-6.193792,"is_transit":false,"i_long":106.855437,"line":11},{"transit":false,"i_long":106.861737,"station_name":"Pondok Jati","station_id":"POK","distance":1829,"is_transit":false,"line":11,"time":2,"i_lat":-6.209188},{"station_id":"JNG","i_long":106.86807400000001,"distance":1236,"is_transit":true,"line":1,"time":9,"transit":true,"i_lat":-6.215091,"station_name":"Jatinegara"},{"i_long":106.858896,"time":2,"station_id":"MTR","distance":1377,"i_lat":-6.212485,"is_transit":false,"line":1,"transit":false,"station_name":"Matraman"},{"time":2,"is_transit":false,"station_name":"Manggarai","i_lat":-6.209883,"distance":1275,"transit":false,"i_long":106.84912,"station_id":"MRI","line":2}],[{"is_transit":false,"station_name":"Rajawali","line":11,"distance":0,"time":0,"transit":false,"i_lat":-6.14505,"i_long":106.836569,"station_id":"RJW"},{"i_lat":-6.132549,"line":4,"station_name":"Kampung Bandan","distance":1444,"time":3,"transit":true,"i_long":106.826365,"station_id":"KPB","is_transit":true},{"i_long":106.79867,"transit":false,"distance":4102,"station_name":"Angke","i_lat":-6.144674,"is_transit":false,"line":1,"station_id":"AK","time":9},{"line":1,"station_name":"Duri","is_transit":false,"i_long":106.800832,"i_lat":-6.155215,"transit":false,"distance":1230,"time":4,"station_id":"DU"},{"i_lat":-6.185545,"distance":3632,"is_transit":false,"station_id":"THB","i_long":106.811091,"transit":false,"time":8,"station_name":"Tanah Abang","line":1},{"distance":2029,"transit":false,"station_name":"Karet","station_id":"KAT","line":1,"i_long":106.816351,"time":5,"is_transit":false,"i_lat":-6.20132},{"line":1,"station_id":"SUDB","station_name":"Sudirman Baru","is_transit":false,"time":1,"distance":471,"i_long":106.819881,"transit":false,"i_lat":-6.201433},{"transit":false,"i_long":106.822649,"line":1,"station_name":"Sudirman","is_transit":false,"time":1,"distance":280,"i_lat":-6.202263,"station_id":"SUD"},{"i_long":106.84912,"distance":3186,"transit":false,"time":4,"station_name":"Manggarai","line":2,"is_transit":false,"station_id":"MRI","i_lat":-6.209883}],[{"station_name":"Rajawali","transit":false,"is_transit":false,"i_lat":-6.14505,"i_long":106.836569,"line":11,"distance":0,"time":0,"station_id":"RJW"},{"station_name":"Kampung Bandan","distance":1444,"i_lat":-6.132549,"i_long":106.826365,"station_id":"KPB","time":3,"transit":true,"line":4,"is_transit":true},{"station_id":"JAKK","transit":true,"i_long":106.812439,"i_lat":-6.137569,"station_name":"Jakarta Kota","distance":1364,"line":2,"is_transit":true,"time":3},{"is_transit":false,"time":4,"i_long":106.820901,"distance":1264,"station_name":"Jayakarta","i_lat":-6.141205,"station_id":"JAY","transit":false,"line":2},{"i_long":106.82482,"station_name":"Manggabesar","line":2,"station_id":"MGB","is_transit":false,"distance":1080,"i_lat":-6.149769,"transit":false,"time":2},{"is_transit":false,"station_id":"SW","time":2,"transit":false,"i_long":106.827103,"distance":906,"station_name":"Sawah Besar","i_lat":-6.160725,"line":2},{"i_long":106.828284,"line":2,"distance":1149,"station_id":"JUA","transit":false,"is_transit":false,"i_lat":-6.166716,"station_name":"Juanda","time":2},{"i_lat":-6.186295,"time":4,"distance":2015,"transit":false,"i_long":106.832183,"station_id":"GDD","is_transit":false,"station_name":"Gondangdia","line":2},{"distance":1750,"is_transit":false,"station_name":"Cikini","i_long":106.840169,"station_id":"CKI","transit":false,"time":3,"line":2,"i_lat":-6.198556},{"i_long":106.84912,"is_transit":false,"transit":false,"distance":1590,"station_id":"MRI","time":4,"station_name":"Manggarai","i_lat":-6.209883,"line":2}]]}