{"data":[[{"line":11,"distance":0,"is_transit":false,"station_name":"Rajawali","i_long":106.836569,"transit":false,"i_lat":-6.14505,"station_id":"RJW","time":0},{"station_id":"KPB","distance":1444,"time":3,"i_lat":-6.132549,"is_transit":true,"transit":true,"i_long":106.826365,"line":4,"station_name":"Kampung Bandan"},{"station_name":"Angke","is_transit":false,"transit":false,"distance":4102,"time":9,"i_long":106.79867,"line":1,"i_lat":-6.144674,"station_id":"AK"},{"line":1,"i_lat":-6.155215,"station_id":"DU","time":4,"distance":1230,"transit":false,"station_name":"Duri","is_transit":false,"i_long":106.800832},{"transit":false,"i_long":106.811091,"station_id":"THB","distance":3632,"time":8,"is_transit":false,"line":1,"station_name":"Tanah Abang","i_lat":-6.185545},{"distance":2029,"i_lat":-6.20132,"is_transit":false,"station_name":"Karet","station_id":"KAT","line":1,"i_long":106.816351,"time":5,"transit":false}],[{"transit":false,"i_long":106.836569,"i_lat":-6.14505,"distance":0,"station_id":"RJW","is_transit":false,"line":11,"station_name":"Rajawali","time":0},{"time":5,"station_id":"KMO","transit":false,"i_long":106.839204,"line":11,"is_transit":false,"distance":1901,"station_name":"Kemayoran","i_lat":-6.161728},{"i_long":106.84368,"distance":1436,"is_transit":false,"time":4,"station_id":"PSE","i_lat":-6.174784,"station_name":"Pasar Senen","line":11,"transit":false},{"transit":false,"is_transit":false,"i_long":106.850107,"station_name":"Gang Sentiong","time":8,"i_lat":-6.185975,"distance":1567,"line":11,"station_id":"GST"},{"is_transit":false,"transit":false,"station_name":"Kramat","i_lat":-6.193792,"station_id":"KMT","line":11,"i_long":106.855437,"distance":973,"time":1},{"transit":false,"line":11,"i_long":106.861737,"station_name":"Pondok Jati","i_lat":-6.209188,"time":2,"is_transit":false,"station_id":"POK","distance":1829},{"is_transit":true,"transit":true,"time":9,"i_lat":-6.215091,"distance":1236,"station_id":"JNG","station_name":"Jatinegara","line":1,"i_long":106.86807400000001},{"station_id":"MTR","line":1,"i_lat":-6.212485,"station_name":"Matraman","is_transit":false,"distance":1377,"transit":false,"i_long":106.858896,"time":2},{"time":2,"is_transit":false,"distance":1275,"i_long":106.84912,"line":2,"station_id":"MRI","station_name":"Manggarai","i_lat":-6.209883,"transit":false},{"i_long":106.822649,"line":1,"station_id":"SUD","distance":3186,"time":4,"is_transit":false,"transit":false,"station_name":"Sudirman","i_lat":-6.202263},{"transit":false,"i_long":106.819881,"is_transit":false,"line":1,"i_lat":-6.201433,"station_id":"SUDB","station_name":"Sudirman Baru","distance":280,"time":1},{"time":1,"i_lat":-6.20132,"transit":false,"station_name":"Karet","distance":471,"station_id":"KAT","i_long":106.816351,"line":1,"is_transit":false}],[{"transit":false,"i_lat":-6.14505,"distance":0,"station_id":"RJW","is_transit":false,"station_name":"Rajawali","i_long":106.836569,"line":11,"time":0},{"station_id":"KPB","distance":1444,"time":3,"i_long":106.826365,"station_name":"Kampung Bandan","is_transit":true,"transit":true,"i_lat":-6.132549,"line":4},{"line":2,"i_lat":-6.137569,"i_long":106.812439,"time":3,"distance":1364,"station_name":"Jakarta Kota","station_id":"JAKK","is_transit":true,"transit":true},{"i_long":106.820901,"station_name":"Jayakarta","time":4,"i_lat":-6.141205,"station_id":"JAY","line":2,"transit":false,"distance":1264,"is_transit":false},{"i_lat":-6.149769,"i_long":106.82482,"station_name":"Manggabesar","is_transit":false,"line":2,"distance":1080,"time":2,"transit":false,"station_id":"MGB"},{"station_name":"Sawah Besar","line":2,"distance":906,"i_lat":-6.160725,"transit":false,"i_long":106.827103,"station_id":"SW","time":2,"is_transit":false},{"transit":false,"line":2,"is_transit":false,"station_name":"Juanda","time":2,"distance":1149,"station_id":"JUA","i_long":106.828284,"i_lat":-6.166716},{"time":4,"transit":false,"is_transit":false,"station_name":"Gondangdia","i_long":106.832183,"distance":2015,"station_id":"GDD","i_lat":-6.186295,"line":2},{"distance":1750,"i_lat":-6.198556,"is_transit":false,"i_long":106.840169,"time":3,"transit":false,"line":2,"station_id":"CKI","station_name":"Cikini"},{"i_long":106.84912,"line":2,"i_lat":-6.209883,"is_transit":true,"station_id":"MRI","time":4,"distance":1590,"transit":true,"station_name":"Manggarai"},{"i_lat":-6.202263,"transit":false,"station_id":"SUD","distance":3186,"time":4,"station_name":"Sudirman","is_transit":false,"i_long":106.822649,"line":1},{"i_lat":-6.201433,"transit":false,"time":1,"is_transit":false,"i_long":106.819881,"station_id":"SUDB","distance":280,"station_name":"Sudirman Baru","line":1},{"station_id":"KAT","i_long":106.816351,"station_name":"Karet","time":1,"is_transit":false,"transit":false,"distance":471,"i_lat":-6.20132,"line":1}],[{"station_name":"Rajawali","station_id":"RJW","distance":0,"transit":false,"time":0,"line":11,"is_transit":false,"i_long":106.836569,"i_lat":-6.14505},{"distance":1901,"is_transit":false,"station_name":"Kemayoran","i_lat":-6.161728,"i_long":106.839204,"time":5,"station_id":"KMO","transit":false,"line":11},{"distance":1436,"line":11,"time":4,"transit":false,"i_lat":-6.174784,"i_long":106.84368,"station_name":"Pasar Senen","station_id":"PSE","is_transit":false},{"distance":1567,"i_lat":-6.185975,"transit":false,"station_name":"Gang Sentiong","i_long":106.850107,"time":8,"line":11,"station_id":"GST","is_transit":false},{"distance":973,"i_lat":-6.193792,"i_long":106.855437,"line":11,"station_name":"Kramat","station_id":"KMT","transit":false,"time":1,"is_transit":false},{"time":2,"station_name":"Pondok Jati","distance":1829,"is_transit":false,"i_lat":-6.209188,"line":11,"transit":false,"station_id":"POK","i_long":106.861737},{"i_lat":-6.215091,"line":1,"station_id":"JNG","distance":1236,"is_transit":true,"i_long":106.86807400000001,"transit":true,"time":9,"station_name":"Jatinegara"},{"time":2,"station_name":"Matraman","i_lat":-6.212485,"transit":false,"is_transit":false,"i_long":106.858896,"station_id":"MTR","line":1,"distance":1377},{"line":2,"is_transit":true,"transit":true,"i_long":106.84912,"station_id":"MRI","i_lat":-6.209883,"station_name":"Manggarai","time":2,"distance":1275},{"station_id":"CKI","i_long":106.840169,"transit":false,"is_transit":false,"i_lat":-6.198556,"station_name":"Cikini","line":2,"distance":1590,"time":4},{"distance":1750,"is_transit":false,"transit":false,"station_name":"Gondangdia","i_long":106.832183,"station_id":"GDD","i_lat":-6.186295,"line":2,"time":3},{"distance":2015,"station_name":"Juanda","line":2,"station_id":"JUA","is_transit":false,"time":4,"i_lat":-6.166716,"transit":false,"i_long":106.828284},{"transit":false,"station_name":"Sawah Besar","i_lat":-6.160725,"time":2,"i_long":106.827103,"is_transit":false,"line":2,"station_id":"SW","distance":1149},{"station_id":"MGB","station_name":"Manggabesar","time":2,"i_lat":-6.149769,"line":2,"is_transit":false,"transit":false,"distance":906,"i_long":106.82482},{"station_id":"JAY","station_name":"Jayakarta","is_transit":false,"i_long":106.820901,"time":2,"transit":false,"i_lat":-6.141205,"distance":1080,"line":2},{"time":4,"station_id":"JAKK","station_name":"Jakarta Kota","is_transit":true,"i_lat":-6.137569,"i_long":106.812439,"distance":1264,"line":2,"transit":true},{"time":3,"distance":1364,"station_id":"KPB","line":4,"is_transit":true,"transit":true,"i_lat":-6.132549,"station_name":"Kampung Bandan","i_long":106.826365},{"i_lat":-6.144674,"station_name":"Angke","line":1,"i_long":106.79867,"transit":false,"station_id":"AK","is_transit":false,"time":9,"distance":4102},{"station_id":"DU","station_name":"Duri","i_lat":-6.155215,"i_long":106.800832,"line":1,"is_transit":false,"transit":false,"distance":1230,"time":4},{"station_id":"THB","distance":3632,"is_transit":false,"i_long":106.811091,"time":8,"line":1,"station_name":"Tanah Abang","transit":false,"i_lat":-6.185545},{"station_name":"Karet","line":1,"i_long":106.816351,"transit":false,"time":5,"station_id":"KAT","distance":2029,"is_transit":false,"i_lat":-6.20132}]]}