{"data":[[{"is_transit":false,"station_id":"RJW","transit":false,"i_lat":-6.14505,"distance":0,"i_long":106.836569,"station_name":"Rajawali","time":0,"line":11},{"line":11,"i_lat":-6.161728,"station_id":"KMO","transit":false,"distance":1901,"is_transit":false,"station_name":"Kemayoran","i_long":106.839204,"time":5},{"line":11,"station_name":"Pasar Senen","i_lat":-6.174784,"station_id":"PSE","i_long":106.84368,"is_transit":false,"distance":1436,"time":4,"transit":false},{"distance":1567,"time":8,"station_id":"GST","i_long":106.850107,"station_name":"Gang Sentiong","i_lat":-6.185975,"is_transit":false,"line":11,"transit":false},{"is_transit":false,"station_name":"Kramat","distance":973,"transit":false,"time":1,"station_id":"KMT","i_lat":-6.193792,"i_long":106.855437,"line":11},{"distance":1829,"station_id":"POK","i_long":106.861737,"line":11,"transit":false,"time":2,"station_name":"Pondok Jati","i_lat":-6.209188,"is_transit":false},{"i_long":106.86807400000001,"transit":true,"station_name":"Jatinegara","i_lat":-6.215091,"station_id":"JNG","time":9,"line":0,"is_transit":true,"distance":1236},{"time":2,"line":1,"distance":1377,"i_long":106.858896,"i_lat":-6.212485,"is_transit":false,"station_id":"MTR","transit":false,"station_name":"Matraman"},{"time":2,"distance":1275,"station_id":"MRI","station_name":"Manggarai","i_long":106.84912,"line":0,"is_transit":true,"transit":true,"i_lat":-6.209883},{"distance":2610,"i_lat":-6.226659,"station_id":"TEB","time":4,"is_transit":false,"line":2,"i_long":106.857948,"station_name":"Tebet","transit":false},{"station_name":"Cawang","time":2,"distance":1230,"transit":false,"line":0,"i_lat":-6.242512,"station_id":"CW","is_transit":false,"i_long":106.856607},{"station_name":"Duren Kalibata","time":3,"line":0,"i_lat":-6.255332,"is_transit":false,"station_id":"DRN","distance":1546,"transit":false,"i_long":106.85449},{"time":2,"i_long":106.851577,"station_id":"PSMB","transit":false,"distance":824,"i_lat":-6.263214,"station_name":"Pasar Minggu Baru","line":2,"is_transit":false},{"line":2,"transit":false,"station_id":"PSM","i_lat":-6.2842400000000005,"is_transit":false,"i_long":106.843999,"station_name":"Pasar Minggu","time":2,"distance":2380},{"time":4,"station_id":"TNT","station_name":"Tanjung Barat","i_lat":-6.3080680000000005,"line":2,"i_long":106.838896,"distance":2820,"is_transit":false,"transit":false},{"line":2,"station_id":"LNA","i_lat":-6.330363,"distance":2671,"station_name":"Lenteng Agung","i_long":106.832616,"transit":false,"time":3,"is_transit":false},{"station_id":"UP","i_lat":-6.339291,"i_long":106.834175,"transit":false,"is_transit":false,"line":2,"station_name":"Univ. Pancasila","distance":1029,"time":2},{"station_id":"UI","transit":false,"time":3,"line":2,"distance":2264,"is_transit":false,"station_name":"Univ. Indonesia","i_long":106.831474,"i_lat":-6.360749},{"distance":1109,"time":2,"i_long":106.831114,"station_name":"Pondok Cina","is_transit":false,"station_id":"POC","transit":false,"i_lat":-6.369073,"line":2},{"distance":2727,"station_name":"Depokbaru","time":4,"is_transit":false,"i_lat":-6.391065,"station_id":"DPB","transit":false,"i_long":106.819451,"line":0},{"i_lat":-6.405256,"is_transit":false,"distance":1584,"transit":false,"i_long":106.816926,"station_name":"Depok","station_id":"DP","line":0,"time":3},{"distance":5084,"transit":false,"is_transit":true,"i_lat":-6.448811,"i_long":106.800298,"station_name":"Citayam","station_id":"CTA","time":6,"line":1},{"i_long":106.792719,"line":0,"time":5,"i_lat":-6.493243,"station_name":"Bojonggede","is_transit":false,"distance":5197,"station_id":"BJD","transit":false}],[{"time":0,"line":11,"is_transit":false,"i_long":106.836569,"distance":0,"i_lat":-6.14505,"station_name":"Rajawali","transit":false,"station_id":"RJW"},{"distance":1444,"is_transit":true,"time":3,"i_lat":-6.132549,"i_long":106.826365,"station_name":"Kampung Bandan","station_id":"KPB","line":0,"transit":true},{"i_long":106.79867,"station_name":"Angke","time":9,"transit":false,"station_id":"AK","line":0,"i_lat":-6.144674,"distance":4102,"is_transit":false},{"i_long":106.800832,"time":4,"station_name":"Duri","is_transit":true,"i_lat":-6.155215,"distance":1230,"line":1,"transit":true,"station_id":"DU"},{"i_long":106.811091,"station_name":"Tanah Abang","station_id":"THB","i_lat":-6.185545,"is_transit":true,"distance":3632,"time":8,"transit":false,"line":1},{"transit":false,"station_name":"Karet","i_lat":-6.20132,"station_id":"KAT","line":1,"distance":2029,"is_transit":false,"time":5,"i_long":106.816351},{"transit":false,"distance":471,"i_long":106.819881,"is_transit":false,"line":1,"i_lat":-6.201433,"time":1,"station_id":"SUDB","station_name":"Sudirman Baru"},{"transit":false,"is_transit":false,"time":1,"station_name":"Sudirman","line":1,"i_long":106.822649,"distance":280,"i_lat":-6.202263,"station_id":"SUD"},{"station_name":"Manggarai","i_lat":-6.209883,"i_long":106.84912,"line":0,"time":4,"distance":3186,"is_transit":true,"transit":true,"station_id":"MRI"},{"time":4,"transit":false,"i_long":106.857948,"station_id":"TEB","is_transit":false,"i_lat":-6.226659,"station_name":"Tebet","distance":2610,"line":2},{"time":2,"line":0,"i_long":106.856607,"station_id":"CW","distance":1230,"is_transit":false,"transit":false,"station_name":"Cawang","i_lat":-6.242512},{"station_id":"DRN","time":3,"is_transit":false,"distance":1546,"station_name":"Duren Kalibata","i_lat":-6.255332,"line":0,"i_long":106.85449,"transit":false},{"i_lat":-6.263214,"distance":824,"is_transit":false,"station_id":"PSMB","transit":false,"i_long":106.851577,"station_name":"Pasar Minggu Baru","time":2,"line":2},{"station_id":"PSM","time":2,"transit":false,"is_transit":false,"i_lat":-6.2842400000000005,"i_long":106.843999,"distance":2380,"line":2,"station_name":"Pasar Minggu"},{"station_name":"Tanjung Barat","time":4,"distance":2820,"is_transit":false,"i_lat":-6.3080680000000005,"line":2,"transit":false,"i_long":106.838896,"station_id":"TNT"},{"transit":false,"distance":2671,"station_id":"LNA","i_long":106.832616,"i_lat":-6.330363,"time":3,"is_transit":false,"station_name":"Lenteng Agung","line":2},{"station_id":"UP","i_long":106.834175,"is_transit":false,"distance":1029,"station_name":"Univ. Pancasila","time":2,"line":2,"transit":false,"i_lat":-6.339291},{"line":2,"transit":false,"is_transit":false,"i_lat":-6.360749,"station_id":"UI","distance":2264,"station_name":"Univ. Indonesia","time":3,"i_long":106.831474},{"station_id":"POC","line":2,"distance":1109,"station_name":"Pondok Cina","transit":false,"i_lat":-6.369073,"i_long":106.831114,"time":2,"is_transit":false},{"station_id":"DPB","transit":false,"line":0,"station_name":"Depokbaru","time":4,"i_long":106.819451,"distance":2727,"i_lat":-6.391065,"is_transit":false},{"i_long":106.816926,"i_lat":-6.405256,"distance":1584,"is_transit":false,"transit":false,"station_id":"DP","time":3,"line":0,"station_name":"Depok"},{"distance":5084,"is_transit":true,"i_lat":-6.448811,"time":6,"i_long":106.800298,"station_id":"CTA","transit":false,"station_name":"Citayam","line":1},{"station_id":"BJD","transit":false,"time":5,"station_name":"Bojonggede","line":0,"distance":5197,"i_long":106.792719,"is_transit":false,"i_lat":-6.493243}],[{"i_lat":-6.14505,"distance":0,"station_id":"RJW","station_name":"Rajawali","is_transit":false,"transit":false,"time":0,"i_long":106.836569,"line":11},{"i_long":106.826365,"is_transit":true,"station_id":"KPB","distance":1444,"station_name":"Kampung Bandan","time":3,"i_lat":-6.132549,"line":0,"transit":true},{"line":0,"station_id":"JAKK","distance":1364,"is_transit":true,"time":3,"station_name":"Jakarta Kota","transit":true,"i_lat":-6.137569,"i_long":106.812439},{"distance":1264,"is_transit":false,"line":7,"station_id":"JAY","i_long":106.820901,"i_lat":-6.141205,"time":4,"transit":false,"station_name":"Jayakarta"},{"i_lat":-6.149769,"distance":1080,"line":2,"transit":false,"time":2,"i_long":106.82482,"station_id":"MGB","is_transit":false,"station_name":"Manggabesar"},{"station_id":"SW","i_lat":-6.160725,"is_transit":false,"i_long":106.827103,"distance":906,"line":2,"time":2,"transit":false,"station_name":"Sawah Besar"},{"is_transit":false,"transit":false,"i_long":106.828284,"i_lat":-6.166716,"distance":1149,"station_id":"JUA","station_name":"Juanda","time":2,"line":2},{"i_lat":-6.186295,"distance":2015,"time":4,"i_long":106.832183,"line":2,"is_transit":false,"station_id":"GDD","station_name":"Gondangdia","transit":false},{"station_name":"Cikini","time":3,"transit":false,"is_transit":false,"i_long":106.840169,"i_lat":-6.198556,"line":0,"distance":1750,"station_id":"CKI"},{"distance":1590,"station_name":"Manggarai","i_lat":-6.209883,"station_id":"MRI","transit":true,"i_long":106.84912,"line":0,"is_transit":true,"time":4},{"i_long":106.857948,"distance":2610,"line":2,"station_name":"Tebet","is_transit":false,"transit":false,"i_lat":-6.226659,"time":4,"station_id":"TEB"},{"i_long":106.856607,"is_transit":false,"distance":1230,"transit":false,"station_name":"Cawang","line":0,"i_lat":-6.242512,"station_id":"CW","time":2},{"distance":1546,"line":0,"i_lat":-6.255332,"station_id":"DRN","station_name":"Duren Kalibata","is_transit":false,"time":3,"i_long":106.85449,"transit":false},{"distance":824,"station_name":"Pasar Minggu Baru","i_lat":-6.263214,"i_long":106.851577,"line":2,"station_id":"PSMB","time":2,"transit":false,"is_transit":false},{"distance":2380,"station_name":"Pasar Minggu","i_long":106.843999,"line":2,"station_id":"PSM","i_lat":-6.2842400000000005,"is_transit":false,"time":2,"transit":false},{"time":4,"is_transit":false,"station_id":"TNT","distance":2820,"station_name":"Tanjung Barat","transit":false,"i_long":106.838896,"i_lat":-6.3080680000000005,"line":2},{"station_id":"LNA","i_lat":-6.330363,"line":2,"distance":2671,"station_name":"Lenteng Agung","transit":false,"time":3,"i_long":106.832616,"is_transit":false},{"is_transit":false,"time":2,"i_lat":-6.339291,"line":2,"station_name":"Univ. Pancasila","distance":1029,"i_long":106.834175,"transit":false,"station_id":"UP"},{"transit":false,"line":2,"i_lat":-6.360749,"station_id":"UI","i_long":106.831474,"distance":2264,"is_transit":false,"time":3,"station_name":"Univ. Indonesia"},{"i_lat":-6.369073,"time":2,"i_long":106.831114,"station_name":"Pondok Cina","distance":1109,"station_id":"POC","transit":false,"line":2,"is_transit":false},{"station_id":"DPB","time":4,"i_long":106.819451,"is_transit":false,"station_name":"Depokbaru","transit":false,"i_lat":-6.391065,"line":0,"distance":2727},{"transit":false,"distance":1584,"time":3,"station_name":"Depok","i_lat":-6.405256,"station_id":"DP","is_transit":false,"i_long":106.816926,"line":0},{"is_transit":true,"station_name":"Citayam","transit":false,"time":6,"line":1,"distance":5084,"station_id":"CTA","i_long":106.800298,"i_lat":-6.448811},{"is_transit":false,"station_id":"BJD","distance":5197,"transit":false,"i_long":106.792719,"line":0,"i_lat":-6.493243,"station_name":"Bojonggede","time":5}]]}