{"data":[[{"i_lat":-6.14505,"line":11,"station_id":"RJW","is_transit":false,"station_name":"Rajawali","i_long":106.836569,"time":0,"transit":false,"distance":0},{"is_transit":true,"time":3,"i_lat":-6.132549,"station_name":"Kampung Bandan","i_long":106.826365,"distance":1444,"station_id":"KPB","transit":true,"line":4},{"i_lat":-6.144674,"transit":false,"station_name":"Angke","distance":4102,"i_long":106.79867,"line":1,"time":9,"is_transit":false,"station_id":"AK"},{"is_transit":false,"time":4,"station_id":"DU","transit":false,"station_name":"Duri","i_lat":-6.155215,"i_long":106.800832,"distance":1230,"line":1},{"transit":true,"station_name":"Tanah Abang","i_long":106.811091,"is_transit":true,"i_lat":-6.185545,"line":1,"time":8,"station_id":"THB","distance":3632},{"distance":3191,"is_transit":false,"i_long":106.79689,"station_name":"Palmerah","i_lat":-6.207404,"time":6,"line":6,"transit":false,"station_id":"PLM"},{"station_id":"KBY","station_name":"Kebayoran","transit":false,"time":7,"line":6,"i_lat":-6.237242,"is_transit":false,"distance":3737,"i_long":106.780334},{"is_transit":false,"i_long":106.74273,"distance":6218,"station_id":"PDJ","i_lat":-6.276362,"line":6,"station_name":"Pondokranji","transit":false,"time":8},{"distance":2179,"i_long":106.728916,"station_name":"Jurangmangu","station_id":"JMU","i_lat":-6.288927,"time":3,"is_transit":false,"line":6,"transit":false},{"is_transit":false,"line":6,"station_name":"Sudimara","station_id":"SDM","distance":1994,"i_lat":-6.296963,"i_long":106.712277,"transit":false,"time":4},{"station_id":"RU","is_transit":false,"time":6,"distance":4566,"station_name":"Rawa Buntu","i_lat":-6.314823,"line":6,"i_long":106.675475,"transit":false},{"distance":2413,"station_id":"SRP","i_lat":-6.319871,"i_long":106.66566,"line":6,"station_name":"Serpong","transit":false,"is_transit":false,"time":4},{"line":3,"is_transit":false,"station_name":"Cisauk","distance":1784,"station_id":"CSK","transit":false,"i_long":106.640411,"time":4,"i_lat":-6.32484},{"distance":2519,"station_name":"Cicayur","i_lat":-6.329547,"station_id":"CC","line":3,"transit":false,"i_long":106.617853,"time":4,"is_transit":false},{"distance":5968,"transit":false,"is_transit":false,"i_long":106.568863,"line":6,"station_name":"Parung Panjang","station_id":"PRP","time":8,"i_lat":-6.3441410000000005},{"is_transit":false,"station_id":"CJT","time":9,"distance":7025,"i_lat":-6.354349,"i_long":106.508482,"station_name":"Cilejit","transit":false,"line":3},{"time":6,"transit":false,"station_id":"DAR","distance":2675,"i_long":106.491338,"line":0,"is_transit":false,"i_lat":-6.338021,"station_name":"Daru"},{"line":6,"transit":false,"station_name":"Tenjo","is_transit":false,"i_lat":-6.327251,"i_long":106.460812,"station_id":"TEJ","time":5,"distance":3902},{"is_transit":false,"station_id":"TGS","time":5,"distance":2974,"line":6,"station_name":"Tigaraksa","i_lat":-6.328533,"i_long":106.425991,"transit":false},{"time":3,"line":3,"is_transit":false,"transit":false,"i_lat":-6.33561,"distance":2651,"station_id":"CKY","station_name":"Cikoya","i_long":106.411216},{"station_name":"Maja","distance":1853,"i_lat":-6.332307,"line":6,"transit":false,"time":4,"is_transit":false,"station_id":"MJ","i_long":106.394373}],[{"is_transit":false,"station_id":"RJW","line":11,"transit":false,"i_long":106.836569,"station_name":"Rajawali","distance":0,"i_lat":-6.14505,"time":0},{"station_id":"KMO","i_lat":-6.161728,"station_name":"Kemayoran","distance":1901,"i_long":106.839204,"line":11,"is_transit":false,"time":5,"transit":false},{"distance":1436,"i_lat":-6.174784,"is_transit":false,"i_long":106.84368,"station_name":"Pasar Senen","transit":false,"line":11,"time":4,"station_id":"PSE"},{"transit":false,"station_id":"GST","distance":1567,"line":11,"station_name":"Gang Sentiong","i_long":106.850107,"time":8,"is_transit":false,"i_lat":-6.185975},{"line":11,"i_lat":-6.193792,"transit":false,"station_name":"Kramat","station_id":"KMT","is_transit":false,"time":1,"distance":973,"i_long":106.855437},{"line":11,"transit":false,"i_lat":-6.209188,"station_name":"Pondok Jati","i_long":106.861737,"distance":1829,"station_id":"POK","is_transit":false,"time":2},{"transit":true,"distance":1236,"i_lat":-6.215091,"is_transit":true,"i_long":106.86807400000001,"line":1,"station_name":"Jatinegara","station_id":"JNG","time":9},{"is_transit":false,"distance":1377,"time":2,"transit":false,"station_name":"Matraman","i_lat":-6.212485,"i_long":106.858896,"line":1,"station_id":"MTR"},{"i_lat":-6.209883,"is_transit":false,"station_id":"MRI","transit":false,"station_name":"Manggarai","i_long":106.84912,"time":2,"distance":1275,"line":2},{"station_id":"SUD","i_lat":-6.202263,"transit":false,"line":1,"i_long":106.822649,"distance":3186,"is_transit":false,"time":4,"station_name":"Sudirman"},{"i_long":106.819881,"station_id":"SUDB","is_transit":false,"time":1,"distance":280,"i_lat":-6.201433,"station_name":"Sudirman Baru","transit":false,"line":1},{"station_id":"KAT","is_transit":false,"i_long":106.816351,"station_name":"Karet","transit":false,"i_lat":-6.20132,"time":1,"line":1,"distance":471},{"station_name":"Tanah Abang","i_long":106.811091,"distance":2029,"transit":true,"station_id":"THB","time":5,"line":1,"i_lat":-6.185545,"is_transit":true},{"is_transit":false,"time":6,"distance":3191,"i_long":106.79689,"i_lat":-6.207404,"transit":false,"station_id":"PLM","line":6,"station_name":"Palmerah"},{"time":7,"distance":3737,"i_long":106.780334,"line":6,"station_name":"Kebayoran","i_lat":-6.237242,"is_transit":false,"transit":false,"station_id":"KBY"},{"line":6,"transit":false,"distance":6218,"is_transit":false,"i_lat":-6.276362,"station_name":"Pondokranji","i_long":106.74273,"time":8,"station_id":"PDJ"},{"time":3,"line":6,"transit":false,"station_name":"Jurangmangu","station_id":"JMU","i_long":106.728916,"i_lat":-6.288927,"is_transit":false,"distance":2179},{"transit":false,"is_transit":false,"line":6,"i_lat":-6.296963,"time":4,"station_id":"SDM","distance":1994,"station_name":"Sudimara","i_long":106.712277},{"transit":false,"is_transit":false,"station_name":"Rawa Buntu","station_id":"RU","time":6,"i_lat":-6.314823,"i_long":106.675475,"line":6,"distance":4566},{"i_lat":-6.319871,"line":6,"time":4,"i_long":106.66566,"transit":false,"station_id":"SRP","station_name":"Serpong","distance":2413,"is_transit":false},{"station_id":"CSK","time":4,"station_name":"Cisauk","is_transit":false,"i_long":106.640411,"line":3,"distance":1784,"i_lat":-6.32484,"transit":false},{"distance":2519,"station_id":"CC","line":3,"i_long":106.617853,"station_name":"Cicayur","time":4,"transit":false,"i_lat":-6.329547,"is_transit":false},{"station_name":"Parung Panjang","time":8,"distance":5968,"i_long":106.568863,"station_id":"PRP","i_lat":-6.3441410000000005,"line":6,"transit":false,"is_transit":false},{"is_transit":false,"distance":7025,"i_lat":-6.354349,"station_name":"Cilejit","station_id":"CJT","transit":false,"i_long":106.508482,"time":9,"line":3},{"time":6,"station_name":"Daru","transit":false,"i_long":106.491338,"distance":2675,"station_id":"DAR","is_transit":false,"i_lat":-6.338021,"line":0},{"is_transit":false,"i_lat":-6.327251,"station_name":"Tenjo","time":5,"line":6,"distance":3902,"station_id":"TEJ","i_long":106.460812,"transit":false},{"time":5,"distance":2974,"is_transit":false,"i_lat":-6.328533,"transit":false,"station_name":"Tigaraksa","station_id":"TGS","line":6,"i_long":106.425991},{"i_lat":-6.33561,"transit":false,"i_long":106.411216,"station_name":"Cikoya","distance":2651,"line":3,"station_id":"CKY","time":3,"is_transit":false},{"station_name":"Maja","transit":false,"time":4,"station_id":"MJ","distance":1853,"i_lat":-6.332307,"is_transit":false,"i_long":106.394373,"line":6}],[{"line":11,"distance":0,"is_transit":false,"i_long":106.836569,"transit":false,"time":0,"station_id":"RJW","i_lat":-6.14505,"station_name":"Rajawali"},{"line":4,"station_name":"Kampung Bandan","station_id":"KPB","is_transit":true,"i_long":106.826365,"transit":true,"distance":1444,"time":3,"i_lat":-6.132549},{"distance":1364,"i_long":106.812439,"transit":true,"is_transit":true,"station_id":"JAKK","line":2,"i_lat":-6.137569,"station_name":"Jakarta Kota","time":3},{"station_id":"JAY","station_name":"Jayakarta","i_long":106.820901,"time":4,"is_transit":false,"transit":false,"line":2,"distance":1264,"i_lat":-6.141205},{"time":2,"i_lat":-6.149769,"station_id":"MGB","is_transit":false,"distance":1080,"station_name":"Manggabesar","transit":false,"line":2,"i_long":106.82482},{"transit":false,"i_lat":-6.160725,"i_long":106.827103,"line":2,"station_name":"Sawah Besar","is_transit":false,"station_id":"SW","time":2,"distance":906},{"station_id":"JUA","i_lat":-6.166716,"line":2,"is_transit":false,"station_name":"Juanda","time":2,"i_long":106.828284,"transit":false,"distance":1149},{"station_name":"Gondangdia","is_transit":false,"time":4,"station_id":"GDD","i_lat":-6.186295,"line":2,"transit":false,"i_long":106.832183,"distance":2015},{"station_id":"CKI","i_long":106.840169,"station_name":"Cikini","i_lat":-6.198556,"line":2,"transit":false,"is_transit":false,"time":3,"distance":1750},{"station_name":"Manggarai","is_transit":true,"time":4,"distance":1590,"i_long":106.84912,"transit":true,"i_lat":-6.209883,"line":2,"station_id":"MRI"},{"distance":3186,"is_transit":false,"i_lat":-6.202263,"transit":false,"station_name":"Sudirman","time":4,"i_long":106.822649,"station_id":"SUD","line":1},{"time":1,"station_name":"Sudirman Baru","transit":false,"i_long":106.819881,"i_lat":-6.201433,"station_id":"SUDB","distance":280,"line":1,"is_transit":false},{"distance":471,"is_transit":false,"transit":false,"station_name":"Karet","i_lat":-6.20132,"i_long":106.816351,"time":1,"station_id":"KAT","line":1},{"is_transit":true,"transit":true,"i_lat":-6.185545,"time":5,"line":1,"station_id":"THB","i_long":106.811091,"station_name":"Tanah Abang","distance":2029},{"time":6,"line":6,"i_long":106.79689,"station_id":"PLM","is_transit":false,"i_lat":-6.207404,"distance":3191,"transit":false,"station_name":"Palmerah"},{"i_long":106.780334,"station_id":"KBY","station_name":"Kebayoran","transit":false,"time":7,"is_transit":false,"i_lat":-6.237242,"line":6,"distance":3737},{"station_name":"Pondokranji","is_transit":false,"station_id":"PDJ","i_long":106.74273,"distance":6218,"i_lat":-6.276362,"line":6,"time":8,"transit":false},{"station_id":"JMU","line":6,"i_lat":-6.288927,"time":3,"transit":false,"i_long":106.728916,"is_transit":false,"distance":2179,"station_name":"Jurangmangu"},{"time":4,"is_transit":false,"i_lat":-6.296963,"i_long":106.712277,"station_id":"SDM","distance":1994,"line":6,"transit":false,"station_name":"Sudimara"},{"line":6,"distance":4566,"station_name":"Rawa Buntu","is_transit":false,"transit":false,"i_lat":-6.314823,"station_id":"RU","i_long":106.675475,"time":6},{"is_transit":false,"station_name":"Serpong","i_long":106.66566,"i_lat":-6.319871,"line":6,"station_id":"SRP","transit":false,"time":4,"distance":2413},{"i_lat":-6.32484,"i_long":106.640411,"station_id":"CSK","line":3,"distance":1784,"transit":false,"station_name":"Cisauk","is_transit":false,"time":4},{"distance":2519,"time":4,"transit":false,"line":3,"station_name":"Cicayur","i_lat":-6.329547,"station_id":"CC","i_long":106.617853,"is_transit":false},{"line":6,"station_id":"PRP","time":8,"distance":5968,"is_transit":false,"i_long":106.568863,"station_name":"Parung Panjang","i_lat":-6.3441410000000005,"transit":false},{"line":3,"transit":false,"is_transit":false,"distance":7025,"time":9,"i_long":106.508482,"station_name":"Cilejit","station_id":"CJT","i_lat":-6.354349},{"i_long":106.491338,"line":0,"station_id":"DAR","station_name":"Daru","time":6,"is_transit":false,"transit":false,"distance":2675,"i_lat":-6.338021},{"line":6,"station_id":"TEJ","i_long":106.460812,"is_transit":false,"station_name":"Tenjo","distance":3902,"transit":false,"time":5,"i_lat":-6.327251},{"distance":2974,"transit":false,"time":5,"station_name":"Tigaraksa","i_long":106.425991,"line":6,"is_transit":false,"i_lat":-6.328533,"station_id":"TGS"},{"time":3,"i_long":106.411216,"transit":false,"station_name":"Cikoya","distance":2651,"station_id":"CKY","i_lat":-6.33561,"line":3,"is_transit":false},{"i_lat":-6.332307,"station_name":"Maja","time":4,"i_long":106.394373,"transit":false,"station_id":"MJ","is_transit":false,"line":6,"distance":1853}],[{"transit":false,"i_lat":-6.14505,"line":11,"station_name":"Rajawali","station_id":"RJW","is_transit":false,"distance":0,"i_long":106.836569,"time":0},{"station_id":"KMO","transit":false,"station_name":"Kemayoran","i_lat":-6.161728,"distance":1901,"is_transit":false,"time":5,"i_long":106.839204,"line":11},{"is_transit":false,"distance":1436,"time":4,"i_lat":-6.174784,"i_long":106.84368,"line":11,"transit":false,"station_name":"Pasar Senen","station_id":"PSE"},{"is_transit":false,"distance":1567,"i_lat":-6.185975,"station_name":"Gang Sentiong","line":11,"time":8,"transit":false,"station_id":"GST","i_long":106.850107},{"i_long":106.855437,"time":1,"transit":false,"station_name":"Kramat","i_lat":-6.193792,"is_transit":false,"line":11,"distance":973,"station_id":"KMT"},{"station_name":"Pondok Jati","station_id":"POK","transit":false,"is_transit":false,"line":11,"i_long":106.861737,"time":2,"i_lat":-6.209188,"distance":1829},{"distance":1236,"i_long":106.86807400000001,"station_name":"Jatinegara","transit":true,"station_id":"JNG","is_transit":true,"line":1,"i_lat":-6.215091,"time":9},{"station_name":"Matraman","distance":1377,"transit":false,"i_lat":-6.212485,"i_long":106.858896,"line":1,"is_transit":false,"station_id":"MTR","time":2},{"i_long":106.84912,"time":2,"is_transit":true,"station_name":"Manggarai","distance":1275,"line":2,"i_lat":-6.209883,"transit":true,"station_id":"MRI"},{"station_name":"Cikini","distance":1590,"i_long":106.840169,"line":2,"station_id":"CKI","transit":false,"time":4,"i_lat":-6.198556,"is_transit":false},{"line":2,"transit":false,"distance":1750,"time":3,"i_lat":-6.186295,"station_id":"GDD","station_name":"Gondangdia","is_transit":false,"i_long":106.832183},{"time":4,"i_long":106.828284,"line":2,"transit":false,"is_transit":false,"station_name":"Juanda","distance":2015,"station_id":"JUA","i_lat":-6.166716},{"is_transit":false,"i_lat":-6.160725,"i_long":106.827103,"line":2,"station_id":"SW","station_name":"Sawah Besar","distance":1149,"time":2,"transit":false},{"station_name":"Manggabesar","station_id":"MGB","distance":906,"i_long":106.82482,"i_lat":-6.149769,"transit":false,"time":2,"is_transit":false,"line":2},{"station_id":"JAY","line":2,"station_name":"Jayakarta","i_long":106.820901,"i_lat":-6.141205,"is_transit":false,"distance":1080,"transit":false,"time":2},{"distance":1264,"station_id":"JAKK","i_long":106.812439,"time":4,"i_lat":-6.137569,"transit":true,"station_name":"Jakarta Kota","line":2,"is_transit":true},{"transit":true,"is_transit":true,"time":3,"station_name":"Kampung Bandan","station_id":"KPB","i_lat":-6.132549,"line":4,"distance":1364,"i_long":106.826365},{"station_id":"AK","i_lat":-6.144674,"i_long":106.79867,"time":9,"distance":4102,"transit":false,"is_transit":false,"station_name":"Angke","line":1},{"i_long":106.800832,"station_id":"DU","i_lat":-6.155215,"time":4,"transit":false,"distance":1230,"station_name":"Duri","is_transit":false,"line":1},{"station_name":"Tanah Abang","distance":3632,"i_lat":-6.185545,"station_id":"THB","transit":true,"is_transit":true,"line":1,"time":8,"i_long":106.811091},{"i_long":106.79689,"station_id":"PLM","is_transit":false,"transit":false,"distance":3191,"i_lat":-6.207404,"line":6,"station_name":"Palmerah","time":6},{"distance":3737,"station_id":"KBY","transit":false,"time":7,"line":6,"i_long":106.780334,"station_name":"Kebayoran","i_lat":-6.237242,"is_transit":false},{"time":8,"line":6,"distance":6218,"station_name":"Pondokranji","transit":false,"i_lat":-6.276362,"station_id":"PDJ","is_transit":false,"i_long":106.74273},{"distance":2179,"transit":false,"i_lat":-6.288927,"station_id":"JMU","station_name":"Jurangmangu","is_transit":false,"time":3,"i_long":106.728916,"line":6},{"i_lat":-6.296963,"is_transit":false,"line":6,"i_long":106.712277,"station_name":"Sudimara","station_id":"SDM","time":4,"transit":false,"distance":1994},{"station_id":"RU","is_transit":false,"line":6,"station_name":"Rawa Buntu","time":6,"distance":4566,"i_long":106.675475,"transit":false,"i_lat":-6.314823},{"station_id":"SRP","line":6,"transit":false,"is_transit":false,"time":4,"station_name":"Serpong","i_lat":-6.319871,"i_long":106.66566,"distance":2413},{"is_transit":false,"time":4,"distance":1784,"line":3,"station_id":"CSK","transit":false,"station_name":"Cisauk","i_lat":-6.32484,"i_long":106.640411},{"transit":false,"i_lat":-6.329547,"station_name":"Cicayur","i_long":106.617853,"station_id":"CC","time":4,"distance":2519,"line":3,"is_transit":false},{"i_lat":-6.3441410000000005,"line":6,"station_name":"Parung Panjang","distance":5968,"station_id":"PRP","transit":false,"is_transit":false,"time":8,"i_long":106.568863},{"i_long":106.508482,"time":9,"i_lat":-6.354349,"station_name":"Cilejit","station_id":"CJT","distance":7025,"transit":false,"line":3,"is_transit":false},{"is_transit":false,"line":0,"time":6,"distance":2675,"i_lat":-6.338021,"transit":false,"station_id":"DAR","station_name":"Daru","i_long":106.491338},{"i_long":106.460812,"transit":false,"station_name":"Tenjo","time":5,"distance":3902,"station_id":"TEJ","line":6,"is_transit":false,"i_lat":-6.327251},{"line":6,"transit":false,"is_transit":false,"i_long":106.425991,"time":5,"distance":2974,"station_id":"TGS","station_name":"Tigaraksa","i_lat":-6.328533},{"station_id":"CKY","i_long":106.411216,"station_name":"Cikoya","time":3,"line":3,"is_transit":false,"transit":false,"distance":2651,"i_lat":-6.33561},{"time":4,"station_name":"Maja","transit":false,"distance":1853,"station_id":"MJ","line":6,"is_transit":false,"i_lat":-6.332307,"i_long":106.394373}]]}