{"data":[[{"station_id":"RJW","station_name":"Rajawali","distance":0,"i_lat":-6.14505,"i_long":106.836569,"time":0,"line":11,"is_transit":false,"transit":false},{"station_id":"KPB","i_long":106.826365,"time":3,"transit":true,"distance":1444,"i_lat":-6.132549,"line":4,"station_name":"Kampung Bandan","is_transit":true},{"is_transit":false,"distance":4102,"time":9,"line":1,"transit":false,"station_id":"AK","station_name":"Angke","i_long":106.79867,"i_lat":-6.144674},{"station_name":"Duri","i_long":106.800832,"transit":false,"station_id":"DU","time":4,"is_transit":false,"distance":1230,"line":1,"i_lat":-6.155215},{"line":1,"time":8,"station_id":"THB","i_long":106.811091,"i_lat":-6.185545,"distance":3632,"station_name":"Tanah Abang","is_transit":true,"transit":true},{"station_name":"Palmerah","station_id":"PLM","is_transit":false,"time":6,"distance":3191,"transit":false,"i_lat":-6.207404,"i_long":106.79689,"line":6},{"station_name":"Kebayoran","distance":3737,"transit":false,"is_transit":false,"time":7,"i_long":106.780334,"line":6,"i_lat":-6.237242,"station_id":"KBY"}],[{"station_id":"RJW","time":0,"i_long":106.836569,"i_lat":-6.14505,"distance":0,"transit":false,"line":11,"is_transit":false,"station_name":"Rajawali"},{"is_transit":false,"station_id":"KMO","time":5,"i_lat":-6.161728,"line":11,"distance":1901,"transit":false,"i_long":106.839204,"station_name":"Kemayoran"},{"i_lat":-6.174784,"station_name":"Pasar Senen","i_long":106.84368,"time":4,"is_transit":false,"line":11,"station_id":"PSE","transit":false,"distance":1436},{"time":8,"is_transit":false,"station_name":"Gang Sentiong","i_lat":-6.185975,"i_long":106.850107,"line":11,"distance":1567,"transit":false,"station_id":"GST"},{"distance":973,"is_transit":false,"station_name":"Kramat","station_id":"KMT","i_lat":-6.193792,"i_long":106.855437,"line":11,"time":1,"transit":false},{"distance":1829,"is_transit":false,"transit":false,"station_id":"POK","time":2,"i_lat":-6.209188,"i_long":106.861737,"line":11,"station_name":"Pondok Jati"},{"station_name":"Jatinegara","i_lat":-6.215091,"i_long":106.86807400000001,"station_id":"JNG","transit":true,"line":1,"distance":1236,"is_transit":true,"time":9},{"station_id":"MTR","i_long":106.858896,"distance":1377,"line":1,"time":2,"transit":false,"station_name":"Matraman","i_lat":-6.212485,"is_transit":false},{"i_lat":-6.209883,"transit":false,"i_long":106.84912,"station_id":"MRI","is_transit":false,"station_name":"Manggarai","time":2,"distance":1275,"line":2},{"i_long":106.822649,"i_lat":-6.202263,"time":4,"station_id":"SUD","distance":3186,"is_transit":false,"transit":false,"line":1,"station_name":"Sudirman"},{"i_long":106.819881,"is_transit":false,"i_lat":-6.201433,"distance":280,"line":1,"station_id":"SUDB","time":1,"station_name":"Sudirman Baru","transit":false},{"time":1,"i_lat":-6.20132,"distance":471,"i_long":106.816351,"line":1,"transit":false,"station_name":"Karet","station_id":"KAT","is_transit":false},{"distance":2029,"station_name":"Tanah Abang","is_transit":true,"line":1,"time":5,"i_long":106.811091,"transit":true,"station_id":"THB","i_lat":-6.185545},{"station_id":"PLM","i_lat":-6.207404,"transit":false,"station_name":"Palmerah","time":6,"i_long":106.79689,"is_transit":false,"line":6,"distance":3191},{"time":7,"i_long":106.780334,"station_id":"KBY","line":6,"transit":false,"distance":3737,"station_name":"Kebayoran","is_transit":false,"i_lat":-6.237242}],[{"is_transit":false,"i_lat":-6.14505,"station_id":"RJW","i_long":106.836569,"time":0,"station_name":"Rajawali","transit":false,"distance":0,"line":11},{"is_transit":true,"transit":true,"station_id":"KPB","i_long":106.826365,"line":4,"i_lat":-6.132549,"time":3,"distance":1444,"station_name":"Kampung Bandan"},{"line":2,"station_id":"JAKK","is_transit":true,"distance":1364,"station_name":"Jakarta Kota","time":3,"i_long":106.812439,"i_lat":-6.137569,"transit":true},{"distance":1264,"line":2,"station_name":"Jayakarta","i_lat":-6.141205,"transit":false,"i_long":106.820901,"station_id":"JAY","is_transit":false,"time":4},{"is_transit":false,"line":2,"station_id":"MGB","distance":1080,"time":2,"i_lat":-6.149769,"station_name":"Manggabesar","transit":false,"i_long":106.82482},{"i_lat":-6.160725,"i_long":106.827103,"time":2,"station_name":"Sawah Besar","transit":false,"line":2,"is_transit":false,"distance":906,"station_id":"SW"},{"time":2,"is_transit":false,"transit":false,"i_lat":-6.166716,"i_long":106.828284,"station_id":"JUA","line":2,"station_name":"Juanda","distance":1149},{"distance":2015,"line":2,"is_transit":false,"station_name":"Gondangdia","station_id":"GDD","time":4,"i_lat":-6.186295,"i_long":106.832183,"transit":false},{"transit":false,"station_id":"CKI","line":2,"time":3,"distance":1750,"i_long":106.840169,"station_name":"Cikini","is_transit":false,"i_lat":-6.198556},{"i_lat":-6.209883,"time":4,"distance":1590,"station_name":"Manggarai","is_transit":true,"transit":true,"i_long":106.84912,"line":2,"station_id":"MRI"},{"is_transit":false,"i_long":106.822649,"line":1,"distance":3186,"i_lat":-6.202263,"time":4,"station_id":"SUD","transit":false,"station_name":"Sudirman"},{"i_long":106.819881,"time":1,"station_id":"SUDB","is_transit":false,"transit":false,"i_lat":-6.201433,"line":1,"distance":280,"station_name":"Sudirman Baru"},{"line":1,"station_name":"Karet","station_id":"KAT","is_transit":false,"distance":471,"i_long":106.816351,"time":1,"transit":false,"i_lat":-6.20132},{"i_long":106.811091,"line":1,"i_lat":-6.185545,"distance":2029,"station_name":"Tanah Abang","time":5,"station_id":"THB","transit":true,"is_transit":true},{"time":6,"station_id":"PLM","line":6,"transit":false,"i_lat":-6.207404,"distance":3191,"station_name":"Palmerah","is_transit":false,"i_long":106.79689},{"i_lat":-6.237242,"distance":3737,"i_long":106.780334,"transit":false,"station_name":"Kebayoran","line":6,"time":7,"is_transit":false,"station_id":"KBY"}],[{"distance":0,"i_lat":-6.14505,"line":11,"time":0,"transit":false,"station_name":"Rajawali","is_transit":false,"station_id":"RJW","i_long":106.836569},{"transit":false,"i_lat":-6.161728,"distance":1901,"station_id":"KMO","i_long":106.839204,"line":11,"time":5,"station_name":"Kemayoran","is_transit":false},{"is_transit":false,"line":11,"time":4,"i_long":106.84368,"station_id":"PSE","distance":1436,"i_lat":-6.174784,"station_name":"Pasar Senen","transit":false},{"line":11,"station_name":"Gang Sentiong","time":8,"i_long":106.850107,"transit":false,"distance":1567,"is_transit":false,"i_lat":-6.185975,"station_id":"GST"},{"station_name":"Kramat","line":11,"transit":false,"i_lat":-6.193792,"is_transit":false,"i_long":106.855437,"time":1,"distance":973,"station_id":"KMT"},{"i_long":106.861737,"transit":false,"time":2,"is_transit":false,"line":11,"station_name":"Pondok Jati","station_id":"POK","i_lat":-6.209188,"distance":1829},{"is_transit":true,"distance":1236,"time":9,"station_id":"JNG","station_name":"Jatinegara","i_lat":-6.215091,"line":1,"i_long":106.86807400000001,"transit":true},{"distance":1377,"station_id":"MTR","time":2,"station_name":"Matraman","is_transit":false,"transit":false,"i_long":106.858896,"line":1,"i_lat":-6.212485},{"line":2,"is_transit":true,"transit":true,"station_name":"Manggarai","time":2,"station_id":"MRI","i_long":106.84912,"i_lat":-6.209883,"distance":1275},{"line":2,"distance":1590,"i_lat":-6.198556,"is_transit":false,"i_long":106.840169,"transit":false,"station_id":"CKI","time":4,"station_name":"Cikini"},{"i_lat":-6.186295,"line":2,"distance":1750,"station_id":"GDD","time":3,"i_long":106.832183,"is_transit":false,"transit":false,"station_name":"Gondangdia"},{"i_lat":-6.166716,"time":4,"i_long":106.828284,"is_transit":false,"transit":false,"station_id":"JUA","line":2,"distance":2015,"station_name":"Juanda"},{"distance":1149,"transit":false,"i_lat":-6.160725,"is_transit":false,"time":2,"station_name":"Sawah Besar","line":2,"i_long":106.827103,"station_id":"SW"},{"is_transit":false,"i_lat":-6.149769,"transit":false,"time":2,"i_long":106.82482,"distance":906,"line":2,"station_name":"Manggabesar","station_id":"MGB"},{"line":2,"distance":1080,"time":2,"i_lat":-6.141205,"station_id":"JAY","station_name":"Jayakarta","transit":false,"is_transit":false,"i_long":106.820901},{"transit":true,"i_long":106.812439,"line":2,"time":4,"is_transit":true,"distance":1264,"station_id":"JAKK","station_name":"Jakarta Kota","i_lat":-6.137569},{"is_transit":true,"transit":true,"i_long":106.826365,"distance":1364,"station_name":"Kampung Bandan","i_lat":-6.132549,"line":4,"time":3,"station_id":"KPB"},{"distance":4102,"i_long":106.79867,"time":9,"line":1,"is_transit":false,"station_name":"Angke","transit":false,"i_lat":-6.144674,"station_id":"AK"},{"is_transit":false,"i_long":106.800832,"station_name":"Duri","transit":false,"time":4,"distance":1230,"line":1,"station_id":"DU","i_lat":-6.155215},{"station_name":"Tanah Abang","is_transit":true,"distance":3632,"transit":true,"station_id":"THB","time":8,"i_lat":-6.185545,"i_long":106.811091,"line":1},{"line":6,"station_name":"Palmerah","time":6,"station_id":"PLM","transit":false,"i_long":106.79689,"distance":3191,"is_transit":false,"i_lat":-6.207404},{"line":6,"station_id":"KBY","time":7,"distance":3737,"transit":false,"i_lat":-6.237242,"is_transit":false,"station_name":"Kebayoran","i_long":106.780334}]]}