{"data":[[{"i_lat":-6.14505,"transit":false,"is_transit":false,"station_id":"RJW","i_long":106.836569,"line":11,"station_name":"Rajawali","time":0,"distance":0},{"station_id":"KMO","station_name":"Kemayoran","transit":false,"is_transit":false,"i_lat":-6.161728,"i_long":106.839204,"line":11,"time":5,"distance":1901},{"time":4,"station_name":"Pasar Senen","i_long":106.84368,"transit":false,"line":11,"is_transit":false,"distance":1436,"station_id":"PSE","i_lat":-6.174784},{"time":8,"station_id":"GST","i_long":106.850107,"distance":1567,"station_name":"Gang Sentiong","is_transit":false,"i_lat":-6.185975,"line":11,"transit":false},{"is_transit":false,"station_name":"Kramat","i_long":106.855437,"line":11,"time":1,"i_lat":-6.193792,"distance":973,"station_id":"KMT","transit":false},{"time":2,"transit":false,"station_name":"Pondok Jati","is_transit":false,"i_lat":-6.209188,"station_id":"POK","distance":1829,"i_long":106.861737,"line":11},{"is_transit":true,"time":9,"i_long":106.86807400000001,"transit":true,"station_name":"Jatinegara","distance":1236,"line":1,"station_id":"JNG","i_lat":-6.215091},{"station_id":"MTR","is_transit":false,"time":2,"distance":1377,"i_lat":-6.212485,"i_long":106.858896,"line":1,"station_name":"Matraman","transit":false},{"time":2,"i_lat":-6.209883,"transit":false,"station_name":"Manggarai","i_long":106.84912,"is_transit":false,"station_id":"MRI","line":2,"distance":1275}],[{"i_long":106.836569,"distance":0,"transit":false,"station_id":"RJW","is_transit":false,"i_lat":-6.14505,"line":11,"time":0,"station_name":"Rajawali"},{"station_name":"Kampung Bandan","i_lat":-6.132549,"line":4,"i_long":106.826365,"station_id":"KPB","time":3,"distance":1444,"transit":true,"is_transit":true},{"line":1,"station_id":"AK","distance":4102,"i_long":106.79867,"is_transit":false,"time":9,"station_name":"Angke","i_lat":-6.144674,"transit":false},{"line":1,"station_name":"Duri","station_id":"DU","is_transit":false,"time":4,"i_lat":-6.155215,"distance":1230,"i_long":106.800832,"transit":false},{"time":8,"distance":3632,"station_id":"THB","i_lat":-6.185545,"station_name":"Tanah Abang","i_long":106.811091,"is_transit":false,"transit":false,"line":1},{"is_transit":false,"station_name":"Karet","time":5,"distance":2029,"station_id":"KAT","transit":false,"i_lat":-6.20132,"line":1,"i_long":106.816351},{"i_long":106.819881,"time":1,"station_name":"Sudirman Baru","distance":471,"line":1,"is_transit":false,"transit":false,"i_lat":-6.201433,"station_id":"SUDB"},{"i_long":106.822649,"transit":false,"station_name":"Sudirman","station_id":"SUD","is_transit":false,"distance":280,"i_lat":-6.202263,"time":1,"line":1},{"i_long":106.84912,"distance":3186,"station_name":"Manggarai","time":4,"station_id":"MRI","i_lat":-6.209883,"line":2,"transit":false,"is_transit":false}],[{"station_id":"RJW","is_transit":false,"i_lat":-6.14505,"station_name":"Rajawali","i_long":106.836569,"time":0,"distance":0,"transit":false,"line":11},{"line":4,"time":3,"transit":true,"station_id":"KPB","station_name":"Kampung Bandan","distance":1444,"is_transit":true,"i_lat":-6.132549,"i_long":106.826365},{"station_name":"Jakarta Kota","line":2,"is_transit":true,"time":3,"i_lat":-6.137569,"station_id":"JAKK","transit":true,"i_long":106.812439,"distance":1364},{"distance":1264,"i_lat":-6.141205,"i_long":106.820901,"line":2,"is_transit":false,"station_name":"Jayakarta","time":4,"station_id":"JAY","transit":false},{"i_long":106.82482,"transit":false,"station_name":"Manggabesar","is_transit":false,"i_lat":-6.149769,"time":2,"distance":1080,"station_id":"MGB","line":2},{"i_lat":-6.160725,"station_name":"Sawah Besar","distance":906,"time":2,"i_long":106.827103,"station_id":"SW","line":2,"transit":false,"is_transit":false},{"transit":false,"distance":1149,"is_transit":false,"station_name":"Juanda","time":2,"i_lat":-6.166716,"i_long":106.828284,"line":2,"station_id":"JUA"},{"station_name":"Gondangdia","distance":2015,"line":2,"is_transit":false,"transit":false,"i_lat":-6.186295,"i_long":106.832183,"station_id":"GDD","time":4},{"station_id":"CKI","transit":false,"station_name":"Cikini","is_transit":false,"line":2,"time":3,"distance":1750,"i_lat":-6.198556,"i_long":106.840169},{"i_lat":-6.209883,"time":4,"station_id":"MRI","distance":1590,"station_name":"Manggarai","is_transit":false,"i_long":106.84912,"transit":false,"line":2}]]}