{"data":[[{"is_transit":false,"time":0,"distance":0,"station_name":"Rajawali","i_lat":-6.14505,"i_long":106.836569,"line":11,"transit":false,"station_id":"RJW"},{"station_name":"Kampung Bandan","distance":1444,"station_id":"KPB","transit":true,"i_lat":-6.132549,"is_transit":true,"time":3,"i_long":106.826365,"line":4},{"i_long":106.79867,"line":1,"distance":4102,"transit":false,"station_id":"AK","is_transit":false,"i_lat":-6.144674,"station_name":"Angke","time":9},{"i_long":106.800832,"i_lat":-6.155215,"transit":false,"is_transit":false,"line":1,"distance":1230,"station_name":"Duri","station_id":"DU","time":4},{"line":1,"i_long":106.811091,"time":8,"transit":true,"station_name":"Tanah Abang","distance":3632,"station_id":"THB","is_transit":true,"i_lat":-6.185545},{"station_name":"Palmerah","i_lat":-6.207404,"time":6,"distance":3191,"transit":false,"station_id":"PLM","is_transit":false,"i_long":106.79689,"line":6},{"station_id":"KBY","station_name":"Kebayoran","i_lat":-6.237242,"line":6,"distance":3737,"transit":false,"time":7,"i_long":106.780334,"is_transit":false}],[{"line":11,"is_transit":false,"station_name":"Rajawali","i_long":106.836569,"time":0,"i_lat":-6.14505,"transit":false,"distance":0,"station_id":"RJW"},{"line":11,"is_transit":false,"i_lat":-6.161728,"station_name":"Kemayoran","station_id":"KMO","transit":false,"time":5,"distance":1901,"i_long":106.839204},{"time":4,"i_lat":-6.174784,"is_transit":false,"line":11,"distance":1436,"i_long":106.84368,"transit":false,"station_name":"Pasar Senen","station_id":"PSE"},{"i_lat":-6.185975,"station_id":"GST","time":8,"transit":false,"station_name":"Gang Sentiong","i_long":106.850107,"is_transit":false,"distance":1567,"line":11},{"distance":973,"i_lat":-6.193792,"line":11,"is_transit":false,"i_long":106.855437,"transit":false,"station_name":"Kramat","time":1,"station_id":"KMT"},{"is_transit":false,"distance":1829,"i_lat":-6.209188,"transit":false,"station_name":"Pondok Jati","time":2,"i_long":106.861737,"line":11,"station_id":"POK"},{"i_long":106.86807400000001,"i_lat":-6.215091,"transit":true,"line":1,"station_name":"Jatinegara","distance":1236,"is_transit":true,"station_id":"JNG","time":9},{"line":1,"station_name":"Matraman","transit":false,"i_lat":-6.212485,"is_transit":false,"time":2,"distance":1377,"station_id":"MTR","i_long":106.858896},{"i_long":106.84912,"station_name":"Manggarai","time":2,"is_transit":false,"transit":false,"i_lat":-6.209883,"line":2,"station_id":"MRI","distance":1275},{"is_transit":false,"line":1,"transit":false,"station_id":"SUD","station_name":"Sudirman","i_long":106.822649,"distance":3186,"time":4,"i_lat":-6.202263},{"i_lat":-6.201433,"station_name":"Sudirman Baru","is_transit":false,"transit":false,"station_id":"SUDB","distance":280,"time":1,"i_long":106.819881,"line":1},{"i_long":106.816351,"time":1,"transit":false,"distance":471,"station_id":"KAT","is_transit":false,"i_lat":-6.20132,"line":1,"station_name":"Karet"},{"line":1,"station_id":"THB","distance":2029,"station_name":"Tanah Abang","i_long":106.811091,"i_lat":-6.185545,"time":5,"transit":true,"is_transit":true},{"station_name":"Palmerah","is_transit":false,"time":6,"distance":3191,"i_lat":-6.207404,"i_long":106.79689,"line":6,"station_id":"PLM","transit":false},{"station_id":"KBY","distance":3737,"is_transit":false,"station_name":"Kebayoran","transit":false,"time":7,"i_lat":-6.237242,"i_long":106.780334,"line":6}],[{"line":11,"station_id":"RJW","time":0,"distance":0,"i_lat":-6.14505,"transit":false,"station_name":"Rajawali","is_transit":false,"i_long":106.836569},{"i_long":106.826365,"station_id":"KPB","is_transit":true,"distance":1444,"i_lat":-6.132549,"transit":true,"time":3,"line":4,"station_name":"Kampung Bandan"},{"i_lat":-6.137569,"station_name":"Jakarta Kota","i_long":106.812439,"transit":true,"time":3,"line":2,"station_id":"JAKK","distance":1364,"is_transit":true},{"line":2,"transit":false,"i_long":106.820901,"station_id":"JAY","distance":1264,"time":4,"station_name":"Jayakarta","is_transit":false,"i_lat":-6.141205},{"i_long":106.82482,"station_id":"MGB","is_transit":false,"i_lat":-6.149769,"line":2,"transit":false,"time":2,"station_name":"Manggabesar","distance":1080},{"i_long":106.827103,"transit":false,"i_lat":-6.160725,"line":2,"time":2,"station_id":"SW","station_name":"Sawah Besar","is_transit":false,"distance":906},{"time":2,"i_long":106.828284,"line":2,"distance":1149,"station_name":"Juanda","is_transit":false,"transit":false,"i_lat":-6.166716,"station_id":"JUA"},{"distance":2015,"is_transit":false,"i_lat":-6.186295,"station_name":"Gondangdia","i_long":106.832183,"line":2,"time":4,"station_id":"GDD","transit":false},{"distance":1750,"transit":false,"station_name":"Cikini","is_transit":false,"i_lat":-6.198556,"line":2,"i_long":106.840169,"station_id":"CKI","time":3},{"distance":1590,"i_lat":-6.209883,"station_id":"MRI","i_long":106.84912,"line":2,"transit":true,"station_name":"Manggarai","is_transit":true,"time":4},{"i_lat":-6.202263,"is_transit":false,"time":4,"transit":false,"line":1,"i_long":106.822649,"distance":3186,"station_name":"Sudirman","station_id":"SUD"},{"is_transit":false,"distance":280,"line":1,"station_id":"SUDB","i_lat":-6.201433,"i_long":106.819881,"time":1,"transit":false,"station_name":"Sudirman Baru"},{"is_transit":false,"line":1,"i_lat":-6.20132,"transit":false,"distance":471,"station_name":"Karet","i_long":106.816351,"time":1,"station_id":"KAT"},{"i_lat":-6.185545,"station_name":"Tanah Abang","i_long":106.811091,"line":1,"transit":true,"station_id":"THB","is_transit":true,"distance":2029,"time":5},{"i_lat":-6.207404,"line":6,"station_id":"PLM","is_transit":false,"i_long":106.79689,"station_name":"Palmerah","time":6,"transit":false,"distance":3191},{"station_name":"Kebayoran","is_transit":false,"time":7,"line":6,"distance":3737,"i_lat":-6.237242,"station_id":"KBY","transit":false,"i_long":106.780334}],[{"station_id":"RJW","i_long":106.836569,"i_lat":-6.14505,"distance":0,"line":11,"station_name":"Rajawali","is_transit":false,"transit":false,"time":0},{"line":11,"is_transit":false,"station_name":"Kemayoran","time":5,"distance":1901,"transit":false,"i_lat":-6.161728,"i_long":106.839204,"station_id":"KMO"},{"time":4,"station_name":"Pasar Senen","is_transit":false,"line":11,"station_id":"PSE","transit":false,"distance":1436,"i_lat":-6.174784,"i_long":106.84368},{"station_id":"GST","transit":false,"station_name":"Gang Sentiong","i_lat":-6.185975,"is_transit":false,"line":11,"distance":1567,"i_long":106.850107,"time":8},{"distance":973,"is_transit":false,"station_id":"KMT","i_lat":-6.193792,"i_long":106.855437,"line":11,"station_name":"Kramat","time":1,"transit":false},{"time":2,"station_name":"Pondok Jati","station_id":"POK","distance":1829,"i_lat":-6.209188,"i_long":106.861737,"line":11,"transit":false,"is_transit":false},{"time":9,"distance":1236,"station_id":"JNG","i_lat":-6.215091,"transit":true,"station_name":"Jatinegara","line":1,"is_transit":true,"i_long":106.86807400000001},{"station_id":"MTR","is_transit":false,"line":1,"time":2,"distance":1377,"i_lat":-6.212485,"station_name":"Matraman","transit":false,"i_long":106.858896},{"station_id":"MRI","i_lat":-6.209883,"is_transit":true,"station_name":"Manggarai","time":2,"distance":1275,"i_long":106.84912,"line":2,"transit":true},{"transit":false,"is_transit":false,"line":2,"i_lat":-6.198556,"time":4,"station_id":"CKI","distance":1590,"station_name":"Cikini","i_long":106.840169},{"transit":false,"is_transit":false,"station_name":"Gondangdia","station_id":"GDD","time":3,"i_lat":-6.186295,"i_long":106.832183,"line":2,"distance":1750},{"i_lat":-6.166716,"line":2,"time":4,"i_long":106.828284,"transit":false,"station_id":"JUA","station_name":"Juanda","distance":2015,"is_transit":false},{"station_id":"SW","time":2,"station_name":"Sawah Besar","is_transit":false,"i_long":106.827103,"line":2,"distance":1149,"i_lat":-6.160725,"transit":false},{"distance":906,"station_id":"MGB","line":2,"i_long":106.82482,"station_name":"Manggabesar","time":2,"transit":false,"i_lat":-6.149769,"is_transit":false},{"station_name":"Jayakarta","time":2,"distance":1080,"i_long":106.820901,"station_id":"JAY","i_lat":-6.141205,"line":2,"transit":false,"is_transit":false},{"is_transit":true,"distance":1264,"i_lat":-6.137569,"station_name":"Jakarta Kota","station_id":"JAKK","transit":true,"i_long":106.812439,"time":4,"line":2},{"time":3,"station_name":"Kampung Bandan","transit":true,"i_long":106.826365,"distance":1364,"station_id":"KPB","is_transit":true,"i_lat":-6.132549,"line":4},{"time":9,"i_lat":-6.144674,"station_name":"Angke","i_long":106.79867,"line":1,"transit":false,"is_transit":false,"station_id":"AK","distance":4102},{"is_transit":false,"i_lat":-6.155215,"line":1,"station_name":"Duri","time":4,"transit":false,"station_id":"DU","distance":1230,"i_long":106.800832},{"i_lat":-6.185545,"time":8,"is_transit":true,"transit":true,"i_long":106.811091,"station_id":"THB","distance":3632,"station_name":"Tanah Abang","line":1},{"i_lat":-6.207404,"distance":3191,"station_name":"Palmerah","time":6,"is_transit":false,"transit":false,"i_long":106.79689,"line":6,"station_id":"PLM"},{"line":6,"distance":3737,"time":7,"station_id":"KBY","i_lat":-6.237242,"i_long":106.780334,"station_name":"Kebayoran","is_transit":false,"transit":false}]]}