{"data":[[{"line":11,"station_id":"RJW","i_lat":-6.14505,"time":0,"distance":0,"i_long":106.836569,"transit":false,"is_transit":false,"station_name":"Rajawali"},{"line":4,"station_name":"Kampung Bandan","i_lat":-6.132549,"i_long":106.826365,"is_transit":true,"time":3,"transit":true,"distance":1444,"station_id":"KPB"},{"distance":4102,"station_name":"Angke","i_lat":-6.144674,"transit":false,"station_id":"AK","time":9,"is_transit":false,"line":1,"i_long":106.79867},{"station_id":"DU","is_transit":false,"time":4,"distance":1230,"station_name":"Duri","i_lat":-6.155215,"i_long":106.800832,"line":1,"transit":false},{"time":8,"line":1,"is_transit":true,"station_id":"THB","i_long":106.811091,"i_lat":-6.185545,"distance":3632,"station_name":"Tanah Abang","transit":true},{"distance":3191,"station_name":"Palmerah","station_id":"PLM","line":6,"is_transit":false,"transit":false,"time":6,"i_long":106.79689,"i_lat":-6.207404}],[{"time":0,"distance":0,"i_lat":-6.14505,"i_long":106.836569,"station_name":"Rajawali","is_transit":false,"transit":false,"station_id":"RJW","line":11},{"is_transit":false,"i_lat":-6.161728,"line":11,"station_id":"KMO","i_long":106.839204,"time":5,"transit":false,"station_name":"Kemayoran","distance":1901},{"station_name":"Pasar Senen","i_long":106.84368,"time":4,"is_transit":false,"transit":false,"i_lat":-6.174784,"station_id":"PSE","line":11,"distance":1436},{"station_id":"GST","distance":1567,"i_lat":-6.185975,"transit":false,"line":11,"time":8,"station_name":"Gang Sentiong","is_transit":false,"i_long":106.850107},{"station_id":"KMT","distance":973,"station_name":"Kramat","transit":false,"i_lat":-6.193792,"i_long":106.855437,"is_transit":false,"time":1,"line":11},{"transit":false,"line":11,"station_name":"Pondok Jati","is_transit":false,"i_lat":-6.209188,"time":2,"i_long":106.861737,"station_id":"POK","distance":1829},{"distance":1236,"station_name":"Jatinegara","i_lat":-6.215091,"transit":true,"line":1,"time":9,"station_id":"JNG","is_transit":true,"i_long":106.86807400000001},{"station_id":"MTR","distance":1377,"is_transit":false,"i_lat":-6.212485,"transit":false,"i_long":106.858896,"line":1,"station_name":"Matraman","time":2},{"transit":false,"time":2,"i_long":106.84912,"station_name":"Manggarai","is_transit":false,"i_lat":-6.209883,"line":2,"station_id":"MRI","distance":1275},{"station_id":"SUD","line":1,"i_long":106.822649,"station_name":"Sudirman","is_transit":false,"time":4,"distance":3186,"transit":false,"i_lat":-6.202263},{"i_lat":-6.201433,"distance":280,"line":1,"station_id":"SUDB","time":1,"i_long":106.819881,"is_transit":false,"transit":false,"station_name":"Sudirman Baru"},{"i_lat":-6.20132,"station_id":"KAT","time":1,"transit":false,"i_long":106.816351,"is_transit":false,"distance":471,"line":1,"station_name":"Karet"},{"distance":2029,"time":5,"station_name":"Tanah Abang","i_long":106.811091,"is_transit":true,"i_lat":-6.185545,"station_id":"THB","transit":true,"line":1},{"i_long":106.79689,"i_lat":-6.207404,"station_name":"Palmerah","distance":3191,"is_transit":false,"transit":false,"station_id":"PLM","line":6,"time":6}],[{"time":0,"station_id":"RJW","station_name":"Rajawali","transit":false,"distance":0,"i_lat":-6.14505,"i_long":106.836569,"line":11,"is_transit":false},{"time":3,"transit":true,"i_long":106.826365,"i_lat":-6.132549,"line":4,"is_transit":true,"station_id":"KPB","distance":1444,"station_name":"Kampung Bandan"},{"station_name":"Jakarta Kota","transit":true,"line":2,"i_long":106.812439,"station_id":"JAKK","is_transit":true,"i_lat":-6.137569,"distance":1364,"time":3},{"i_long":106.820901,"i_lat":-6.141205,"station_id":"JAY","line":2,"distance":1264,"station_name":"Jayakarta","time":4,"is_transit":false,"transit":false},{"i_lat":-6.149769,"station_id":"MGB","i_long":106.82482,"distance":1080,"is_transit":false,"time":2,"station_name":"Manggabesar","line":2,"transit":false},{"is_transit":false,"distance":906,"i_lat":-6.160725,"transit":false,"station_name":"Sawah Besar","line":2,"station_id":"SW","i_long":106.827103,"time":2},{"distance":1149,"line":2,"transit":false,"is_transit":false,"i_lat":-6.166716,"station_id":"JUA","station_name":"Juanda","time":2,"i_long":106.828284},{"station_name":"Gondangdia","i_lat":-6.186295,"station_id":"GDD","i_long":106.832183,"time":4,"transit":false,"is_transit":false,"line":2,"distance":2015},{"line":2,"time":3,"i_long":106.840169,"station_name":"Cikini","station_id":"CKI","transit":false,"distance":1750,"i_lat":-6.198556,"is_transit":false},{"distance":1590,"line":2,"transit":true,"is_transit":true,"station_name":"Manggarai","station_id":"MRI","i_long":106.84912,"time":4,"i_lat":-6.209883},{"transit":false,"time":4,"is_transit":false,"station_name":"Sudirman","i_long":106.822649,"distance":3186,"line":1,"station_id":"SUD","i_lat":-6.202263},{"station_id":"SUDB","station_name":"Sudirman Baru","is_transit":false,"transit":false,"i_long":106.819881,"line":1,"distance":280,"i_lat":-6.201433,"time":1},{"time":1,"is_transit":false,"i_long":106.816351,"distance":471,"station_id":"KAT","i_lat":-6.20132,"transit":false,"line":1,"station_name":"Karet"},{"distance":2029,"station_name":"Tanah Abang","i_lat":-6.185545,"line":1,"i_long":106.811091,"time":5,"station_id":"THB","is_transit":true,"transit":true},{"line":6,"station_name":"Palmerah","is_transit":false,"transit":false,"time":6,"distance":3191,"station_id":"PLM","i_lat":-6.207404,"i_long":106.79689}],[{"is_transit":false,"station_id":"RJW","line":11,"distance":0,"i_long":106.836569,"station_name":"Rajawali","transit":false,"i_lat":-6.14505,"time":0},{"station_id":"KMO","distance":1901,"i_long":106.839204,"time":5,"station_name":"Kemayoran","line":11,"is_transit":false,"i_lat":-6.161728,"transit":false},{"distance":1436,"time":4,"station_id":"PSE","transit":false,"station_name":"Pasar Senen","i_long":106.84368,"line":11,"is_transit":false,"i_lat":-6.174784},{"station_id":"GST","station_name":"Gang Sentiong","line":11,"i_long":106.850107,"distance":1567,"is_transit":false,"transit":false,"i_lat":-6.185975,"time":8},{"distance":973,"i_long":106.855437,"station_id":"KMT","transit":false,"time":1,"station_name":"Kramat","is_transit":false,"i_lat":-6.193792,"line":11},{"line":11,"station_id":"POK","distance":1829,"is_transit":false,"transit":false,"i_lat":-6.209188,"station_name":"Pondok Jati","i_long":106.861737,"time":2},{"distance":1236,"i_long":106.86807400000001,"time":9,"transit":true,"line":1,"station_name":"Jatinegara","i_lat":-6.215091,"station_id":"JNG","is_transit":true},{"time":2,"station_name":"Matraman","transit":false,"is_transit":false,"i_lat":-6.212485,"line":1,"i_long":106.858896,"distance":1377,"station_id":"MTR"},{"line":2,"distance":1275,"is_transit":true,"i_long":106.84912,"transit":true,"time":2,"station_id":"MRI","station_name":"Manggarai","i_lat":-6.209883},{"transit":false,"station_name":"Cikini","station_id":"CKI","time":4,"line":2,"distance":1590,"is_transit":false,"i_lat":-6.198556,"i_long":106.840169},{"is_transit":false,"station_name":"Gondangdia","i_lat":-6.186295,"i_long":106.832183,"station_id":"GDD","line":2,"distance":1750,"time":3,"transit":false},{"line":2,"station_id":"JUA","i_lat":-6.166716,"transit":false,"station_name":"Juanda","distance":2015,"is_transit":false,"time":4,"i_long":106.828284},{"is_transit":false,"i_long":106.827103,"i_lat":-6.160725,"transit":false,"line":2,"distance":1149,"station_id":"SW","station_name":"Sawah Besar","time":2},{"i_long":106.82482,"transit":false,"distance":906,"is_transit":false,"station_name":"Manggabesar","station_id":"MGB","i_lat":-6.149769,"time":2,"line":2},{"time":2,"station_name":"Jayakarta","transit":false,"i_lat":-6.141205,"distance":1080,"is_transit":false,"line":2,"i_long":106.820901,"station_id":"JAY"},{"station_name":"Jakarta Kota","line":2,"time":4,"i_lat":-6.137569,"transit":true,"i_long":106.812439,"is_transit":true,"distance":1264,"station_id":"JAKK"},{"i_lat":-6.132549,"line":4,"transit":true,"time":3,"station_id":"KPB","is_transit":true,"station_name":"Kampung Bandan","i_long":106.826365,"distance":1364},{"time":9,"transit":false,"i_lat":-6.144674,"is_transit":false,"station_name":"Angke","i_long":106.79867,"line":1,"station_id":"AK","distance":4102},{"station_name":"Duri","line":1,"distance":1230,"transit":false,"i_lat":-6.155215,"is_transit":false,"station_id":"DU","time":4,"i_long":106.800832},{"i_long":106.811091,"distance":3632,"time":8,"transit":true,"is_transit":true,"station_name":"Tanah Abang","i_lat":-6.185545,"line":1,"station_id":"THB"},{"time":6,"i_lat":-6.207404,"line":6,"distance":3191,"station_name":"Palmerah","is_transit":false,"i_long":106.79689,"station_id":"PLM","transit":false}]]}