{"data":[[{"line":11,"station_id":"RJW","is_transit":false,"distance":0,"i_lat":-6.14505,"i_long":106.836569,"station_name":"Rajawali","transit":false,"time":0},{"station_id":"KPB","i_lat":-6.132549,"line":4,"station_name":"Kampung Bandan","time":3,"distance":1444,"transit":true,"is_transit":true,"i_long":106.826365},{"is_transit":false,"transit":false,"line":1,"station_id":"AK","time":9,"distance":4102,"i_long":106.79867,"station_name":"Angke","i_lat":-6.144674},{"i_long":106.800832,"line":1,"i_lat":-6.155215,"station_id":"DU","time":4,"station_name":"Duri","is_transit":false,"transit":false,"distance":1230},{"transit":true,"time":8,"distance":3632,"station_id":"THB","is_transit":true,"line":1,"i_long":106.811091,"i_lat":-6.185545,"station_name":"Tanah Abang"},{"line":6,"station_name":"Palmerah","distance":3191,"i_long":106.79689,"is_transit":false,"station_id":"PLM","time":6,"transit":false,"i_lat":-6.207404},{"i_long":106.780334,"distance":3737,"i_lat":-6.237242,"time":7,"line":6,"transit":false,"station_name":"Kebayoran","station_id":"KBY","is_transit":false},{"i_long":106.74273,"line":6,"i_lat":-6.276362,"distance":6218,"time":8,"is_transit":false,"transit":false,"station_id":"PDJ","station_name":"Pondokranji"},{"transit":false,"station_id":"JMU","line":6,"station_name":"Jurangmangu","i_lat":-6.288927,"distance":2179,"is_transit":false,"time":3,"i_long":106.728916},{"transit":false,"station_id":"SDM","line":6,"time":4,"is_transit":false,"i_long":106.712277,"distance":1994,"station_name":"Sudimara","i_lat":-6.296963},{"transit":false,"is_transit":false,"station_name":"Rawa Buntu","time":6,"station_id":"RU","distance":4566,"i_lat":-6.314823,"i_long":106.675475,"line":6},{"station_name":"Serpong","distance":2413,"station_id":"SRP","line":6,"time":4,"i_lat":-6.319871,"is_transit":false,"transit":false,"i_long":106.66566},{"i_long":106.640411,"station_id":"CSK","is_transit":false,"line":3,"i_lat":-6.32484,"station_name":"Cisauk","transit":false,"time":4,"distance":1784},{"transit":false,"station_id":"CC","time":4,"distance":2519,"i_long":106.617853,"is_transit":false,"line":3,"i_lat":-6.329547,"station_name":"Cicayur"},{"station_id":"PRP","time":8,"i_lat":-6.3441410000000005,"transit":false,"station_name":"Parung Panjang","is_transit":false,"distance":5968,"line":6,"i_long":106.568863}],[{"transit":false,"time":0,"is_transit":false,"station_id":"RJW","station_name":"Rajawali","distance":0,"i_lat":-6.14505,"i_long":106.836569,"line":11},{"distance":1901,"time":5,"line":11,"station_id":"KMO","transit":false,"station_name":"Kemayoran","is_transit":false,"i_long":106.839204,"i_lat":-6.161728},{"station_name":"Pasar Senen","line":11,"station_id":"PSE","i_long":106.84368,"is_transit":false,"time":4,"distance":1436,"transit":false,"i_lat":-6.174784},{"time":8,"station_id":"GST","station_name":"Gang Sentiong","is_transit":false,"distance":1567,"line":11,"i_lat":-6.185975,"transit":false,"i_long":106.850107},{"distance":973,"time":1,"station_id":"KMT","is_transit":false,"i_long":106.855437,"transit":false,"station_name":"Kramat","i_lat":-6.193792,"line":11},{"distance":1829,"station_id":"POK","time":2,"i_lat":-6.209188,"i_long":106.861737,"transit":false,"station_name":"Pondok Jati","is_transit":false,"line":11},{"transit":true,"i_lat":-6.215091,"distance":1236,"time":9,"station_id":"JNG","i_long":106.86807400000001,"line":1,"station_name":"Jatinegara","is_transit":true},{"transit":false,"time":2,"station_id":"MTR","i_lat":-6.212485,"is_transit":false,"distance":1377,"station_name":"Matraman","i_long":106.858896,"line":1},{"i_lat":-6.209883,"transit":false,"station_id":"MRI","station_name":"Manggarai","line":2,"i_long":106.84912,"distance":1275,"time":2,"is_transit":false},{"transit":false,"i_lat":-6.202263,"is_transit":false,"station_name":"Sudirman","i_long":106.822649,"line":1,"distance":3186,"station_id":"SUD","time":4},{"i_long":106.819881,"is_transit":false,"station_name":"Sudirman Baru","station_id":"SUDB","time":1,"transit":false,"distance":280,"line":1,"i_lat":-6.201433},{"time":1,"station_id":"KAT","i_long":106.816351,"distance":471,"station_name":"Karet","i_lat":-6.20132,"is_transit":false,"line":1,"transit":false},{"transit":true,"station_id":"THB","line":1,"is_transit":true,"station_name":"Tanah Abang","i_lat":-6.185545,"i_long":106.811091,"time":5,"distance":2029},{"distance":3191,"is_transit":false,"i_long":106.79689,"transit":false,"i_lat":-6.207404,"line":6,"station_name":"Palmerah","time":6,"station_id":"PLM"},{"is_transit":false,"i_lat":-6.237242,"i_long":106.780334,"line":6,"station_id":"KBY","station_name":"Kebayoran","time":7,"transit":false,"distance":3737},{"line":6,"is_transit":false,"station_name":"Pondokranji","distance":6218,"i_long":106.74273,"transit":false,"station_id":"PDJ","i_lat":-6.276362,"time":8},{"transit":false,"time":3,"i_lat":-6.288927,"station_id":"JMU","i_long":106.728916,"station_name":"Jurangmangu","line":6,"distance":2179,"is_transit":false},{"is_transit":false,"i_lat":-6.296963,"i_long":106.712277,"distance":1994,"station_name":"Sudimara","time":4,"transit":false,"station_id":"SDM","line":6},{"transit":false,"time":6,"station_name":"Rawa Buntu","line":6,"i_lat":-6.314823,"station_id":"RU","distance":4566,"is_transit":false,"i_long":106.675475},{"i_lat":-6.319871,"i_long":106.66566,"station_name":"Serpong","line":6,"station_id":"SRP","transit":false,"is_transit":false,"time":4,"distance":2413},{"transit":false,"is_transit":false,"line":3,"time":4,"i_lat":-6.32484,"station_name":"Cisauk","station_id":"CSK","distance":1784,"i_long":106.640411},{"station_id":"CC","i_long":106.617853,"station_name":"Cicayur","transit":false,"is_transit":false,"distance":2519,"i_lat":-6.329547,"line":3,"time":4},{"line":6,"i_lat":-6.3441410000000005,"station_id":"PRP","station_name":"Parung Panjang","is_transit":false,"time":8,"distance":5968,"transit":false,"i_long":106.568863}],[{"line":11,"station_id":"RJW","i_lat":-6.14505,"transit":false,"i_long":106.836569,"distance":0,"time":0,"station_name":"Rajawali","is_transit":false},{"i_lat":-6.132549,"transit":true,"station_name":"Kampung Bandan","distance":1444,"i_long":106.826365,"station_id":"KPB","is_transit":true,"time":3,"line":4},{"station_name":"Jakarta Kota","is_transit":true,"distance":1364,"i_long":106.812439,"transit":true,"i_lat":-6.137569,"line":2,"station_id":"JAKK","time":3},{"transit":false,"station_name":"Jayakarta","time":4,"distance":1264,"line":2,"is_transit":false,"i_lat":-6.141205,"i_long":106.820901,"station_id":"JAY"},{"time":2,"distance":1080,"transit":false,"station_name":"Manggabesar","is_transit":false,"i_long":106.82482,"line":2,"i_lat":-6.149769,"station_id":"MGB"},{"i_lat":-6.160725,"station_name":"Sawah Besar","i_long":106.827103,"is_transit":false,"transit":false,"station_id":"SW","distance":906,"time":2,"line":2},{"is_transit":false,"i_long":106.828284,"line":2,"transit":false,"distance":1149,"station_id":"JUA","station_name":"Juanda","i_lat":-6.166716,"time":2},{"transit":false,"line":2,"station_name":"Gondangdia","i_lat":-6.186295,"distance":2015,"i_long":106.832183,"station_id":"GDD","is_transit":false,"time":4},{"station_name":"Cikini","transit":false,"line":2,"is_transit":false,"i_long":106.840169,"station_id":"CKI","time":3,"i_lat":-6.198556,"distance":1750},{"station_id":"MRI","transit":true,"time":4,"station_name":"Manggarai","is_transit":true,"i_lat":-6.209883,"line":2,"distance":1590,"i_long":106.84912},{"i_lat":-6.202263,"i_long":106.822649,"line":1,"station_name":"Sudirman","time":4,"distance":3186,"transit":false,"station_id":"SUD","is_transit":false},{"station_id":"SUDB","time":1,"distance":280,"line":1,"transit":false,"i_lat":-6.201433,"i_long":106.819881,"is_transit":false,"station_name":"Sudirman Baru"},{"station_id":"KAT","i_long":106.816351,"is_transit":false,"transit":false,"time":1,"distance":471,"line":1,"i_lat":-6.20132,"station_name":"Karet"},{"station_id":"THB","i_lat":-6.185545,"is_transit":true,"i_long":106.811091,"station_name":"Tanah Abang","line":1,"distance":2029,"time":5,"transit":true},{"station_name":"Palmerah","is_transit":false,"station_id":"PLM","transit":false,"line":6,"i_long":106.79689,"i_lat":-6.207404,"time":6,"distance":3191},{"is_transit":false,"station_name":"Kebayoran","time":7,"i_lat":-6.237242,"distance":3737,"line":6,"transit":false,"station_id":"KBY","i_long":106.780334},{"time":8,"distance":6218,"line":6,"station_name":"Pondokranji","station_id":"PDJ","i_lat":-6.276362,"is_transit":false,"i_long":106.74273,"transit":false},{"station_id":"JMU","distance":2179,"line":6,"transit":false,"time":3,"i_lat":-6.288927,"station_name":"Jurangmangu","i_long":106.728916,"is_transit":false},{"time":4,"i_long":106.712277,"is_transit":false,"line":6,"i_lat":-6.296963,"transit":false,"station_name":"Sudimara","distance":1994,"station_id":"SDM"},{"station_id":"RU","time":6,"i_lat":-6.314823,"line":6,"station_name":"Rawa Buntu","is_transit":false,"i_long":106.675475,"distance":4566,"transit":false},{"transit":false,"i_lat":-6.319871,"station_id":"SRP","is_transit":false,"station_name":"Serpong","line":6,"time":4,"i_long":106.66566,"distance":2413},{"station_id":"CSK","i_lat":-6.32484,"transit":false,"is_transit":false,"distance":1784,"station_name":"Cisauk","line":3,"time":4,"i_long":106.640411},{"station_name":"Cicayur","transit":false,"station_id":"CC","time":4,"line":3,"is_transit":false,"i_lat":-6.329547,"i_long":106.617853,"distance":2519},{"is_transit":false,"time":8,"distance":5968,"i_lat":-6.3441410000000005,"line":6,"transit":false,"i_long":106.568863,"station_name":"Parung Panjang","station_id":"PRP"}],[{"time":0,"i_long":106.836569,"i_lat":-6.14505,"transit":false,"distance":0,"is_transit":false,"station_name":"Rajawali","station_id":"RJW","line":11},{"distance":1901,"time":5,"i_lat":-6.161728,"i_long":106.839204,"transit":false,"station_id":"KMO","is_transit":false,"line":11,"station_name":"Kemayoran"},{"i_long":106.84368,"time":4,"station_id":"PSE","line":11,"i_lat":-6.174784,"transit":false,"station_name":"Pasar Senen","is_transit":false,"distance":1436},{"transit":false,"station_name":"Gang Sentiong","is_transit":false,"distance":1567,"i_lat":-6.185975,"line":11,"time":8,"station_id":"GST","i_long":106.850107},{"time":1,"transit":false,"distance":973,"i_lat":-6.193792,"line":11,"station_id":"KMT","is_transit":false,"i_long":106.855437,"station_name":"Kramat"},{"transit":false,"is_transit":false,"time":2,"distance":1829,"i_lat":-6.209188,"i_long":106.861737,"line":11,"station_name":"Pondok Jati","station_id":"POK"},{"station_name":"Jatinegara","station_id":"JNG","time":9,"is_transit":true,"i_lat":-6.215091,"line":1,"transit":true,"distance":1236,"i_long":106.86807400000001},{"distance":1377,"station_name":"Matraman","i_lat":-6.212485,"station_id":"MTR","transit":false,"i_long":106.858896,"time":2,"line":1,"is_transit":false},{"i_lat":-6.209883,"time":2,"is_transit":true,"distance":1275,"line":2,"transit":true,"station_id":"MRI","station_name":"Manggarai","i_long":106.84912},{"transit":false,"station_id":"CKI","line":2,"station_name":"Cikini","i_long":106.840169,"time":4,"distance":1590,"is_transit":false,"i_lat":-6.198556},{"is_transit":false,"station_name":"Gondangdia","transit":false,"station_id":"GDD","time":3,"i_lat":-6.186295,"i_long":106.832183,"distance":1750,"line":2},{"station_name":"Juanda","line":2,"transit":false,"distance":2015,"time":4,"is_transit":false,"i_lat":-6.166716,"i_long":106.828284,"station_id":"JUA"},{"distance":1149,"is_transit":false,"time":2,"station_id":"SW","station_name":"Sawah Besar","i_long":106.827103,"line":2,"transit":false,"i_lat":-6.160725},{"station_id":"MGB","i_long":106.82482,"is_transit":false,"i_lat":-6.149769,"distance":906,"transit":false,"station_name":"Manggabesar","line":2,"time":2},{"time":2,"station_name":"Jayakarta","transit":false,"i_long":106.820901,"line":2,"is_transit":false,"station_id":"JAY","distance":1080,"i_lat":-6.141205},{"i_long":106.812439,"transit":true,"distance":1264,"station_id":"JAKK","line":2,"station_name":"Jakarta Kota","time":4,"i_lat":-6.137569,"is_transit":true},{"i_long":106.826365,"time":3,"station_id":"KPB","transit":true,"is_transit":true,"line":4,"i_lat":-6.132549,"station_name":"Kampung Bandan","distance":1364},{"station_name":"Angke","i_long":106.79867,"is_transit":false,"distance":4102,"i_lat":-6.144674,"transit":false,"station_id":"AK","line":1,"time":9},{"is_transit":false,"station_name":"Duri","time":4,"transit":false,"i_lat":-6.155215,"i_long":106.800832,"station_id":"DU","line":1,"distance":1230},{"distance":3632,"transit":true,"station_name":"Tanah Abang","time":8,"station_id":"THB","i_lat":-6.185545,"i_long":106.811091,"line":1,"is_transit":true},{"station_id":"PLM","line":6,"station_name":"Palmerah","is_transit":false,"distance":3191,"i_long":106.79689,"transit":false,"time":6,"i_lat":-6.207404},{"time":7,"is_transit":false,"station_name":"Kebayoran","transit":false,"i_long":106.780334,"station_id":"KBY","distance":3737,"i_lat":-6.237242,"line":6},{"line":6,"station_name":"Pondokranji","is_transit":false,"station_id":"PDJ","distance":6218,"time":8,"transit":false,"i_lat":-6.276362,"i_long":106.74273},{"distance":2179,"i_long":106.728916,"line":6,"time":3,"transit":false,"i_lat":-6.288927,"station_name":"Jurangmangu","station_id":"JMU","is_transit":false},{"time":4,"station_id":"SDM","station_name":"Sudimara","is_transit":false,"line":6,"transit":false,"distance":1994,"i_long":106.712277,"i_lat":-6.296963},{"station_id":"RU","distance":4566,"transit":false,"i_long":106.675475,"time":6,"station_name":"Rawa Buntu","i_lat":-6.314823,"line":6,"is_transit":false},{"time":4,"transit":false,"station_name":"Serpong","is_transit":false,"i_long":106.66566,"station_id":"SRP","distance":2413,"line":6,"i_lat":-6.319871},{"station_id":"CSK","i_long":106.640411,"distance":1784,"is_transit":false,"line":3,"time":4,"station_name":"Cisauk","transit":false,"i_lat":-6.32484},{"station_name":"Cicayur","station_id":"CC","is_transit":false,"i_lat":-6.329547,"distance":2519,"line":3,"transit":false,"i_long":106.617853,"time":4},{"station_id":"PRP","distance":5968,"is_transit":false,"i_long":106.568863,"transit":false,"station_name":"Parung Panjang","time":8,"i_lat":-6.3441410000000005,"line":6}]]}