{"data":[[{"line":11,"i_lat":-6.14505,"i_long":106.836569,"time":0,"station_id":"RJW","distance":0,"is_transit":false,"station_name":"Rajawali","transit":false},{"station_id":"KPB","i_long":106.826365,"line":4,"distance":1444,"station_name":"Kampung Bandan","is_transit":true,"i_lat":-6.132549,"time":3,"transit":true},{"line":1,"station_id":"AK","i_lat":-6.144674,"station_name":"Angke","distance":4102,"time":9,"transit":false,"is_transit":false,"i_long":106.79867},{"line":1,"distance":1230,"station_name":"Duri","is_transit":true,"i_long":106.800832,"i_lat":-6.155215,"station_id":"DU","transit":true,"time":4},{"line":5,"i_long":106.788277,"station_name":"Grogol","station_id":"GRG","time":3,"distance":1700,"transit":false,"i_lat":-6.162021,"is_transit":false},{"distance":2036,"transit":false,"i_lat":-6.161433,"is_transit":false,"station_name":"Pesing","i_long":106.771379,"station_id":"PSG","line":5,"time":2},{"distance":1614,"time":2,"station_name":"Taman Kota","line":5,"transit":false,"is_transit":false,"i_long":106.756522,"station_id":"TKO","i_lat":-6.1587309999999995},{"i_long":106.737035,"is_transit":false,"station_name":"Bojongindah","i_lat":-6.159876,"station_id":"BOI","time":2,"transit":false,"distance":2334,"line":5},{"station_id":"RW","distance":1152,"time":4,"is_transit":false,"i_long":106.723064,"i_lat":-6.162758,"transit":false,"station_name":"Rawa Buaya","line":5}],[{"i_long":106.836569,"time":0,"is_transit":false,"line":11,"station_name":"Rajawali","transit":false,"station_id":"RJW","distance":0,"i_lat":-6.14505},{"line":11,"station_id":"KMO","transit":false,"distance":1901,"is_transit":false,"i_long":106.839204,"time":5,"i_lat":-6.161728,"station_name":"Kemayoran"},{"time":4,"i_lat":-6.174784,"transit":false,"station_id":"PSE","is_transit":false,"distance":1436,"i_long":106.84368,"line":11,"station_name":"Pasar Senen"},{"line":11,"distance":1567,"time":8,"i_long":106.850107,"station_name":"Gang Sentiong","station_id":"GST","transit":false,"is_transit":false,"i_lat":-6.185975},{"station_id":"KMT","time":1,"station_name":"Kramat","distance":973,"i_lat":-6.193792,"i_long":106.855437,"is_transit":false,"transit":false,"line":11},{"is_transit":false,"transit":false,"station_id":"POK","i_lat":-6.209188,"i_long":106.861737,"line":11,"distance":1829,"station_name":"Pondok Jati","time":2},{"line":1,"distance":1236,"transit":true,"station_id":"JNG","time":9,"i_lat":-6.215091,"is_transit":true,"i_long":106.86807400000001,"station_name":"Jatinegara"},{"i_lat":-6.212485,"is_transit":false,"time":2,"station_id":"MTR","i_long":106.858896,"transit":false,"line":1,"distance":1377,"station_name":"Matraman"},{"is_transit":false,"station_name":"Manggarai","transit":false,"station_id":"MRI","i_lat":-6.209883,"distance":1275,"i_long":106.84912,"line":2,"time":2},{"i_lat":-6.202263,"time":4,"distance":3186,"line":1,"i_long":106.822649,"station_id":"SUD","station_name":"Sudirman","is_transit":false,"transit":false},{"station_id":"SUDB","i_lat":-6.201433,"line":1,"transit":false,"distance":280,"station_name":"Sudirman Baru","i_long":106.819881,"time":1,"is_transit":false},{"i_long":106.816351,"line":1,"distance":471,"is_transit":false,"time":1,"transit":false,"i_lat":-6.20132,"station_id":"KAT","station_name":"Karet"},{"station_id":"THB","transit":false,"is_transit":false,"i_lat":-6.185545,"distance":2029,"time":5,"station_name":"Tanah Abang","line":1,"i_long":106.811091},{"i_long":106.800832,"time":8,"distance":3632,"station_id":"DU","is_transit":true,"transit":true,"line":1,"station_name":"Duri","i_lat":-6.155215},{"i_lat":-6.162021,"is_transit":false,"i_long":106.788277,"station_id":"GRG","station_name":"Grogol","distance":1700,"transit":false,"line":5,"time":3},{"i_lat":-6.161433,"time":2,"transit":false,"i_long":106.771379,"is_transit":false,"line":5,"station_name":"Pesing","distance":2036,"station_id":"PSG"},{"distance":1614,"station_name":"Taman Kota","time":2,"station_id":"TKO","is_transit":false,"transit":false,"i_lat":-6.1587309999999995,"line":5,"i_long":106.756522},{"i_long":106.737035,"i_lat":-6.159876,"distance":2334,"line":5,"time":2,"is_transit":false,"station_id":"BOI","station_name":"Bojongindah","transit":false},{"time":4,"station_id":"RW","i_long":106.723064,"distance":1152,"transit":false,"i_lat":-6.162758,"is_transit":false,"station_name":"Rawa Buaya","line":5}],[{"station_id":"RJW","station_name":"Rajawali","i_long":106.836569,"time":0,"transit":false,"line":11,"is_transit":false,"distance":0,"i_lat":-6.14505},{"i_long":106.826365,"i_lat":-6.132549,"time":3,"distance":1444,"is_transit":true,"station_name":"Kampung Bandan","station_id":"KPB","line":4,"transit":true},{"transit":true,"i_lat":-6.137569,"line":2,"distance":1364,"is_transit":true,"i_long":106.812439,"time":3,"station_name":"Jakarta Kota","station_id":"JAKK"},{"i_long":106.820901,"transit":false,"distance":1264,"station_name":"Jayakarta","is_transit":false,"station_id":"JAY","time":4,"i_lat":-6.141205,"line":2},{"time":2,"distance":1080,"transit":false,"i_lat":-6.149769,"station_name":"Manggabesar","is_transit":false,"station_id":"MGB","i_long":106.82482,"line":2},{"distance":906,"time":2,"transit":false,"line":2,"station_name":"Sawah Besar","i_lat":-6.160725,"i_long":106.827103,"is_transit":false,"station_id":"SW"},{"station_id":"JUA","transit":false,"i_lat":-6.166716,"line":2,"time":2,"distance":1149,"i_long":106.828284,"station_name":"Juanda","is_transit":false},{"time":4,"is_transit":false,"transit":false,"station_id":"GDD","i_lat":-6.186295,"i_long":106.832183,"line":2,"station_name":"Gondangdia","distance":2015},{"transit":false,"is_transit":false,"time":3,"distance":1750,"i_long":106.840169,"station_name":"Cikini","i_lat":-6.198556,"line":2,"station_id":"CKI"},{"station_id":"MRI","is_transit":true,"i_lat":-6.209883,"distance":1590,"station_name":"Manggarai","transit":true,"i_long":106.84912,"time":4,"line":2},{"transit":false,"i_lat":-6.202263,"i_long":106.822649,"is_transit":false,"station_name":"Sudirman","distance":3186,"station_id":"SUD","line":1,"time":4},{"station_id":"SUDB","i_long":106.819881,"station_name":"Sudirman Baru","line":1,"distance":280,"is_transit":false,"time":1,"transit":false,"i_lat":-6.201433},{"i_long":106.816351,"transit":false,"station_id":"KAT","station_name":"Karet","i_lat":-6.20132,"distance":471,"is_transit":false,"line":1,"time":1},{"time":5,"is_transit":false,"station_id":"THB","distance":2029,"transit":false,"station_name":"Tanah Abang","i_lat":-6.185545,"line":1,"i_long":106.811091},{"time":8,"i_long":106.800832,"is_transit":true,"station_name":"Duri","distance":3632,"transit":true,"i_lat":-6.155215,"station_id":"DU","line":1},{"line":5,"i_lat":-6.162021,"is_transit":false,"i_long":106.788277,"transit":false,"station_name":"Grogol","time":3,"distance":1700,"station_id":"GRG"},{"is_transit":false,"transit":false,"station_name":"Pesing","station_id":"PSG","distance":2036,"i_lat":-6.161433,"i_long":106.771379,"line":5,"time":2},{"distance":1614,"is_transit":false,"i_lat":-6.1587309999999995,"transit":false,"i_long":106.756522,"line":5,"station_id":"TKO","station_name":"Taman Kota","time":2},{"line":5,"station_id":"BOI","transit":false,"distance":2334,"station_name":"Bojongindah","time":2,"is_transit":false,"i_long":106.737035,"i_lat":-6.159876},{"i_lat":-6.162758,"line":5,"transit":false,"is_transit":false,"station_id":"RW","station_name":"Rawa Buaya","distance":1152,"i_long":106.723064,"time":4}],[{"transit":false,"line":11,"station_name":"Rajawali","is_transit":false,"distance":0,"i_lat":-6.14505,"station_id":"RJW","i_long":106.836569,"time":0},{"line":11,"distance":1901,"time":5,"i_long":106.839204,"transit":false,"station_name":"Kemayoran","is_transit":false,"station_id":"KMO","i_lat":-6.161728},{"distance":1436,"is_transit":false,"station_id":"PSE","station_name":"Pasar Senen","time":4,"transit":false,"line":11,"i_lat":-6.174784,"i_long":106.84368},{"line":11,"transit":false,"i_long":106.850107,"i_lat":-6.185975,"station_id":"GST","distance":1567,"station_name":"Gang Sentiong","time":8,"is_transit":false},{"i_lat":-6.193792,"line":11,"station_name":"Kramat","distance":973,"time":1,"is_transit":false,"transit":false,"i_long":106.855437,"station_id":"KMT"},{"line":11,"time":2,"station_name":"Pondok Jati","distance":1829,"i_lat":-6.209188,"transit":false,"station_id":"POK","is_transit":false,"i_long":106.861737},{"i_long":106.86807400000001,"distance":1236,"line":1,"time":9,"transit":true,"station_id":"JNG","station_name":"Jatinegara","is_transit":true,"i_lat":-6.215091},{"transit":false,"i_long":106.858896,"is_transit":false,"distance":1377,"station_name":"Matraman","line":1,"station_id":"MTR","i_lat":-6.212485,"time":2},{"transit":true,"line":2,"station_name":"Manggarai","time":2,"i_lat":-6.209883,"i_long":106.84912,"distance":1275,"station_id":"MRI","is_transit":true},{"time":4,"station_id":"CKI","transit":false,"station_name":"Cikini","i_lat":-6.198556,"i_long":106.840169,"distance":1590,"is_transit":false,"line":2},{"station_name":"Gondangdia","station_id":"GDD","line":2,"transit":false,"i_lat":-6.186295,"distance":1750,"is_transit":false,"i_long":106.832183,"time":3},{"station_name":"Juanda","line":2,"is_transit":false,"distance":2015,"i_lat":-6.166716,"station_id":"JUA","time":4,"i_long":106.828284,"transit":false},{"station_name":"Sawah Besar","transit":false,"distance":1149,"station_id":"SW","time":2,"is_transit":false,"i_long":106.827103,"line":2,"i_lat":-6.160725},{"station_id":"MGB","station_name":"Manggabesar","line":2,"distance":906,"i_long":106.82482,"transit":false,"i_lat":-6.149769,"is_transit":false,"time":2},{"i_long":106.820901,"station_id":"JAY","distance":1080,"is_transit":false,"time":2,"line":2,"i_lat":-6.141205,"station_name":"Jayakarta","transit":false},{"station_name":"Jakarta Kota","is_transit":true,"line":2,"station_id":"JAKK","transit":true,"distance":1264,"i_lat":-6.137569,"i_long":106.812439,"time":4},{"distance":1364,"transit":true,"is_transit":true,"i_long":106.826365,"line":4,"station_id":"KPB","time":3,"station_name":"Kampung Bandan","i_lat":-6.132549},{"line":1,"i_lat":-6.144674,"station_name":"Angke","distance":4102,"station_id":"AK","transit":false,"i_long":106.79867,"time":9,"is_transit":false},{"time":4,"i_long":106.800832,"line":1,"station_id":"DU","distance":1230,"is_transit":true,"i_lat":-6.155215,"station_name":"Duri","transit":true},{"time":3,"distance":1700,"i_lat":-6.162021,"is_transit":false,"transit":false,"station_id":"GRG","line":5,"i_long":106.788277,"station_name":"Grogol"},{"transit":false,"i_long":106.771379,"is_transit":false,"time":2,"station_name":"Pesing","distance":2036,"i_lat":-6.161433,"line":5,"station_id":"PSG"},{"i_long":106.756522,"transit":false,"time":2,"station_id":"TKO","distance":1614,"i_lat":-6.1587309999999995,"station_name":"Taman Kota","line":5,"is_transit":false},{"station_name":"Bojongindah","distance":2334,"transit":false,"i_long":106.737035,"time":2,"line":5,"station_id":"BOI","i_lat":-6.159876,"is_transit":false},{"station_name":"Rawa Buaya","time":4,"i_lat":-6.162758,"transit":false,"station_id":"RW","line":5,"distance":1152,"i_long":106.723064,"is_transit":false}]]}