{"data":[[{"is_transit":false,"line":11,"distance":0,"i_long":106.836569,"time":0,"i_lat":-6.14505,"station_id":"RJW","transit":false,"station_name":"Rajawali"},{"transit":true,"i_lat":-6.132549,"distance":1444,"i_long":106.826365,"line":4,"station_id":"KPB","station_name":"Kampung Bandan","time":3,"is_transit":true},{"is_transit":false,"transit":false,"i_long":106.79867,"line":1,"station_id":"AK","i_lat":-6.144674,"time":9,"station_name":"Angke","distance":4102},{"transit":false,"station_name":"Duri","distance":1230,"time":4,"line":1,"i_lat":-6.155215,"i_long":106.800832,"station_id":"DU","is_transit":false},{"time":8,"is_transit":true,"line":1,"i_lat":-6.185545,"distance":3632,"station_id":"THB","station_name":"Tanah Abang","transit":true,"i_long":106.811091},{"i_lat":-6.207404,"transit":false,"station_name":"Palmerah","time":6,"i_long":106.79689,"distance":3191,"line":6,"station_id":"PLM","is_transit":false},{"i_lat":-6.237242,"time":7,"transit":false,"i_long":106.780334,"distance":3737,"line":6,"is_transit":false,"station_id":"KBY","station_name":"Kebayoran"},{"i_lat":-6.276362,"distance":6218,"line":6,"time":8,"station_id":"PDJ","station_name":"Pondokranji","is_transit":false,"transit":false,"i_long":106.74273},{"station_name":"Jurangmangu","i_lat":-6.288927,"time":3,"distance":2179,"is_transit":false,"station_id":"JMU","transit":false,"i_long":106.728916,"line":6},{"is_transit":false,"i_lat":-6.296963,"time":4,"station_id":"SDM","i_long":106.712277,"distance":1994,"station_name":"Sudimara","line":6,"transit":false},{"i_long":106.675475,"transit":false,"line":6,"distance":4566,"i_lat":-6.314823,"station_id":"RU","station_name":"Rawa Buntu","is_transit":false,"time":6},{"station_id":"SRP","is_transit":false,"line":6,"transit":false,"i_lat":-6.319871,"station_name":"Serpong","distance":2413,"time":4,"i_long":106.66566},{"distance":1784,"i_lat":-6.32484,"is_transit":false,"station_id":"CSK","line":3,"transit":false,"time":4,"station_name":"Cisauk","i_long":106.640411},{"line":3,"station_id":"CC","station_name":"Cicayur","distance":2519,"i_lat":-6.329547,"i_long":106.617853,"transit":false,"time":4,"is_transit":false}],[{"i_long":106.836569,"station_id":"RJW","line":11,"transit":false,"i_lat":-6.14505,"station_name":"Rajawali","is_transit":false,"distance":0,"time":0},{"i_lat":-6.161728,"station_id":"KMO","is_transit":false,"distance":1901,"i_long":106.839204,"time":5,"station_name":"Kemayoran","transit":false,"line":11},{"line":11,"time":4,"i_lat":-6.174784,"distance":1436,"station_name":"Pasar Senen","transit":false,"station_id":"PSE","is_transit":false,"i_long":106.84368},{"is_transit":false,"time":8,"distance":1567,"i_lat":-6.185975,"station_name":"Gang Sentiong","transit":false,"i_long":106.850107,"station_id":"GST","line":11},{"is_transit":false,"station_id":"KMT","distance":973,"station_name":"Kramat","line":11,"i_lat":-6.193792,"i_long":106.855437,"time":1,"transit":false},{"i_long":106.861737,"i_lat":-6.209188,"line":11,"distance":1829,"is_transit":false,"time":2,"station_name":"Pondok Jati","station_id":"POK","transit":false},{"line":1,"station_id":"JNG","i_lat":-6.215091,"distance":1236,"time":9,"transit":true,"is_transit":true,"station_name":"Jatinegara","i_long":106.86807400000001},{"is_transit":false,"i_long":106.858896,"station_id":"MTR","time":2,"i_lat":-6.212485,"distance":1377,"station_name":"Matraman","transit":false,"line":1},{"station_name":"Manggarai","line":2,"distance":1275,"i_long":106.84912,"time":2,"transit":false,"i_lat":-6.209883,"is_transit":false,"station_id":"MRI"},{"time":4,"distance":3186,"transit":false,"station_name":"Sudirman","i_lat":-6.202263,"i_long":106.822649,"is_transit":false,"line":1,"station_id":"SUD"},{"distance":280,"station_id":"SUDB","is_transit":false,"i_lat":-6.201433,"time":1,"transit":false,"i_long":106.819881,"line":1,"station_name":"Sudirman Baru"},{"line":1,"distance":471,"time":1,"station_name":"Karet","is_transit":false,"transit":false,"i_lat":-6.20132,"station_id":"KAT","i_long":106.816351},{"transit":true,"distance":2029,"time":5,"is_transit":true,"station_id":"THB","i_lat":-6.185545,"line":1,"station_name":"Tanah Abang","i_long":106.811091},{"transit":false,"i_lat":-6.207404,"line":6,"i_long":106.79689,"time":6,"station_name":"Palmerah","distance":3191,"station_id":"PLM","is_transit":false},{"transit":false,"i_lat":-6.237242,"station_name":"Kebayoran","distance":3737,"time":7,"station_id":"KBY","line":6,"i_long":106.780334,"is_transit":false},{"i_long":106.74273,"i_lat":-6.276362,"station_name":"Pondokranji","distance":6218,"line":6,"time":8,"station_id":"PDJ","transit":false,"is_transit":false},{"distance":2179,"i_long":106.728916,"line":6,"time":3,"i_lat":-6.288927,"is_transit":false,"transit":false,"station_id":"JMU","station_name":"Jurangmangu"},{"is_transit":false,"line":6,"transit":false,"i_lat":-6.296963,"time":4,"station_name":"Sudimara","i_long":106.712277,"station_id":"SDM","distance":1994},{"station_name":"Rawa Buntu","i_lat":-6.314823,"station_id":"RU","distance":4566,"time":6,"line":6,"transit":false,"i_long":106.675475,"is_transit":false},{"line":6,"station_name":"Serpong","transit":false,"i_long":106.66566,"i_lat":-6.319871,"station_id":"SRP","distance":2413,"time":4,"is_transit":false},{"transit":false,"is_transit":false,"time":4,"station_name":"Cisauk","i_long":106.640411,"station_id":"CSK","line":3,"distance":1784,"i_lat":-6.32484},{"transit":false,"station_id":"CC","i_long":106.617853,"is_transit":false,"line":3,"station_name":"Cicayur","i_lat":-6.329547,"distance":2519,"time":4}],[{"station_name":"Rajawali","distance":0,"station_id":"RJW","line":11,"i_long":106.836569,"is_transit":false,"i_lat":-6.14505,"time":0,"transit":false},{"transit":true,"distance":1444,"i_lat":-6.132549,"time":3,"i_long":106.826365,"line":4,"is_transit":true,"station_name":"Kampung Bandan","station_id":"KPB"},{"time":3,"station_id":"JAKK","distance":1364,"is_transit":true,"i_lat":-6.137569,"i_long":106.812439,"transit":true,"line":2,"station_name":"Jakarta Kota"},{"is_transit":false,"i_lat":-6.141205,"time":4,"i_long":106.820901,"station_name":"Jayakarta","line":2,"station_id":"JAY","transit":false,"distance":1264},{"station_id":"MGB","station_name":"Manggabesar","i_lat":-6.149769,"transit":false,"line":2,"time":2,"distance":1080,"i_long":106.82482,"is_transit":false},{"is_transit":false,"station_name":"Sawah Besar","line":2,"distance":906,"transit":false,"i_lat":-6.160725,"i_long":106.827103,"time":2,"station_id":"SW"},{"i_lat":-6.166716,"line":2,"i_long":106.828284,"time":2,"transit":false,"is_transit":false,"station_name":"Juanda","distance":1149,"station_id":"JUA"},{"station_name":"Gondangdia","station_id":"GDD","time":4,"i_long":106.832183,"distance":2015,"is_transit":false,"transit":false,"i_lat":-6.186295,"line":2},{"distance":1750,"i_long":106.840169,"station_id":"CKI","is_transit":false,"line":2,"station_name":"Cikini","transit":false,"i_lat":-6.198556,"time":3},{"station_name":"Manggarai","station_id":"MRI","time":4,"is_transit":true,"transit":true,"distance":1590,"line":2,"i_lat":-6.209883,"i_long":106.84912},{"station_id":"SUD","is_transit":false,"i_long":106.822649,"i_lat":-6.202263,"distance":3186,"transit":false,"station_name":"Sudirman","line":1,"time":4},{"i_lat":-6.201433,"distance":280,"is_transit":false,"transit":false,"station_id":"SUDB","i_long":106.819881,"time":1,"line":1,"station_name":"Sudirman Baru"},{"station_name":"Karet","i_long":106.816351,"is_transit":false,"line":1,"transit":false,"station_id":"KAT","i_lat":-6.20132,"time":1,"distance":471},{"transit":true,"distance":2029,"station_id":"THB","time":5,"i_lat":-6.185545,"line":1,"is_transit":true,"i_long":106.811091,"station_name":"Tanah Abang"},{"transit":false,"is_transit":false,"i_long":106.79689,"i_lat":-6.207404,"distance":3191,"station_name":"Palmerah","line":6,"station_id":"PLM","time":6},{"distance":3737,"i_long":106.780334,"station_id":"KBY","line":6,"is_transit":false,"transit":false,"time":7,"station_name":"Kebayoran","i_lat":-6.237242},{"station_name":"Pondokranji","station_id":"PDJ","is_transit":false,"i_long":106.74273,"time":8,"i_lat":-6.276362,"distance":6218,"transit":false,"line":6},{"station_name":"Jurangmangu","time":3,"line":6,"distance":2179,"is_transit":false,"i_lat":-6.288927,"i_long":106.728916,"transit":false,"station_id":"JMU"},{"i_long":106.712277,"station_id":"SDM","time":4,"station_name":"Sudimara","i_lat":-6.296963,"is_transit":false,"distance":1994,"line":6,"transit":false},{"line":6,"i_lat":-6.314823,"transit":false,"is_transit":false,"station_id":"RU","station_name":"Rawa Buntu","i_long":106.675475,"time":6,"distance":4566},{"station_id":"SRP","distance":2413,"station_name":"Serpong","i_long":106.66566,"line":6,"time":4,"i_lat":-6.319871,"transit":false,"is_transit":false},{"distance":1784,"station_id":"CSK","station_name":"Cisauk","transit":false,"is_transit":false,"line":3,"i_lat":-6.32484,"time":4,"i_long":106.640411},{"is_transit":false,"distance":2519,"time":4,"transit":false,"i_long":106.617853,"i_lat":-6.329547,"line":3,"station_name":"Cicayur","station_id":"CC"}],[{"time":0,"distance":0,"station_name":"Rajawali","i_lat":-6.14505,"line":11,"is_transit":false,"transit":false,"station_id":"RJW","i_long":106.836569},{"is_transit":false,"station_id":"KMO","distance":1901,"station_name":"Kemayoran","i_lat":-6.161728,"i_long":106.839204,"time":5,"transit":false,"line":11},{"is_transit":false,"distance":1436,"station_name":"Pasar Senen","line":11,"station_id":"PSE","transit":false,"time":4,"i_long":106.84368,"i_lat":-6.174784},{"line":11,"time":8,"distance":1567,"is_transit":false,"station_id":"GST","transit":false,"station_name":"Gang Sentiong","i_lat":-6.185975,"i_long":106.850107},{"station_name":"Kramat","time":1,"transit":false,"station_id":"KMT","i_lat":-6.193792,"line":11,"is_transit":false,"distance":973,"i_long":106.855437},{"station_name":"Pondok Jati","is_transit":false,"transit":false,"i_lat":-6.209188,"time":2,"i_long":106.861737,"station_id":"POK","line":11,"distance":1829},{"time":9,"i_lat":-6.215091,"line":1,"distance":1236,"station_id":"JNG","station_name":"Jatinegara","transit":true,"i_long":106.86807400000001,"is_transit":true},{"is_transit":false,"i_lat":-6.212485,"transit":false,"station_id":"MTR","time":2,"station_name":"Matraman","distance":1377,"i_long":106.858896,"line":1},{"distance":1275,"i_lat":-6.209883,"is_transit":true,"transit":true,"station_name":"Manggarai","line":2,"station_id":"MRI","i_long":106.84912,"time":2},{"line":2,"station_name":"Cikini","time":4,"distance":1590,"i_lat":-6.198556,"transit":false,"is_transit":false,"i_long":106.840169,"station_id":"CKI"},{"is_transit":false,"i_lat":-6.186295,"line":2,"station_id":"GDD","time":3,"i_long":106.832183,"transit":false,"distance":1750,"station_name":"Gondangdia"},{"station_id":"JUA","station_name":"Juanda","i_long":106.828284,"line":2,"i_lat":-6.166716,"is_transit":false,"transit":false,"time":4,"distance":2015},{"station_name":"Sawah Besar","i_lat":-6.160725,"line":2,"time":2,"station_id":"SW","transit":false,"i_long":106.827103,"distance":1149,"is_transit":false},{"station_name":"Manggabesar","transit":false,"time":2,"i_long":106.82482,"station_id":"MGB","line":2,"i_lat":-6.149769,"is_transit":false,"distance":906},{"distance":1080,"is_transit":false,"time":2,"station_name":"Jayakarta","i_long":106.820901,"i_lat":-6.141205,"station_id":"JAY","line":2,"transit":false},{"distance":1264,"i_lat":-6.137569,"i_long":106.812439,"line":2,"station_id":"JAKK","time":4,"is_transit":true,"station_name":"Jakarta Kota","transit":true},{"is_transit":true,"time":3,"station_id":"KPB","distance":1364,"station_name":"Kampung Bandan","transit":true,"i_lat":-6.132549,"i_long":106.826365,"line":4},{"i_long":106.79867,"distance":4102,"transit":false,"station_name":"Angke","is_transit":false,"i_lat":-6.144674,"line":1,"time":9,"station_id":"AK"},{"station_id":"DU","line":1,"is_transit":false,"distance":1230,"station_name":"Duri","i_long":106.800832,"transit":false,"time":4,"i_lat":-6.155215},{"is_transit":true,"time":8,"line":1,"transit":true,"distance":3632,"station_id":"THB","i_lat":-6.185545,"station_name":"Tanah Abang","i_long":106.811091},{"station_name":"Palmerah","time":6,"line":6,"distance":3191,"i_long":106.79689,"i_lat":-6.207404,"is_transit":false,"transit":false,"station_id":"PLM"},{"station_name":"Kebayoran","line":6,"i_lat":-6.237242,"distance":3737,"is_transit":false,"time":7,"i_long":106.780334,"transit":false,"station_id":"KBY"},{"distance":6218,"time":8,"i_long":106.74273,"transit":false,"station_id":"PDJ","station_name":"Pondokranji","i_lat":-6.276362,"line":6,"is_transit":false},{"station_name":"Jurangmangu","station_id":"JMU","distance":2179,"line":6,"is_transit":false,"i_lat":-6.288927,"transit":false,"time":3,"i_long":106.728916},{"distance":1994,"i_lat":-6.296963,"i_long":106.712277,"line":6,"transit":false,"is_transit":false,"station_id":"SDM","time":4,"station_name":"Sudimara"},{"transit":false,"distance":4566,"station_name":"Rawa Buntu","is_transit":false,"i_lat":-6.314823,"time":6,"station_id":"RU","i_long":106.675475,"line":6},{"station_name":"Serpong","line":6,"station_id":"SRP","transit":false,"distance":2413,"is_transit":false,"time":4,"i_lat":-6.319871,"i_long":106.66566},{"time":4,"distance":1784,"i_long":106.640411,"i_lat":-6.32484,"line":3,"station_id":"CSK","station_name":"Cisauk","is_transit":false,"transit":false},{"station_id":"CC","time":4,"i_lat":-6.329547,"distance":2519,"station_name":"Cicayur","transit":false,"i_long":106.617853,"line":3,"is_transit":false}]]}