{"data":[[{"station_name":"Rajawali","i_lat":-6.14505,"is_transit":false,"time":0,"i_long":106.836569,"transit":false,"distance":0,"station_id":"RJW","line":11},{"i_long":106.826365,"time":3,"station_id":"KPB","is_transit":true,"transit":true,"line":4,"i_lat":-6.132549,"distance":1444,"station_name":"Kampung Bandan"},{"i_lat":-6.144674,"time":9,"is_transit":false,"distance":4102,"station_id":"AK","i_long":106.79867,"line":1,"station_name":"Angke","transit":false},{"i_lat":-6.155215,"transit":true,"time":4,"is_transit":true,"line":1,"i_long":106.800832,"station_name":"Duri","station_id":"DU","distance":1230},{"i_lat":-6.162021,"i_long":106.788277,"is_transit":false,"station_name":"Grogol","time":3,"distance":1700,"station_id":"GGL","transit":false,"line":5},{"transit":false,"i_long":106.771379,"line":5,"station_name":"Pesing","distance":2036,"is_transit":false,"station_id":"PSG","i_lat":-6.161433,"time":2},{"i_lat":-6.1587309999999995,"i_long":106.756522,"line":5,"is_transit":false,"distance":1614,"transit":false,"time":2,"station_name":"Taman Kota","station_id":"TKO"},{"time":2,"line":5,"i_long":106.737035,"distance":2334,"is_transit":false,"station_name":"Bojongindah","station_id":"BOI","transit":false,"i_lat":-6.159876},{"line":5,"distance":1152,"station_id":"RW","time":4,"i_long":106.723064,"transit":false,"station_name":"Rawa Buaya","is_transit":false,"i_lat":-6.162758},{"station_name":"Kalideres","time":3,"is_transit":false,"line":5,"i_lat":-6.166068,"i_long":106.701612,"distance":2504,"station_id":"KDS","transit":false},{"line":5,"time":3,"is_transit":false,"station_id":"PI","i_long":106.679458,"transit":false,"station_name":"Poris","distance":2548,"i_lat":-6.169933},{"distance":1834,"station_id":"BPR","station_name":"Batuceper","transit":false,"i_long":106.665036,"is_transit":false,"i_lat":-6.171811,"line":5,"time":3},{"is_transit":false,"station_id":"TTI","line":5,"distance":2028,"i_long":106.64657,"transit":false,"station_name":"Tanah Tinggi","i_lat":-6.17331,"time":3}],[{"transit":false,"is_transit":false,"i_long":106.836569,"line":11,"distance":0,"time":0,"station_name":"Rajawali","station_id":"RJW","i_lat":-6.14505},{"station_id":"KMO","line":11,"station_name":"Kemayoran","is_transit":false,"time":5,"transit":false,"i_long":106.839204,"distance":1901,"i_lat":-6.161728},{"distance":1436,"i_lat":-6.174784,"transit":false,"is_transit":false,"station_name":"Pasar Senen","i_long":106.84368,"time":4,"line":11,"station_id":"PSE"},{"i_long":106.850107,"distance":1567,"station_name":"Gang Sentiong","line":11,"i_lat":-6.185975,"time":8,"station_id":"GST","transit":false,"is_transit":false},{"transit":false,"i_long":106.855437,"station_name":"Kramat","time":1,"line":11,"distance":973,"i_lat":-6.193792,"station_id":"KMT","is_transit":false},{"station_id":"POK","transit":false,"time":2,"i_lat":-6.209188,"i_long":106.861737,"line":11,"distance":1829,"station_name":"Pondok Jati","is_transit":false},{"transit":true,"i_lat":-6.215091,"distance":1236,"station_id":"JNG","i_long":106.86807400000001,"is_transit":true,"station_name":"Jatinegara","line":1,"time":9},{"line":1,"i_long":106.858896,"distance":1377,"station_id":"MTR","station_name":"Matraman","time":2,"transit":false,"i_lat":-6.212485,"is_transit":false},{"line":2,"time":2,"station_id":"MRI","transit":false,"i_lat":-6.209883,"distance":1275,"station_name":"Manggarai","is_transit":false,"i_long":106.84912},{"distance":3186,"time":4,"i_lat":-6.202263,"station_id":"SUD","i_long":106.822649,"line":1,"transit":false,"station_name":"Sudirman","is_transit":false},{"i_long":106.819881,"line":1,"distance":280,"time":1,"transit":false,"station_id":"SUDB","is_transit":false,"station_name":"Sudirman Baru","i_lat":-6.201433},{"is_transit":false,"station_id":"KAT","i_long":106.816351,"transit":false,"i_lat":-6.20132,"line":1,"time":1,"distance":471,"station_name":"Karet"},{"station_name":"Tanah Abang","distance":2029,"is_transit":false,"time":5,"i_lat":-6.185545,"line":1,"transit":false,"i_long":106.811091,"station_id":"THB"},{"time":8,"station_name":"Duri","is_transit":true,"i_lat":-6.155215,"station_id":"DU","line":1,"distance":3632,"transit":true,"i_long":106.800832},{"is_transit":false,"line":5,"transit":false,"i_lat":-6.162021,"time":3,"station_name":"Grogol","distance":1700,"station_id":"GGL","i_long":106.788277},{"time":2,"transit":false,"station_name":"Pesing","i_lat":-6.161433,"line":5,"i_long":106.771379,"distance":2036,"is_transit":false,"station_id":"PSG"},{"is_transit":false,"time":2,"station_id":"TKO","distance":1614,"transit":false,"i_lat":-6.1587309999999995,"station_name":"Taman Kota","i_long":106.756522,"line":5},{"time":2,"i_lat":-6.159876,"transit":false,"distance":2334,"station_id":"BOI","line":5,"i_long":106.737035,"station_name":"Bojongindah","is_transit":false},{"i_lat":-6.162758,"station_name":"Rawa Buaya","station_id":"RW","transit":false,"i_long":106.723064,"time":4,"distance":1152,"is_transit":false,"line":5},{"i_lat":-6.166068,"distance":2504,"i_long":106.701612,"line":5,"station_name":"Kalideres","is_transit":false,"transit":false,"station_id":"KDS","time":3},{"is_transit":false,"station_name":"Poris","station_id":"PI","transit":false,"line":5,"i_long":106.679458,"i_lat":-6.169933,"time":3,"distance":2548},{"i_long":106.665036,"distance":1834,"line":5,"is_transit":false,"i_lat":-6.171811,"station_name":"Batuceper","time":3,"station_id":"BPR","transit":false},{"i_lat":-6.17331,"distance":2028,"i_long":106.64657,"is_transit":false,"transit":false,"time":3,"line":5,"station_id":"TTI","station_name":"Tanah Tinggi"}],[{"station_name":"Rajawali","transit":false,"i_lat":-6.14505,"line":11,"is_transit":false,"time":0,"i_long":106.836569,"station_id":"RJW","distance":0},{"line":4,"station_name":"Kampung Bandan","station_id":"KPB","distance":1444,"i_lat":-6.132549,"i_long":106.826365,"time":3,"transit":true,"is_transit":true},{"time":3,"distance":1364,"station_id":"JAKK","transit":true,"i_lat":-6.137569,"is_transit":true,"line":2,"i_long":106.812439,"station_name":"Jakarta Kota"},{"distance":1264,"station_id":"JAY","is_transit":false,"transit":false,"line":2,"time":4,"station_name":"Jayakarta","i_long":106.820901,"i_lat":-6.141205},{"station_id":"MGB","is_transit":false,"distance":1080,"time":2,"line":2,"i_long":106.82482,"transit":false,"i_lat":-6.149769,"station_name":"Manggabesar"},{"station_name":"Sawah Besar","transit":false,"station_id":"SW","i_lat":-6.160725,"i_long":106.827103,"line":2,"is_transit":false,"distance":906,"time":2},{"line":2,"is_transit":false,"distance":1149,"transit":false,"i_long":106.828284,"station_id":"JUA","time":2,"station_name":"Juanda","i_lat":-6.166716},{"station_name":"Gondangdia","is_transit":false,"line":2,"station_id":"GDD","transit":false,"i_long":106.832183,"time":4,"i_lat":-6.186295,"distance":2015},{"is_transit":false,"line":2,"i_lat":-6.198556,"time":3,"distance":1750,"station_name":"Cikini","station_id":"CKI","i_long":106.840169,"transit":false},{"station_name":"Manggarai","transit":true,"station_id":"MRI","line":2,"i_long":106.84912,"time":4,"distance":1590,"is_transit":true,"i_lat":-6.209883},{"transit":false,"time":4,"station_name":"Sudirman","i_long":106.822649,"i_lat":-6.202263,"line":1,"station_id":"SUD","distance":3186,"is_transit":false},{"station_name":"Sudirman Baru","transit":false,"station_id":"SUDB","i_lat":-6.201433,"line":1,"distance":280,"is_transit":false,"time":1,"i_long":106.819881},{"i_lat":-6.20132,"station_name":"Karet","line":1,"time":1,"distance":471,"is_transit":false,"i_long":106.816351,"station_id":"KAT","transit":false},{"station_name":"Tanah Abang","transit":false,"i_long":106.811091,"line":1,"i_lat":-6.185545,"time":5,"is_transit":false,"distance":2029,"station_id":"THB"},{"line":1,"distance":3632,"time":8,"i_lat":-6.155215,"i_long":106.800832,"station_name":"Duri","is_transit":true,"station_id":"DU","transit":true},{"transit":false,"i_long":106.788277,"i_lat":-6.162021,"distance":1700,"line":5,"is_transit":false,"station_name":"Grogol","time":3,"station_id":"GGL"},{"station_name":"Pesing","distance":2036,"i_long":106.771379,"time":2,"is_transit":false,"transit":false,"station_id":"PSG","line":5,"i_lat":-6.161433},{"is_transit":false,"station_id":"TKO","line":5,"station_name":"Taman Kota","i_long":106.756522,"transit":false,"time":2,"i_lat":-6.1587309999999995,"distance":1614},{"distance":2334,"i_lat":-6.159876,"i_long":106.737035,"transit":false,"time":2,"station_id":"BOI","station_name":"Bojongindah","is_transit":false,"line":5},{"transit":false,"is_transit":false,"station_id":"RW","station_name":"Rawa Buaya","line":5,"distance":1152,"i_long":106.723064,"time":4,"i_lat":-6.162758},{"i_long":106.701612,"distance":2504,"is_transit":false,"i_lat":-6.166068,"line":5,"station_name":"Kalideres","station_id":"KDS","transit":false,"time":3},{"line":5,"transit":false,"distance":2548,"time":3,"is_transit":false,"station_id":"PI","i_long":106.679458,"station_name":"Poris","i_lat":-6.169933},{"i_lat":-6.171811,"station_name":"Batuceper","i_long":106.665036,"is_transit":false,"station_id":"BPR","line":5,"transit":false,"distance":1834,"time":3},{"transit":false,"time":3,"is_transit":false,"station_id":"TTI","station_name":"Tanah Tinggi","line":5,"distance":2028,"i_lat":-6.17331,"i_long":106.64657}],[{"i_lat":-6.14505,"time":0,"line":11,"distance":0,"station_id":"RJW","transit":false,"i_long":106.836569,"is_transit":false,"station_name":"Rajawali"},{"distance":1901,"is_transit":false,"line":11,"station_id":"KMO","transit":false,"station_name":"Kemayoran","time":5,"i_long":106.839204,"i_lat":-6.161728},{"station_id":"PSE","i_lat":-6.174784,"distance":1436,"is_transit":false,"transit":false,"time":4,"line":11,"station_name":"Pasar Senen","i_long":106.84368},{"time":8,"transit":false,"line":11,"station_name":"Gang Sentiong","is_transit":false,"i_lat":-6.185975,"distance":1567,"i_long":106.850107,"station_id":"GST"},{"distance":973,"station_id":"KMT","station_name":"Kramat","line":11,"transit":false,"i_long":106.855437,"time":1,"is_transit":false,"i_lat":-6.193792},{"i_lat":-6.209188,"distance":1829,"is_transit":false,"station_id":"POK","time":2,"station_name":"Pondok Jati","transit":false,"i_long":106.861737,"line":11},{"i_long":106.86807400000001,"transit":true,"station_name":"Jatinegara","time":9,"is_transit":true,"i_lat":-6.215091,"distance":1236,"line":1,"station_id":"JNG"},{"distance":1377,"station_name":"Matraman","station_id":"MTR","is_transit":false,"transit":false,"i_long":106.858896,"line":1,"time":2,"i_lat":-6.212485},{"distance":1275,"i_lat":-6.209883,"transit":true,"line":2,"station_id":"MRI","is_transit":true,"station_name":"Manggarai","time":2,"i_long":106.84912},{"distance":1590,"station_id":"CKI","transit":false,"line":2,"time":4,"station_name":"Cikini","is_transit":false,"i_lat":-6.198556,"i_long":106.840169},{"station_id":"GDD","i_long":106.832183,"transit":false,"i_lat":-6.186295,"station_name":"Gondangdia","is_transit":false,"time":3,"line":2,"distance":1750},{"transit":false,"station_id":"JUA","station_name":"Juanda","distance":2015,"i_lat":-6.166716,"line":2,"time":4,"is_transit":false,"i_long":106.828284},{"station_id":"SW","station_name":"Sawah Besar","time":2,"distance":1149,"i_lat":-6.160725,"i_long":106.827103,"transit":false,"is_transit":false,"line":2},{"i_long":106.82482,"line":2,"is_transit":false,"transit":false,"time":2,"station_id":"MGB","i_lat":-6.149769,"station_name":"Manggabesar","distance":906},{"time":2,"distance":1080,"line":2,"transit":false,"station_name":"Jayakarta","station_id":"JAY","is_transit":false,"i_lat":-6.141205,"i_long":106.820901},{"station_name":"Jakarta Kota","i_lat":-6.137569,"line":2,"time":4,"is_transit":true,"station_id":"JAKK","distance":1264,"transit":true,"i_long":106.812439},{"station_name":"Kampung Bandan","distance":1364,"transit":true,"i_lat":-6.132549,"i_long":106.826365,"line":4,"time":3,"is_transit":true,"station_id":"KPB"},{"line":1,"station_id":"AK","station_name":"Angke","is_transit":false,"transit":false,"time":9,"distance":4102,"i_lat":-6.144674,"i_long":106.79867},{"line":1,"i_long":106.800832,"is_transit":true,"transit":true,"distance":1230,"station_name":"Duri","time":4,"station_id":"DU","i_lat":-6.155215},{"distance":1700,"transit":false,"station_name":"Grogol","time":3,"is_transit":false,"station_id":"GGL","i_long":106.788277,"line":5,"i_lat":-6.162021},{"is_transit":false,"transit":false,"station_name":"Pesing","line":5,"time":2,"distance":2036,"i_lat":-6.161433,"i_long":106.771379,"station_id":"PSG"},{"is_transit":false,"i_long":106.756522,"line":5,"distance":1614,"transit":false,"station_name":"Taman Kota","i_lat":-6.1587309999999995,"station_id":"TKO","time":2},{"time":2,"distance":2334,"transit":false,"station_id":"BOI","station_name":"Bojongindah","i_lat":-6.159876,"is_transit":false,"i_long":106.737035,"line":5},{"distance":1152,"time":4,"i_lat":-6.162758,"line":5,"i_long":106.723064,"is_transit":false,"station_name":"Rawa Buaya","station_id":"RW","transit":false},{"station_name":"Kalideres","transit":false,"line":5,"is_transit":false,"time":3,"station_id":"KDS","i_long":106.701612,"distance":2504,"i_lat":-6.166068},{"is_transit":false,"i_long":106.679458,"line":5,"station_name":"Poris","distance":2548,"i_lat":-6.169933,"station_id":"PI","transit":false,"time":3},{"i_lat":-6.171811,"distance":1834,"station_id":"BPR","time":3,"transit":false,"i_long":106.665036,"line":5,"is_transit":false,"station_name":"Batuceper"},{"is_transit":false,"station_id":"TTI","time":3,"transit":false,"i_lat":-6.17331,"line":5,"i_long":106.64657,"station_name":"Tanah Tinggi","distance":2028}]]}