{"data":[[{"transit":false,"station_name":"Rajawali","i_lat":-6.14505,"distance":0,"i_long":106.836569,"time":0,"line":11,"is_transit":false,"station_id":"RJW"},{"station_id":"KMO","i_lat":-6.161728,"i_long":106.839204,"distance":1901,"transit":false,"time":5,"station_name":"Kemayoran","is_transit":false,"line":11},{"station_name":"Pasar Senen","i_lat":-6.174784,"i_long":106.84368,"transit":false,"time":4,"line":11,"station_id":"PSE","is_transit":false,"distance":1436},{"is_transit":false,"distance":1567,"transit":false,"i_lat":-6.185975,"time":8,"i_long":106.850107,"line":11,"station_id":"GST","station_name":"Gang Sentiong"},{"distance":973,"station_name":"Kramat","i_lat":-6.193792,"line":11,"i_long":106.855437,"station_id":"KMT","time":1,"is_transit":false,"transit":false},{"station_id":"POK","transit":false,"station_name":"Pondok Jati","time":2,"distance":1829,"is_transit":false,"i_lat":-6.209188,"i_long":106.861737,"line":11},{"line":1,"distance":1236,"is_transit":true,"station_name":"Jatinegara","i_long":106.86807400000001,"time":9,"transit":true,"station_id":"JNG","i_lat":-6.215091},{"station_id":"KLD","transit":false,"i_long":106.899548,"time":3,"is_transit":false,"distance":3395,"i_lat":-6.2135,"line":1,"station_name":"Klender"}],[{"transit":false,"is_transit":false,"station_id":"RJW","i_lat":-6.14505,"station_name":"Rajawali","distance":0,"time":0,"line":11,"i_long":106.836569},{"is_transit":true,"station_name":"Kampung Bandan","time":3,"distance":1444,"i_lat":-6.132549,"line":4,"station_id":"KPB","i_long":106.826365,"transit":true},{"line":1,"distance":4102,"transit":false,"station_name":"Angke","i_lat":-6.144674,"station_id":"AK","i_long":106.79867,"is_transit":false,"time":9},{"time":4,"station_id":"DU","station_name":"Duri","distance":1230,"i_lat":-6.155215,"i_long":106.800832,"transit":false,"line":1,"is_transit":false},{"distance":3632,"i_lat":-6.185545,"station_id":"THB","is_transit":false,"line":1,"i_long":106.811091,"station_name":"Tanah Abang","time":8,"transit":false},{"transit":false,"i_long":106.816351,"distance":2029,"station_id":"KAT","is_transit":false,"line":1,"time":5,"station_name":"Karet","i_lat":-6.20132},{"station_name":"Sudirman Baru","is_transit":false,"i_lat":-6.201433,"time":1,"transit":false,"i_long":106.819881,"line":1,"distance":471,"station_id":"SUDB"},{"is_transit":false,"distance":280,"station_id":"SUD","time":1,"station_name":"Sudirman","line":1,"transit":false,"i_lat":-6.202263,"i_long":106.822649},{"transit":false,"is_transit":false,"i_lat":-6.209883,"line":2,"station_id":"MRI","station_name":"Manggarai","time":4,"distance":3186,"i_long":106.84912},{"line":1,"time":2,"i_long":106.858896,"station_id":"MTR","is_transit":false,"station_name":"Matraman","i_lat":-6.212485,"distance":1275,"transit":false},{"station_name":"Jatinegara","i_lat":-6.215091,"time":8,"transit":false,"line":1,"station_id":"JNG","i_long":106.86807400000001,"distance":1377,"is_transit":false},{"distance":3395,"station_id":"KLD","transit":false,"is_transit":false,"station_name":"Klender","i_lat":-6.2135,"i_long":106.899548,"line":1,"time":3}],[{"transit":false,"time":0,"is_transit":false,"station_id":"RJW","i_long":106.836569,"distance":0,"line":11,"i_lat":-6.14505,"station_name":"Rajawali"},{"station_name":"Kampung Bandan","transit":true,"time":3,"i_lat":-6.132549,"distance":1444,"station_id":"KPB","is_transit":true,"line":4,"i_long":106.826365},{"i_lat":-6.137569,"is_transit":true,"station_id":"JAKK","i_long":106.812439,"time":3,"transit":true,"line":2,"station_name":"Jakarta Kota","distance":1364},{"station_name":"Jayakarta","station_id":"JAY","distance":1264,"i_long":106.820901,"is_transit":false,"transit":false,"line":2,"i_lat":-6.141205,"time":4},{"line":2,"i_lat":-6.149769,"station_name":"Manggabesar","is_transit":false,"i_long":106.82482,"transit":false,"station_id":"MGB","time":2,"distance":1080},{"i_long":106.827103,"station_name":"Sawah Besar","time":2,"is_transit":false,"station_id":"SW","line":2,"transit":false,"distance":906,"i_lat":-6.160725},{"i_lat":-6.166716,"transit":false,"distance":1149,"line":2,"time":2,"station_id":"JUA","is_transit":false,"i_long":106.828284,"station_name":"Juanda"},{"is_transit":false,"station_id":"GDD","i_long":106.832183,"i_lat":-6.186295,"station_name":"Gondangdia","transit":false,"line":2,"distance":2015,"time":4},{"transit":false,"i_long":106.840169,"distance":1750,"is_transit":false,"time":3,"i_lat":-6.198556,"station_name":"Cikini","line":2,"station_id":"CKI"},{"i_long":106.84912,"i_lat":-6.209883,"transit":true,"station_name":"Manggarai","time":4,"station_id":"MRI","line":2,"distance":1590,"is_transit":true},{"transit":false,"i_long":106.858896,"time":2,"station_id":"MTR","distance":1275,"i_lat":-6.212485,"is_transit":false,"station_name":"Matraman","line":1},{"line":1,"time":8,"is_transit":false,"distance":1377,"station_id":"JNG","transit":false,"i_lat":-6.215091,"station_name":"Jatinegara","i_long":106.86807400000001},{"time":3,"transit":false,"station_name":"Klender","station_id":"KLD","i_lat":-6.2135,"line":1,"is_transit":false,"distance":3395,"i_long":106.899548}]]}