{"data":[[{"transit":false,"station_name":"Rajawali","station_id":"RJW","i_lat":-6.14505,"i_long":106.836569,"distance":0,"time":0,"line":11,"is_transit":false},{"is_transit":true,"transit":true,"time":3,"i_lat":-6.132549,"i_long":106.826365,"line":0,"station_id":"KPB","distance":1444,"station_name":"Kampung Bandan"},{"i_lat":-6.144674,"distance":4102,"station_name":"Angke","transit":false,"time":9,"station_id":"AK","line":0,"is_transit":false,"i_long":106.79867},{"time":4,"line":1,"distance":1230,"station_id":"DU","is_transit":true,"station_name":"Duri","transit":true,"i_lat":-6.155215,"i_long":106.800832},{"station_id":"THB","line":1,"distance":3632,"time":8,"transit":true,"i_long":106.811091,"i_lat":-6.185545,"station_name":"Tanah Abang","is_transit":true},{"line":6,"distance":3191,"station_id":"PLM","station_name":"Palmerah","transit":false,"time":6,"is_transit":false,"i_lat":-6.207404,"i_long":106.79689},{"i_lat":-6.237242,"distance":3737,"station_id":"KBY","station_name":"Kebayoran","transit":false,"is_transit":false,"time":7,"i_long":106.780334,"line":6}],[{"distance":0,"is_transit":false,"i_lat":-6.14505,"transit":false,"i_long":106.836569,"time":0,"station_id":"RJW","station_name":"Rajawali","line":11},{"station_name":"Kemayoran","distance":1901,"is_transit":false,"station_id":"KMO","i_lat":-6.161728,"time":5,"i_long":106.839204,"transit":false,"line":11},{"line":11,"i_long":106.84368,"time":4,"distance":1436,"station_id":"PSE","station_name":"Pasar Senen","transit":false,"is_transit":false,"i_lat":-6.174784},{"distance":1567,"transit":false,"time":8,"i_long":106.850107,"station_id":"GST","station_name":"Gang Sentiong","line":11,"is_transit":false,"i_lat":-6.185975},{"distance":973,"station_name":"Kramat","station_id":"KMT","transit":false,"i_lat":-6.193792,"time":1,"line":11,"i_long":106.855437,"is_transit":false},{"transit":false,"line":11,"distance":1829,"station_id":"POK","station_name":"Pondok Jati","i_long":106.861737,"is_transit":false,"time":2,"i_lat":-6.209188},{"station_id":"JNG","time":9,"is_transit":true,"i_lat":-6.215091,"i_long":106.86807400000001,"transit":true,"line":0,"distance":1236,"station_name":"Jatinegara"},{"time":2,"distance":1377,"transit":false,"station_name":"Matraman","is_transit":false,"i_lat":-6.212485,"i_long":106.858896,"line":1,"station_id":"MTR"},{"distance":1275,"time":2,"i_long":106.84912,"line":0,"is_transit":true,"station_name":"Manggarai","station_id":"MRI","i_lat":-6.209883,"transit":false},{"i_lat":-6.202263,"is_transit":false,"line":1,"station_name":"Sudirman","station_id":"SUD","time":4,"transit":false,"i_long":106.822649,"distance":3186},{"station_id":"SUDB","station_name":"Sudirman Baru","i_long":106.819881,"time":1,"i_lat":-6.201433,"line":1,"transit":false,"distance":280,"is_transit":false},{"time":1,"i_lat":-6.20132,"transit":false,"station_name":"Karet","i_long":106.816351,"line":1,"distance":471,"is_transit":false,"station_id":"KAT"},{"station_name":"Tanah Abang","transit":true,"time":5,"i_lat":-6.185545,"station_id":"THB","is_transit":true,"distance":2029,"i_long":106.811091,"line":1},{"time":6,"is_transit":false,"station_id":"PLM","distance":3191,"station_name":"Palmerah","i_long":106.79689,"line":6,"transit":false,"i_lat":-6.207404},{"transit":false,"i_lat":-6.237242,"time":7,"station_name":"Kebayoran","i_long":106.780334,"line":6,"station_id":"KBY","is_transit":false,"distance":3737}],[{"station_name":"Rajawali","line":11,"i_long":106.836569,"transit":false,"time":0,"i_lat":-6.14505,"distance":0,"station_id":"RJW","is_transit":false},{"is_transit":true,"station_id":"KPB","station_name":"Kampung Bandan","transit":true,"line":0,"i_lat":-6.132549,"time":3,"distance":1444,"i_long":106.826365},{"transit":true,"distance":1364,"time":3,"station_name":"Jakarta Kota","i_lat":-6.137569,"station_id":"JAKK","is_transit":true,"i_long":106.812439,"line":0},{"is_transit":false,"station_name":"Jayakarta","transit":false,"time":4,"line":7,"distance":1264,"station_id":"JAY","i_long":106.820901,"i_lat":-6.141205},{"is_transit":false,"station_id":"MGB","distance":1080,"transit":false,"i_long":106.82482,"line":2,"i_lat":-6.149769,"station_name":"Manggabesar","time":2},{"station_name":"Sawah Besar","distance":906,"i_lat":-6.160725,"i_long":106.827103,"station_id":"SW","transit":false,"is_transit":false,"line":2,"time":2},{"station_id":"JUA","station_name":"Juanda","i_lat":-6.166716,"distance":1149,"line":2,"transit":false,"i_long":106.828284,"time":2,"is_transit":false},{"is_transit":false,"station_id":"GDD","distance":2015,"i_lat":-6.186295,"transit":false,"time":4,"station_name":"Gondangdia","i_long":106.832183,"line":2},{"i_lat":-6.198556,"line":0,"is_transit":false,"i_long":106.840169,"distance":1750,"station_id":"CKI","time":3,"station_name":"Cikini","transit":false},{"station_id":"MRI","distance":1590,"is_transit":true,"station_name":"Manggarai","transit":true,"line":0,"i_lat":-6.209883,"i_long":106.84912,"time":4},{"i_long":106.822649,"station_id":"SUD","transit":false,"distance":3186,"is_transit":false,"time":4,"i_lat":-6.202263,"station_name":"Sudirman","line":1},{"station_name":"Sudirman Baru","line":1,"i_lat":-6.201433,"distance":280,"transit":false,"time":1,"is_transit":false,"station_id":"SUDB","i_long":106.819881},{"i_long":106.816351,"station_id":"KAT","line":1,"station_name":"Karet","distance":471,"transit":false,"time":1,"i_lat":-6.20132,"is_transit":false},{"time":5,"line":1,"distance":2029,"station_id":"THB","i_lat":-6.185545,"transit":true,"i_long":106.811091,"is_transit":true,"station_name":"Tanah Abang"},{"i_long":106.79689,"distance":3191,"station_id":"PLM","station_name":"Palmerah","line":6,"is_transit":false,"time":6,"i_lat":-6.207404,"transit":false},{"is_transit":false,"station_name":"Kebayoran","transit":false,"time":7,"i_long":106.780334,"station_id":"KBY","distance":3737,"i_lat":-6.237242,"line":6}],[{"station_id":"RJW","transit":false,"line":11,"distance":0,"is_transit":false,"station_name":"Rajawali","i_lat":-6.14505,"time":0,"i_long":106.836569},{"is_transit":false,"station_name":"Kemayoran","station_id":"KMO","distance":1901,"i_lat":-6.161728,"i_long":106.839204,"line":11,"transit":false,"time":5},{"station_id":"PSE","is_transit":false,"time":4,"i_lat":-6.174784,"station_name":"Pasar Senen","distance":1436,"line":11,"i_long":106.84368,"transit":false},{"distance":1567,"i_long":106.850107,"line":11,"transit":false,"station_name":"Gang Sentiong","time":8,"station_id":"GST","i_lat":-6.185975,"is_transit":false},{"is_transit":false,"time":1,"station_name":"Kramat","i_lat":-6.193792,"distance":973,"i_long":106.855437,"transit":false,"line":11,"station_id":"KMT"},{"transit":false,"i_lat":-6.209188,"i_long":106.861737,"line":11,"is_transit":false,"distance":1829,"station_id":"POK","station_name":"Pondok Jati","time":2},{"is_transit":true,"station_name":"Jatinegara","transit":true,"time":9,"i_lat":-6.215091,"i_long":106.86807400000001,"distance":1236,"station_id":"JNG","line":0},{"i_lat":-6.212485,"line":1,"station_id":"MTR","is_transit":false,"time":2,"i_long":106.858896,"distance":1377,"transit":false,"station_name":"Matraman"},{"i_long":106.84912,"is_transit":true,"line":0,"station_id":"MRI","distance":1275,"station_name":"Manggarai","time":2,"transit":true,"i_lat":-6.209883},{"time":4,"is_transit":false,"station_name":"Cikini","i_lat":-6.198556,"station_id":"CKI","i_long":106.840169,"transit":false,"line":0,"distance":1590},{"transit":false,"station_id":"GDD","line":2,"time":3,"is_transit":false,"i_lat":-6.186295,"i_long":106.832183,"station_name":"Gondangdia","distance":1750},{"is_transit":false,"transit":false,"time":4,"station_id":"JUA","line":2,"distance":2015,"i_long":106.828284,"i_lat":-6.166716,"station_name":"Juanda"},{"is_transit":false,"transit":false,"time":2,"station_id":"SW","distance":1149,"i_long":106.827103,"line":2,"station_name":"Sawah Besar","i_lat":-6.160725},{"transit":false,"i_lat":-6.149769,"station_name":"Manggabesar","i_long":106.82482,"distance":906,"time":2,"line":2,"is_transit":false,"station_id":"MGB"},{"i_lat":-6.141205,"distance":1080,"station_id":"JAY","i_long":106.820901,"is_transit":false,"station_name":"Jayakarta","transit":false,"time":2,"line":7},{"transit":true,"time":4,"i_long":106.812439,"i_lat":-6.137569,"station_id":"JAKK","line":0,"distance":1264,"is_transit":true,"station_name":"Jakarta Kota"},{"station_name":"Kampung Bandan","i_lat":-6.132549,"is_transit":true,"line":0,"time":3,"i_long":106.826365,"station_id":"KPB","transit":false,"distance":1364},{"time":9,"i_lat":-6.144674,"i_long":106.79867,"distance":4102,"is_transit":false,"station_id":"AK","line":0,"station_name":"Angke","transit":false},{"station_name":"Duri","time":4,"transit":true,"distance":1230,"i_long":106.800832,"is_transit":true,"station_id":"DU","i_lat":-6.155215,"line":1},{"distance":3632,"i_long":106.811091,"station_id":"THB","is_transit":true,"i_lat":-6.185545,"station_name":"Tanah Abang","line":1,"transit":true,"time":8},{"i_long":106.79689,"line":6,"transit":false,"is_transit":false,"station_id":"PLM","station_name":"Palmerah","distance":3191,"time":6,"i_lat":-6.207404},{"i_lat":-6.237242,"i_long":106.780334,"line":6,"station_id":"KBY","distance":3737,"station_name":"Kebayoran","time":7,"is_transit":false,"transit":false}]]}