{"data":[[{"station_id":"RJW","i_lat":-6.14505,"i_long":106.836569,"distance":0,"station_name":"Rajawali","is_transit":false,"transit":false,"time":0,"line":11},{"i_long":106.839204,"i_lat":-6.161728,"line":11,"station_id":"KMO","station_name":"Kemayoran","transit":false,"is_transit":false,"distance":1901,"time":5},{"transit":false,"station_name":"Pasar Senen","is_transit":false,"time":4,"line":11,"station_id":"PSE","i_long":106.84368,"i_lat":-6.174784,"distance":1436},{"time":8,"i_lat":-6.185975,"distance":1567,"is_transit":false,"transit":false,"i_long":106.850107,"station_id":"GST","line":11,"station_name":"Gang Sentiong"},{"i_long":106.855437,"distance":973,"time":1,"station_id":"KMT","is_transit":false,"line":11,"transit":false,"i_lat":-6.193792,"station_name":"Kramat"},{"is_transit":false,"station_id":"POK","station_name":"Pondok Jati","time":2,"i_long":106.861737,"line":11,"i_lat":-6.209188,"distance":1829,"transit":false},{"station_name":"Jatinegara","line":0,"is_transit":true,"distance":1236,"transit":true,"i_lat":-6.215091,"time":9,"i_long":106.86807400000001,"station_id":"JNG"},{"station_id":"MTR","station_name":"Matraman","time":2,"distance":1377,"i_long":106.858896,"is_transit":false,"transit":false,"line":1,"i_lat":-6.212485},{"is_transit":true,"time":2,"i_lat":-6.209883,"distance":1275,"station_name":"Manggarai","transit":false,"station_id":"MRI","line":0,"i_long":106.84912}],[{"i_lat":-6.14505,"i_long":106.836569,"is_transit":false,"line":11,"station_id":"RJW","transit":false,"station_name":"Rajawali","distance":0,"time":0},{"i_long":106.826365,"station_id":"KPB","station_name":"Kampung Bandan","i_lat":-6.132549,"distance":1444,"transit":true,"line":0,"is_transit":true,"time":3},{"station_id":"AK","line":0,"distance":4102,"station_name":"Angke","time":9,"transit":false,"i_lat":-6.144674,"is_transit":false,"i_long":106.79867},{"station_id":"DU","station_name":"Duri","line":1,"is_transit":true,"transit":true,"time":4,"i_lat":-6.155215,"distance":1230,"i_long":106.800832},{"line":1,"i_long":106.811091,"i_lat":-6.185545,"is_transit":true,"distance":3632,"station_id":"THB","station_name":"Tanah Abang","transit":false,"time":8},{"distance":2029,"station_name":"Karet","transit":false,"time":5,"is_transit":false,"station_id":"KAT","i_long":106.816351,"line":1,"i_lat":-6.20132},{"is_transit":false,"station_id":"SUDB","distance":471,"i_long":106.819881,"time":1,"i_lat":-6.201433,"line":1,"station_name":"Sudirman Baru","transit":false},{"is_transit":false,"time":1,"transit":false,"i_lat":-6.202263,"distance":280,"station_name":"Sudirman","line":1,"i_long":106.822649,"station_id":"SUD"},{"is_transit":true,"station_id":"MRI","distance":3186,"station_name":"Manggarai","time":4,"line":0,"transit":false,"i_long":106.84912,"i_lat":-6.209883}],[{"is_transit":false,"time":0,"i_lat":-6.14505,"transit":false,"station_id":"RJW","i_long":106.836569,"station_name":"Rajawali","line":11,"distance":0},{"i_long":106.826365,"transit":true,"distance":1444,"is_transit":true,"station_name":"Kampung Bandan","line":0,"i_lat":-6.132549,"station_id":"KPB","time":3},{"is_transit":true,"station_id":"JAKK","i_lat":-6.137569,"time":3,"distance":1364,"transit":true,"i_long":106.812439,"line":0,"station_name":"Jakarta Kota"},{"line":7,"station_name":"Jayakarta","transit":false,"time":4,"i_lat":-6.141205,"distance":1264,"is_transit":false,"i_long":106.820901,"station_id":"JAY"},{"line":2,"distance":1080,"i_lat":-6.149769,"is_transit":false,"station_name":"Manggabesar","transit":false,"time":2,"station_id":"MGB","i_long":106.82482},{"distance":906,"transit":false,"station_name":"Sawah Besar","is_transit":false,"station_id":"SW","line":2,"time":2,"i_long":106.827103,"i_lat":-6.160725},{"time":2,"is_transit":false,"station_name":"Juanda","transit":false,"i_long":106.828284,"i_lat":-6.166716,"station_id":"JUA","distance":1149,"line":2},{"i_long":106.832183,"distance":2015,"time":4,"station_id":"GDD","is_transit":false,"line":2,"station_name":"Gondangdia","transit":false,"i_lat":-6.186295},{"distance":1750,"station_id":"CKI","station_name":"Cikini","transit":false,"i_long":106.840169,"line":0,"is_transit":false,"i_lat":-6.198556,"time":3},{"time":4,"is_transit":true,"i_long":106.84912,"distance":1590,"i_lat":-6.209883,"line":0,"station_id":"MRI","station_name":"Manggarai","transit":false}]]}