{"data":[[{"line":11,"distance":0,"station_name":"Rajawali","is_transit":false,"i_long":106.836569,"time":0,"station_id":"RJW","i_lat":-6.14505,"transit":false},{"distance":1901,"station_name":"Kemayoran","time":5,"station_id":"KMO","i_long":106.839204,"is_transit":false,"line":11,"transit":false,"i_lat":-6.161728},{"station_id":"PSE","time":4,"i_long":106.84368,"line":11,"is_transit":false,"transit":false,"i_lat":-6.174784,"distance":1436,"station_name":"Pasar Senen"},{"line":11,"time":8,"is_transit":false,"i_long":106.850107,"station_id":"GST","transit":false,"station_name":"Gang Sentiong","i_lat":-6.185975,"distance":1567},{"line":11,"distance":973,"i_long":106.855437,"i_lat":-6.193792,"transit":false,"station_name":"Kramat","station_id":"KMT","time":1,"is_transit":false},{"distance":1829,"i_long":106.861737,"time":2,"station_id":"POK","transit":false,"i_lat":-6.209188,"station_name":"Pondok Jati","line":11,"is_transit":false},{"station_name":"Jatinegara","station_id":"JNG","transit":true,"i_lat":-6.215091,"is_transit":true,"time":9,"line":1,"i_long":106.86807400000001,"distance":1236},{"i_long":106.899548,"station_id":"KLD","distance":3395,"is_transit":false,"line":1,"transit":false,"station_name":"Klender","i_lat":-6.2135,"time":3}],[{"is_transit":false,"station_name":"Rajawali","i_long":106.836569,"line":11,"station_id":"RJW","distance":0,"i_lat":-6.14505,"time":0,"transit":false},{"distance":1444,"i_long":106.826365,"time":3,"i_lat":-6.132549,"station_id":"KPB","line":4,"is_transit":true,"transit":true,"station_name":"Kampung Bandan"},{"i_lat":-6.144674,"i_long":106.79867,"is_transit":false,"time":9,"transit":false,"station_name":"Angke","distance":4102,"line":1,"station_id":"AK"},{"transit":false,"distance":1230,"time":4,"is_transit":false,"i_lat":-6.155215,"station_name":"Duri","i_long":106.800832,"line":1,"station_id":"DU"},{"station_id":"THB","is_transit":false,"i_long":106.811091,"station_name":"Tanah Abang","i_lat":-6.185545,"line":1,"transit":false,"time":8,"distance":3632},{"i_long":106.816351,"distance":2029,"is_transit":false,"line":1,"transit":false,"station_id":"KAT","station_name":"Karet","i_lat":-6.20132,"time":5},{"line":1,"distance":471,"station_name":"Sudirman Baru","i_long":106.819881,"time":1,"station_id":"SUDB","is_transit":false,"transit":false,"i_lat":-6.201433},{"transit":false,"distance":280,"station_name":"Sudirman","time":1,"i_lat":-6.202263,"i_long":106.822649,"is_transit":false,"line":1,"station_id":"SUD"},{"time":4,"transit":false,"station_id":"MRI","i_long":106.84912,"is_transit":false,"i_lat":-6.209883,"distance":3186,"station_name":"Manggarai","line":2},{"transit":false,"i_long":106.858896,"i_lat":-6.212485,"station_name":"Matraman","time":2,"station_id":"MTR","is_transit":false,"line":1,"distance":1275},{"station_id":"JNG","is_transit":false,"transit":false,"time":8,"distance":1377,"station_name":"Jatinegara","i_lat":-6.215091,"i_long":106.86807400000001,"line":1},{"station_id":"KLD","station_name":"Klender","i_lat":-6.2135,"transit":false,"time":3,"distance":3395,"is_transit":false,"line":1,"i_long":106.899548}],[{"station_id":"RJW","transit":false,"station_name":"Rajawali","is_transit":false,"line":11,"time":0,"i_long":106.836569,"i_lat":-6.14505,"distance":0},{"distance":1444,"line":4,"station_name":"Kampung Bandan","is_transit":true,"time":3,"transit":true,"station_id":"KPB","i_lat":-6.132549,"i_long":106.826365},{"distance":1364,"i_long":106.812439,"transit":true,"station_id":"JAKK","i_lat":-6.137569,"station_name":"Jakarta Kota","is_transit":true,"time":3,"line":2},{"station_id":"JAY","time":4,"i_long":106.820901,"i_lat":-6.141205,"distance":1264,"is_transit":false,"station_name":"Jayakarta","transit":false,"line":2},{"station_name":"Manggabesar","i_long":106.82482,"distance":1080,"line":2,"time":2,"station_id":"MGB","is_transit":false,"transit":false,"i_lat":-6.149769},{"transit":false,"line":2,"time":2,"station_id":"SW","station_name":"Sawah Besar","is_transit":false,"i_lat":-6.160725,"i_long":106.827103,"distance":906},{"time":2,"station_id":"JUA","line":2,"distance":1149,"transit":false,"i_lat":-6.166716,"is_transit":false,"station_name":"Juanda","i_long":106.828284},{"line":2,"distance":2015,"is_transit":false,"i_long":106.832183,"station_name":"Gondangdia","transit":false,"station_id":"GDD","i_lat":-6.186295,"time":4},{"time":3,"line":2,"station_id":"CKI","i_lat":-6.198556,"distance":1750,"station_name":"Cikini","is_transit":false,"i_long":106.840169,"transit":false},{"station_id":"MRI","distance":1590,"station_name":"Manggarai","is_transit":true,"transit":true,"i_long":106.84912,"time":4,"i_lat":-6.209883,"line":2},{"line":1,"i_lat":-6.212485,"distance":1275,"station_id":"MTR","is_transit":false,"transit":false,"station_name":"Matraman","i_long":106.858896,"time":2},{"station_id":"JNG","station_name":"Jatinegara","time":8,"transit":false,"line":1,"i_long":106.86807400000001,"i_lat":-6.215091,"distance":1377,"is_transit":false},{"line":1,"distance":3395,"station_name":"Klender","station_id":"KLD","time":3,"transit":false,"i_long":106.899548,"i_lat":-6.2135,"is_transit":false}]]}