{"data":[[{"line":11,"transit":false,"station_name":"Rajawali","is_transit":false,"station_id":"RJW","i_long":106.836569,"time":0,"i_lat":-6.14505,"distance":0},{"distance":1444,"is_transit":true,"station_name":"Kampung Bandan","time":3,"i_long":106.826365,"line":0,"station_id":"KPB","transit":true,"i_lat":-6.132549},{"time":9,"station_name":"Angke","line":0,"distance":4102,"i_long":106.79867,"i_lat":-6.144674,"is_transit":false,"station_id":"AK","transit":false},{"time":4,"is_transit":true,"station_name":"Duri","i_long":106.800832,"line":1,"distance":1230,"transit":false,"i_lat":-6.155215,"station_id":"DU"}],[{"i_lat":-6.14505,"line":11,"is_transit":false,"time":0,"distance":0,"transit":false,"station_id":"RJW","i_long":106.836569,"station_name":"Rajawali"},{"distance":1901,"i_long":106.839204,"line":11,"is_transit":false,"station_id":"KMO","time":5,"i_lat":-6.161728,"transit":false,"station_name":"Kemayoran"},{"station_id":"PSE","i_lat":-6.174784,"is_transit":false,"i_long":106.84368,"transit":false,"station_name":"Pasar Senen","time":4,"line":11,"distance":1436},{"i_lat":-6.185975,"line":11,"transit":false,"station_id":"GST","time":8,"station_name":"Gang Sentiong","distance":1567,"is_transit":false,"i_long":106.850107},{"distance":973,"i_lat":-6.193792,"is_transit":false,"time":1,"transit":false,"i_long":106.855437,"line":11,"station_id":"KMT","station_name":"Kramat"},{"i_long":106.861737,"station_id":"POK","time":2,"line":11,"station_name":"Pondok Jati","is_transit":false,"i_lat":-6.209188,"distance":1829,"transit":false},{"is_transit":true,"line":0,"station_id":"JNG","time":9,"station_name":"Jatinegara","distance":1236,"i_long":106.86807400000001,"transit":true,"i_lat":-6.215091},{"distance":1377,"i_lat":-6.212485,"station_id":"MTR","station_name":"Matraman","time":2,"i_long":106.858896,"transit":false,"is_transit":false,"line":1},{"station_name":"Manggarai","station_id":"MRI","is_transit":true,"transit":false,"distance":1275,"i_lat":-6.209883,"i_long":106.84912,"time":2,"line":0},{"transit":false,"station_id":"SUD","is_transit":false,"i_lat":-6.202263,"time":4,"distance":3186,"i_long":106.822649,"station_name":"Sudirman","line":1},{"line":1,"i_long":106.819881,"station_name":"Sudirman Baru","i_lat":-6.201433,"time":1,"is_transit":false,"station_id":"SUDB","distance":280,"transit":false},{"distance":471,"time":1,"station_name":"Karet","i_lat":-6.20132,"i_long":106.816351,"transit":false,"line":1,"station_id":"KAT","is_transit":false},{"line":1,"time":5,"station_id":"THB","i_lat":-6.185545,"transit":false,"distance":2029,"i_long":106.811091,"station_name":"Tanah Abang","is_transit":true},{"i_long":106.800832,"distance":3632,"line":1,"station_id":"DU","i_lat":-6.155215,"is_transit":true,"station_name":"Duri","transit":false,"time":8}],[{"distance":0,"station_id":"RJW","transit":false,"time":0,"i_lat":-6.14505,"is_transit":false,"i_long":106.836569,"station_name":"Rajawali","line":11},{"time":3,"line":0,"station_id":"KPB","distance":1444,"is_transit":true,"i_lat":-6.132549,"station_name":"Kampung Bandan","i_long":106.826365,"transit":true},{"transit":true,"station_name":"Jakarta Kota","i_long":106.812439,"distance":1364,"line":0,"station_id":"JAKK","is_transit":true,"time":3,"i_lat":-6.137569},{"i_long":106.820901,"distance":1264,"is_transit":false,"station_id":"JAY","station_name":"Jayakarta","transit":false,"i_lat":-6.141205,"time":4,"line":7},{"transit":false,"distance":1080,"station_id":"MGB","time":2,"line":2,"station_name":"Manggabesar","is_transit":false,"i_lat":-6.149769,"i_long":106.82482},{"station_id":"SW","i_lat":-6.160725,"station_name":"Sawah Besar","transit":false,"i_long":106.827103,"distance":906,"is_transit":false,"line":2,"time":2},{"station_id":"JUA","i_lat":-6.166716,"line":2,"time":2,"is_transit":false,"distance":1149,"station_name":"Juanda","transit":false,"i_long":106.828284},{"i_long":106.832183,"distance":2015,"station_id":"GDD","time":4,"line":2,"i_lat":-6.186295,"is_transit":false,"station_name":"Gondangdia","transit":false},{"transit":false,"i_lat":-6.198556,"distance":1750,"is_transit":false,"station_id":"CKI","line":0,"station_name":"Cikini","time":3,"i_long":106.840169},{"i_long":106.84912,"distance":1590,"station_id":"MRI","time":4,"line":0,"transit":true,"is_transit":true,"i_lat":-6.209883,"station_name":"Manggarai"},{"transit":false,"time":4,"line":1,"distance":3186,"is_transit":false,"i_lat":-6.202263,"station_id":"SUD","i_long":106.822649,"station_name":"Sudirman"},{"i_long":106.819881,"station_id":"SUDB","i_lat":-6.201433,"station_name":"Sudirman Baru","time":1,"line":1,"distance":280,"transit":false,"is_transit":false},{"time":1,"station_id":"KAT","distance":471,"transit":false,"is_transit":false,"station_name":"Karet","i_long":106.816351,"i_lat":-6.20132,"line":1},{"station_name":"Tanah Abang","is_transit":true,"distance":2029,"i_lat":-6.185545,"i_long":106.811091,"transit":false,"station_id":"THB","time":5,"line":1},{"transit":false,"distance":3632,"line":1,"station_id":"DU","time":8,"i_lat":-6.155215,"i_long":106.800832,"station_name":"Duri","is_transit":true}],[{"time":0,"line":11,"distance":0,"station_id":"RJW","transit":false,"is_transit":false,"i_long":106.836569,"i_lat":-6.14505,"station_name":"Rajawali"},{"transit":false,"time":5,"i_lat":-6.161728,"station_id":"KMO","station_name":"Kemayoran","distance":1901,"line":11,"is_transit":false,"i_long":106.839204},{"i_lat":-6.174784,"transit":false,"time":4,"line":11,"station_name":"Pasar Senen","i_long":106.84368,"is_transit":false,"station_id":"PSE","distance":1436},{"station_name":"Gang Sentiong","transit":false,"time":8,"station_id":"GST","i_long":106.850107,"i_lat":-6.185975,"distance":1567,"is_transit":false,"line":11},{"i_long":106.855437,"station_id":"KMT","is_transit":false,"station_name":"Kramat","transit":false,"time":1,"distance":973,"i_lat":-6.193792,"line":11},{"transit":false,"i_lat":-6.209188,"line":11,"is_transit":false,"station_name":"Pondok Jati","time":2,"i_long":106.861737,"distance":1829,"station_id":"POK"},{"i_long":106.86807400000001,"station_name":"Jatinegara","time":9,"i_lat":-6.215091,"line":0,"transit":true,"is_transit":true,"station_id":"JNG","distance":1236},{"i_long":106.858896,"i_lat":-6.212485,"station_id":"MTR","distance":1377,"is_transit":false,"station_name":"Matraman","time":2,"line":1,"transit":false},{"i_lat":-6.209883,"i_long":106.84912,"distance":1275,"line":0,"station_id":"MRI","is_transit":true,"station_name":"Manggarai","transit":true,"time":2},{"station_name":"Cikini","i_long":106.840169,"line":0,"time":4,"distance":1590,"is_transit":false,"station_id":"CKI","transit":false,"i_lat":-6.198556},{"station_id":"GDD","i_long":106.832183,"line":2,"is_transit":false,"station_name":"Gondangdia","transit":false,"time":3,"i_lat":-6.186295,"distance":1750},{"distance":2015,"station_name":"Juanda","is_transit":false,"i_lat":-6.166716,"i_long":106.828284,"line":2,"time":4,"transit":false,"station_id":"JUA"},{"line":2,"transit":false,"distance":1149,"station_name":"Sawah Besar","i_long":106.827103,"time":2,"i_lat":-6.160725,"is_transit":false,"station_id":"SW"},{"time":2,"is_transit":false,"distance":906,"station_name":"Manggabesar","station_id":"MGB","transit":false,"i_lat":-6.149769,"i_long":106.82482,"line":2},{"station_name":"Jayakarta","station_id":"JAY","i_lat":-6.141205,"time":2,"distance":1080,"line":7,"is_transit":false,"transit":false,"i_long":106.820901},{"station_name":"Jakarta Kota","i_lat":-6.137569,"i_long":106.812439,"line":0,"station_id":"JAKK","is_transit":true,"distance":1264,"transit":true,"time":4},{"i_long":106.826365,"station_name":"Kampung Bandan","transit":false,"station_id":"KPB","distance":1364,"i_lat":-6.132549,"is_transit":true,"time":3,"line":0},{"station_id":"AK","transit":false,"distance":4102,"station_name":"Angke","time":9,"i_long":106.79867,"line":0,"is_transit":false,"i_lat":-6.144674},{"station_id":"DU","i_lat":-6.155215,"line":1,"is_transit":true,"distance":1230,"station_name":"Duri","transit":false,"i_long":106.800832,"time":4}]]}