{"data":[[{"line":11,"station_name":"Rajawali","distance":0,"time":0,"i_long":106.836569,"station_id":"RJW","is_transit":false,"i_lat":-6.14505,"transit":false},{"time":3,"i_lat":-6.132549,"line":4,"i_long":106.826365,"transit":true,"distance":1444,"is_transit":true,"station_name":"Kampung Bandan","station_id":"KPB"},{"i_long":106.79867,"distance":4102,"station_id":"AK","i_lat":-6.144674,"is_transit":false,"transit":false,"line":1,"station_name":"Angke","time":9},{"transit":false,"station_id":"DU","station_name":"Duri","is_transit":false,"i_lat":-6.155215,"line":1,"i_long":106.800832,"time":4,"distance":1230},{"transit":true,"is_transit":true,"line":1,"station_name":"Tanah Abang","station_id":"THB","i_long":106.811091,"i_lat":-6.185545,"time":8,"distance":3632},{"station_name":"Palmerah","distance":3191,"i_long":106.79689,"station_id":"PLM","transit":false,"i_lat":-6.207404,"time":6,"line":6,"is_transit":false},{"is_transit":false,"transit":false,"distance":3737,"i_lat":-6.237242,"line":6,"time":7,"station_name":"Kebayoran","i_long":106.780334,"station_id":"KBY"},{"transit":false,"time":8,"line":6,"is_transit":false,"distance":6218,"i_long":106.74273,"station_id":"PDJ","station_name":"Pondokranji","i_lat":-6.276362},{"transit":false,"line":6,"station_id":"JMU","time":3,"is_transit":false,"station_name":"Jurangmangu","distance":2179,"i_lat":-6.288927,"i_long":106.728916}],[{"i_lat":-6.14505,"line":11,"station_name":"Rajawali","is_transit":false,"i_long":106.836569,"transit":false,"time":0,"distance":0,"station_id":"RJW"},{"distance":1901,"is_transit":false,"time":5,"line":11,"station_name":"Kemayoran","station_id":"KMO","transit":false,"i_lat":-6.161728,"i_long":106.839204},{"transit":false,"distance":1436,"i_long":106.84368,"station_id":"PSE","time":4,"line":11,"i_lat":-6.174784,"station_name":"Pasar Senen","is_transit":false},{"time":8,"station_id":"GST","line":11,"station_name":"Gang Sentiong","transit":false,"i_lat":-6.185975,"distance":1567,"i_long":106.850107,"is_transit":false},{"distance":973,"line":11,"transit":false,"is_transit":false,"i_lat":-6.193792,"time":1,"station_name":"Kramat","station_id":"KMT","i_long":106.855437},{"is_transit":false,"transit":false,"distance":1829,"i_lat":-6.209188,"line":11,"station_name":"Pondok Jati","i_long":106.861737,"station_id":"POK","time":2},{"transit":true,"i_lat":-6.215091,"line":1,"station_name":"Jatinegara","station_id":"JNG","distance":1236,"is_transit":true,"time":9,"i_long":106.86807400000001},{"i_lat":-6.212485,"i_long":106.858896,"station_name":"Matraman","line":1,"distance":1377,"transit":false,"station_id":"MTR","time":2,"is_transit":false},{"station_id":"MRI","time":2,"is_transit":false,"distance":1275,"i_long":106.84912,"station_name":"Manggarai","line":2,"transit":false,"i_lat":-6.209883},{"station_name":"Sudirman","i_lat":-6.202263,"i_long":106.822649,"line":1,"station_id":"SUD","time":4,"distance":3186,"transit":false,"is_transit":false},{"station_name":"Sudirman Baru","transit":false,"distance":280,"is_transit":false,"line":1,"i_lat":-6.201433,"station_id":"SUDB","time":1,"i_long":106.819881},{"transit":false,"i_long":106.816351,"i_lat":-6.20132,"station_name":"Karet","station_id":"KAT","is_transit":false,"time":1,"line":1,"distance":471},{"time":5,"i_long":106.811091,"is_transit":true,"station_id":"THB","i_lat":-6.185545,"line":1,"transit":true,"station_name":"Tanah Abang","distance":2029},{"i_lat":-6.207404,"station_id":"PLM","is_transit":false,"station_name":"Palmerah","i_long":106.79689,"time":6,"distance":3191,"line":6,"transit":false},{"time":7,"station_name":"Kebayoran","i_lat":-6.237242,"station_id":"KBY","line":6,"transit":false,"distance":3737,"i_long":106.780334,"is_transit":false},{"distance":6218,"station_name":"Pondokranji","i_lat":-6.276362,"transit":false,"line":6,"is_transit":false,"station_id":"PDJ","i_long":106.74273,"time":8},{"distance":2179,"i_lat":-6.288927,"transit":false,"line":6,"is_transit":false,"station_name":"Jurangmangu","time":3,"i_long":106.728916,"station_id":"JMU"}],[{"station_id":"RJW","time":0,"transit":false,"distance":0,"station_name":"Rajawali","i_long":106.836569,"line":11,"i_lat":-6.14505,"is_transit":false},{"station_id":"KPB","i_long":106.826365,"station_name":"Kampung Bandan","distance":1444,"is_transit":true,"transit":true,"time":3,"line":4,"i_lat":-6.132549},{"station_id":"JAKK","line":2,"is_transit":true,"station_name":"Jakarta Kota","transit":true,"time":3,"distance":1364,"i_lat":-6.137569,"i_long":106.812439},{"time":4,"station_name":"Jayakarta","distance":1264,"is_transit":false,"station_id":"JAY","i_lat":-6.141205,"transit":false,"i_long":106.820901,"line":2},{"distance":1080,"station_name":"Manggabesar","station_id":"MGB","i_lat":-6.149769,"time":2,"line":2,"transit":false,"is_transit":false,"i_long":106.82482},{"is_transit":false,"station_name":"Sawah Besar","station_id":"SW","distance":906,"transit":false,"time":2,"i_long":106.827103,"line":2,"i_lat":-6.160725},{"station_id":"JUA","time":2,"distance":1149,"station_name":"Juanda","is_transit":false,"transit":false,"i_lat":-6.166716,"i_long":106.828284,"line":2},{"station_name":"Gondangdia","transit":false,"time":4,"i_lat":-6.186295,"i_long":106.832183,"line":2,"station_id":"GDD","distance":2015,"is_transit":false},{"line":2,"time":3,"transit":false,"station_id":"CKI","is_transit":false,"i_lat":-6.198556,"i_long":106.840169,"station_name":"Cikini","distance":1750},{"transit":true,"time":4,"is_transit":true,"line":2,"station_id":"MRI","i_lat":-6.209883,"station_name":"Manggarai","distance":1590,"i_long":106.84912},{"is_transit":false,"line":1,"station_name":"Sudirman","i_long":106.822649,"time":4,"transit":false,"distance":3186,"station_id":"SUD","i_lat":-6.202263},{"is_transit":false,"i_long":106.819881,"line":1,"station_name":"Sudirman Baru","station_id":"SUDB","transit":false,"time":1,"distance":280,"i_lat":-6.201433},{"distance":471,"is_transit":false,"i_long":106.816351,"transit":false,"i_lat":-6.20132,"station_id":"KAT","station_name":"Karet","time":1,"line":1},{"station_name":"Tanah Abang","station_id":"THB","is_transit":true,"i_long":106.811091,"i_lat":-6.185545,"distance":2029,"transit":true,"line":1,"time":5},{"time":6,"distance":3191,"is_transit":false,"i_lat":-6.207404,"transit":false,"station_id":"PLM","i_long":106.79689,"station_name":"Palmerah","line":6},{"i_lat":-6.237242,"i_long":106.780334,"distance":3737,"station_id":"KBY","transit":false,"time":7,"line":6,"station_name":"Kebayoran","is_transit":false},{"i_long":106.74273,"station_name":"Pondokranji","line":6,"distance":6218,"transit":false,"i_lat":-6.276362,"time":8,"station_id":"PDJ","is_transit":false},{"i_lat":-6.288927,"time":3,"transit":false,"station_name":"Jurangmangu","i_long":106.728916,"distance":2179,"station_id":"JMU","is_transit":false,"line":6}],[{"station_name":"Rajawali","line":11,"transit":false,"is_transit":false,"distance":0,"i_long":106.836569,"i_lat":-6.14505,"station_id":"RJW","time":0},{"is_transit":false,"i_lat":-6.161728,"station_name":"Kemayoran","transit":false,"time":5,"distance":1901,"i_long":106.839204,"line":11,"station_id":"KMO"},{"is_transit":false,"line":11,"station_id":"PSE","station_name":"Pasar Senen","distance":1436,"time":4,"i_lat":-6.174784,"i_long":106.84368,"transit":false},{"transit":false,"time":8,"is_transit":false,"i_long":106.850107,"station_name":"Gang Sentiong","station_id":"GST","i_lat":-6.185975,"line":11,"distance":1567},{"i_lat":-6.193792,"station_name":"Kramat","i_long":106.855437,"distance":973,"is_transit":false,"line":11,"time":1,"transit":false,"station_id":"KMT"},{"station_name":"Pondok Jati","i_long":106.861737,"distance":1829,"transit":false,"line":11,"is_transit":false,"time":2,"station_id":"POK","i_lat":-6.209188},{"station_name":"Jatinegara","line":1,"transit":true,"is_transit":true,"i_long":106.86807400000001,"distance":1236,"time":9,"i_lat":-6.215091,"station_id":"JNG"},{"is_transit":false,"station_name":"Matraman","i_lat":-6.212485,"line":1,"transit":false,"time":2,"distance":1377,"i_long":106.858896,"station_id":"MTR"},{"i_lat":-6.209883,"transit":true,"station_id":"MRI","distance":1275,"is_transit":true,"line":2,"station_name":"Manggarai","time":2,"i_long":106.84912},{"transit":false,"distance":1590,"line":2,"i_lat":-6.198556,"i_long":106.840169,"time":4,"is_transit":false,"station_id":"CKI","station_name":"Cikini"},{"distance":1750,"is_transit":false,"i_long":106.832183,"station_id":"GDD","transit":false,"line":2,"station_name":"Gondangdia","i_lat":-6.186295,"time":3},{"time":4,"transit":false,"i_lat":-6.166716,"line":2,"station_name":"Juanda","distance":2015,"i_long":106.828284,"station_id":"JUA","is_transit":false},{"distance":1149,"i_lat":-6.160725,"time":2,"station_id":"SW","i_long":106.827103,"station_name":"Sawah Besar","transit":false,"is_transit":false,"line":2},{"time":2,"transit":false,"station_name":"Manggabesar","i_lat":-6.149769,"station_id":"MGB","is_transit":false,"i_long":106.82482,"distance":906,"line":2},{"time":2,"i_lat":-6.141205,"station_id":"JAY","transit":false,"is_transit":false,"i_long":106.820901,"station_name":"Jayakarta","line":2,"distance":1080},{"station_id":"JAKK","distance":1264,"time":4,"line":2,"transit":true,"i_lat":-6.137569,"is_transit":true,"station_name":"Jakarta Kota","i_long":106.812439},{"line":4,"transit":true,"station_name":"Kampung Bandan","is_transit":true,"station_id":"KPB","time":3,"i_lat":-6.132549,"i_long":106.826365,"distance":1364},{"time":9,"distance":4102,"line":1,"transit":false,"is_transit":false,"i_lat":-6.144674,"station_id":"AK","i_long":106.79867,"station_name":"Angke"},{"is_transit":false,"station_name":"Duri","transit":false,"distance":1230,"line":1,"time":4,"i_lat":-6.155215,"station_id":"DU","i_long":106.800832},{"station_name":"Tanah Abang","station_id":"THB","i_lat":-6.185545,"line":1,"transit":true,"distance":3632,"is_transit":true,"i_long":106.811091,"time":8},{"distance":3191,"station_name":"Palmerah","line":6,"time":6,"is_transit":false,"i_lat":-6.207404,"transit":false,"station_id":"PLM","i_long":106.79689},{"transit":false,"is_transit":false,"i_lat":-6.237242,"time":7,"station_id":"KBY","i_long":106.780334,"station_name":"Kebayoran","distance":3737,"line":6},{"station_name":"Pondokranji","line":6,"transit":false,"station_id":"PDJ","i_lat":-6.276362,"distance":6218,"i_long":106.74273,"is_transit":false,"time":8},{"transit":false,"i_long":106.728916,"time":3,"is_transit":false,"station_id":"JMU","distance":2179,"i_lat":-6.288927,"line":6,"station_name":"Jurangmangu"}]]}