{"data":[[{"transit":false,"distance":0,"station_name":"Rajawali","i_long":106.836569,"line":11,"station_id":"RJW","i_lat":-6.14505,"time":0,"is_transit":false},{"i_long":106.839204,"time":5,"transit":false,"line":11,"station_name":"Kemayoran","distance":1901,"station_id":"KMO","i_lat":-6.161728,"is_transit":false},{"station_id":"PSE","time":4,"transit":false,"i_long":106.84368,"is_transit":false,"line":11,"distance":1436,"station_name":"Pasar Senen","i_lat":-6.174784},{"station_id":"GST","transit":false,"line":11,"distance":1567,"station_name":"Gang Sentiong","i_lat":-6.185975,"i_long":106.850107,"time":8,"is_transit":false},{"distance":973,"line":11,"transit":false,"time":1,"station_id":"KMT","is_transit":false,"i_long":106.855437,"station_name":"Kramat","i_lat":-6.193792},{"station_name":"Pondok Jati","station_id":"POK","i_lat":-6.209188,"time":2,"transit":false,"i_long":106.861737,"line":11,"distance":1829,"is_transit":false},{"transit":true,"line":1,"distance":1236,"station_id":"JNG","time":9,"station_name":"Jatinegara","i_long":106.86807400000001,"i_lat":-6.215091,"is_transit":true},{"station_id":"MTR","station_name":"Matraman","is_transit":false,"transit":false,"distance":1377,"i_lat":-6.212485,"line":1,"i_long":106.858896,"time":2},{"i_long":106.84912,"i_lat":-6.209883,"distance":1275,"line":2,"time":2,"is_transit":true,"transit":true,"station_id":"MRI","station_name":"Manggarai"},{"i_long":106.857948,"line":2,"time":4,"transit":false,"station_name":"Tebet","is_transit":false,"station_id":"TEB","i_lat":-6.226659,"distance":2610},{"station_name":"Cawang","distance":1230,"line":2,"time":2,"i_long":106.856607,"is_transit":false,"i_lat":-6.242512,"station_id":"CW","transit":false},{"i_long":106.85449,"is_transit":false,"distance":1546,"line":2,"transit":false,"station_name":"Duren Kalibata","station_id":"DRN","i_lat":-6.255332,"time":3},{"time":2,"station_id":"PSMB","station_name":"Pasar Minggu Baru","distance":824,"i_lat":-6.263214,"i_long":106.851577,"is_transit":false,"line":2,"transit":false}],[{"i_lat":-6.14505,"station_id":"RJW","transit":false,"station_name":"Rajawali","is_transit":false,"distance":0,"i_long":106.836569,"line":11,"time":0},{"station_name":"Kampung Bandan","is_transit":true,"station_id":"KPB","i_long":106.826365,"time":3,"transit":true,"distance":1444,"i_lat":-6.132549,"line":4},{"i_lat":-6.144674,"station_id":"AK","distance":4102,"is_transit":false,"line":1,"transit":false,"station_name":"Angke","time":9,"i_long":106.79867},{"station_name":"Duri","line":1,"is_transit":false,"distance":1230,"time":4,"i_lat":-6.155215,"transit":false,"i_long":106.800832,"station_id":"DU"},{"station_id":"THB","is_transit":false,"line":1,"time":8,"distance":3632,"i_lat":-6.185545,"station_name":"Tanah Abang","transit":false,"i_long":106.811091},{"time":5,"transit":false,"i_lat":-6.20132,"line":1,"station_id":"KAT","is_transit":false,"distance":2029,"station_name":"Karet","i_long":106.816351},{"is_transit":false,"transit":false,"station_id":"SUDB","i_long":106.819881,"line":1,"distance":471,"station_name":"Sudirman Baru","time":1,"i_lat":-6.201433},{"is_transit":false,"station_id":"SUD","i_long":106.822649,"i_lat":-6.202263,"distance":280,"line":1,"time":1,"station_name":"Sudirman","transit":false},{"i_lat":-6.209883,"i_long":106.84912,"station_id":"MRI","line":2,"distance":3186,"is_transit":true,"station_name":"Manggarai","time":4,"transit":true},{"time":4,"transit":false,"i_lat":-6.226659,"line":2,"i_long":106.857948,"station_name":"Tebet","distance":2610,"station_id":"TEB","is_transit":false},{"transit":false,"station_id":"CW","station_name":"Cawang","i_lat":-6.242512,"time":2,"line":2,"i_long":106.856607,"is_transit":false,"distance":1230},{"station_id":"DRN","transit":false,"i_lat":-6.255332,"station_name":"Duren Kalibata","line":2,"is_transit":false,"distance":1546,"time":3,"i_long":106.85449},{"station_name":"Pasar Minggu Baru","time":2,"i_long":106.851577,"station_id":"PSMB","i_lat":-6.263214,"line":2,"is_transit":false,"transit":false,"distance":824}],[{"station_id":"RJW","transit":false,"line":11,"station_name":"Rajawali","distance":0,"is_transit":false,"i_lat":-6.14505,"time":0,"i_long":106.836569},{"station_id":"KPB","transit":true,"time":3,"distance":1444,"station_name":"Kampung Bandan","i_lat":-6.132549,"line":4,"is_transit":true,"i_long":106.826365},{"i_lat":-6.137569,"time":3,"distance":1364,"station_id":"JAKK","transit":true,"station_name":"Jakarta Kota","is_transit":true,"i_long":106.812439,"line":2},{"is_transit":false,"station_name":"Jayakarta","distance":1264,"station_id":"JAY","i_lat":-6.141205,"line":2,"transit":false,"time":4,"i_long":106.820901},{"station_name":"Manggabesar","line":2,"time":2,"station_id":"MGB","transit":false,"i_long":106.82482,"is_transit":false,"i_lat":-6.149769,"distance":1080},{"time":2,"distance":906,"is_transit":false,"line":2,"i_long":106.827103,"station_name":"Sawah Besar","transit":false,"station_id":"SW","i_lat":-6.160725},{"station_name":"Juanda","time":2,"station_id":"JUA","is_transit":false,"i_lat":-6.166716,"distance":1149,"transit":false,"line":2,"i_long":106.828284},{"distance":2015,"is_transit":false,"time":4,"i_long":106.832183,"line":2,"station_id":"GDD","station_name":"Gondangdia","transit":false,"i_lat":-6.186295},{"i_lat":-6.198556,"i_long":106.840169,"time":3,"distance":1750,"line":2,"station_name":"Cikini","station_id":"CKI","is_transit":false,"transit":false},{"line":2,"is_transit":false,"time":4,"i_lat":-6.209883,"i_long":106.84912,"transit":false,"station_name":"Manggarai","distance":1590,"station_id":"MRI"},{"i_lat":-6.226659,"is_transit":false,"i_long":106.857948,"transit":false,"distance":2610,"station_name":"Tebet","line":2,"time":4,"station_id":"TEB"},{"transit":false,"i_long":106.856607,"is_transit":false,"station_name":"Cawang","station_id":"CW","distance":1230,"time":2,"line":2,"i_lat":-6.242512},{"station_id":"DRN","i_long":106.85449,"is_transit":false,"station_name":"Duren Kalibata","i_lat":-6.255332,"line":2,"distance":1546,"transit":false,"time":3},{"line":2,"transit":false,"i_long":106.851577,"station_name":"Pasar Minggu Baru","i_lat":-6.263214,"distance":824,"time":2,"station_id":"PSMB","is_transit":false}]]}