{"data":[[{"time":0,"station_id":"RJW","is_transit":false,"distance":0,"i_lat":-6.14505,"station_name":"Rajawali","line":11,"i_long":106.836569,"transit":false},{"i_lat":-6.132549,"is_transit":true,"station_id":"KPB","distance":1444,"line":4,"transit":true,"station_name":"Kampung Bandan","i_long":106.826365,"time":3},{"distance":4102,"line":1,"i_long":106.79867,"time":9,"station_id":"AK","transit":false,"station_name":"Angke","i_lat":-6.144674,"is_transit":false},{"transit":false,"i_lat":-6.155215,"time":4,"station_name":"Duri","is_transit":false,"distance":1230,"station_id":"DU","line":1,"i_long":106.800832},{"i_long":106.811091,"station_name":"Tanah Abang","station_id":"THB","time":8,"is_transit":true,"line":1,"transit":true,"i_lat":-6.185545,"distance":3632},{"is_transit":false,"line":6,"i_lat":-6.207404,"station_id":"PLM","distance":3191,"i_long":106.79689,"time":6,"station_name":"Palmerah","transit":false}],[{"is_transit":false,"station_id":"RJW","i_long":106.836569,"station_name":"Rajawali","transit":false,"i_lat":-6.14505,"distance":0,"time":0,"line":11},{"transit":false,"station_name":"Kemayoran","time":5,"distance":1901,"i_lat":-6.161728,"station_id":"KMO","i_long":106.839204,"is_transit":false,"line":11},{"line":11,"station_id":"PSE","is_transit":false,"i_long":106.84368,"time":4,"i_lat":-6.174784,"distance":1436,"transit":false,"station_name":"Pasar Senen"},{"i_lat":-6.185975,"line":11,"station_name":"Gang Sentiong","distance":1567,"time":8,"i_long":106.850107,"is_transit":false,"station_id":"GST","transit":false},{"line":11,"is_transit":false,"distance":973,"time":1,"i_long":106.855437,"transit":false,"station_name":"Kramat","station_id":"KMT","i_lat":-6.193792},{"station_id":"POK","is_transit":false,"line":11,"distance":1829,"i_long":106.861737,"transit":false,"station_name":"Pondok Jati","time":2,"i_lat":-6.209188},{"station_id":"JNG","i_lat":-6.215091,"line":1,"distance":1236,"time":9,"transit":true,"station_name":"Jatinegara","is_transit":true,"i_long":106.86807400000001},{"distance":1377,"time":2,"is_transit":false,"transit":false,"station_name":"Matraman","line":1,"i_lat":-6.212485,"station_id":"MTR","i_long":106.858896},{"distance":1275,"is_transit":false,"i_long":106.84912,"i_lat":-6.209883,"station_name":"Manggarai","station_id":"MRI","time":2,"transit":false,"line":2},{"distance":3186,"station_id":"SUD","transit":false,"station_name":"Sudirman","time":4,"is_transit":false,"i_lat":-6.202263,"i_long":106.822649,"line":1},{"i_lat":-6.201433,"station_name":"Sudirman Baru","time":1,"distance":280,"line":1,"is_transit":false,"station_id":"SUDB","i_long":106.819881,"transit":false},{"is_transit":false,"transit":false,"i_lat":-6.20132,"line":1,"distance":471,"station_name":"Karet","time":1,"station_id":"KAT","i_long":106.816351},{"time":5,"transit":true,"i_long":106.811091,"is_transit":true,"station_id":"THB","station_name":"Tanah Abang","line":1,"i_lat":-6.185545,"distance":2029},{"i_lat":-6.207404,"is_transit":false,"station_id":"PLM","line":6,"transit":false,"distance":3191,"i_long":106.79689,"station_name":"Palmerah","time":6}],[{"i_lat":-6.14505,"time":0,"is_transit":false,"i_long":106.836569,"distance":0,"station_id":"RJW","station_name":"Rajawali","transit":false,"line":11},{"i_lat":-6.132549,"distance":1444,"is_transit":true,"i_long":106.826365,"station_id":"KPB","station_name":"Kampung Bandan","line":4,"time":3,"transit":true},{"distance":1364,"station_id":"JAKK","i_long":106.812439,"time":3,"transit":true,"station_name":"Jakarta Kota","line":2,"i_lat":-6.137569,"is_transit":true},{"station_name":"Jayakarta","is_transit":false,"station_id":"JAY","line":2,"distance":1264,"i_lat":-6.141205,"i_long":106.820901,"time":4,"transit":false},{"i_lat":-6.149769,"i_long":106.82482,"time":2,"station_name":"Manggabesar","transit":false,"station_id":"MGB","distance":1080,"is_transit":false,"line":2},{"station_id":"SW","station_name":"Sawah Besar","i_lat":-6.160725,"transit":false,"time":2,"i_long":106.827103,"distance":906,"line":2,"is_transit":false},{"i_lat":-6.166716,"is_transit":false,"time":2,"station_id":"JUA","transit":false,"line":2,"distance":1149,"i_long":106.828284,"station_name":"Juanda"},{"i_lat":-6.186295,"transit":false,"is_transit":false,"time":4,"line":2,"distance":2015,"station_name":"Gondangdia","station_id":"GDD","i_long":106.832183},{"line":2,"i_lat":-6.198556,"distance":1750,"is_transit":false,"i_long":106.840169,"transit":false,"time":3,"station_id":"CKI","station_name":"Cikini"},{"distance":1590,"station_id":"MRI","station_name":"Manggarai","transit":true,"line":2,"is_transit":true,"i_long":106.84912,"time":4,"i_lat":-6.209883},{"station_name":"Sudirman","time":4,"station_id":"SUD","i_long":106.822649,"is_transit":false,"i_lat":-6.202263,"transit":false,"distance":3186,"line":1},{"i_lat":-6.201433,"station_name":"Sudirman Baru","line":1,"station_id":"SUDB","i_long":106.819881,"is_transit":false,"distance":280,"time":1,"transit":false},{"station_id":"KAT","station_name":"Karet","line":1,"time":1,"i_lat":-6.20132,"distance":471,"is_transit":false,"transit":false,"i_long":106.816351},{"distance":2029,"is_transit":true,"time":5,"line":1,"station_name":"Tanah Abang","transit":true,"i_lat":-6.185545,"i_long":106.811091,"station_id":"THB"},{"line":6,"station_name":"Palmerah","i_long":106.79689,"is_transit":false,"transit":false,"station_id":"PLM","distance":3191,"time":6,"i_lat":-6.207404}],[{"transit":false,"distance":0,"i_lat":-6.14505,"is_transit":false,"i_long":106.836569,"station_id":"RJW","station_name":"Rajawali","line":11,"time":0},{"distance":1901,"time":5,"i_lat":-6.161728,"line":11,"is_transit":false,"transit":false,"station_name":"Kemayoran","i_long":106.839204,"station_id":"KMO"},{"is_transit":false,"station_name":"Pasar Senen","i_lat":-6.174784,"station_id":"PSE","line":11,"transit":false,"i_long":106.84368,"distance":1436,"time":4},{"i_long":106.850107,"line":11,"i_lat":-6.185975,"distance":1567,"station_name":"Gang Sentiong","is_transit":false,"time":8,"station_id":"GST","transit":false},{"i_lat":-6.193792,"transit":false,"station_id":"KMT","is_transit":false,"time":1,"distance":973,"station_name":"Kramat","line":11,"i_long":106.855437},{"i_long":106.861737,"station_id":"POK","time":2,"transit":false,"station_name":"Pondok Jati","line":11,"is_transit":false,"i_lat":-6.209188,"distance":1829},{"station_id":"JNG","distance":1236,"station_name":"Jatinegara","line":1,"i_long":106.86807400000001,"transit":true,"time":9,"is_transit":true,"i_lat":-6.215091},{"i_long":106.858896,"time":2,"is_transit":false,"station_name":"Matraman","line":1,"transit":false,"distance":1377,"station_id":"MTR","i_lat":-6.212485},{"distance":1275,"i_long":106.84912,"station_id":"MRI","i_lat":-6.209883,"time":2,"transit":true,"line":2,"is_transit":true,"station_name":"Manggarai"},{"i_lat":-6.198556,"distance":1590,"station_name":"Cikini","i_long":106.840169,"time":4,"station_id":"CKI","transit":false,"is_transit":false,"line":2},{"distance":1750,"station_name":"Gondangdia","i_lat":-6.186295,"transit":false,"line":2,"time":3,"station_id":"GDD","is_transit":false,"i_long":106.832183},{"station_name":"Juanda","transit":false,"distance":2015,"station_id":"JUA","is_transit":false,"i_long":106.828284,"time":4,"i_lat":-6.166716,"line":2},{"line":2,"station_id":"SW","station_name":"Sawah Besar","is_transit":false,"time":2,"i_long":106.827103,"i_lat":-6.160725,"distance":1149,"transit":false},{"i_long":106.82482,"line":2,"is_transit":false,"station_name":"Manggabesar","time":2,"transit":false,"distance":906,"station_id":"MGB","i_lat":-6.149769},{"station_id":"JAY","is_transit":false,"distance":1080,"station_name":"Jayakarta","i_lat":-6.141205,"i_long":106.820901,"time":2,"transit":false,"line":2},{"distance":1264,"station_id":"JAKK","line":2,"i_long":106.812439,"is_transit":true,"i_lat":-6.137569,"time":4,"station_name":"Jakarta Kota","transit":true},{"time":3,"i_long":106.826365,"transit":true,"line":4,"distance":1364,"i_lat":-6.132549,"station_id":"KPB","is_transit":true,"station_name":"Kampung Bandan"},{"distance":4102,"transit":false,"i_lat":-6.144674,"is_transit":false,"station_name":"Angke","station_id":"AK","i_long":106.79867,"line":1,"time":9},{"is_transit":false,"station_id":"DU","i_lat":-6.155215,"line":1,"distance":1230,"transit":false,"station_name":"Duri","time":4,"i_long":106.800832},{"line":1,"i_long":106.811091,"transit":true,"distance":3632,"station_id":"THB","station_name":"Tanah Abang","is_transit":true,"time":8,"i_lat":-6.185545},{"line":6,"station_name":"Palmerah","distance":3191,"station_id":"PLM","transit":false,"i_lat":-6.207404,"time":6,"is_transit":false,"i_long":106.79689}]]}