{"data":[[{"station_name":"Rajawali","distance":0,"transit":false,"i_long":106.836569,"i_lat":-6.14505,"line":11,"time":0,"station_id":"RJW","is_transit":false},{"line":4,"station_name":"Kampung Bandan","transit":true,"distance":1444,"i_lat":-6.132549,"time":3,"station_id":"KPB","is_transit":true,"i_long":106.826365},{"is_transit":false,"i_lat":-6.144674,"line":1,"station_id":"AK","i_long":106.79867,"station_name":"Angke","transit":false,"time":9,"distance":4102},{"i_lat":-6.155215,"i_long":106.800832,"line":1,"is_transit":true,"time":4,"transit":true,"distance":1230,"station_id":"DU","station_name":"Duri"},{"station_id":"GGL","transit":false,"distance":1700,"is_transit":false,"i_lat":-6.162021,"line":5,"i_long":106.788277,"station_name":"Grogol","time":3},{"time":2,"i_long":106.771379,"is_transit":false,"line":5,"distance":2036,"station_name":"Pesing","i_lat":-6.161433,"transit":false,"station_id":"PSG"},{"i_lat":-6.1587309999999995,"i_long":106.756522,"line":5,"transit":false,"is_transit":false,"station_name":"Taman Kota","distance":1614,"time":2,"station_id":"TKO"},{"distance":2334,"station_id":"BOI","transit":false,"time":2,"i_lat":-6.159876,"line":5,"station_name":"Bojongindah","is_transit":false,"i_long":106.737035},{"is_transit":false,"i_lat":-6.162758,"i_long":106.723064,"station_name":"Rawa Buaya","transit":false,"time":4,"station_id":"RW","line":5,"distance":1152}],[{"station_id":"RJW","distance":0,"station_name":"Rajawali","i_lat":-6.14505,"line":11,"is_transit":false,"transit":false,"time":0,"i_long":106.836569},{"line":11,"i_lat":-6.161728,"transit":false,"is_transit":false,"time":5,"station_id":"KMO","i_long":106.839204,"station_name":"Kemayoran","distance":1901},{"station_name":"Pasar Senen","i_lat":-6.174784,"i_long":106.84368,"distance":1436,"is_transit":false,"station_id":"PSE","line":11,"time":4,"transit":false},{"i_lat":-6.185975,"distance":1567,"is_transit":false,"time":8,"station_id":"GST","transit":false,"i_long":106.850107,"line":11,"station_name":"Gang Sentiong"},{"line":11,"station_name":"Kramat","is_transit":false,"distance":973,"station_id":"KMT","time":1,"i_long":106.855437,"i_lat":-6.193792,"transit":false},{"station_name":"Pondok Jati","is_transit":false,"transit":false,"station_id":"POK","i_lat":-6.209188,"time":2,"i_long":106.861737,"line":11,"distance":1829},{"i_long":106.86807400000001,"station_id":"JNG","line":1,"time":9,"station_name":"Jatinegara","is_transit":true,"transit":true,"distance":1236,"i_lat":-6.215091},{"i_lat":-6.212485,"distance":1377,"time":2,"is_transit":false,"station_name":"Matraman","transit":false,"station_id":"MTR","i_long":106.858896,"line":1},{"line":2,"is_transit":false,"station_id":"MRI","station_name":"Manggarai","i_lat":-6.209883,"distance":1275,"i_long":106.84912,"time":2,"transit":false},{"station_name":"Sudirman","time":4,"is_transit":false,"i_lat":-6.202263,"distance":3186,"station_id":"SUD","i_long":106.822649,"transit":false,"line":1},{"distance":280,"time":1,"transit":false,"i_long":106.819881,"station_name":"Sudirman Baru","i_lat":-6.201433,"is_transit":false,"station_id":"SUDB","line":1},{"station_name":"Karet","i_lat":-6.20132,"transit":false,"time":1,"station_id":"KAT","line":1,"is_transit":false,"i_long":106.816351,"distance":471},{"is_transit":false,"transit":false,"station_id":"THB","time":5,"i_lat":-6.185545,"i_long":106.811091,"station_name":"Tanah Abang","distance":2029,"line":1},{"distance":3632,"time":8,"transit":true,"i_lat":-6.155215,"is_transit":true,"station_name":"Duri","i_long":106.800832,"line":1,"station_id":"DU"},{"transit":false,"i_long":106.788277,"time":3,"line":5,"station_id":"GGL","station_name":"Grogol","i_lat":-6.162021,"is_transit":false,"distance":1700},{"line":5,"distance":2036,"i_lat":-6.161433,"station_name":"Pesing","transit":false,"time":2,"is_transit":false,"station_id":"PSG","i_long":106.771379},{"station_id":"TKO","transit":false,"line":5,"time":2,"i_long":106.756522,"is_transit":false,"distance":1614,"i_lat":-6.1587309999999995,"station_name":"Taman Kota"},{"station_name":"Bojongindah","transit":false,"i_long":106.737035,"distance":2334,"station_id":"BOI","i_lat":-6.159876,"time":2,"line":5,"is_transit":false},{"line":5,"is_transit":false,"station_id":"RW","transit":false,"station_name":"Rawa Buaya","i_long":106.723064,"distance":1152,"time":4,"i_lat":-6.162758}],[{"distance":0,"line":11,"time":0,"is_transit":false,"transit":false,"station_id":"RJW","station_name":"Rajawali","i_lat":-6.14505,"i_long":106.836569},{"transit":true,"i_lat":-6.132549,"line":4,"station_id":"KPB","time":3,"is_transit":true,"station_name":"Kampung Bandan","i_long":106.826365,"distance":1444},{"time":3,"is_transit":true,"transit":true,"station_name":"Jakarta Kota","i_long":106.812439,"line":2,"station_id":"JAKK","i_lat":-6.137569,"distance":1364},{"station_name":"Jayakarta","distance":1264,"line":2,"time":4,"transit":false,"station_id":"JAY","i_lat":-6.141205,"is_transit":false,"i_long":106.820901},{"time":2,"i_lat":-6.149769,"transit":false,"i_long":106.82482,"distance":1080,"line":2,"station_id":"MGB","is_transit":false,"station_name":"Manggabesar"},{"transit":false,"i_long":106.827103,"line":2,"time":2,"is_transit":false,"station_name":"Sawah Besar","station_id":"SW","i_lat":-6.160725,"distance":906},{"station_name":"Juanda","line":2,"transit":false,"is_transit":false,"station_id":"JUA","i_long":106.828284,"distance":1149,"i_lat":-6.166716,"time":2},{"line":2,"distance":2015,"i_lat":-6.186295,"station_name":"Gondangdia","station_id":"GDD","transit":false,"i_long":106.832183,"time":4,"is_transit":false},{"i_long":106.840169,"is_transit":false,"distance":1750,"station_id":"CKI","station_name":"Cikini","line":2,"time":3,"i_lat":-6.198556,"transit":false},{"i_long":106.84912,"line":2,"is_transit":true,"station_name":"Manggarai","i_lat":-6.209883,"transit":true,"time":4,"distance":1590,"station_id":"MRI"},{"time":4,"transit":false,"station_id":"SUD","i_lat":-6.202263,"station_name":"Sudirman","i_long":106.822649,"distance":3186,"line":1,"is_transit":false},{"line":1,"is_transit":false,"station_id":"SUDB","i_lat":-6.201433,"time":1,"station_name":"Sudirman Baru","i_long":106.819881,"distance":280,"transit":false},{"distance":471,"time":1,"station_id":"KAT","transit":false,"is_transit":false,"station_name":"Karet","i_long":106.816351,"line":1,"i_lat":-6.20132},{"i_lat":-6.185545,"time":5,"station_id":"THB","line":1,"transit":false,"i_long":106.811091,"station_name":"Tanah Abang","distance":2029,"is_transit":false},{"station_id":"DU","is_transit":true,"line":1,"i_lat":-6.155215,"time":8,"i_long":106.800832,"distance":3632,"station_name":"Duri","transit":true},{"time":3,"is_transit":false,"i_lat":-6.162021,"i_long":106.788277,"station_name":"Grogol","station_id":"GGL","line":5,"distance":1700,"transit":false},{"station_id":"PSG","line":5,"transit":false,"distance":2036,"i_lat":-6.161433,"i_long":106.771379,"is_transit":false,"station_name":"Pesing","time":2},{"line":5,"station_name":"Taman Kota","i_lat":-6.1587309999999995,"distance":1614,"time":2,"is_transit":false,"i_long":106.756522,"transit":false,"station_id":"TKO"},{"i_long":106.737035,"i_lat":-6.159876,"transit":false,"station_id":"BOI","is_transit":false,"station_name":"Bojongindah","distance":2334,"line":5,"time":2},{"i_long":106.723064,"distance":1152,"transit":false,"is_transit":false,"station_id":"RW","station_name":"Rawa Buaya","line":5,"time":4,"i_lat":-6.162758}],[{"time":0,"station_id":"RJW","line":11,"distance":0,"i_lat":-6.14505,"transit":false,"is_transit":false,"station_name":"Rajawali","i_long":106.836569},{"distance":1901,"time":5,"is_transit":false,"station_id":"KMO","i_long":106.839204,"line":11,"transit":false,"station_name":"Kemayoran","i_lat":-6.161728},{"i_lat":-6.174784,"line":11,"is_transit":false,"station_name":"Pasar Senen","transit":false,"distance":1436,"time":4,"station_id":"PSE","i_long":106.84368},{"i_lat":-6.185975,"time":8,"i_long":106.850107,"line":11,"transit":false,"is_transit":false,"station_name":"Gang Sentiong","distance":1567,"station_id":"GST"},{"i_long":106.855437,"time":1,"station_id":"KMT","transit":false,"i_lat":-6.193792,"is_transit":false,"line":11,"station_name":"Kramat","distance":973},{"time":2,"line":11,"transit":false,"distance":1829,"i_lat":-6.209188,"station_name":"Pondok Jati","is_transit":false,"station_id":"POK","i_long":106.861737},{"i_lat":-6.215091,"transit":true,"is_transit":true,"i_long":106.86807400000001,"time":9,"station_name":"Jatinegara","distance":1236,"station_id":"JNG","line":1},{"station_name":"Matraman","station_id":"MTR","i_lat":-6.212485,"transit":false,"is_transit":false,"time":2,"line":1,"distance":1377,"i_long":106.858896},{"time":2,"is_transit":true,"transit":true,"i_lat":-6.209883,"i_long":106.84912,"station_name":"Manggarai","distance":1275,"station_id":"MRI","line":2},{"line":2,"i_lat":-6.198556,"transit":false,"distance":1590,"i_long":106.840169,"station_id":"CKI","time":4,"is_transit":false,"station_name":"Cikini"},{"time":3,"station_id":"GDD","i_lat":-6.186295,"i_long":106.832183,"transit":false,"distance":1750,"line":2,"is_transit":false,"station_name":"Gondangdia"},{"i_lat":-6.166716,"line":2,"i_long":106.828284,"station_id":"JUA","station_name":"Juanda","time":4,"transit":false,"distance":2015,"is_transit":false},{"i_lat":-6.160725,"station_id":"SW","i_long":106.827103,"station_name":"Sawah Besar","is_transit":false,"distance":1149,"transit":false,"time":2,"line":2},{"i_lat":-6.149769,"station_id":"MGB","transit":false,"time":2,"line":2,"i_long":106.82482,"station_name":"Manggabesar","distance":906,"is_transit":false},{"i_lat":-6.141205,"transit":false,"i_long":106.820901,"line":2,"time":2,"station_name":"Jayakarta","station_id":"JAY","is_transit":false,"distance":1080},{"station_name":"Jakarta Kota","i_lat":-6.137569,"i_long":106.812439,"station_id":"JAKK","is_transit":true,"time":4,"distance":1264,"transit":true,"line":2},{"i_long":106.826365,"station_name":"Kampung Bandan","distance":1364,"time":3,"station_id":"KPB","transit":true,"is_transit":true,"i_lat":-6.132549,"line":4},{"line":1,"station_name":"Angke","transit":false,"station_id":"AK","i_lat":-6.144674,"time":9,"i_long":106.79867,"distance":4102,"is_transit":false},{"station_name":"Duri","i_long":106.800832,"time":4,"transit":true,"distance":1230,"i_lat":-6.155215,"line":1,"is_transit":true,"station_id":"DU"},{"distance":1700,"is_transit":false,"station_id":"GGL","time":3,"transit":false,"line":5,"i_lat":-6.162021,"i_long":106.788277,"station_name":"Grogol"},{"i_long":106.771379,"transit":false,"station_id":"PSG","i_lat":-6.161433,"line":5,"distance":2036,"station_name":"Pesing","time":2,"is_transit":false},{"station_id":"TKO","transit":false,"station_name":"Taman Kota","i_long":106.756522,"i_lat":-6.1587309999999995,"time":2,"line":5,"is_transit":false,"distance":1614},{"distance":2334,"line":5,"is_transit":false,"station_name":"Bojongindah","i_lat":-6.159876,"time":2,"i_long":106.737035,"transit":false,"station_id":"BOI"},{"time":4,"i_lat":-6.162758,"line":5,"i_long":106.723064,"station_name":"Rawa Buaya","transit":false,"is_transit":false,"station_id":"RW","distance":1152}]]}