{"data":[[{"station_name":"Rajawali","i_long":106.836569,"line":11,"i_lat":-6.14505,"is_transit":false,"distance":0,"transit":false,"time":0,"station_id":"RJW"},{"time":3,"station_name":"Kampung Bandan","transit":true,"station_id":"KPB","i_long":106.826365,"is_transit":true,"i_lat":-6.132549,"line":4,"distance":1444},{"transit":false,"i_long":106.79867,"i_lat":-6.144674,"time":9,"station_name":"Angke","station_id":"AK","distance":4102,"is_transit":false,"line":1},{"distance":1230,"transit":false,"station_name":"Duri","is_transit":false,"time":4,"i_lat":-6.155215,"station_id":"DU","line":1,"i_long":106.800832},{"is_transit":false,"station_id":"THB","line":1,"i_lat":-6.185545,"distance":3632,"station_name":"Tanah Abang","i_long":106.811091,"transit":false,"time":8},{"station_id":"KAT","station_name":"Karet","i_lat":-6.20132,"i_long":106.816351,"distance":2029,"line":1,"is_transit":false,"transit":false,"time":5}],[{"i_lat":-6.14505,"transit":false,"distance":0,"i_long":106.836569,"station_name":"Rajawali","line":11,"is_transit":false,"station_id":"RJW","time":0},{"distance":1901,"station_name":"Kemayoran","time":5,"transit":false,"i_lat":-6.161728,"line":11,"i_long":106.839204,"station_id":"KMO","is_transit":false},{"distance":1436,"i_long":106.84368,"transit":false,"i_lat":-6.174784,"time":4,"line":11,"station_name":"Pasar Senen","is_transit":false,"station_id":"PSE"},{"i_long":106.850107,"line":11,"is_transit":false,"station_id":"GST","i_lat":-6.185975,"distance":1567,"station_name":"Gang Sentiong","transit":false,"time":8},{"transit":false,"distance":973,"time":1,"station_id":"KMT","station_name":"Kramat","is_transit":false,"i_lat":-6.193792,"i_long":106.855437,"line":11},{"line":11,"time":2,"distance":1829,"station_name":"Pondok Jati","transit":false,"i_lat":-6.209188,"i_long":106.861737,"is_transit":false,"station_id":"POK"},{"station_name":"Jatinegara","distance":1236,"i_long":106.86807400000001,"line":1,"transit":true,"i_lat":-6.215091,"is_transit":true,"station_id":"JNG","time":9},{"time":2,"station_name":"Matraman","station_id":"MTR","transit":false,"i_lat":-6.212485,"line":1,"i_long":106.858896,"distance":1377,"is_transit":false},{"time":2,"station_id":"MRI","station_name":"Manggarai","line":2,"distance":1275,"transit":false,"i_long":106.84912,"is_transit":false,"i_lat":-6.209883},{"station_name":"Sudirman","transit":false,"station_id":"SUD","i_long":106.822649,"is_transit":false,"line":1,"time":4,"i_lat":-6.202263,"distance":3186},{"line":1,"transit":false,"distance":280,"time":1,"i_lat":-6.201433,"is_transit":false,"station_id":"SUDB","station_name":"Sudirman Baru","i_long":106.819881},{"station_name":"Karet","transit":false,"i_long":106.816351,"line":1,"time":1,"station_id":"KAT","i_lat":-6.20132,"is_transit":false,"distance":471}],[{"transit":false,"station_name":"Rajawali","distance":0,"i_lat":-6.14505,"station_id":"RJW","i_long":106.836569,"time":0,"is_transit":false,"line":11},{"station_id":"KPB","transit":true,"station_name":"Kampung Bandan","i_lat":-6.132549,"distance":1444,"is_transit":true,"line":4,"i_long":106.826365,"time":3},{"time":3,"station_name":"Jakarta Kota","station_id":"JAKK","is_transit":true,"line":2,"transit":true,"distance":1364,"i_lat":-6.137569,"i_long":106.812439},{"distance":1264,"station_id":"JAY","station_name":"Jayakarta","is_transit":false,"transit":false,"time":4,"i_lat":-6.141205,"i_long":106.820901,"line":2},{"line":2,"station_name":"Manggabesar","transit":false,"i_long":106.82482,"station_id":"MGB","i_lat":-6.149769,"distance":1080,"time":2,"is_transit":false},{"is_transit":false,"line":2,"station_id":"SW","distance":906,"station_name":"Sawah Besar","i_lat":-6.160725,"time":2,"transit":false,"i_long":106.827103},{"i_lat":-6.166716,"is_transit":false,"station_name":"Juanda","line":2,"station_id":"JUA","time":2,"transit":false,"i_long":106.828284,"distance":1149},{"station_id":"GDD","is_transit":false,"line":2,"i_long":106.832183,"time":4,"distance":2015,"transit":false,"station_name":"Gondangdia","i_lat":-6.186295},{"distance":1750,"transit":false,"i_lat":-6.198556,"i_long":106.840169,"station_name":"Cikini","is_transit":false,"station_id":"CKI","time":3,"line":2},{"i_long":106.84912,"line":2,"distance":1590,"station_id":"MRI","time":4,"station_name":"Manggarai","is_transit":true,"i_lat":-6.209883,"transit":true},{"line":1,"transit":false,"i_lat":-6.202263,"is_transit":false,"time":4,"station_id":"SUD","i_long":106.822649,"station_name":"Sudirman","distance":3186},{"is_transit":false,"station_id":"SUDB","transit":false,"i_long":106.819881,"station_name":"Sudirman Baru","i_lat":-6.201433,"line":1,"time":1,"distance":280},{"i_lat":-6.20132,"i_long":106.816351,"distance":471,"transit":false,"is_transit":false,"station_id":"KAT","time":1,"station_name":"Karet","line":1}],[{"station_id":"RJW","i_long":106.836569,"station_name":"Rajawali","i_lat":-6.14505,"transit":false,"line":11,"distance":0,"time":0,"is_transit":false},{"station_id":"KMO","time":5,"distance":1901,"is_transit":false,"i_long":106.839204,"line":11,"i_lat":-6.161728,"transit":false,"station_name":"Kemayoran"},{"i_lat":-6.174784,"is_transit":false,"distance":1436,"transit":false,"i_long":106.84368,"time":4,"station_name":"Pasar Senen","station_id":"PSE","line":11},{"is_transit":false,"time":8,"station_name":"Gang Sentiong","i_lat":-6.185975,"station_id":"GST","line":11,"distance":1567,"i_long":106.850107,"transit":false},{"distance":973,"i_lat":-6.193792,"i_long":106.855437,"station_id":"KMT","station_name":"Kramat","time":1,"transit":false,"line":11,"is_transit":false},{"distance":1829,"station_id":"POK","transit":false,"i_long":106.861737,"station_name":"Pondok Jati","line":11,"is_transit":false,"time":2,"i_lat":-6.209188},{"line":1,"distance":1236,"time":9,"i_long":106.86807400000001,"is_transit":true,"station_name":"Jatinegara","transit":true,"station_id":"JNG","i_lat":-6.215091},{"i_lat":-6.212485,"distance":1377,"i_long":106.858896,"line":1,"transit":false,"station_name":"Matraman","station_id":"MTR","time":2,"is_transit":false},{"i_long":106.84912,"time":2,"station_name":"Manggarai","i_lat":-6.209883,"distance":1275,"station_id":"MRI","transit":true,"line":2,"is_transit":true},{"station_name":"Cikini","transit":false,"station_id":"CKI","i_long":106.840169,"line":2,"distance":1590,"is_transit":false,"i_lat":-6.198556,"time":4},{"station_id":"GDD","line":2,"distance":1750,"station_name":"Gondangdia","is_transit":false,"i_lat":-6.186295,"i_long":106.832183,"transit":false,"time":3},{"line":2,"i_lat":-6.166716,"transit":false,"time":4,"station_name":"Juanda","distance":2015,"station_id":"JUA","is_transit":false,"i_long":106.828284},{"station_name":"Sawah Besar","distance":1149,"transit":false,"time":2,"station_id":"SW","i_lat":-6.160725,"i_long":106.827103,"line":2,"is_transit":false},{"i_long":106.82482,"station_id":"MGB","is_transit":false,"transit":false,"i_lat":-6.149769,"line":2,"station_name":"Manggabesar","distance":906,"time":2},{"distance":1080,"time":2,"is_transit":false,"i_lat":-6.141205,"i_long":106.820901,"transit":false,"station_id":"JAY","station_name":"Jayakarta","line":2},{"transit":true,"i_lat":-6.137569,"station_id":"JAKK","i_long":106.812439,"line":2,"time":4,"distance":1264,"station_name":"Jakarta Kota","is_transit":true},{"is_transit":true,"i_lat":-6.132549,"transit":true,"station_id":"KPB","station_name":"Kampung Bandan","distance":1364,"time":3,"i_long":106.826365,"line":4},{"is_transit":false,"i_lat":-6.144674,"distance":4102,"i_long":106.79867,"station_name":"Angke","time":9,"station_id":"AK","transit":false,"line":1},{"transit":false,"station_name":"Duri","is_transit":false,"station_id":"DU","i_long":106.800832,"line":1,"distance":1230,"time":4,"i_lat":-6.155215},{"transit":false,"station_name":"Tanah Abang","i_long":106.811091,"distance":3632,"time":8,"i_lat":-6.185545,"line":1,"is_transit":false,"station_id":"THB"},{"is_transit":false,"station_id":"KAT","line":1,"distance":2029,"station_name":"Karet","time":5,"transit":false,"i_lat":-6.20132,"i_long":106.816351}]]}