{"data":[[{"station_id":"RJW","time":0,"i_long":106.836569,"distance":0,"transit":false,"i_lat":-6.14505,"line":11,"is_transit":false,"station_name":"Rajawali"},{"is_transit":true,"line":4,"transit":true,"i_lat":-6.132549,"station_name":"Kampung Bandan","time":3,"distance":1444,"i_long":106.826365,"station_id":"KPB"},{"i_long":106.79867,"time":9,"distance":4102,"line":1,"station_id":"AK","i_lat":-6.144674,"transit":false,"is_transit":false,"station_name":"Angke"},{"line":1,"time":4,"station_name":"Duri","i_lat":-6.155215,"distance":1230,"transit":false,"station_id":"DU","i_long":106.800832,"is_transit":false},{"i_lat":-6.185545,"line":1,"time":8,"station_id":"THB","is_transit":true,"distance":3632,"transit":true,"station_name":"Tanah Abang","i_long":106.811091},{"is_transit":false,"time":6,"station_id":"PLM","i_long":106.79689,"transit":false,"station_name":"Palmerah","i_lat":-6.207404,"distance":3191,"line":6},{"time":7,"station_id":"KBY","i_long":106.780334,"distance":3737,"transit":false,"is_transit":false,"line":6,"station_name":"Kebayoran","i_lat":-6.237242},{"station_name":"Pondokranji","i_lat":-6.276362,"transit":false,"time":8,"distance":6218,"is_transit":false,"station_id":"PDJ","i_long":106.74273,"line":6},{"time":3,"line":6,"station_name":"Jurangmangu","i_long":106.728916,"i_lat":-6.288927,"station_id":"JMU","distance":2179,"is_transit":false,"transit":false},{"i_long":106.712277,"line":6,"station_name":"Sudimara","station_id":"SDM","transit":false,"distance":1994,"is_transit":false,"i_lat":-6.296963,"time":4},{"station_name":"Rawa Buntu","station_id":"RU","line":6,"i_lat":-6.314823,"distance":4566,"is_transit":false,"i_long":106.675475,"transit":false,"time":6},{"is_transit":false,"i_lat":-6.319871,"i_long":106.66566,"station_id":"SRP","distance":2413,"station_name":"Serpong","time":4,"transit":false,"line":6},{"line":3,"transit":false,"time":4,"is_transit":false,"distance":1784,"i_lat":-6.32484,"station_name":"Cisauk","i_long":106.640411,"station_id":"CSK"},{"i_long":106.617853,"time":4,"transit":false,"is_transit":false,"station_id":"CC","distance":2519,"i_lat":-6.329547,"line":3,"station_name":"Cicayur"},{"is_transit":false,"i_lat":-6.3441410000000005,"i_long":106.568863,"distance":5968,"station_name":"Parung Panjang","time":8,"transit":false,"station_id":"PRP","line":6},{"transit":false,"time":9,"station_name":"Cilejit","line":3,"i_lat":-6.354349,"station_id":"CJT","distance":7025,"is_transit":false,"i_long":106.508482},{"i_lat":-6.338021,"i_long":106.491338,"station_name":"Daru","line":0,"station_id":"DAR","transit":false,"is_transit":false,"time":6,"distance":2675},{"station_id":"TEJ","time":5,"i_lat":-6.327251,"i_long":106.460812,"distance":3902,"line":6,"station_name":"Tenjo","is_transit":false,"transit":false},{"is_transit":false,"station_name":"Tigaraksa","station_id":"TGS","distance":2974,"line":6,"transit":false,"i_lat":-6.328533,"time":5,"i_long":106.425991}],[{"transit":false,"i_long":106.836569,"i_lat":-6.14505,"time":0,"line":11,"is_transit":false,"station_id":"RJW","station_name":"Rajawali","distance":0},{"station_name":"Kemayoran","is_transit":false,"distance":1901,"i_lat":-6.161728,"time":5,"i_long":106.839204,"station_id":"KMO","line":11,"transit":false},{"station_name":"Pasar Senen","time":4,"distance":1436,"line":11,"station_id":"PSE","i_lat":-6.174784,"transit":false,"is_transit":false,"i_long":106.84368},{"station_name":"Gang Sentiong","time":8,"i_long":106.850107,"station_id":"GST","line":11,"is_transit":false,"distance":1567,"i_lat":-6.185975,"transit":false},{"i_long":106.855437,"line":11,"i_lat":-6.193792,"time":1,"distance":973,"station_name":"Kramat","is_transit":false,"transit":false,"station_id":"KMT"},{"i_lat":-6.209188,"distance":1829,"i_long":106.861737,"line":11,"station_id":"POK","transit":false,"station_name":"Pondok Jati","is_transit":false,"time":2},{"station_name":"Jatinegara","transit":true,"station_id":"JNG","is_transit":true,"i_long":106.86807400000001,"time":9,"distance":1236,"i_lat":-6.215091,"line":1},{"time":2,"distance":1377,"line":1,"is_transit":false,"station_id":"MTR","i_lat":-6.212485,"i_long":106.858896,"transit":false,"station_name":"Matraman"},{"distance":1275,"station_name":"Manggarai","station_id":"MRI","is_transit":false,"transit":false,"time":2,"line":2,"i_lat":-6.209883,"i_long":106.84912},{"i_long":106.822649,"i_lat":-6.202263,"time":4,"distance":3186,"transit":false,"station_name":"Sudirman","line":1,"is_transit":false,"station_id":"SUD"},{"i_long":106.819881,"distance":280,"station_id":"SUDB","is_transit":false,"i_lat":-6.201433,"transit":false,"station_name":"Sudirman Baru","time":1,"line":1},{"transit":false,"is_transit":false,"distance":471,"line":1,"i_lat":-6.20132,"station_name":"Karet","station_id":"KAT","time":1,"i_long":106.816351},{"is_transit":true,"i_lat":-6.185545,"time":5,"distance":2029,"station_name":"Tanah Abang","i_long":106.811091,"transit":true,"station_id":"THB","line":1},{"station_name":"Palmerah","station_id":"PLM","distance":3191,"transit":false,"time":6,"i_lat":-6.207404,"i_long":106.79689,"is_transit":false,"line":6},{"transit":false,"station_id":"KBY","time":7,"distance":3737,"is_transit":false,"line":6,"station_name":"Kebayoran","i_long":106.780334,"i_lat":-6.237242},{"station_name":"Pondokranji","time":8,"is_transit":false,"distance":6218,"i_lat":-6.276362,"station_id":"PDJ","i_long":106.74273,"line":6,"transit":false},{"distance":2179,"i_long":106.728916,"line":6,"time":3,"is_transit":false,"transit":false,"station_name":"Jurangmangu","station_id":"JMU","i_lat":-6.288927},{"station_name":"Sudimara","is_transit":false,"distance":1994,"line":6,"transit":false,"i_long":106.712277,"time":4,"i_lat":-6.296963,"station_id":"SDM"},{"i_lat":-6.314823,"transit":false,"station_name":"Rawa Buntu","is_transit":false,"time":6,"i_long":106.675475,"line":6,"distance":4566,"station_id":"RU"},{"is_transit":false,"station_id":"SRP","i_lat":-6.319871,"transit":false,"time":4,"distance":2413,"i_long":106.66566,"station_name":"Serpong","line":6},{"transit":false,"station_name":"Cisauk","i_lat":-6.32484,"is_transit":false,"station_id":"CSK","time":4,"line":3,"i_long":106.640411,"distance":1784},{"station_name":"Cicayur","i_lat":-6.329547,"station_id":"CC","time":4,"is_transit":false,"distance":2519,"transit":false,"i_long":106.617853,"line":3},{"time":8,"transit":false,"i_long":106.568863,"i_lat":-6.3441410000000005,"is_transit":false,"distance":5968,"station_id":"PRP","station_name":"Parung Panjang","line":6},{"i_lat":-6.354349,"distance":7025,"station_name":"Cilejit","time":9,"is_transit":false,"line":3,"transit":false,"i_long":106.508482,"station_id":"CJT"},{"transit":false,"i_lat":-6.338021,"is_transit":false,"i_long":106.491338,"station_id":"DAR","station_name":"Daru","time":6,"line":0,"distance":2675},{"i_long":106.460812,"station_id":"TEJ","is_transit":false,"transit":false,"station_name":"Tenjo","time":5,"distance":3902,"i_lat":-6.327251,"line":6},{"station_id":"TGS","transit":false,"station_name":"Tigaraksa","time":5,"distance":2974,"i_long":106.425991,"i_lat":-6.328533,"line":6,"is_transit":false}],[{"i_lat":-6.14505,"station_name":"Rajawali","line":11,"distance":0,"station_id":"RJW","i_long":106.836569,"is_transit":false,"transit":false,"time":0},{"distance":1444,"station_name":"Kampung Bandan","i_long":106.826365,"i_lat":-6.132549,"transit":true,"is_transit":true,"time":3,"station_id":"KPB","line":4},{"i_long":106.812439,"i_lat":-6.137569,"station_name":"Jakarta Kota","line":2,"distance":1364,"transit":true,"station_id":"JAKK","time":3,"is_transit":true},{"distance":1264,"transit":false,"station_name":"Jayakarta","i_lat":-6.141205,"i_long":106.820901,"is_transit":false,"station_id":"JAY","time":4,"line":2},{"distance":1080,"i_lat":-6.149769,"time":2,"is_transit":false,"line":2,"station_id":"MGB","i_long":106.82482,"station_name":"Manggabesar","transit":false},{"transit":false,"i_long":106.827103,"line":2,"i_lat":-6.160725,"station_id":"SW","distance":906,"station_name":"Sawah Besar","time":2,"is_transit":false},{"transit":false,"station_id":"JUA","time":2,"i_long":106.828284,"i_lat":-6.166716,"distance":1149,"is_transit":false,"line":2,"station_name":"Juanda"},{"is_transit":false,"time":4,"distance":2015,"line":2,"station_name":"Gondangdia","transit":false,"i_long":106.832183,"i_lat":-6.186295,"station_id":"GDD"},{"is_transit":false,"distance":1750,"station_id":"CKI","line":2,"station_name":"Cikini","i_long":106.840169,"transit":false,"time":3,"i_lat":-6.198556},{"transit":true,"time":4,"i_lat":-6.209883,"line":2,"station_name":"Manggarai","station_id":"MRI","is_transit":true,"i_long":106.84912,"distance":1590},{"distance":3186,"i_long":106.822649,"station_id":"SUD","time":4,"is_transit":false,"station_name":"Sudirman","transit":false,"line":1,"i_lat":-6.202263},{"distance":280,"i_lat":-6.201433,"is_transit":false,"line":1,"time":1,"i_long":106.819881,"station_name":"Sudirman Baru","transit":false,"station_id":"SUDB"},{"transit":false,"is_transit":false,"station_id":"KAT","i_lat":-6.20132,"i_long":106.816351,"line":1,"time":1,"distance":471,"station_name":"Karet"},{"station_name":"Tanah Abang","is_transit":true,"time":5,"distance":2029,"i_lat":-6.185545,"station_id":"THB","i_long":106.811091,"line":1,"transit":true},{"transit":false,"i_long":106.79689,"time":6,"line":6,"station_name":"Palmerah","is_transit":false,"distance":3191,"station_id":"PLM","i_lat":-6.207404},{"station_name":"Kebayoran","i_long":106.780334,"is_transit":false,"distance":3737,"i_lat":-6.237242,"transit":false,"station_id":"KBY","line":6,"time":7},{"is_transit":false,"station_name":"Pondokranji","time":8,"transit":false,"i_lat":-6.276362,"i_long":106.74273,"station_id":"PDJ","line":6,"distance":6218},{"transit":false,"distance":2179,"station_id":"JMU","i_long":106.728916,"is_transit":false,"time":3,"i_lat":-6.288927,"station_name":"Jurangmangu","line":6},{"distance":1994,"station_id":"SDM","time":4,"station_name":"Sudimara","i_lat":-6.296963,"line":6,"i_long":106.712277,"is_transit":false,"transit":false},{"time":6,"i_lat":-6.314823,"distance":4566,"i_long":106.675475,"station_id":"RU","station_name":"Rawa Buntu","line":6,"transit":false,"is_transit":false},{"station_id":"SRP","line":6,"time":4,"station_name":"Serpong","distance":2413,"i_long":106.66566,"transit":false,"i_lat":-6.319871,"is_transit":false},{"distance":1784,"is_transit":false,"line":3,"station_id":"CSK","i_lat":-6.32484,"transit":false,"time":4,"station_name":"Cisauk","i_long":106.640411},{"i_long":106.617853,"transit":false,"distance":2519,"time":4,"station_id":"CC","station_name":"Cicayur","is_transit":false,"line":3,"i_lat":-6.329547},{"transit":false,"distance":5968,"is_transit":false,"station_id":"PRP","station_name":"Parung Panjang","time":8,"i_lat":-6.3441410000000005,"line":6,"i_long":106.568863},{"distance":7025,"line":3,"station_name":"Cilejit","station_id":"CJT","transit":false,"is_transit":false,"i_long":106.508482,"time":9,"i_lat":-6.354349},{"transit":false,"distance":2675,"time":6,"line":0,"i_long":106.491338,"is_transit":false,"i_lat":-6.338021,"station_id":"DAR","station_name":"Daru"},{"time":5,"transit":false,"line":6,"distance":3902,"station_id":"TEJ","is_transit":false,"station_name":"Tenjo","i_lat":-6.327251,"i_long":106.460812},{"transit":false,"is_transit":false,"station_name":"Tigaraksa","time":5,"i_lat":-6.328533,"distance":2974,"line":6,"i_long":106.425991,"station_id":"TGS"}],[{"transit":false,"is_transit":false,"station_name":"Rajawali","time":0,"i_lat":-6.14505,"i_long":106.836569,"distance":0,"line":11,"station_id":"RJW"},{"transit":false,"is_transit":false,"i_long":106.839204,"station_id":"KMO","station_name":"Kemayoran","time":5,"distance":1901,"i_lat":-6.161728,"line":11},{"time":4,"i_lat":-6.174784,"line":11,"transit":false,"i_long":106.84368,"distance":1436,"station_id":"PSE","station_name":"Pasar Senen","is_transit":false},{"is_transit":false,"i_long":106.850107,"line":11,"station_id":"GST","time":8,"distance":1567,"i_lat":-6.185975,"transit":false,"station_name":"Gang Sentiong"},{"i_long":106.855437,"transit":false,"station_name":"Kramat","i_lat":-6.193792,"station_id":"KMT","distance":973,"line":11,"time":1,"is_transit":false},{"i_long":106.861737,"distance":1829,"i_lat":-6.209188,"station_id":"POK","transit":false,"station_name":"Pondok Jati","time":2,"line":11,"is_transit":false},{"station_id":"JNG","is_transit":true,"transit":true,"line":1,"i_long":106.86807400000001,"distance":1236,"station_name":"Jatinegara","time":9,"i_lat":-6.215091},{"time":2,"line":1,"is_transit":false,"i_lat":-6.212485,"station_name":"Matraman","distance":1377,"transit":false,"i_long":106.858896,"station_id":"MTR"},{"station_id":"MRI","is_transit":true,"station_name":"Manggarai","distance":1275,"i_lat":-6.209883,"time":2,"i_long":106.84912,"line":2,"transit":true},{"line":2,"i_long":106.840169,"i_lat":-6.198556,"is_transit":false,"transit":false,"time":4,"station_id":"CKI","station_name":"Cikini","distance":1590},{"is_transit":false,"station_id":"GDD","time":3,"i_lat":-6.186295,"i_long":106.832183,"transit":false,"station_name":"Gondangdia","line":2,"distance":1750},{"i_lat":-6.166716,"transit":false,"time":4,"distance":2015,"i_long":106.828284,"line":2,"station_id":"JUA","is_transit":false,"station_name":"Juanda"},{"station_name":"Sawah Besar","is_transit":false,"station_id":"SW","distance":1149,"time":2,"i_long":106.827103,"i_lat":-6.160725,"line":2,"transit":false},{"distance":906,"station_id":"MGB","time":2,"station_name":"Manggabesar","transit":false,"is_transit":false,"i_long":106.82482,"i_lat":-6.149769,"line":2},{"transit":false,"is_transit":false,"i_lat":-6.141205,"i_long":106.820901,"station_name":"Jayakarta","station_id":"JAY","distance":1080,"time":2,"line":2},{"distance":1264,"i_lat":-6.137569,"i_long":106.812439,"station_id":"JAKK","is_transit":true,"transit":true,"station_name":"Jakarta Kota","line":2,"time":4},{"transit":true,"station_id":"KPB","i_lat":-6.132549,"line":4,"station_name":"Kampung Bandan","distance":1364,"time":3,"is_transit":true,"i_long":106.826365},{"station_name":"Angke","i_long":106.79867,"i_lat":-6.144674,"transit":false,"time":9,"line":1,"is_transit":false,"distance":4102,"station_id":"AK"},{"i_lat":-6.155215,"station_name":"Duri","transit":false,"line":1,"is_transit":false,"station_id":"DU","i_long":106.800832,"time":4,"distance":1230},{"time":8,"station_name":"Tanah Abang","i_lat":-6.185545,"i_long":106.811091,"line":1,"is_transit":true,"distance":3632,"station_id":"THB","transit":true},{"line":6,"transit":false,"is_transit":false,"station_id":"PLM","station_name":"Palmerah","time":6,"distance":3191,"i_lat":-6.207404,"i_long":106.79689},{"i_long":106.780334,"station_name":"Kebayoran","line":6,"i_lat":-6.237242,"time":7,"is_transit":false,"station_id":"KBY","transit":false,"distance":3737},{"i_long":106.74273,"distance":6218,"transit":false,"is_transit":false,"time":8,"line":6,"station_id":"PDJ","station_name":"Pondokranji","i_lat":-6.276362},{"distance":2179,"is_transit":false,"station_name":"Jurangmangu","station_id":"JMU","i_long":106.728916,"line":6,"transit":false,"i_lat":-6.288927,"time":3},{"time":4,"transit":false,"distance":1994,"i_long":106.712277,"line":6,"station_name":"Sudimara","i_lat":-6.296963,"is_transit":false,"station_id":"SDM"},{"i_long":106.675475,"distance":4566,"station_name":"Rawa Buntu","station_id":"RU","line":6,"is_transit":false,"time":6,"transit":false,"i_lat":-6.314823},{"is_transit":false,"station_id":"SRP","line":6,"station_name":"Serpong","i_long":106.66566,"transit":false,"distance":2413,"i_lat":-6.319871,"time":4},{"i_lat":-6.32484,"i_long":106.640411,"transit":false,"station_name":"Cisauk","line":3,"distance":1784,"station_id":"CSK","time":4,"is_transit":false},{"station_id":"CC","station_name":"Cicayur","line":3,"transit":false,"is_transit":false,"time":4,"i_lat":-6.329547,"distance":2519,"i_long":106.617853},{"i_lat":-6.3441410000000005,"time":8,"is_transit":false,"station_id":"PRP","distance":5968,"i_long":106.568863,"line":6,"transit":false,"station_name":"Parung Panjang"},{"station_name":"Cilejit","station_id":"CJT","time":9,"i_lat":-6.354349,"line":3,"transit":false,"distance":7025,"is_transit":false,"i_long":106.508482},{"station_id":"DAR","is_transit":false,"i_long":106.491338,"line":0,"distance":2675,"i_lat":-6.338021,"time":6,"transit":false,"station_name":"Daru"},{"line":6,"is_transit":false,"station_id":"TEJ","transit":false,"distance":3902,"i_lat":-6.327251,"i_long":106.460812,"time":5,"station_name":"Tenjo"},{"distance":2974,"time":5,"station_name":"Tigaraksa","i_lat":-6.328533,"i_long":106.425991,"transit":false,"is_transit":false,"line":6,"station_id":"TGS"}]]}