{"data":[[{"station_name":"Rajawali","i_long":106.836569,"is_transit":false,"i_lat":-6.14505,"station_id":"RJW","transit":false,"distance":0,"time":0,"line":11},{"station_id":"KPB","transit":true,"is_transit":true,"i_lat":-6.132549,"station_name":"Kampung Bandan","line":4,"time":3,"i_long":106.826365,"distance":1444},{"station_id":"AK","station_name":"Angke","is_transit":false,"transit":false,"line":1,"distance":4102,"time":9,"i_lat":-6.144674,"i_long":106.79867},{"line":1,"station_name":"Duri","i_long":106.800832,"transit":false,"station_id":"DU","distance":1230,"time":4,"is_transit":false,"i_lat":-6.155215},{"station_name":"Tanah Abang","i_lat":-6.185545,"station_id":"THB","time":8,"line":1,"transit":true,"is_transit":true,"i_long":106.811091,"distance":3632},{"i_lat":-6.207404,"is_transit":false,"time":6,"distance":3191,"transit":false,"i_long":106.79689,"station_name":"Palmerah","line":6,"station_id":"PLM"},{"station_name":"Kebayoran","transit":false,"line":6,"distance":3737,"i_lat":-6.237242,"time":7,"is_transit":false,"i_long":106.780334,"station_id":"KBY"},{"i_lat":-6.276362,"is_transit":false,"distance":6218,"i_long":106.74273,"transit":false,"time":8,"station_name":"Pondokranji","line":6,"station_id":"PDJ"},{"time":3,"is_transit":false,"distance":2179,"station_name":"Jurangmangu","line":6,"i_long":106.728916,"i_lat":-6.288927,"station_id":"JMU","transit":false},{"station_id":"SDM","distance":1994,"transit":false,"station_name":"Sudimara","i_long":106.712277,"is_transit":false,"time":4,"i_lat":-6.296963,"line":6},{"station_id":"RU","distance":4566,"station_name":"Rawa Buntu","i_long":106.675475,"transit":false,"is_transit":false,"i_lat":-6.314823,"line":6,"time":6},{"distance":2413,"i_long":106.66566,"time":4,"is_transit":false,"station_id":"SRP","i_lat":-6.319871,"line":6,"station_name":"Serpong","transit":false},{"distance":1784,"station_name":"Cisauk","station_id":"CSK","is_transit":false,"transit":false,"i_lat":-6.32484,"time":4,"line":3,"i_long":106.640411},{"i_lat":-6.329547,"time":4,"is_transit":false,"distance":2519,"i_long":106.617853,"transit":false,"station_id":"CC","line":3,"station_name":"Cicayur"},{"station_id":"PRP","is_transit":false,"distance":5968,"station_name":"Parung Panjang","i_lat":-6.3441410000000005,"i_long":106.568863,"transit":false,"time":8,"line":6}],[{"station_id":"RJW","i_long":106.836569,"i_lat":-6.14505,"is_transit":false,"transit":false,"distance":0,"time":0,"line":11,"station_name":"Rajawali"},{"i_long":106.839204,"time":5,"station_name":"Kemayoran","i_lat":-6.161728,"distance":1901,"transit":false,"line":11,"is_transit":false,"station_id":"KMO"},{"station_id":"PSE","station_name":"Pasar Senen","i_lat":-6.174784,"i_long":106.84368,"time":4,"distance":1436,"transit":false,"line":11,"is_transit":false},{"transit":false,"station_id":"GST","time":8,"i_lat":-6.185975,"station_name":"Gang Sentiong","line":11,"is_transit":false,"distance":1567,"i_long":106.850107},{"station_id":"KMT","time":1,"station_name":"Kramat","i_lat":-6.193792,"line":11,"is_transit":false,"i_long":106.855437,"distance":973,"transit":false},{"station_id":"POK","line":11,"station_name":"Pondok Jati","i_lat":-6.209188,"time":2,"i_long":106.861737,"is_transit":false,"distance":1829,"transit":false},{"distance":1236,"time":9,"station_id":"JNG","is_transit":true,"i_long":106.86807400000001,"line":1,"transit":true,"station_name":"Jatinegara","i_lat":-6.215091},{"station_name":"Matraman","time":2,"line":1,"i_lat":-6.212485,"distance":1377,"i_long":106.858896,"is_transit":false,"transit":false,"station_id":"MTR"},{"is_transit":false,"station_name":"Manggarai","transit":false,"i_lat":-6.209883,"time":2,"i_long":106.84912,"line":2,"distance":1275,"station_id":"MRI"},{"time":4,"station_name":"Sudirman","i_lat":-6.202263,"i_long":106.822649,"is_transit":false,"line":1,"distance":3186,"station_id":"SUD","transit":false},{"time":1,"is_transit":false,"transit":false,"station_name":"Sudirman Baru","station_id":"SUDB","line":1,"i_lat":-6.201433,"i_long":106.819881,"distance":280},{"distance":471,"time":1,"transit":false,"i_long":106.816351,"is_transit":false,"line":1,"i_lat":-6.20132,"station_id":"KAT","station_name":"Karet"},{"i_long":106.811091,"distance":2029,"is_transit":true,"transit":true,"station_id":"THB","time":5,"station_name":"Tanah Abang","i_lat":-6.185545,"line":1},{"i_lat":-6.207404,"distance":3191,"is_transit":false,"transit":false,"station_name":"Palmerah","line":6,"station_id":"PLM","time":6,"i_long":106.79689},{"i_lat":-6.237242,"station_name":"Kebayoran","is_transit":false,"i_long":106.780334,"line":6,"distance":3737,"time":7,"station_id":"KBY","transit":false},{"i_lat":-6.276362,"station_id":"PDJ","time":8,"transit":false,"station_name":"Pondokranji","line":6,"is_transit":false,"distance":6218,"i_long":106.74273},{"station_id":"JMU","i_long":106.728916,"distance":2179,"station_name":"Jurangmangu","transit":false,"time":3,"is_transit":false,"i_lat":-6.288927,"line":6},{"distance":1994,"time":4,"station_name":"Sudimara","is_transit":false,"i_long":106.712277,"i_lat":-6.296963,"line":6,"station_id":"SDM","transit":false},{"time":6,"station_id":"RU","station_name":"Rawa Buntu","transit":false,"distance":4566,"is_transit":false,"i_lat":-6.314823,"i_long":106.675475,"line":6},{"line":6,"station_name":"Serpong","is_transit":false,"transit":false,"distance":2413,"time":4,"i_long":106.66566,"station_id":"SRP","i_lat":-6.319871},{"transit":false,"station_name":"Cisauk","i_long":106.640411,"station_id":"CSK","distance":1784,"is_transit":false,"time":4,"i_lat":-6.32484,"line":3},{"time":4,"distance":2519,"station_name":"Cicayur","i_long":106.617853,"i_lat":-6.329547,"transit":false,"station_id":"CC","is_transit":false,"line":3},{"i_long":106.568863,"i_lat":-6.3441410000000005,"station_id":"PRP","distance":5968,"transit":false,"is_transit":false,"station_name":"Parung Panjang","line":6,"time":8}],[{"is_transit":false,"i_long":106.836569,"time":0,"distance":0,"transit":false,"station_id":"RJW","station_name":"Rajawali","line":11,"i_lat":-6.14505},{"distance":1444,"station_id":"KPB","transit":true,"time":3,"is_transit":true,"i_lat":-6.132549,"line":4,"i_long":106.826365,"station_name":"Kampung Bandan"},{"line":2,"station_name":"Jakarta Kota","is_transit":true,"station_id":"JAKK","transit":true,"i_lat":-6.137569,"time":3,"i_long":106.812439,"distance":1364},{"distance":1264,"line":2,"is_transit":false,"time":4,"transit":false,"station_name":"Jayakarta","i_lat":-6.141205,"i_long":106.820901,"station_id":"JAY"},{"station_name":"Manggabesar","transit":false,"time":2,"i_lat":-6.149769,"i_long":106.82482,"distance":1080,"station_id":"MGB","is_transit":false,"line":2},{"time":2,"transit":false,"line":2,"i_long":106.827103,"is_transit":false,"i_lat":-6.160725,"station_name":"Sawah Besar","distance":906,"station_id":"SW"},{"time":2,"is_transit":false,"station_name":"Juanda","i_long":106.828284,"station_id":"JUA","line":2,"distance":1149,"transit":false,"i_lat":-6.166716},{"is_transit":false,"i_long":106.832183,"station_name":"Gondangdia","distance":2015,"station_id":"GDD","transit":false,"line":2,"time":4,"i_lat":-6.186295},{"time":3,"station_id":"CKI","transit":false,"i_long":106.840169,"line":2,"i_lat":-6.198556,"station_name":"Cikini","distance":1750,"is_transit":false},{"transit":true,"time":4,"distance":1590,"line":2,"i_long":106.84912,"station_name":"Manggarai","station_id":"MRI","i_lat":-6.209883,"is_transit":true},{"time":4,"i_lat":-6.202263,"station_id":"SUD","station_name":"Sudirman","i_long":106.822649,"line":1,"distance":3186,"is_transit":false,"transit":false},{"time":1,"is_transit":false,"line":1,"station_name":"Sudirman Baru","transit":false,"i_lat":-6.201433,"i_long":106.819881,"distance":280,"station_id":"SUDB"},{"time":1,"distance":471,"station_name":"Karet","transit":false,"station_id":"KAT","is_transit":false,"i_lat":-6.20132,"i_long":106.816351,"line":1},{"distance":2029,"station_name":"Tanah Abang","is_transit":true,"i_long":106.811091,"station_id":"THB","line":1,"time":5,"i_lat":-6.185545,"transit":true},{"i_lat":-6.207404,"is_transit":false,"transit":false,"station_name":"Palmerah","line":6,"time":6,"distance":3191,"station_id":"PLM","i_long":106.79689},{"i_lat":-6.237242,"station_id":"KBY","is_transit":false,"distance":3737,"time":7,"station_name":"Kebayoran","i_long":106.780334,"transit":false,"line":6},{"station_name":"Pondokranji","transit":false,"distance":6218,"i_lat":-6.276362,"i_long":106.74273,"station_id":"PDJ","time":8,"line":6,"is_transit":false},{"distance":2179,"line":6,"station_name":"Jurangmangu","station_id":"JMU","time":3,"i_lat":-6.288927,"transit":false,"i_long":106.728916,"is_transit":false},{"i_lat":-6.296963,"time":4,"line":6,"station_id":"SDM","is_transit":false,"i_long":106.712277,"station_name":"Sudimara","distance":1994,"transit":false},{"station_id":"RU","i_lat":-6.314823,"distance":4566,"time":6,"is_transit":false,"i_long":106.675475,"transit":false,"line":6,"station_name":"Rawa Buntu"},{"distance":2413,"transit":false,"i_lat":-6.319871,"line":6,"i_long":106.66566,"time":4,"station_id":"SRP","is_transit":false,"station_name":"Serpong"},{"time":4,"station_id":"CSK","station_name":"Cisauk","distance":1784,"i_lat":-6.32484,"line":3,"i_long":106.640411,"is_transit":false,"transit":false},{"time":4,"i_long":106.617853,"line":3,"station_id":"CC","transit":false,"i_lat":-6.329547,"is_transit":false,"station_name":"Cicayur","distance":2519},{"time":8,"station_name":"Parung Panjang","transit":false,"is_transit":false,"i_lat":-6.3441410000000005,"distance":5968,"line":6,"i_long":106.568863,"station_id":"PRP"}],[{"distance":0,"time":0,"is_transit":false,"i_lat":-6.14505,"station_id":"RJW","transit":false,"i_long":106.836569,"line":11,"station_name":"Rajawali"},{"i_lat":-6.161728,"time":5,"station_name":"Kemayoran","distance":1901,"station_id":"KMO","line":11,"transit":false,"i_long":106.839204,"is_transit":false},{"station_id":"PSE","transit":false,"station_name":"Pasar Senen","time":4,"line":11,"is_transit":false,"distance":1436,"i_lat":-6.174784,"i_long":106.84368},{"station_id":"GST","is_transit":false,"distance":1567,"transit":false,"station_name":"Gang Sentiong","time":8,"i_lat":-6.185975,"i_long":106.850107,"line":11},{"i_lat":-6.193792,"transit":false,"is_transit":false,"i_long":106.855437,"distance":973,"line":11,"time":1,"station_id":"KMT","station_name":"Kramat"},{"distance":1829,"i_long":106.861737,"line":11,"transit":false,"station_id":"POK","station_name":"Pondok Jati","is_transit":false,"time":2,"i_lat":-6.209188},{"i_long":106.86807400000001,"time":9,"station_id":"JNG","line":1,"transit":true,"station_name":"Jatinegara","distance":1236,"is_transit":true,"i_lat":-6.215091},{"distance":1377,"i_long":106.858896,"station_id":"MTR","time":2,"station_name":"Matraman","transit":false,"is_transit":false,"i_lat":-6.212485,"line":1},{"station_name":"Manggarai","station_id":"MRI","transit":true,"is_transit":true,"i_lat":-6.209883,"i_long":106.84912,"time":2,"distance":1275,"line":2},{"station_id":"CKI","time":4,"line":2,"i_lat":-6.198556,"i_long":106.840169,"is_transit":false,"station_name":"Cikini","distance":1590,"transit":false},{"i_lat":-6.186295,"line":2,"station_name":"Gondangdia","distance":1750,"station_id":"GDD","transit":false,"is_transit":false,"i_long":106.832183,"time":3},{"station_id":"JUA","line":2,"i_long":106.828284,"station_name":"Juanda","is_transit":false,"i_lat":-6.166716,"transit":false,"distance":2015,"time":4},{"distance":1149,"line":2,"is_transit":false,"i_long":106.827103,"i_lat":-6.160725,"station_id":"SW","station_name":"Sawah Besar","time":2,"transit":false},{"station_id":"MGB","time":2,"line":2,"distance":906,"station_name":"Manggabesar","transit":false,"is_transit":false,"i_lat":-6.149769,"i_long":106.82482},{"line":2,"station_id":"JAY","distance":1080,"transit":false,"station_name":"Jayakarta","i_long":106.820901,"i_lat":-6.141205,"time":2,"is_transit":false},{"is_transit":true,"station_name":"Jakarta Kota","station_id":"JAKK","transit":true,"i_long":106.812439,"line":2,"time":4,"distance":1264,"i_lat":-6.137569},{"station_name":"Kampung Bandan","transit":true,"i_long":106.826365,"station_id":"KPB","distance":1364,"is_transit":true,"time":3,"i_lat":-6.132549,"line":4},{"station_name":"Angke","station_id":"AK","i_lat":-6.144674,"time":9,"i_long":106.79867,"is_transit":false,"distance":4102,"transit":false,"line":1},{"station_id":"DU","transit":false,"i_lat":-6.155215,"time":4,"line":1,"i_long":106.800832,"station_name":"Duri","is_transit":false,"distance":1230},{"is_transit":true,"i_long":106.811091,"line":1,"distance":3632,"station_id":"THB","transit":true,"i_lat":-6.185545,"time":8,"station_name":"Tanah Abang"},{"i_lat":-6.207404,"distance":3191,"time":6,"is_transit":false,"i_long":106.79689,"line":6,"station_name":"Palmerah","station_id":"PLM","transit":false},{"time":7,"station_id":"KBY","transit":false,"is_transit":false,"i_lat":-6.237242,"i_long":106.780334,"station_name":"Kebayoran","distance":3737,"line":6},{"is_transit":false,"i_lat":-6.276362,"line":6,"time":8,"i_long":106.74273,"station_id":"PDJ","station_name":"Pondokranji","distance":6218,"transit":false},{"distance":2179,"station_id":"JMU","line":6,"time":3,"transit":false,"is_transit":false,"station_name":"Jurangmangu","i_lat":-6.288927,"i_long":106.728916},{"station_id":"SDM","i_lat":-6.296963,"transit":false,"time":4,"is_transit":false,"line":6,"i_long":106.712277,"station_name":"Sudimara","distance":1994},{"transit":false,"line":6,"time":6,"i_lat":-6.314823,"i_long":106.675475,"station_id":"RU","distance":4566,"is_transit":false,"station_name":"Rawa Buntu"},{"station_name":"Serpong","is_transit":false,"i_lat":-6.319871,"transit":false,"time":4,"station_id":"SRP","i_long":106.66566,"line":6,"distance":2413},{"station_id":"CSK","i_long":106.640411,"transit":false,"time":4,"is_transit":false,"line":3,"station_name":"Cisauk","i_lat":-6.32484,"distance":1784},{"line":3,"station_id":"CC","time":4,"is_transit":false,"i_lat":-6.329547,"station_name":"Cicayur","i_long":106.617853,"distance":2519,"transit":false},{"i_long":106.568863,"station_name":"Parung Panjang","i_lat":-6.3441410000000005,"time":8,"transit":false,"is_transit":false,"distance":5968,"station_id":"PRP","line":6}]]}