{"data":[[{"time":0,"station_id":"RJW","i_lat":-6.14505,"i_long":106.836569,"station_name":"Rajawali","distance":0,"line":11,"transit":false,"is_transit":false},{"i_long":106.826365,"time":3,"i_lat":-6.132549,"line":0,"distance":1444,"station_name":"Kampung Bandan","is_transit":true,"transit":true,"station_id":"KPB"},{"distance":4102,"transit":false,"i_long":106.79867,"time":9,"line":0,"is_transit":false,"station_id":"AK","station_name":"Angke","i_lat":-6.144674},{"station_name":"Duri","transit":true,"i_long":106.800832,"time":4,"distance":1230,"i_lat":-6.155215,"line":1,"is_transit":true,"station_id":"DU"},{"i_long":106.811091,"distance":3632,"station_id":"THB","is_transit":true,"time":8,"line":1,"station_name":"Tanah Abang","i_lat":-6.185545,"transit":true},{"is_transit":false,"station_id":"PLM","station_name":"Palmerah","line":6,"distance":3191,"transit":false,"i_lat":-6.207404,"time":6,"i_long":106.79689},{"i_long":106.780334,"line":6,"time":7,"distance":3737,"i_lat":-6.237242,"station_id":"KBY","transit":false,"is_transit":false,"station_name":"Kebayoran"},{"time":8,"station_id":"PDJ","station_name":"Pondokranji","i_lat":-6.276362,"line":6,"distance":6218,"is_transit":false,"transit":false,"i_long":106.74273},{"line":6,"is_transit":false,"station_id":"JMU","i_lat":-6.288927,"transit":false,"distance":2179,"station_name":"Jurangmangu","i_long":106.728916,"time":3},{"i_long":106.712277,"station_id":"SDM","transit":false,"time":4,"is_transit":false,"i_lat":-6.296963,"line":6,"distance":1994,"station_name":"Sudimara"},{"i_long":106.675475,"distance":4566,"station_id":"RU","station_name":"Rawa Buntu","i_lat":-6.314823,"time":6,"is_transit":false,"transit":false,"line":6},{"transit":false,"i_long":106.66566,"i_lat":-6.319871,"distance":2413,"time":4,"is_transit":false,"station_name":"Serpong","line":6,"station_id":"SRP"},{"transit":false,"distance":1784,"is_transit":false,"time":4,"line":0,"station_name":"Cisauk","i_lat":-6.32484,"station_id":"CSK","i_long":106.640411},{"distance":2519,"transit":false,"line":0,"station_name":"Cicayur","station_id":"CC","i_lat":-6.329547,"i_long":106.617853,"is_transit":false,"time":4},{"time":8,"transit":false,"station_name":"Parung Panjang","i_lat":-6.3441410000000005,"station_id":"PRP","i_long":106.568863,"is_transit":false,"distance":5968,"line":6},{"line":0,"station_id":"CJT","i_lat":-6.354349,"is_transit":false,"distance":7025,"transit":false,"time":9,"i_long":106.508482,"station_name":"Cilejit"},{"station_id":"DAR","station_name":"Daru","transit":false,"i_long":106.491338,"line":0,"time":6,"i_lat":-6.338021,"distance":2675,"is_transit":false},{"line":6,"i_lat":-6.327251,"station_name":"Tenjo","is_transit":false,"time":5,"transit":false,"i_long":106.460812,"distance":3902,"station_id":"TEJ"},{"station_name":"Tigaraksa","i_long":106.425991,"station_id":"TGS","transit":false,"time":5,"is_transit":false,"distance":2974,"i_lat":-6.328533,"line":6},{"station_name":"Cikoya","transit":false,"distance":2651,"is_transit":false,"time":3,"i_long":106.411216,"line":0,"i_lat":-6.33561,"station_id":"CKY"},{"station_name":"Maja","transit":false,"is_transit":false,"i_lat":-6.332307,"line":6,"i_long":106.394373,"distance":1853,"time":4,"station_id":"MJ"},{"station_name":"Citeras","line":0,"i_long":106.332092,"station_id":"CTR","transit":false,"is_transit":false,"i_lat":-6.334892,"time":10,"distance":7293}],[{"station_name":"Rajawali","distance":0,"transit":false,"i_lat":-6.14505,"is_transit":false,"i_long":106.836569,"time":0,"line":11,"station_id":"RJW"},{"station_id":"KMO","time":5,"i_lat":-6.161728,"i_long":106.839204,"distance":1901,"station_name":"Kemayoran","transit":false,"is_transit":false,"line":11},{"i_long":106.84368,"is_transit":false,"transit":false,"time":4,"station_id":"PSE","distance":1436,"station_name":"Pasar Senen","i_lat":-6.174784,"line":11},{"station_id":"GST","transit":false,"station_name":"Gang Sentiong","i_long":106.850107,"is_transit":false,"line":11,"distance":1567,"i_lat":-6.185975,"time":8},{"station_id":"KMT","transit":false,"i_long":106.855437,"is_transit":false,"station_name":"Kramat","line":11,"distance":973,"time":1,"i_lat":-6.193792},{"time":2,"i_lat":-6.209188,"station_name":"Pondok Jati","i_long":106.861737,"line":11,"distance":1829,"is_transit":false,"station_id":"POK","transit":false},{"i_lat":-6.215091,"time":9,"transit":true,"station_id":"JNG","line":0,"is_transit":true,"i_long":106.86807400000001,"distance":1236,"station_name":"Jatinegara"},{"i_lat":-6.212485,"station_id":"MTR","transit":false,"i_long":106.858896,"distance":1377,"time":2,"line":1,"is_transit":false,"station_name":"Matraman"},{"station_id":"MRI","time":2,"line":0,"is_transit":true,"station_name":"Manggarai","i_lat":-6.209883,"i_long":106.84912,"transit":false,"distance":1275},{"distance":3186,"station_name":"Sudirman","is_transit":false,"station_id":"SUD","time":4,"i_lat":-6.202263,"i_long":106.822649,"transit":false,"line":1},{"distance":280,"is_transit":false,"transit":false,"line":1,"i_long":106.819881,"i_lat":-6.201433,"station_id":"SUDB","station_name":"Sudirman Baru","time":1},{"station_name":"Karet","i_long":106.816351,"is_transit":false,"time":1,"line":1,"station_id":"KAT","distance":471,"transit":false,"i_lat":-6.20132},{"line":1,"distance":2029,"is_transit":true,"time":5,"transit":true,"i_lat":-6.185545,"station_name":"Tanah Abang","station_id":"THB","i_long":106.811091},{"transit":false,"distance":3191,"i_long":106.79689,"i_lat":-6.207404,"station_name":"Palmerah","station_id":"PLM","is_transit":false,"time":6,"line":6},{"distance":3737,"station_id":"KBY","time":7,"line":6,"i_long":106.780334,"is_transit":false,"transit":false,"station_name":"Kebayoran","i_lat":-6.237242},{"distance":6218,"is_transit":false,"station_id":"PDJ","transit":false,"line":6,"time":8,"i_lat":-6.276362,"station_name":"Pondokranji","i_long":106.74273},{"transit":false,"i_long":106.728916,"i_lat":-6.288927,"time":3,"is_transit":false,"station_id":"JMU","station_name":"Jurangmangu","distance":2179,"line":6},{"distance":1994,"i_lat":-6.296963,"line":6,"i_long":106.712277,"time":4,"is_transit":false,"transit":false,"station_name":"Sudimara","station_id":"SDM"},{"distance":4566,"i_lat":-6.314823,"i_long":106.675475,"station_name":"Rawa Buntu","station_id":"RU","line":6,"time":6,"transit":false,"is_transit":false},{"station_id":"SRP","distance":2413,"is_transit":false,"station_name":"Serpong","line":6,"i_lat":-6.319871,"time":4,"i_long":106.66566,"transit":false},{"i_long":106.640411,"distance":1784,"i_lat":-6.32484,"is_transit":false,"station_name":"Cisauk","station_id":"CSK","transit":false,"line":0,"time":4},{"time":4,"i_long":106.617853,"station_name":"Cicayur","transit":false,"line":0,"distance":2519,"is_transit":false,"i_lat":-6.329547,"station_id":"CC"},{"station_name":"Parung Panjang","time":8,"distance":5968,"i_lat":-6.3441410000000005,"transit":false,"line":6,"is_transit":false,"station_id":"PRP","i_long":106.568863},{"time":9,"station_id":"CJT","station_name":"Cilejit","i_lat":-6.354349,"i_long":106.508482,"distance":7025,"transit":false,"line":0,"is_transit":false},{"station_name":"Daru","i_lat":-6.338021,"time":6,"is_transit":false,"i_long":106.491338,"transit":false,"line":0,"station_id":"DAR","distance":2675},{"station_id":"TEJ","is_transit":false,"transit":false,"time":5,"i_long":106.460812,"i_lat":-6.327251,"station_name":"Tenjo","line":6,"distance":3902},{"transit":false,"station_name":"Tigaraksa","distance":2974,"time":5,"station_id":"TGS","i_long":106.425991,"line":6,"is_transit":false,"i_lat":-6.328533},{"distance":2651,"time":3,"station_id":"CKY","station_name":"Cikoya","line":0,"i_long":106.411216,"is_transit":false,"transit":false,"i_lat":-6.33561},{"station_id":"MJ","time":4,"distance":1853,"station_name":"Maja","transit":false,"line":6,"i_long":106.394373,"is_transit":false,"i_lat":-6.332307},{"is_transit":false,"station_id":"CTR","i_long":106.332092,"line":0,"i_lat":-6.334892,"station_name":"Citeras","time":10,"distance":7293,"transit":false}],[{"line":11,"transit":false,"station_name":"Rajawali","i_long":106.836569,"i_lat":-6.14505,"station_id":"RJW","is_transit":false,"time":0,"distance":0},{"transit":true,"distance":1444,"station_id":"KPB","time":3,"is_transit":true,"line":0,"i_lat":-6.132549,"i_long":106.826365,"station_name":"Kampung Bandan"},{"station_name":"Jakarta Kota","distance":1364,"time":3,"station_id":"JAKK","i_lat":-6.137569,"i_long":106.812439,"line":0,"is_transit":true,"transit":true},{"station_id":"JAY","time":4,"i_lat":-6.141205,"line":7,"distance":1264,"transit":false,"is_transit":false,"station_name":"Jayakarta","i_long":106.820901},{"station_name":"Manggabesar","time":2,"transit":false,"i_long":106.82482,"distance":1080,"is_transit":false,"station_id":"MGB","i_lat":-6.149769,"line":2},{"distance":906,"station_id":"SW","station_name":"Sawah Besar","i_long":106.827103,"i_lat":-6.160725,"line":2,"time":2,"is_transit":false,"transit":false},{"line":2,"station_id":"JUA","i_lat":-6.166716,"i_long":106.828284,"is_transit":false,"station_name":"Juanda","time":2,"transit":false,"distance":1149},{"station_name":"Gondangdia","time":4,"line":2,"i_lat":-6.186295,"station_id":"GDD","is_transit":false,"i_long":106.832183,"transit":false,"distance":2015},{"is_transit":false,"time":3,"line":0,"distance":1750,"transit":false,"station_name":"Cikini","i_long":106.840169,"i_lat":-6.198556,"station_id":"CKI"},{"time":4,"station_id":"MRI","station_name":"Manggarai","distance":1590,"transit":true,"is_transit":true,"i_lat":-6.209883,"line":0,"i_long":106.84912},{"station_id":"SUD","i_lat":-6.202263,"station_name":"Sudirman","i_long":106.822649,"line":1,"time":4,"distance":3186,"is_transit":false,"transit":false},{"station_id":"SUDB","station_name":"Sudirman Baru","transit":false,"i_lat":-6.201433,"is_transit":false,"line":1,"distance":280,"i_long":106.819881,"time":1},{"station_name":"Karet","line":1,"transit":false,"is_transit":false,"i_lat":-6.20132,"time":1,"station_id":"KAT","distance":471,"i_long":106.816351},{"distance":2029,"transit":true,"time":5,"i_long":106.811091,"line":1,"is_transit":true,"station_name":"Tanah Abang","i_lat":-6.185545,"station_id":"THB"},{"i_long":106.79689,"distance":3191,"time":6,"station_name":"Palmerah","is_transit":false,"transit":false,"i_lat":-6.207404,"line":6,"station_id":"PLM"},{"time":7,"line":6,"is_transit":false,"station_name":"Kebayoran","i_lat":-6.237242,"transit":false,"distance":3737,"station_id":"KBY","i_long":106.780334},{"i_long":106.74273,"station_id":"PDJ","distance":6218,"time":8,"transit":false,"station_name":"Pondokranji","line":6,"is_transit":false,"i_lat":-6.276362},{"transit":false,"station_id":"JMU","line":6,"time":3,"is_transit":false,"i_lat":-6.288927,"i_long":106.728916,"station_name":"Jurangmangu","distance":2179},{"is_transit":false,"transit":false,"time":4,"station_id":"SDM","line":6,"distance":1994,"i_long":106.712277,"i_lat":-6.296963,"station_name":"Sudimara"},{"is_transit":false,"transit":false,"time":6,"station_id":"RU","distance":4566,"i_long":106.675475,"line":6,"station_name":"Rawa Buntu","i_lat":-6.314823},{"transit":false,"i_lat":-6.319871,"station_name":"Serpong","i_long":106.66566,"distance":2413,"time":4,"line":6,"is_transit":false,"station_id":"SRP"},{"i_lat":-6.32484,"distance":1784,"station_id":"CSK","i_long":106.640411,"is_transit":false,"station_name":"Cisauk","transit":false,"time":4,"line":0},{"transit":false,"time":4,"i_long":106.617853,"i_lat":-6.329547,"station_id":"CC","line":0,"distance":2519,"is_transit":false,"station_name":"Cicayur"},{"station_name":"Parung Panjang","i_lat":-6.3441410000000005,"is_transit":false,"line":6,"time":8,"i_long":106.568863,"station_id":"PRP","transit":false,"distance":5968},{"distance":7025,"transit":false,"station_id":"CJT","station_name":"Cilejit","i_lat":-6.354349,"line":0,"is_transit":false,"i_long":106.508482,"time":9},{"is_transit":false,"transit":false,"station_id":"DAR","i_lat":-6.338021,"distance":2675,"station_name":"Daru","line":0,"time":6,"i_long":106.491338},{"station_name":"Tenjo","i_long":106.460812,"line":6,"transit":false,"time":5,"distance":3902,"i_lat":-6.327251,"is_transit":false,"station_id":"TEJ"},{"station_id":"TGS","line":6,"is_transit":false,"i_lat":-6.328533,"time":5,"distance":2974,"station_name":"Tigaraksa","i_long":106.425991,"transit":false},{"i_lat":-6.33561,"distance":2651,"station_id":"CKY","transit":false,"line":0,"station_name":"Cikoya","i_long":106.411216,"is_transit":false,"time":3},{"is_transit":false,"time":4,"i_lat":-6.332307,"station_name":"Maja","i_long":106.394373,"transit":false,"station_id":"MJ","distance":1853,"line":6},{"station_id":"CTR","line":0,"is_transit":false,"time":10,"station_name":"Citeras","distance":7293,"i_long":106.332092,"transit":false,"i_lat":-6.334892}],[{"transit":false,"i_long":106.836569,"station_name":"Rajawali","time":0,"distance":0,"is_transit":false,"station_id":"RJW","i_lat":-6.14505,"line":11},{"transit":false,"station_name":"Kemayoran","distance":1901,"is_transit":false,"time":5,"i_long":106.839204,"station_id":"KMO","i_lat":-6.161728,"line":11},{"is_transit":false,"station_id":"PSE","station_name":"Pasar Senen","time":4,"line":11,"distance":1436,"i_lat":-6.174784,"transit":false,"i_long":106.84368},{"line":11,"time":8,"distance":1567,"i_long":106.850107,"station_name":"Gang Sentiong","station_id":"GST","i_lat":-6.185975,"is_transit":false,"transit":false},{"line":11,"station_id":"KMT","station_name":"Kramat","transit":false,"time":1,"i_lat":-6.193792,"i_long":106.855437,"is_transit":false,"distance":973},{"is_transit":false,"time":2,"line":11,"i_lat":-6.209188,"distance":1829,"transit":false,"station_name":"Pondok Jati","station_id":"POK","i_long":106.861737},{"station_id":"JNG","transit":true,"i_long":106.86807400000001,"line":0,"station_name":"Jatinegara","time":9,"distance":1236,"i_lat":-6.215091,"is_transit":true},{"is_transit":false,"station_name":"Matraman","i_lat":-6.212485,"time":2,"line":1,"i_long":106.858896,"distance":1377,"station_id":"MTR","transit":false},{"time":2,"i_long":106.84912,"line":0,"station_id":"MRI","distance":1275,"is_transit":true,"transit":true,"i_lat":-6.209883,"station_name":"Manggarai"},{"station_id":"CKI","i_lat":-6.198556,"is_transit":false,"station_name":"Cikini","line":0,"i_long":106.840169,"transit":false,"distance":1590,"time":4},{"is_transit":false,"station_id":"GDD","station_name":"Gondangdia","transit":false,"distance":1750,"time":3,"i_lat":-6.186295,"line":2,"i_long":106.832183},{"transit":false,"time":4,"i_lat":-6.166716,"distance":2015,"is_transit":false,"i_long":106.828284,"station_id":"JUA","station_name":"Juanda","line":2},{"is_transit":false,"line":2,"station_name":"Sawah Besar","time":2,"i_lat":-6.160725,"station_id":"SW","transit":false,"i_long":106.827103,"distance":1149},{"i_long":106.82482,"line":2,"station_name":"Manggabesar","is_transit":false,"i_lat":-6.149769,"distance":906,"transit":false,"time":2,"station_id":"MGB"},{"transit":false,"is_transit":false,"i_lat":-6.141205,"station_name":"Jayakarta","distance":1080,"time":2,"i_long":106.820901,"station_id":"JAY","line":7},{"i_lat":-6.137569,"station_id":"JAKK","line":0,"i_long":106.812439,"distance":1264,"transit":true,"time":4,"station_name":"Jakarta Kota","is_transit":true},{"i_long":106.826365,"station_name":"Kampung Bandan","time":3,"line":0,"station_id":"KPB","distance":1364,"is_transit":true,"i_lat":-6.132549,"transit":false},{"station_name":"Angke","time":9,"is_transit":false,"station_id":"AK","distance":4102,"transit":false,"i_lat":-6.144674,"line":0,"i_long":106.79867},{"transit":true,"station_name":"Duri","time":4,"distance":1230,"is_transit":true,"station_id":"DU","i_lat":-6.155215,"i_long":106.800832,"line":1},{"line":1,"transit":true,"time":8,"distance":3632,"is_transit":true,"station_id":"THB","i_long":106.811091,"station_name":"Tanah Abang","i_lat":-6.185545},{"distance":3191,"i_long":106.79689,"is_transit":false,"time":6,"station_name":"Palmerah","transit":false,"i_lat":-6.207404,"line":6,"station_id":"PLM"},{"station_id":"KBY","is_transit":false,"transit":false,"i_long":106.780334,"i_lat":-6.237242,"distance":3737,"line":6,"station_name":"Kebayoran","time":7},{"i_lat":-6.276362,"is_transit":false,"station_id":"PDJ","time":8,"i_long":106.74273,"line":6,"distance":6218,"station_name":"Pondokranji","transit":false},{"station_id":"JMU","time":3,"i_lat":-6.288927,"distance":2179,"is_transit":false,"station_name":"Jurangmangu","i_long":106.728916,"transit":false,"line":6},{"i_lat":-6.296963,"i_long":106.712277,"is_transit":false,"line":6,"station_id":"SDM","station_name":"Sudimara","distance":1994,"transit":false,"time":4},{"station_id":"RU","transit":false,"distance":4566,"station_name":"Rawa Buntu","time":6,"is_transit":false,"i_long":106.675475,"line":6,"i_lat":-6.314823},{"distance":2413,"is_transit":false,"station_name":"Serpong","transit":false,"i_long":106.66566,"i_lat":-6.319871,"station_id":"SRP","line":6,"time":4},{"line":0,"station_id":"CSK","i_long":106.640411,"distance":1784,"i_lat":-6.32484,"station_name":"Cisauk","is_transit":false,"transit":false,"time":4},{"i_long":106.617853,"line":0,"station_name":"Cicayur","distance":2519,"i_lat":-6.329547,"station_id":"CC","is_transit":false,"time":4,"transit":false},{"time":8,"is_transit":false,"distance":5968,"i_lat":-6.3441410000000005,"i_long":106.568863,"line":6,"station_name":"Parung Panjang","station_id":"PRP","transit":false},{"time":9,"is_transit":false,"transit":false,"distance":7025,"station_id":"CJT","i_lat":-6.354349,"i_long":106.508482,"line":0,"station_name":"Cilejit"},{"transit":false,"distance":2675,"station_name":"Daru","time":6,"is_transit":false,"line":0,"i_lat":-6.338021,"station_id":"DAR","i_long":106.491338},{"time":5,"transit":false,"i_lat":-6.327251,"line":6,"station_name":"Tenjo","i_long":106.460812,"station_id":"TEJ","is_transit":false,"distance":3902},{"time":5,"distance":2974,"is_transit":false,"i_long":106.425991,"station_id":"TGS","station_name":"Tigaraksa","transit":false,"line":6,"i_lat":-6.328533},{"is_transit":false,"transit":false,"station_id":"CKY","i_long":106.411216,"station_name":"Cikoya","time":3,"line":0,"distance":2651,"i_lat":-6.33561},{"line":6,"station_name":"Maja","distance":1853,"i_lat":-6.332307,"transit":false,"i_long":106.394373,"is_transit":false,"station_id":"MJ","time":4},{"distance":7293,"line":0,"transit":false,"is_transit":false,"i_lat":-6.334892,"time":10,"station_id":"CTR","station_name":"Citeras","i_long":106.332092}]]}