{"data":[[{"i_lat":-6.14505,"time":0,"line":11,"is_transit":false,"station_id":"RJW","i_long":106.836569,"distance":0,"station_name":"Rajawali","transit":false},{"distance":1444,"i_lat":-6.132549,"i_long":106.826365,"line":0,"is_transit":true,"station_name":"Kampung Bandan","time":3,"transit":true,"station_id":"KPB"},{"distance":4102,"i_lat":-6.144674,"transit":false,"line":0,"station_id":"AK","is_transit":false,"station_name":"Angke","i_long":106.79867,"time":9},{"transit":true,"i_lat":-6.155215,"line":1,"station_id":"DU","time":4,"i_long":106.800832,"is_transit":true,"distance":1230,"station_name":"Duri"},{"transit":true,"i_lat":-6.185545,"line":1,"station_id":"THB","station_name":"Tanah Abang","distance":3632,"time":8,"i_long":106.811091,"is_transit":true},{"station_name":"Palmerah","is_transit":false,"distance":3191,"station_id":"PLM","transit":false,"time":6,"i_lat":-6.207404,"i_long":106.79689,"line":6},{"time":7,"station_id":"KBY","i_long":106.780334,"station_name":"Kebayoran","distance":3737,"line":6,"is_transit":false,"i_lat":-6.237242,"transit":false},{"i_long":106.74273,"i_lat":-6.276362,"transit":false,"line":6,"distance":6218,"is_transit":false,"time":8,"station_id":"PDJ","station_name":"Pondokranji"},{"line":6,"station_name":"Jurangmangu","station_id":"JMU","time":3,"i_lat":-6.288927,"is_transit":false,"i_long":106.728916,"distance":2179,"transit":false}],[{"time":0,"i_long":106.836569,"station_id":"RJW","distance":0,"is_transit":false,"transit":false,"i_lat":-6.14505,"station_name":"Rajawali","line":11},{"station_id":"KMO","i_long":106.839204,"time":5,"distance":1901,"is_transit":false,"station_name":"Kemayoran","line":11,"i_lat":-6.161728,"transit":false},{"station_id":"PSE","transit":false,"distance":1436,"i_long":106.84368,"line":11,"i_lat":-6.174784,"is_transit":false,"time":4,"station_name":"Pasar Senen"},{"time":8,"station_name":"Gang Sentiong","distance":1567,"station_id":"GST","is_transit":false,"line":11,"transit":false,"i_lat":-6.185975,"i_long":106.850107},{"distance":973,"transit":false,"station_id":"KMT","time":1,"station_name":"Kramat","i_long":106.855437,"line":11,"i_lat":-6.193792,"is_transit":false},{"distance":1829,"is_transit":false,"station_id":"POK","station_name":"Pondok Jati","i_lat":-6.209188,"i_long":106.861737,"time":2,"line":11,"transit":false},{"i_lat":-6.215091,"station_id":"JNG","station_name":"Jatinegara","line":0,"time":9,"distance":1236,"is_transit":true,"i_long":106.86807400000001,"transit":true},{"i_lat":-6.212485,"transit":false,"station_id":"MTR","station_name":"Matraman","i_long":106.858896,"time":2,"line":1,"is_transit":false,"distance":1377},{"i_long":106.84912,"time":2,"station_id":"MRI","distance":1275,"transit":false,"station_name":"Manggarai","i_lat":-6.209883,"line":0,"is_transit":true},{"station_name":"Sudirman","line":1,"station_id":"SUD","i_lat":-6.202263,"transit":false,"distance":3186,"is_transit":false,"time":4,"i_long":106.822649},{"transit":false,"i_lat":-6.201433,"distance":280,"is_transit":false,"i_long":106.819881,"time":1,"station_id":"SUDB","station_name":"Sudirman Baru","line":1},{"station_id":"KAT","time":1,"i_lat":-6.20132,"is_transit":false,"transit":false,"line":1,"station_name":"Karet","distance":471,"i_long":106.816351},{"is_transit":true,"distance":2029,"station_name":"Tanah Abang","station_id":"THB","transit":true,"i_lat":-6.185545,"line":1,"i_long":106.811091,"time":5},{"distance":3191,"station_id":"PLM","transit":false,"time":6,"i_long":106.79689,"station_name":"Palmerah","i_lat":-6.207404,"line":6,"is_transit":false},{"is_transit":false,"station_id":"KBY","i_lat":-6.237242,"i_long":106.780334,"station_name":"Kebayoran","time":7,"line":6,"transit":false,"distance":3737},{"time":8,"is_transit":false,"station_name":"Pondokranji","line":6,"distance":6218,"i_lat":-6.276362,"station_id":"PDJ","i_long":106.74273,"transit":false},{"is_transit":false,"i_long":106.728916,"station_name":"Jurangmangu","transit":false,"line":6,"station_id":"JMU","time":3,"distance":2179,"i_lat":-6.288927}],[{"distance":0,"transit":false,"is_transit":false,"time":0,"i_lat":-6.14505,"i_long":106.836569,"station_id":"RJW","station_name":"Rajawali","line":11},{"line":0,"distance":1444,"station_id":"KPB","time":3,"is_transit":true,"transit":true,"i_lat":-6.132549,"station_name":"Kampung Bandan","i_long":106.826365},{"transit":true,"station_name":"Jakarta Kota","line":0,"i_lat":-6.137569,"is_transit":true,"time":3,"i_long":106.812439,"station_id":"JAKK","distance":1364},{"station_id":"JAY","i_lat":-6.141205,"distance":1264,"transit":false,"time":4,"station_name":"Jayakarta","i_long":106.820901,"line":7,"is_transit":false},{"time":2,"line":2,"distance":1080,"is_transit":false,"i_lat":-6.149769,"station_id":"MGB","transit":false,"station_name":"Manggabesar","i_long":106.82482},{"station_id":"SW","distance":906,"station_name":"Sawah Besar","is_transit":false,"i_lat":-6.160725,"time":2,"transit":false,"i_long":106.827103,"line":2},{"time":2,"transit":false,"i_lat":-6.166716,"i_long":106.828284,"line":2,"station_id":"JUA","station_name":"Juanda","is_transit":false,"distance":1149},{"is_transit":false,"transit":false,"time":4,"i_long":106.832183,"station_id":"GDD","distance":2015,"station_name":"Gondangdia","i_lat":-6.186295,"line":2},{"i_long":106.840169,"is_transit":false,"transit":false,"distance":1750,"line":0,"station_id":"CKI","station_name":"Cikini","time":3,"i_lat":-6.198556},{"i_long":106.84912,"distance":1590,"time":4,"i_lat":-6.209883,"is_transit":true,"station_id":"MRI","station_name":"Manggarai","transit":true,"line":0},{"is_transit":false,"i_lat":-6.202263,"distance":3186,"station_name":"Sudirman","transit":false,"time":4,"line":1,"i_long":106.822649,"station_id":"SUD"},{"station_name":"Sudirman Baru","i_lat":-6.201433,"line":1,"transit":false,"distance":280,"is_transit":false,"station_id":"SUDB","i_long":106.819881,"time":1},{"is_transit":false,"station_name":"Karet","station_id":"KAT","transit":false,"i_long":106.816351,"time":1,"line":1,"distance":471,"i_lat":-6.20132},{"time":5,"line":1,"distance":2029,"is_transit":true,"station_name":"Tanah Abang","transit":true,"i_lat":-6.185545,"station_id":"THB","i_long":106.811091},{"station_name":"Palmerah","is_transit":false,"i_long":106.79689,"line":6,"i_lat":-6.207404,"distance":3191,"transit":false,"time":6,"station_id":"PLM"},{"i_lat":-6.237242,"i_long":106.780334,"station_id":"KBY","transit":false,"line":6,"distance":3737,"is_transit":false,"station_name":"Kebayoran","time":7},{"i_lat":-6.276362,"line":6,"is_transit":false,"transit":false,"distance":6218,"station_id":"PDJ","i_long":106.74273,"station_name":"Pondokranji","time":8},{"transit":false,"i_lat":-6.288927,"station_id":"JMU","station_name":"Jurangmangu","i_long":106.728916,"distance":2179,"time":3,"is_transit":false,"line":6}],[{"is_transit":false,"i_lat":-6.14505,"i_long":106.836569,"distance":0,"station_name":"Rajawali","time":0,"line":11,"station_id":"RJW","transit":false},{"i_long":106.839204,"line":11,"distance":1901,"is_transit":false,"i_lat":-6.161728,"station_name":"Kemayoran","transit":false,"station_id":"KMO","time":5},{"distance":1436,"station_id":"PSE","i_long":106.84368,"i_lat":-6.174784,"transit":false,"station_name":"Pasar Senen","time":4,"is_transit":false,"line":11},{"station_id":"GST","time":8,"is_transit":false,"line":11,"station_name":"Gang Sentiong","transit":false,"i_lat":-6.185975,"i_long":106.850107,"distance":1567},{"distance":973,"i_lat":-6.193792,"line":11,"station_name":"Kramat","time":1,"is_transit":false,"station_id":"KMT","transit":false,"i_long":106.855437},{"station_name":"Pondok Jati","transit":false,"line":11,"station_id":"POK","distance":1829,"i_long":106.861737,"time":2,"i_lat":-6.209188,"is_transit":false},{"station_name":"Jatinegara","transit":true,"distance":1236,"station_id":"JNG","time":9,"is_transit":true,"i_lat":-6.215091,"i_long":106.86807400000001,"line":0},{"distance":1377,"is_transit":false,"time":2,"i_long":106.858896,"transit":false,"station_name":"Matraman","station_id":"MTR","i_lat":-6.212485,"line":1},{"i_long":106.84912,"time":2,"station_id":"MRI","distance":1275,"i_lat":-6.209883,"transit":true,"line":0,"station_name":"Manggarai","is_transit":true},{"is_transit":false,"distance":1590,"transit":false,"line":0,"i_lat":-6.198556,"time":4,"station_name":"Cikini","station_id":"CKI","i_long":106.840169},{"distance":1750,"station_id":"GDD","time":3,"line":2,"is_transit":false,"i_lat":-6.186295,"i_long":106.832183,"transit":false,"station_name":"Gondangdia"},{"i_lat":-6.166716,"station_id":"JUA","transit":false,"is_transit":false,"line":2,"distance":2015,"station_name":"Juanda","i_long":106.828284,"time":4},{"time":2,"i_long":106.827103,"station_name":"Sawah Besar","station_id":"SW","i_lat":-6.160725,"distance":1149,"line":2,"transit":false,"is_transit":false},{"line":2,"distance":906,"i_long":106.82482,"station_name":"Manggabesar","is_transit":false,"i_lat":-6.149769,"time":2,"transit":false,"station_id":"MGB"},{"line":7,"station_name":"Jayakarta","distance":1080,"station_id":"JAY","transit":false,"time":2,"i_lat":-6.141205,"i_long":106.820901,"is_transit":false},{"distance":1264,"time":4,"transit":true,"is_transit":true,"line":0,"station_id":"JAKK","station_name":"Jakarta Kota","i_lat":-6.137569,"i_long":106.812439},{"station_name":"Kampung Bandan","i_lat":-6.132549,"i_long":106.826365,"line":0,"station_id":"KPB","distance":1364,"transit":false,"time":3,"is_transit":true},{"transit":false,"i_lat":-6.144674,"station_id":"AK","is_transit":false,"i_long":106.79867,"line":0,"time":9,"station_name":"Angke","distance":4102},{"transit":true,"time":4,"i_lat":-6.155215,"station_name":"Duri","distance":1230,"i_long":106.800832,"is_transit":true,"line":1,"station_id":"DU"},{"is_transit":true,"station_name":"Tanah Abang","transit":true,"time":8,"line":1,"distance":3632,"station_id":"THB","i_lat":-6.185545,"i_long":106.811091},{"transit":false,"station_name":"Palmerah","i_lat":-6.207404,"line":6,"is_transit":false,"distance":3191,"time":6,"i_long":106.79689,"station_id":"PLM"},{"i_long":106.780334,"line":6,"distance":3737,"station_id":"KBY","is_transit":false,"station_name":"Kebayoran","time":7,"i_lat":-6.237242,"transit":false},{"distance":6218,"station_name":"Pondokranji","i_lat":-6.276362,"line":6,"time":8,"station_id":"PDJ","transit":false,"i_long":106.74273,"is_transit":false},{"time":3,"distance":2179,"transit":false,"i_long":106.728916,"station_name":"Jurangmangu","station_id":"JMU","line":6,"i_lat":-6.288927,"is_transit":false}]]}