{"data":[[{"transit":false,"i_lat":-6.14505,"distance":0,"time":0,"station_id":"RJW","line":11,"i_long":106.836569,"station_name":"Rajawali","is_transit":false},{"i_long":106.826365,"line":4,"station_id":"KPB","is_transit":true,"distance":1444,"i_lat":-6.132549,"station_name":"Kampung Bandan","time":3,"transit":true},{"time":9,"line":1,"transit":false,"station_name":"Angke","station_id":"AK","i_lat":-6.144674,"i_long":106.79867,"distance":4102,"is_transit":false},{"distance":1230,"station_id":"DU","time":4,"i_long":106.800832,"i_lat":-6.155215,"line":1,"station_name":"Duri","is_transit":false,"transit":false},{"time":8,"distance":3632,"station_name":"Tanah Abang","i_long":106.811091,"transit":true,"i_lat":-6.185545,"line":1,"station_id":"THB","is_transit":true},{"station_name":"Palmerah","distance":3191,"is_transit":false,"transit":false,"i_long":106.79689,"i_lat":-6.207404,"time":6,"station_id":"PLM","line":6},{"i_lat":-6.237242,"i_long":106.780334,"line":6,"station_id":"KBY","is_transit":false,"time":7,"distance":3737,"station_name":"Kebayoran","transit":false},{"i_lat":-6.276362,"i_long":106.74273,"transit":false,"distance":6218,"time":8,"is_transit":false,"station_id":"PDJ","station_name":"Pondokranji","line":6},{"i_long":106.728916,"distance":2179,"station_name":"Jurangmangu","time":3,"transit":false,"line":6,"station_id":"JMU","i_lat":-6.288927,"is_transit":false}],[{"time":0,"is_transit":false,"transit":false,"station_name":"Rajawali","i_long":106.836569,"distance":0,"i_lat":-6.14505,"line":11,"station_id":"RJW"},{"station_name":"Kemayoran","i_long":106.839204,"i_lat":-6.161728,"station_id":"KMO","is_transit":false,"transit":false,"time":5,"line":11,"distance":1901},{"transit":false,"i_long":106.84368,"distance":1436,"station_id":"PSE","line":11,"station_name":"Pasar Senen","time":4,"is_transit":false,"i_lat":-6.174784},{"distance":1567,"is_transit":false,"line":11,"time":8,"station_name":"Gang Sentiong","transit":false,"station_id":"GST","i_lat":-6.185975,"i_long":106.850107},{"i_long":106.855437,"distance":973,"time":1,"is_transit":false,"i_lat":-6.193792,"line":11,"transit":false,"station_id":"KMT","station_name":"Kramat"},{"transit":false,"distance":1829,"i_lat":-6.209188,"station_name":"Pondok Jati","time":2,"i_long":106.861737,"station_id":"POK","is_transit":false,"line":11},{"time":9,"line":1,"station_id":"JNG","i_long":106.86807400000001,"station_name":"Jatinegara","i_lat":-6.215091,"distance":1236,"is_transit":true,"transit":true},{"i_long":106.858896,"distance":1377,"is_transit":false,"station_name":"Matraman","transit":false,"line":1,"i_lat":-6.212485,"time":2,"station_id":"MTR"},{"distance":1275,"time":2,"is_transit":false,"station_name":"Manggarai","station_id":"MRI","i_long":106.84912,"line":2,"transit":false,"i_lat":-6.209883},{"line":1,"station_id":"SUD","is_transit":false,"i_lat":-6.202263,"time":4,"station_name":"Sudirman","transit":false,"i_long":106.822649,"distance":3186},{"distance":280,"is_transit":false,"i_lat":-6.201433,"i_long":106.819881,"time":1,"station_name":"Sudirman Baru","station_id":"SUDB","line":1,"transit":false},{"i_long":106.816351,"distance":471,"time":1,"station_name":"Karet","transit":false,"i_lat":-6.20132,"line":1,"station_id":"KAT","is_transit":false},{"station_name":"Tanah Abang","line":1,"time":5,"distance":2029,"i_long":106.811091,"transit":true,"is_transit":true,"i_lat":-6.185545,"station_id":"THB"},{"distance":3191,"station_name":"Palmerah","is_transit":false,"i_lat":-6.207404,"transit":false,"i_long":106.79689,"line":6,"station_id":"PLM","time":6},{"time":7,"i_lat":-6.237242,"line":6,"station_name":"Kebayoran","i_long":106.780334,"distance":3737,"transit":false,"station_id":"KBY","is_transit":false},{"distance":6218,"time":8,"line":6,"transit":false,"i_lat":-6.276362,"station_name":"Pondokranji","i_long":106.74273,"station_id":"PDJ","is_transit":false},{"distance":2179,"i_lat":-6.288927,"station_name":"Jurangmangu","transit":false,"line":6,"station_id":"JMU","i_long":106.728916,"time":3,"is_transit":false}],[{"station_id":"RJW","i_long":106.836569,"i_lat":-6.14505,"time":0,"is_transit":false,"line":11,"transit":false,"station_name":"Rajawali","distance":0},{"station_name":"Kampung Bandan","time":3,"transit":true,"station_id":"KPB","i_lat":-6.132549,"i_long":106.826365,"distance":1444,"is_transit":true,"line":4},{"transit":true,"station_id":"JAKK","line":2,"time":3,"distance":1364,"is_transit":true,"i_lat":-6.137569,"station_name":"Jakarta Kota","i_long":106.812439},{"station_id":"JAY","is_transit":false,"station_name":"Jayakarta","time":4,"distance":1264,"transit":false,"i_long":106.820901,"line":2,"i_lat":-6.141205},{"distance":1080,"time":2,"transit":false,"i_lat":-6.149769,"line":2,"i_long":106.82482,"station_name":"Manggabesar","station_id":"MGB","is_transit":false},{"station_id":"SW","time":2,"i_lat":-6.160725,"i_long":106.827103,"line":2,"distance":906,"is_transit":false,"transit":false,"station_name":"Sawah Besar"},{"station_id":"JUA","station_name":"Juanda","i_lat":-6.166716,"time":2,"distance":1149,"is_transit":false,"transit":false,"i_long":106.828284,"line":2},{"transit":false,"station_id":"GDD","line":2,"station_name":"Gondangdia","i_long":106.832183,"i_lat":-6.186295,"distance":2015,"time":4,"is_transit":false},{"station_name":"Cikini","i_long":106.840169,"time":3,"station_id":"CKI","line":2,"i_lat":-6.198556,"distance":1750,"is_transit":false,"transit":false},{"is_transit":true,"i_long":106.84912,"time":4,"transit":true,"station_name":"Manggarai","line":2,"distance":1590,"station_id":"MRI","i_lat":-6.209883},{"time":4,"is_transit":false,"station_name":"Sudirman","i_lat":-6.202263,"i_long":106.822649,"line":1,"transit":false,"distance":3186,"station_id":"SUD"},{"time":1,"is_transit":false,"i_long":106.819881,"distance":280,"i_lat":-6.201433,"station_name":"Sudirman Baru","station_id":"SUDB","transit":false,"line":1},{"station_name":"Karet","distance":471,"time":1,"station_id":"KAT","is_transit":false,"transit":false,"i_lat":-6.20132,"i_long":106.816351,"line":1},{"station_name":"Tanah Abang","i_long":106.811091,"time":5,"station_id":"THB","transit":true,"distance":2029,"is_transit":true,"i_lat":-6.185545,"line":1},{"station_id":"PLM","time":6,"transit":false,"is_transit":false,"i_lat":-6.207404,"distance":3191,"station_name":"Palmerah","i_long":106.79689,"line":6},{"time":7,"transit":false,"station_id":"KBY","is_transit":false,"station_name":"Kebayoran","line":6,"i_long":106.780334,"distance":3737,"i_lat":-6.237242},{"distance":6218,"i_lat":-6.276362,"transit":false,"i_long":106.74273,"time":8,"is_transit":false,"line":6,"station_id":"PDJ","station_name":"Pondokranji"},{"station_id":"JMU","is_transit":false,"i_lat":-6.288927,"i_long":106.728916,"time":3,"transit":false,"line":6,"distance":2179,"station_name":"Jurangmangu"}],[{"is_transit":false,"time":0,"i_long":106.836569,"station_id":"RJW","transit":false,"distance":0,"station_name":"Rajawali","i_lat":-6.14505,"line":11},{"station_name":"Kemayoran","distance":1901,"station_id":"KMO","i_long":106.839204,"is_transit":false,"i_lat":-6.161728,"line":11,"transit":false,"time":5},{"i_lat":-6.174784,"line":11,"station_id":"PSE","i_long":106.84368,"is_transit":false,"time":4,"station_name":"Pasar Senen","transit":false,"distance":1436},{"i_lat":-6.185975,"line":11,"station_name":"Gang Sentiong","distance":1567,"transit":false,"is_transit":false,"i_long":106.850107,"time":8,"station_id":"GST"},{"station_id":"KMT","i_lat":-6.193792,"line":11,"is_transit":false,"i_long":106.855437,"station_name":"Kramat","distance":973,"time":1,"transit":false},{"station_id":"POK","time":2,"line":11,"distance":1829,"transit":false,"i_lat":-6.209188,"i_long":106.861737,"station_name":"Pondok Jati","is_transit":false},{"is_transit":true,"time":9,"transit":true,"distance":1236,"i_long":106.86807400000001,"i_lat":-6.215091,"line":1,"station_id":"JNG","station_name":"Jatinegara"},{"distance":1377,"i_lat":-6.212485,"i_long":106.858896,"station_id":"MTR","line":1,"transit":false,"station_name":"Matraman","time":2,"is_transit":false},{"transit":true,"is_transit":true,"distance":1275,"station_id":"MRI","station_name":"Manggarai","i_lat":-6.209883,"i_long":106.84912,"line":2,"time":2},{"is_transit":false,"station_name":"Cikini","time":4,"line":2,"station_id":"CKI","i_lat":-6.198556,"distance":1590,"transit":false,"i_long":106.840169},{"i_long":106.832183,"is_transit":false,"line":2,"i_lat":-6.186295,"station_name":"Gondangdia","distance":1750,"station_id":"GDD","transit":false,"time":3},{"i_long":106.828284,"station_name":"Juanda","transit":false,"line":2,"station_id":"JUA","is_transit":false,"time":4,"i_lat":-6.166716,"distance":2015},{"is_transit":false,"station_id":"SW","distance":1149,"line":2,"time":2,"station_name":"Sawah Besar","transit":false,"i_lat":-6.160725,"i_long":106.827103},{"station_name":"Manggabesar","i_long":106.82482,"distance":906,"time":2,"transit":false,"line":2,"is_transit":false,"i_lat":-6.149769,"station_id":"MGB"},{"is_transit":false,"station_name":"Jayakarta","station_id":"JAY","time":2,"i_lat":-6.141205,"i_long":106.820901,"line":2,"distance":1080,"transit":false},{"is_transit":true,"station_name":"Jakarta Kota","i_lat":-6.137569,"transit":true,"distance":1264,"station_id":"JAKK","time":4,"i_long":106.812439,"line":2},{"transit":true,"i_long":106.826365,"line":4,"i_lat":-6.132549,"is_transit":true,"distance":1364,"station_id":"KPB","time":3,"station_name":"Kampung Bandan"},{"is_transit":false,"i_long":106.79867,"station_name":"Angke","transit":false,"time":9,"distance":4102,"line":1,"station_id":"AK","i_lat":-6.144674},{"station_name":"Duri","is_transit":false,"distance":1230,"station_id":"DU","transit":false,"time":4,"i_lat":-6.155215,"i_long":106.800832,"line":1},{"line":1,"station_name":"Tanah Abang","time":8,"station_id":"THB","transit":true,"i_long":106.811091,"distance":3632,"is_transit":true,"i_lat":-6.185545},{"line":6,"station_id":"PLM","time":6,"distance":3191,"transit":false,"i_lat":-6.207404,"is_transit":false,"station_name":"Palmerah","i_long":106.79689},{"transit":false,"distance":3737,"i_lat":-6.237242,"station_name":"Kebayoran","time":7,"station_id":"KBY","i_long":106.780334,"line":6,"is_transit":false},{"station_name":"Pondokranji","i_long":106.74273,"transit":false,"is_transit":false,"station_id":"PDJ","line":6,"time":8,"i_lat":-6.276362,"distance":6218},{"is_transit":false,"distance":2179,"time":3,"i_long":106.728916,"line":6,"transit":false,"station_name":"Jurangmangu","station_id":"JMU","i_lat":-6.288927}]]}