{"data":[[{"station_id":"RJW","transit":false,"i_long":106.836569,"is_transit":false,"i_lat":-6.14505,"distance":0,"line":11,"time":0,"station_name":"Rajawali"},{"transit":true,"time":3,"i_long":106.826365,"is_transit":true,"line":4,"station_id":"KPB","i_lat":-6.132549,"distance":1444,"station_name":"Kampung Bandan"},{"transit":false,"station_name":"Angke","is_transit":false,"i_long":106.79867,"station_id":"AK","time":9,"line":1,"distance":4102,"i_lat":-6.144674},{"station_id":"DU","i_lat":-6.155215,"time":4,"station_name":"Duri","i_long":106.800832,"transit":false,"is_transit":false,"distance":1230,"line":1},{"line":1,"station_name":"Tanah Abang","station_id":"THB","transit":true,"time":8,"distance":3632,"i_lat":-6.185545,"is_transit":true,"i_long":106.811091},{"station_id":"PLM","i_lat":-6.207404,"transit":false,"time":6,"station_name":"Palmerah","line":6,"is_transit":false,"i_long":106.79689,"distance":3191},{"station_id":"KBY","is_transit":false,"distance":3737,"line":6,"time":7,"i_lat":-6.237242,"transit":false,"i_long":106.780334,"station_name":"Kebayoran"},{"station_name":"Pondokranji","is_transit":false,"i_lat":-6.276362,"distance":6218,"time":8,"station_id":"PDJ","i_long":106.74273,"line":6,"transit":false},{"transit":false,"station_id":"JMU","station_name":"Jurangmangu","is_transit":false,"time":3,"i_lat":-6.288927,"line":6,"distance":2179,"i_long":106.728916},{"distance":1994,"station_name":"Sudimara","i_lat":-6.296963,"is_transit":false,"time":4,"i_long":106.712277,"line":6,"transit":false,"station_id":"SDM"},{"is_transit":false,"i_long":106.675475,"station_name":"Rawa Buntu","station_id":"RU","distance":4566,"line":6,"transit":false,"time":6,"i_lat":-6.314823},{"is_transit":false,"line":6,"distance":2413,"i_lat":-6.319871,"transit":false,"station_id":"SRP","time":4,"i_long":106.66566,"station_name":"Serpong"},{"station_id":"CSK","time":4,"transit":false,"distance":1784,"i_lat":-6.32484,"is_transit":false,"i_long":106.640411,"line":3,"station_name":"Cisauk"},{"transit":false,"i_lat":-6.329547,"station_id":"CC","line":3,"station_name":"Cicayur","i_long":106.617853,"distance":2519,"time":4,"is_transit":false}],[{"transit":false,"station_id":"RJW","station_name":"Rajawali","is_transit":false,"i_lat":-6.14505,"line":11,"time":0,"i_long":106.836569,"distance":0},{"i_long":106.839204,"station_id":"KMO","i_lat":-6.161728,"is_transit":false,"line":11,"transit":false,"time":5,"distance":1901,"station_name":"Kemayoran"},{"station_id":"PSE","transit":false,"i_lat":-6.174784,"distance":1436,"time":4,"is_transit":false,"i_long":106.84368,"station_name":"Pasar Senen","line":11},{"time":8,"line":11,"transit":false,"distance":1567,"is_transit":false,"i_long":106.850107,"station_name":"Gang Sentiong","station_id":"GST","i_lat":-6.185975},{"i_lat":-6.193792,"i_long":106.855437,"transit":false,"time":1,"station_name":"Kramat","station_id":"KMT","is_transit":false,"distance":973,"line":11},{"i_long":106.861737,"station_name":"Pondok Jati","is_transit":false,"station_id":"POK","transit":false,"distance":1829,"line":11,"i_lat":-6.209188,"time":2},{"distance":1236,"transit":true,"is_transit":true,"i_lat":-6.215091,"i_long":106.86807400000001,"station_id":"JNG","time":9,"line":1,"station_name":"Jatinegara"},{"station_id":"MTR","i_lat":-6.212485,"station_name":"Matraman","i_long":106.858896,"transit":false,"distance":1377,"line":1,"is_transit":false,"time":2},{"time":2,"station_name":"Manggarai","i_lat":-6.209883,"line":2,"transit":false,"is_transit":false,"distance":1275,"i_long":106.84912,"station_id":"MRI"},{"i_lat":-6.202263,"is_transit":false,"i_long":106.822649,"line":1,"time":4,"distance":3186,"station_name":"Sudirman","transit":false,"station_id":"SUD"},{"distance":280,"time":1,"station_name":"Sudirman Baru","i_long":106.819881,"i_lat":-6.201433,"line":1,"is_transit":false,"transit":false,"station_id":"SUDB"},{"is_transit":false,"station_id":"KAT","i_lat":-6.20132,"station_name":"Karet","transit":false,"time":1,"line":1,"i_long":106.816351,"distance":471},{"station_name":"Tanah Abang","transit":true,"station_id":"THB","i_lat":-6.185545,"is_transit":true,"distance":2029,"time":5,"i_long":106.811091,"line":1},{"station_id":"PLM","transit":false,"station_name":"Palmerah","i_lat":-6.207404,"i_long":106.79689,"distance":3191,"time":6,"is_transit":false,"line":6},{"station_id":"KBY","i_long":106.780334,"time":7,"distance":3737,"station_name":"Kebayoran","is_transit":false,"transit":false,"i_lat":-6.237242,"line":6},{"i_long":106.74273,"line":6,"time":8,"distance":6218,"station_id":"PDJ","station_name":"Pondokranji","i_lat":-6.276362,"transit":false,"is_transit":false},{"i_lat":-6.288927,"i_long":106.728916,"transit":false,"station_id":"JMU","line":6,"time":3,"distance":2179,"station_name":"Jurangmangu","is_transit":false},{"line":6,"distance":1994,"station_name":"Sudimara","i_lat":-6.296963,"transit":false,"station_id":"SDM","i_long":106.712277,"is_transit":false,"time":4},{"i_lat":-6.314823,"transit":false,"time":6,"i_long":106.675475,"station_id":"RU","distance":4566,"station_name":"Rawa Buntu","is_transit":false,"line":6},{"line":6,"time":4,"i_lat":-6.319871,"transit":false,"distance":2413,"station_name":"Serpong","station_id":"SRP","is_transit":false,"i_long":106.66566},{"distance":1784,"station_name":"Cisauk","line":3,"transit":false,"i_lat":-6.32484,"time":4,"is_transit":false,"station_id":"CSK","i_long":106.640411},{"i_lat":-6.329547,"time":4,"station_name":"Cicayur","line":3,"distance":2519,"i_long":106.617853,"transit":false,"is_transit":false,"station_id":"CC"}],[{"i_lat":-6.14505,"transit":false,"station_name":"Rajawali","distance":0,"i_long":106.836569,"is_transit":false,"line":11,"time":0,"station_id":"RJW"},{"station_name":"Kampung Bandan","time":3,"i_lat":-6.132549,"transit":true,"line":4,"i_long":106.826365,"is_transit":true,"distance":1444,"station_id":"KPB"},{"distance":1364,"station_name":"Jakarta Kota","i_long":106.812439,"transit":true,"station_id":"JAKK","i_lat":-6.137569,"is_transit":true,"time":3,"line":2},{"station_id":"JAY","station_name":"Jayakarta","time":4,"transit":false,"i_long":106.820901,"is_transit":false,"i_lat":-6.141205,"distance":1264,"line":2},{"distance":1080,"i_lat":-6.149769,"line":2,"station_id":"MGB","i_long":106.82482,"time":2,"transit":false,"station_name":"Manggabesar","is_transit":false},{"i_lat":-6.160725,"line":2,"station_id":"SW","is_transit":false,"transit":false,"station_name":"Sawah Besar","time":2,"distance":906,"i_long":106.827103},{"transit":false,"station_id":"JUA","is_transit":false,"i_lat":-6.166716,"line":2,"time":2,"station_name":"Juanda","i_long":106.828284,"distance":1149},{"line":2,"is_transit":false,"i_lat":-6.186295,"station_name":"Gondangdia","time":4,"distance":2015,"station_id":"GDD","transit":false,"i_long":106.832183},{"is_transit":false,"station_name":"Cikini","i_lat":-6.198556,"distance":1750,"time":3,"station_id":"CKI","transit":false,"line":2,"i_long":106.840169},{"line":2,"distance":1590,"transit":true,"is_transit":true,"i_long":106.84912,"station_id":"MRI","time":4,"station_name":"Manggarai","i_lat":-6.209883},{"transit":false,"is_transit":false,"station_name":"Sudirman","i_lat":-6.202263,"line":1,"distance":3186,"station_id":"SUD","time":4,"i_long":106.822649},{"i_lat":-6.201433,"transit":false,"time":1,"distance":280,"station_name":"Sudirman Baru","i_long":106.819881,"line":1,"station_id":"SUDB","is_transit":false},{"station_name":"Karet","time":1,"distance":471,"i_lat":-6.20132,"station_id":"KAT","transit":false,"is_transit":false,"i_long":106.816351,"line":1},{"station_id":"THB","time":5,"transit":true,"is_transit":true,"distance":2029,"i_long":106.811091,"line":1,"station_name":"Tanah Abang","i_lat":-6.185545},{"i_long":106.79689,"i_lat":-6.207404,"transit":false,"line":6,"time":6,"station_id":"PLM","distance":3191,"station_name":"Palmerah","is_transit":false},{"time":7,"station_id":"KBY","i_long":106.780334,"is_transit":false,"transit":false,"line":6,"station_name":"Kebayoran","distance":3737,"i_lat":-6.237242},{"is_transit":false,"station_name":"Pondokranji","line":6,"station_id":"PDJ","time":8,"distance":6218,"i_long":106.74273,"i_lat":-6.276362,"transit":false},{"distance":2179,"station_name":"Jurangmangu","i_long":106.728916,"time":3,"station_id":"JMU","is_transit":false,"transit":false,"line":6,"i_lat":-6.288927},{"distance":1994,"station_name":"Sudimara","transit":false,"line":6,"is_transit":false,"station_id":"SDM","time":4,"i_lat":-6.296963,"i_long":106.712277},{"station_name":"Rawa Buntu","distance":4566,"transit":false,"i_long":106.675475,"station_id":"RU","is_transit":false,"i_lat":-6.314823,"line":6,"time":6},{"time":4,"distance":2413,"station_id":"SRP","is_transit":false,"i_lat":-6.319871,"i_long":106.66566,"transit":false,"station_name":"Serpong","line":6},{"distance":1784,"station_name":"Cisauk","i_long":106.640411,"is_transit":false,"transit":false,"line":3,"time":4,"station_id":"CSK","i_lat":-6.32484},{"station_id":"CC","distance":2519,"is_transit":false,"station_name":"Cicayur","time":4,"i_long":106.617853,"i_lat":-6.329547,"transit":false,"line":3}],[{"line":11,"station_name":"Rajawali","station_id":"RJW","i_long":106.836569,"transit":false,"is_transit":false,"distance":0,"time":0,"i_lat":-6.14505},{"transit":false,"time":5,"station_id":"KMO","line":11,"distance":1901,"is_transit":false,"i_long":106.839204,"i_lat":-6.161728,"station_name":"Kemayoran"},{"distance":1436,"station_name":"Pasar Senen","i_lat":-6.174784,"is_transit":false,"time":4,"station_id":"PSE","i_long":106.84368,"line":11,"transit":false},{"time":8,"station_id":"GST","distance":1567,"i_long":106.850107,"is_transit":false,"i_lat":-6.185975,"line":11,"station_name":"Gang Sentiong","transit":false},{"is_transit":false,"distance":973,"time":1,"i_long":106.855437,"line":11,"transit":false,"station_id":"KMT","i_lat":-6.193792,"station_name":"Kramat"},{"station_name":"Pondok Jati","i_lat":-6.209188,"is_transit":false,"transit":false,"i_long":106.861737,"time":2,"distance":1829,"line":11,"station_id":"POK"},{"station_id":"JNG","i_lat":-6.215091,"line":1,"transit":true,"station_name":"Jatinegara","is_transit":true,"distance":1236,"time":9,"i_long":106.86807400000001},{"station_name":"Matraman","station_id":"MTR","is_transit":false,"distance":1377,"i_lat":-6.212485,"time":2,"i_long":106.858896,"transit":false,"line":1},{"time":2,"station_name":"Manggarai","i_lat":-6.209883,"transit":true,"distance":1275,"line":2,"is_transit":true,"i_long":106.84912,"station_id":"MRI"},{"is_transit":false,"station_name":"Cikini","line":2,"time":4,"distance":1590,"station_id":"CKI","i_lat":-6.198556,"i_long":106.840169,"transit":false},{"i_long":106.832183,"i_lat":-6.186295,"station_name":"Gondangdia","is_transit":false,"transit":false,"time":3,"distance":1750,"station_id":"GDD","line":2},{"time":4,"is_transit":false,"transit":false,"i_long":106.828284,"station_id":"JUA","distance":2015,"i_lat":-6.166716,"line":2,"station_name":"Juanda"},{"distance":1149,"station_name":"Sawah Besar","i_lat":-6.160725,"line":2,"station_id":"SW","transit":false,"i_long":106.827103,"time":2,"is_transit":false},{"time":2,"i_long":106.82482,"line":2,"transit":false,"is_transit":false,"distance":906,"i_lat":-6.149769,"station_name":"Manggabesar","station_id":"MGB"},{"station_id":"JAY","transit":false,"line":2,"i_long":106.820901,"is_transit":false,"station_name":"Jayakarta","distance":1080,"i_lat":-6.141205,"time":2},{"station_id":"JAKK","transit":true,"distance":1264,"i_long":106.812439,"time":4,"line":2,"i_lat":-6.137569,"is_transit":true,"station_name":"Jakarta Kota"},{"transit":true,"i_long":106.826365,"station_name":"Kampung Bandan","time":3,"distance":1364,"is_transit":true,"line":4,"station_id":"KPB","i_lat":-6.132549},{"is_transit":false,"i_long":106.79867,"transit":false,"line":1,"station_name":"Angke","time":9,"distance":4102,"station_id":"AK","i_lat":-6.144674},{"line":1,"station_name":"Duri","station_id":"DU","transit":false,"i_lat":-6.155215,"is_transit":false,"time":4,"distance":1230,"i_long":106.800832},{"time":8,"i_lat":-6.185545,"line":1,"station_name":"Tanah Abang","distance":3632,"is_transit":true,"i_long":106.811091,"transit":true,"station_id":"THB"},{"line":6,"is_transit":false,"transit":false,"i_long":106.79689,"i_lat":-6.207404,"station_name":"Palmerah","station_id":"PLM","time":6,"distance":3191},{"distance":3737,"time":7,"i_lat":-6.237242,"station_id":"KBY","is_transit":false,"line":6,"transit":false,"i_long":106.780334,"station_name":"Kebayoran"},{"transit":false,"i_lat":-6.276362,"line":6,"station_id":"PDJ","distance":6218,"i_long":106.74273,"station_name":"Pondokranji","is_transit":false,"time":8},{"i_lat":-6.288927,"station_id":"JMU","time":3,"distance":2179,"transit":false,"station_name":"Jurangmangu","line":6,"i_long":106.728916,"is_transit":false},{"transit":false,"station_name":"Sudimara","i_lat":-6.296963,"i_long":106.712277,"distance":1994,"is_transit":false,"time":4,"station_id":"SDM","line":6},{"station_id":"RU","station_name":"Rawa Buntu","i_lat":-6.314823,"time":6,"distance":4566,"is_transit":false,"i_long":106.675475,"transit":false,"line":6},{"distance":2413,"i_lat":-6.319871,"line":6,"transit":false,"i_long":106.66566,"station_name":"Serpong","station_id":"SRP","is_transit":false,"time":4},{"time":4,"i_lat":-6.32484,"i_long":106.640411,"distance":1784,"station_id":"CSK","is_transit":false,"line":3,"transit":false,"station_name":"Cisauk"},{"station_id":"CC","is_transit":false,"distance":2519,"transit":false,"time":4,"i_lat":-6.329547,"station_name":"Cicayur","i_long":106.617853,"line":3}]]}