{"data":[[{"station_name":"Rajawali","is_transit":false,"i_lat":-6.14505,"time":0,"transit":false,"distance":0,"line":11,"station_id":"RJW","i_long":106.836569},{"station_id":"KMO","is_transit":false,"i_lat":-6.161728,"line":11,"station_name":"Kemayoran","i_long":106.839204,"transit":false,"time":5,"distance":1901},{"transit":false,"station_name":"Pasar Senen","distance":1436,"i_lat":-6.174784,"i_long":106.84368,"line":11,"is_transit":false,"time":4,"station_id":"PSE"},{"station_id":"GST","station_name":"Gang Sentiong","line":11,"transit":false,"time":8,"i_lat":-6.185975,"distance":1567,"i_long":106.850107,"is_transit":false},{"i_lat":-6.193792,"time":1,"transit":false,"station_id":"KMT","line":11,"i_long":106.855437,"station_name":"Kramat","distance":973,"is_transit":false},{"station_name":"Pondok Jati","station_id":"POK","is_transit":false,"distance":1829,"transit":false,"i_lat":-6.209188,"time":2,"i_long":106.861737,"line":11},{"i_lat":-6.215091,"transit":true,"time":9,"line":1,"station_id":"JNG","station_name":"Jatinegara","distance":1236,"is_transit":true,"i_long":106.86807400000001},{"time":2,"distance":1377,"station_name":"Matraman","transit":false,"station_id":"MTR","i_lat":-6.212485,"is_transit":false,"i_long":106.858896,"line":1},{"i_lat":-6.209883,"transit":true,"line":2,"station_name":"Manggarai","distance":1275,"i_long":106.84912,"is_transit":true,"time":2,"station_id":"MRI"},{"transit":false,"station_name":"Tebet","i_lat":-6.226659,"time":4,"is_transit":false,"distance":2610,"i_long":106.857948,"station_id":"TEB","line":2},{"station_id":"CW","transit":false,"distance":1230,"time":2,"i_long":106.856607,"station_name":"Cawang","is_transit":false,"i_lat":-6.242512,"line":2},{"distance":1546,"transit":false,"i_lat":-6.255332,"i_long":106.85449,"station_name":"Duren Kalibata","time":3,"line":2,"station_id":"DRN","is_transit":false},{"transit":false,"is_transit":false,"station_name":"Pasar Minggu Baru","distance":824,"line":2,"i_long":106.851577,"i_lat":-6.263214,"time":2,"station_id":"PSMB"},{"i_long":106.843999,"is_transit":false,"line":2,"station_id":"PSM","time":2,"distance":2380,"transit":false,"station_name":"Pasar Minggu","i_lat":-6.2842400000000005},{"i_long":106.838896,"station_name":"Tanjung Barat","line":2,"i_lat":-6.3080680000000005,"distance":2820,"is_transit":false,"transit":false,"station_id":"TNT","time":4},{"transit":false,"station_name":"Lenteng Agung","i_lat":-6.330363,"distance":2671,"i_long":106.832616,"station_id":"LNA","time":3,"is_transit":false,"line":2},{"i_lat":-6.339291,"station_name":"Univ. Pancasila","transit":false,"station_id":"UP","is_transit":false,"time":2,"i_long":106.834175,"line":2,"distance":1029},{"i_long":106.831474,"line":2,"station_name":"Univ. Indonesia","transit":false,"station_id":"UI","is_transit":false,"distance":2264,"time":3,"i_lat":-6.360749},{"station_id":"POC","time":2,"i_long":106.831114,"is_transit":false,"distance":1109,"station_name":"Pondok Cina","line":2,"transit":false,"i_lat":-6.369073},{"station_name":"Depokbaru","is_transit":false,"distance":2727,"i_long":106.819451,"i_lat":-6.391065,"station_id":"DPB","line":2,"transit":false,"time":4},{"transit":false,"distance":1584,"i_long":106.816926,"station_id":"DP","i_lat":-6.405256,"line":2,"station_name":"Depok","time":3,"is_transit":false},{"i_lat":-6.448811,"distance":5084,"station_name":"Citayam","is_transit":false,"time":6,"station_id":"CTA","i_long":106.800298,"transit":false,"line":2},{"is_transit":false,"station_name":"Bojonggede","i_long":106.792719,"i_lat":-6.493243,"station_id":"BJD","transit":false,"time":5,"distance":5197,"line":2}],[{"line":11,"i_lat":-6.14505,"station_id":"RJW","station_name":"Rajawali","distance":0,"time":0,"transit":false,"is_transit":false,"i_long":106.836569},{"time":3,"line":4,"transit":true,"distance":1444,"i_lat":-6.132549,"i_long":106.826365,"station_name":"Kampung Bandan","station_id":"KPB","is_transit":true},{"time":9,"line":1,"transit":false,"distance":4102,"is_transit":false,"i_lat":-6.144674,"station_id":"AK","station_name":"Angke","i_long":106.79867},{"i_lat":-6.155215,"i_long":106.800832,"transit":false,"station_id":"DU","time":4,"distance":1230,"line":1,"is_transit":false,"station_name":"Duri"},{"station_id":"THB","i_long":106.811091,"transit":false,"time":8,"station_name":"Tanah Abang","line":1,"is_transit":false,"distance":3632,"i_lat":-6.185545},{"station_id":"KAT","distance":2029,"i_lat":-6.20132,"station_name":"Karet","time":5,"transit":false,"i_long":106.816351,"is_transit":false,"line":1},{"i_lat":-6.201433,"i_long":106.819881,"distance":471,"is_transit":false,"transit":false,"station_id":"SUDB","time":1,"line":1,"station_name":"Sudirman Baru"},{"station_name":"Sudirman","transit":false,"i_lat":-6.202263,"distance":280,"station_id":"SUD","i_long":106.822649,"line":1,"is_transit":false,"time":1},{"i_long":106.84912,"is_transit":true,"line":2,"transit":true,"time":4,"i_lat":-6.209883,"station_name":"Manggarai","station_id":"MRI","distance":3186},{"i_lat":-6.226659,"station_id":"TEB","i_long":106.857948,"line":2,"transit":false,"station_name":"Tebet","is_transit":false,"time":4,"distance":2610},{"line":2,"is_transit":false,"i_lat":-6.242512,"station_name":"Cawang","distance":1230,"transit":false,"station_id":"CW","time":2,"i_long":106.856607},{"station_name":"Duren Kalibata","transit":false,"station_id":"DRN","is_transit":false,"distance":1546,"i_lat":-6.255332,"line":2,"time":3,"i_long":106.85449},{"station_id":"PSMB","transit":false,"station_name":"Pasar Minggu Baru","distance":824,"line":2,"time":2,"i_long":106.851577,"is_transit":false,"i_lat":-6.263214},{"is_transit":false,"station_id":"PSM","time":2,"distance":2380,"station_name":"Pasar Minggu","i_lat":-6.2842400000000005,"line":2,"i_long":106.843999,"transit":false},{"distance":2820,"i_long":106.838896,"station_name":"Tanjung Barat","line":2,"station_id":"TNT","time":4,"is_transit":false,"i_lat":-6.3080680000000005,"transit":false},{"distance":2671,"station_name":"Lenteng Agung","time":3,"station_id":"LNA","i_lat":-6.330363,"transit":false,"i_long":106.832616,"line":2,"is_transit":false},{"is_transit":false,"time":2,"distance":1029,"transit":false,"station_name":"Univ. Pancasila","i_lat":-6.339291,"i_long":106.834175,"station_id":"UP","line":2},{"line":2,"station_id":"UI","i_lat":-6.360749,"station_name":"Univ. Indonesia","transit":false,"is_transit":false,"time":3,"distance":2264,"i_long":106.831474},{"i_lat":-6.369073,"transit":false,"is_transit":false,"i_long":106.831114,"time":2,"station_id":"POC","distance":1109,"line":2,"station_name":"Pondok Cina"},{"i_lat":-6.391065,"is_transit":false,"station_name":"Depokbaru","i_long":106.819451,"line":2,"distance":2727,"station_id":"DPB","time":4,"transit":false},{"distance":1584,"transit":false,"station_name":"Depok","i_lat":-6.405256,"line":2,"station_id":"DP","i_long":106.816926,"time":3,"is_transit":false},{"i_lat":-6.448811,"transit":false,"station_id":"CTA","distance":5084,"line":2,"i_long":106.800298,"time":6,"station_name":"Citayam","is_transit":false},{"station_name":"Bojonggede","station_id":"BJD","distance":5197,"i_lat":-6.493243,"i_long":106.792719,"is_transit":false,"transit":false,"line":2,"time":5}],[{"transit":false,"distance":0,"i_long":106.836569,"station_name":"Rajawali","time":0,"station_id":"RJW","i_lat":-6.14505,"is_transit":false,"line":11},{"is_transit":true,"distance":1444,"transit":true,"line":4,"station_name":"Kampung Bandan","i_long":106.826365,"time":3,"station_id":"KPB","i_lat":-6.132549},{"distance":1364,"i_lat":-6.137569,"i_long":106.812439,"time":3,"line":2,"station_id":"JAKK","transit":true,"is_transit":true,"station_name":"Jakarta Kota"},{"station_name":"Jayakarta","station_id":"JAY","distance":1264,"line":2,"i_long":106.820901,"is_transit":false,"i_lat":-6.141205,"transit":false,"time":4},{"line":2,"station_name":"Manggabesar","is_transit":false,"time":2,"i_lat":-6.149769,"i_long":106.82482,"transit":false,"station_id":"MGB","distance":1080},{"i_lat":-6.160725,"time":2,"station_id":"SW","line":2,"distance":906,"station_name":"Sawah Besar","i_long":106.827103,"transit":false,"is_transit":false},{"time":2,"i_long":106.828284,"line":2,"station_id":"JUA","distance":1149,"station_name":"Juanda","is_transit":false,"transit":false,"i_lat":-6.166716},{"time":4,"distance":2015,"i_lat":-6.186295,"line":2,"station_name":"Gondangdia","station_id":"GDD","transit":false,"i_long":106.832183,"is_transit":false},{"transit":false,"is_transit":false,"i_lat":-6.198556,"station_id":"CKI","station_name":"Cikini","time":3,"distance":1750,"i_long":106.840169,"line":2},{"i_long":106.84912,"station_id":"MRI","time":4,"i_lat":-6.209883,"is_transit":false,"distance":1590,"transit":false,"station_name":"Manggarai","line":2},{"distance":2610,"time":4,"station_id":"TEB","is_transit":false,"transit":false,"i_long":106.857948,"station_name":"Tebet","i_lat":-6.226659,"line":2},{"transit":false,"station_name":"Cawang","time":2,"i_long":106.856607,"i_lat":-6.242512,"line":2,"distance":1230,"station_id":"CW","is_transit":false},{"station_id":"DRN","is_transit":false,"i_long":106.85449,"station_name":"Duren Kalibata","line":2,"time":3,"distance":1546,"i_lat":-6.255332,"transit":false},{"is_transit":false,"line":2,"station_id":"PSMB","station_name":"Pasar Minggu Baru","i_long":106.851577,"time":2,"distance":824,"i_lat":-6.263214,"transit":false},{"station_id":"PSM","transit":false,"station_name":"Pasar Minggu","line":2,"is_transit":false,"i_long":106.843999,"i_lat":-6.2842400000000005,"time":2,"distance":2380},{"line":2,"is_transit":false,"transit":false,"station_name":"Tanjung Barat","time":4,"distance":2820,"station_id":"TNT","i_lat":-6.3080680000000005,"i_long":106.838896},{"station_name":"Lenteng Agung","i_lat":-6.330363,"is_transit":false,"time":3,"distance":2671,"station_id":"LNA","transit":false,"i_long":106.832616,"line":2},{"station_id":"UP","i_lat":-6.339291,"is_transit":false,"distance":1029,"line":2,"station_name":"Univ. Pancasila","transit":false,"time":2,"i_long":106.834175},{"is_transit":false,"transit":false,"station_name":"Univ. Indonesia","i_long":106.831474,"i_lat":-6.360749,"station_id":"UI","line":2,"time":3,"distance":2264},{"distance":1109,"station_id":"POC","i_long":106.831114,"time":2,"line":2,"transit":false,"station_name":"Pondok Cina","i_lat":-6.369073,"is_transit":false},{"i_long":106.819451,"is_transit":false,"transit":false,"station_id":"DPB","i_lat":-6.391065,"station_name":"Depokbaru","time":4,"line":2,"distance":2727},{"transit":false,"i_lat":-6.405256,"i_long":106.816926,"line":2,"station_name":"Depok","is_transit":false,"time":3,"distance":1584,"station_id":"DP"},{"i_long":106.800298,"transit":false,"line":2,"station_id":"CTA","time":6,"station_name":"Citayam","is_transit":false,"distance":5084,"i_lat":-6.448811},{"i_lat":-6.493243,"distance":5197,"station_id":"BJD","station_name":"Bojonggede","is_transit":false,"i_long":106.792719,"transit":false,"time":5,"line":2}]]}