{"data":[[{"is_transit":false,"station_id":"RJW","station_name":"Rajawali","transit":false,"i_long":106.836569,"time":0,"i_lat":-6.14505,"line":11,"distance":0},{"i_long":106.839204,"station_name":"Kemayoran","transit":false,"time":5,"i_lat":-6.161728,"distance":1901,"station_id":"KMO","line":11,"is_transit":false},{"station_name":"Pasar Senen","i_lat":-6.174784,"time":4,"distance":1436,"transit":false,"i_long":106.84368,"line":11,"station_id":"PSE","is_transit":false},{"distance":1567,"is_transit":false,"station_name":"Gang Sentiong","transit":false,"time":8,"i_long":106.850107,"line":11,"i_lat":-6.185975,"station_id":"GST"},{"station_name":"Kramat","transit":false,"line":11,"station_id":"KMT","is_transit":false,"time":1,"i_lat":-6.193792,"distance":973,"i_long":106.855437},{"line":11,"i_lat":-6.209188,"time":2,"distance":1829,"station_id":"POK","is_transit":false,"station_name":"Pondok Jati","transit":false,"i_long":106.861737},{"i_long":106.86807400000001,"line":0,"station_name":"Jatinegara","distance":1236,"transit":true,"is_transit":true,"i_lat":-6.215091,"station_id":"JNG","time":9},{"distance":3395,"station_id":"KLD","station_name":"Klender","time":3,"i_lat":-6.2135,"i_long":106.899548,"line":1,"transit":false,"is_transit":false}],[{"i_long":106.836569,"line":11,"distance":0,"i_lat":-6.14505,"is_transit":false,"time":0,"transit":false,"station_name":"Rajawali","station_id":"RJW"},{"transit":true,"i_lat":-6.132549,"is_transit":true,"station_id":"KPB","station_name":"Kampung Bandan","line":0,"i_long":106.826365,"distance":1444,"time":3},{"is_transit":false,"station_id":"AK","station_name":"Angke","distance":4102,"transit":false,"i_lat":-6.144674,"line":0,"i_long":106.79867,"time":9},{"transit":true,"station_name":"Duri","i_lat":-6.155215,"line":1,"distance":1230,"is_transit":true,"time":4,"station_id":"DU","i_long":106.800832},{"distance":3632,"is_transit":true,"station_name":"Tanah Abang","time":8,"station_id":"THB","transit":false,"i_lat":-6.185545,"i_long":106.811091,"line":1},{"station_name":"Karet","transit":false,"time":5,"is_transit":false,"station_id":"KAT","i_lat":-6.20132,"i_long":106.816351,"line":1,"distance":2029},{"i_lat":-6.201433,"line":1,"station_id":"SUDB","is_transit":false,"transit":false,"time":1,"distance":471,"station_name":"Sudirman Baru","i_long":106.819881},{"i_long":106.822649,"station_id":"SUD","is_transit":false,"station_name":"Sudirman","i_lat":-6.202263,"line":1,"time":1,"distance":280,"transit":false},{"i_lat":-6.209883,"station_id":"MRI","station_name":"Manggarai","transit":false,"distance":3186,"is_transit":true,"i_long":106.84912,"line":0,"time":4},{"i_lat":-6.212485,"time":2,"station_id":"MTR","transit":false,"line":1,"i_long":106.858896,"is_transit":false,"station_name":"Matraman","distance":1275},{"i_lat":-6.215091,"transit":false,"station_name":"Jatinegara","line":0,"i_long":106.86807400000001,"station_id":"JNG","is_transit":true,"distance":1377,"time":8},{"station_name":"Klender","time":3,"line":1,"distance":3395,"station_id":"KLD","i_lat":-6.2135,"transit":false,"i_long":106.899548,"is_transit":false}],[{"station_name":"Rajawali","distance":0,"transit":false,"line":11,"is_transit":false,"i_lat":-6.14505,"station_id":"RJW","time":0,"i_long":106.836569},{"distance":1444,"is_transit":true,"i_long":106.826365,"station_id":"KPB","i_lat":-6.132549,"time":3,"line":0,"station_name":"Kampung Bandan","transit":true},{"is_transit":true,"i_lat":-6.137569,"i_long":106.812439,"station_id":"JAKK","distance":1364,"station_name":"Jakarta Kota","time":3,"line":0,"transit":true},{"distance":1264,"time":4,"station_id":"JAY","transit":false,"is_transit":false,"line":7,"station_name":"Jayakarta","i_lat":-6.141205,"i_long":106.820901},{"time":2,"station_id":"MGB","distance":1080,"i_lat":-6.149769,"i_long":106.82482,"line":2,"is_transit":false,"transit":false,"station_name":"Manggabesar"},{"transit":false,"time":2,"station_id":"SW","i_lat":-6.160725,"i_long":106.827103,"is_transit":false,"station_name":"Sawah Besar","line":2,"distance":906},{"distance":1149,"is_transit":false,"i_lat":-6.166716,"time":2,"line":2,"station_name":"Juanda","i_long":106.828284,"transit":false,"station_id":"JUA"},{"time":4,"is_transit":false,"station_id":"GDD","station_name":"Gondangdia","line":2,"transit":false,"i_long":106.832183,"distance":2015,"i_lat":-6.186295},{"transit":false,"line":0,"i_lat":-6.198556,"time":3,"station_name":"Cikini","i_long":106.840169,"station_id":"CKI","is_transit":false,"distance":1750},{"station_id":"MRI","is_transit":true,"time":4,"distance":1590,"i_long":106.84912,"line":0,"station_name":"Manggarai","i_lat":-6.209883,"transit":true},{"line":1,"station_id":"MTR","transit":false,"station_name":"Matraman","i_long":106.858896,"distance":1275,"is_transit":false,"time":2,"i_lat":-6.212485},{"i_lat":-6.215091,"line":0,"i_long":106.86807400000001,"station_id":"JNG","distance":1377,"is_transit":true,"station_name":"Jatinegara","transit":false,"time":8},{"is_transit":false,"i_lat":-6.2135,"station_name":"Klender","time":3,"line":1,"transit":false,"station_id":"KLD","i_long":106.899548,"distance":3395}]]}