{"data":[[{"i_long":106.836569,"distance":0,"time":0,"station_name":"Rajawali","is_transit":false,"transit":false,"i_lat":-6.14505,"line":11,"station_id":"RJW"},{"time":3,"line":0,"is_transit":true,"station_name":"Kampung Bandan","i_lat":-6.132549,"transit":true,"distance":1444,"station_id":"KPB","i_long":106.826365},{"i_long":106.79867,"station_id":"AK","distance":4102,"time":9,"transit":false,"station_name":"Angke","line":0,"is_transit":false,"i_lat":-6.144674},{"i_lat":-6.155215,"is_transit":true,"line":1,"station_name":"Duri","i_long":106.800832,"time":4,"distance":1230,"transit":true,"station_id":"DU"},{"station_id":"GGL","i_lat":-6.162021,"line":5,"station_name":"Grogol","transit":false,"i_long":106.788277,"time":3,"is_transit":false,"distance":1700},{"is_transit":false,"distance":2036,"line":5,"station_id":"PSG","time":2,"i_lat":-6.161433,"station_name":"Pesing","transit":false,"i_long":106.771379},{"station_name":"Taman Kota","i_lat":-6.1587309999999995,"time":2,"station_id":"TKO","is_transit":false,"i_long":106.756522,"line":5,"distance":1614,"transit":false},{"transit":false,"time":2,"is_transit":false,"station_id":"BOI","station_name":"Bojongindah","i_long":106.737035,"line":0,"i_lat":-6.159876,"distance":2334},{"is_transit":false,"line":5,"station_id":"RW","distance":1152,"transit":false,"station_name":"Rawa Buaya","i_lat":-6.162758,"i_long":106.723064,"time":4},{"station_id":"KDS","line":5,"distance":2504,"transit":false,"time":3,"is_transit":false,"i_lat":-6.166068,"station_name":"Kalideres","i_long":106.701612},{"is_transit":false,"station_name":"Poris","transit":false,"distance":2548,"time":3,"i_lat":-6.169933,"station_id":"PI","i_long":106.679458,"line":5},{"distance":1834,"station_name":"Batuceper","transit":false,"time":3,"i_lat":-6.171811,"i_long":106.665036,"line":0,"is_transit":false,"station_id":"BPR"},{"station_name":"Tanah Tinggi","is_transit":false,"transit":false,"line":5,"i_lat":-6.17331,"station_id":"TTI","distance":2028,"i_long":106.64657,"time":3}],[{"station_name":"Rajawali","i_long":106.836569,"line":11,"is_transit":false,"distance":0,"station_id":"RJW","time":0,"i_lat":-6.14505,"transit":false},{"i_lat":-6.161728,"is_transit":false,"transit":false,"distance":1901,"line":11,"i_long":106.839204,"station_id":"KMO","time":5,"station_name":"Kemayoran"},{"i_long":106.84368,"station_name":"Pasar Senen","line":11,"is_transit":false,"distance":1436,"transit":false,"station_id":"PSE","i_lat":-6.174784,"time":4},{"is_transit":false,"station_name":"Gang Sentiong","transit":false,"time":8,"i_lat":-6.185975,"distance":1567,"i_long":106.850107,"station_id":"GST","line":11},{"distance":973,"i_lat":-6.193792,"line":11,"time":1,"station_name":"Kramat","station_id":"KMT","i_long":106.855437,"transit":false,"is_transit":false},{"line":11,"is_transit":false,"distance":1829,"station_id":"POK","time":2,"i_lat":-6.209188,"station_name":"Pondok Jati","transit":false,"i_long":106.861737},{"line":0,"station_id":"JNG","i_lat":-6.215091,"distance":1236,"transit":true,"station_name":"Jatinegara","time":9,"i_long":106.86807400000001,"is_transit":true},{"i_long":106.858896,"transit":false,"i_lat":-6.212485,"line":1,"station_name":"Matraman","station_id":"MTR","is_transit":false,"time":2,"distance":1377},{"transit":false,"time":2,"line":0,"station_name":"Manggarai","i_lat":-6.209883,"is_transit":true,"distance":1275,"station_id":"MRI","i_long":106.84912},{"i_lat":-6.202263,"i_long":106.822649,"line":1,"transit":false,"is_transit":false,"station_id":"SUD","station_name":"Sudirman","time":4,"distance":3186},{"transit":false,"distance":280,"is_transit":false,"line":1,"i_lat":-6.201433,"station_id":"SUDB","station_name":"Sudirman Baru","i_long":106.819881,"time":1},{"time":1,"is_transit":false,"i_long":106.816351,"transit":false,"line":1,"distance":471,"station_id":"KAT","station_name":"Karet","i_lat":-6.20132},{"transit":false,"is_transit":true,"i_long":106.811091,"line":1,"time":5,"station_name":"Tanah Abang","i_lat":-6.185545,"distance":2029,"station_id":"THB"},{"station_name":"Duri","time":8,"station_id":"DU","transit":true,"i_long":106.800832,"line":1,"distance":3632,"i_lat":-6.155215,"is_transit":true},{"i_lat":-6.162021,"is_transit":false,"station_id":"GGL","station_name":"Grogol","time":3,"transit":false,"i_long":106.788277,"line":5,"distance":1700},{"station_id":"PSG","i_long":106.771379,"line":5,"is_transit":false,"time":2,"distance":2036,"i_lat":-6.161433,"station_name":"Pesing","transit":false},{"station_name":"Taman Kota","distance":1614,"station_id":"TKO","transit":false,"is_transit":false,"time":2,"i_lat":-6.1587309999999995,"i_long":106.756522,"line":5},{"i_long":106.737035,"line":0,"station_name":"Bojongindah","is_transit":false,"i_lat":-6.159876,"distance":2334,"transit":false,"time":2,"station_id":"BOI"},{"transit":false,"is_transit":false,"i_lat":-6.162758,"station_name":"Rawa Buaya","distance":1152,"time":4,"i_long":106.723064,"station_id":"RW","line":5},{"i_lat":-6.166068,"station_id":"KDS","line":5,"i_long":106.701612,"distance":2504,"transit":false,"time":3,"station_name":"Kalideres","is_transit":false},{"i_long":106.679458,"station_name":"Poris","time":3,"line":5,"station_id":"PI","distance":2548,"is_transit":false,"i_lat":-6.169933,"transit":false},{"station_name":"Batuceper","transit":false,"i_long":106.665036,"station_id":"BPR","distance":1834,"i_lat":-6.171811,"line":0,"is_transit":false,"time":3},{"transit":false,"line":5,"station_name":"Tanah Tinggi","i_lat":-6.17331,"i_long":106.64657,"distance":2028,"is_transit":false,"time":3,"station_id":"TTI"}],[{"station_id":"RJW","is_transit":false,"i_long":106.836569,"line":11,"distance":0,"station_name":"Rajawali","transit":false,"time":0,"i_lat":-6.14505},{"transit":true,"station_id":"KPB","time":3,"i_long":106.826365,"is_transit":true,"line":0,"i_lat":-6.132549,"station_name":"Kampung Bandan","distance":1444},{"line":0,"distance":1364,"time":3,"transit":true,"station_id":"JAKK","i_lat":-6.137569,"station_name":"Jakarta Kota","is_transit":true,"i_long":106.812439},{"distance":1264,"station_name":"Jayakarta","line":7,"transit":false,"i_lat":-6.141205,"station_id":"JAY","is_transit":false,"time":4,"i_long":106.820901},{"is_transit":false,"time":2,"distance":1080,"transit":false,"i_long":106.82482,"line":2,"i_lat":-6.149769,"station_id":"MGB","station_name":"Manggabesar"},{"station_name":"Sawah Besar","i_long":106.827103,"line":2,"station_id":"SW","distance":906,"is_transit":false,"i_lat":-6.160725,"transit":false,"time":2},{"transit":false,"line":2,"station_id":"JUA","distance":1149,"i_long":106.828284,"is_transit":false,"station_name":"Juanda","i_lat":-6.166716,"time":2},{"transit":false,"i_lat":-6.186295,"is_transit":false,"time":4,"station_id":"GDD","station_name":"Gondangdia","i_long":106.832183,"line":2,"distance":2015},{"i_lat":-6.198556,"i_long":106.840169,"station_id":"CKI","distance":1750,"line":0,"is_transit":false,"station_name":"Cikini","transit":false,"time":3},{"i_lat":-6.209883,"station_id":"MRI","transit":true,"distance":1590,"is_transit":true,"i_long":106.84912,"time":4,"station_name":"Manggarai","line":0},{"i_lat":-6.202263,"is_transit":false,"transit":false,"station_id":"SUD","station_name":"Sudirman","distance":3186,"i_long":106.822649,"time":4,"line":1},{"line":1,"transit":false,"is_transit":false,"time":1,"distance":280,"station_id":"SUDB","i_lat":-6.201433,"station_name":"Sudirman Baru","i_long":106.819881},{"station_name":"Karet","transit":false,"i_long":106.816351,"time":1,"line":1,"distance":471,"is_transit":false,"station_id":"KAT","i_lat":-6.20132},{"transit":false,"line":1,"is_transit":true,"distance":2029,"station_name":"Tanah Abang","i_lat":-6.185545,"time":5,"i_long":106.811091,"station_id":"THB"},{"line":1,"i_long":106.800832,"i_lat":-6.155215,"transit":true,"is_transit":true,"station_name":"Duri","time":8,"distance":3632,"station_id":"DU"},{"time":3,"station_id":"GGL","line":5,"is_transit":false,"distance":1700,"station_name":"Grogol","i_long":106.788277,"i_lat":-6.162021,"transit":false},{"is_transit":false,"station_id":"PSG","station_name":"Pesing","distance":2036,"transit":false,"time":2,"i_lat":-6.161433,"i_long":106.771379,"line":5},{"i_lat":-6.1587309999999995,"station_name":"Taman Kota","i_long":106.756522,"distance":1614,"is_transit":false,"transit":false,"time":2,"line":5,"station_id":"TKO"},{"station_name":"Bojongindah","distance":2334,"i_lat":-6.159876,"i_long":106.737035,"station_id":"BOI","transit":false,"time":2,"is_transit":false,"line":0},{"transit":false,"time":4,"i_lat":-6.162758,"i_long":106.723064,"line":5,"is_transit":false,"station_id":"RW","station_name":"Rawa Buaya","distance":1152},{"transit":false,"i_long":106.701612,"i_lat":-6.166068,"station_name":"Kalideres","line":5,"station_id":"KDS","is_transit":false,"distance":2504,"time":3},{"time":3,"i_lat":-6.169933,"station_id":"PI","station_name":"Poris","i_long":106.679458,"distance":2548,"is_transit":false,"line":5,"transit":false},{"distance":1834,"is_transit":false,"station_id":"BPR","station_name":"Batuceper","time":3,"i_lat":-6.171811,"line":0,"i_long":106.665036,"transit":false},{"is_transit":false,"i_lat":-6.17331,"time":3,"i_long":106.64657,"station_name":"Tanah Tinggi","line":5,"transit":false,"station_id":"TTI","distance":2028}],[{"distance":0,"station_name":"Rajawali","station_id":"RJW","is_transit":false,"time":0,"i_lat":-6.14505,"i_long":106.836569,"transit":false,"line":11},{"i_long":106.839204,"station_id":"KMO","distance":1901,"station_name":"Kemayoran","transit":false,"time":5,"i_lat":-6.161728,"line":11,"is_transit":false},{"i_lat":-6.174784,"line":11,"distance":1436,"station_name":"Pasar Senen","time":4,"is_transit":false,"station_id":"PSE","transit":false,"i_long":106.84368},{"station_id":"GST","station_name":"Gang Sentiong","transit":false,"i_lat":-6.185975,"distance":1567,"i_long":106.850107,"line":11,"time":8,"is_transit":false},{"line":11,"time":1,"station_id":"KMT","distance":973,"transit":false,"is_transit":false,"i_long":106.855437,"station_name":"Kramat","i_lat":-6.193792},{"is_transit":false,"station_name":"Pondok Jati","i_long":106.861737,"i_lat":-6.209188,"line":11,"distance":1829,"time":2,"station_id":"POK","transit":false},{"distance":1236,"station_name":"Jatinegara","i_long":106.86807400000001,"line":0,"station_id":"JNG","transit":true,"is_transit":true,"i_lat":-6.215091,"time":9},{"i_long":106.858896,"is_transit":false,"station_id":"MTR","time":2,"i_lat":-6.212485,"station_name":"Matraman","distance":1377,"line":1,"transit":false},{"is_transit":true,"station_id":"MRI","i_long":106.84912,"distance":1275,"station_name":"Manggarai","transit":true,"time":2,"line":0,"i_lat":-6.209883},{"line":0,"i_lat":-6.198556,"distance":1590,"station_id":"CKI","is_transit":false,"station_name":"Cikini","i_long":106.840169,"time":4,"transit":false},{"line":2,"distance":1750,"is_transit":false,"i_lat":-6.186295,"time":3,"i_long":106.832183,"station_name":"Gondangdia","station_id":"GDD","transit":false},{"transit":false,"i_long":106.828284,"station_name":"Juanda","line":2,"distance":2015,"is_transit":false,"time":4,"i_lat":-6.166716,"station_id":"JUA"},{"line":2,"station_id":"SW","time":2,"station_name":"Sawah Besar","distance":1149,"is_transit":false,"transit":false,"i_lat":-6.160725,"i_long":106.827103},{"i_long":106.82482,"line":2,"is_transit":false,"transit":false,"time":2,"station_name":"Manggabesar","station_id":"MGB","distance":906,"i_lat":-6.149769},{"i_long":106.820901,"station_id":"JAY","time":2,"distance":1080,"station_name":"Jayakarta","is_transit":false,"line":7,"i_lat":-6.141205,"transit":false},{"is_transit":true,"i_lat":-6.137569,"station_name":"Jakarta Kota","time":4,"line":0,"station_id":"JAKK","distance":1264,"i_long":106.812439,"transit":true},{"i_lat":-6.132549,"station_id":"KPB","line":0,"station_name":"Kampung Bandan","i_long":106.826365,"distance":1364,"time":3,"transit":false,"is_transit":true},{"i_long":106.79867,"i_lat":-6.144674,"is_transit":false,"transit":false,"station_name":"Angke","line":0,"station_id":"AK","time":9,"distance":4102},{"station_name":"Duri","i_lat":-6.155215,"line":1,"station_id":"DU","transit":true,"distance":1230,"time":4,"i_long":106.800832,"is_transit":true},{"i_lat":-6.162021,"station_id":"GGL","transit":false,"distance":1700,"station_name":"Grogol","time":3,"line":5,"is_transit":false,"i_long":106.788277},{"distance":2036,"is_transit":false,"line":5,"transit":false,"station_name":"Pesing","station_id":"PSG","time":2,"i_lat":-6.161433,"i_long":106.771379},{"distance":1614,"i_long":106.756522,"line":5,"is_transit":false,"i_lat":-6.1587309999999995,"station_id":"TKO","station_name":"Taman Kota","transit":false,"time":2},{"station_id":"BOI","i_lat":-6.159876,"station_name":"Bojongindah","distance":2334,"transit":false,"line":0,"i_long":106.737035,"is_transit":false,"time":2},{"time":4,"station_id":"RW","transit":false,"i_long":106.723064,"line":5,"i_lat":-6.162758,"station_name":"Rawa Buaya","is_transit":false,"distance":1152},{"i_lat":-6.166068,"distance":2504,"transit":false,"time":3,"i_long":106.701612,"is_transit":false,"station_name":"Kalideres","line":5,"station_id":"KDS"},{"transit":false,"station_id":"PI","time":3,"line":5,"station_name":"Poris","distance":2548,"i_lat":-6.169933,"is_transit":false,"i_long":106.679458},{"distance":1834,"transit":false,"station_id":"BPR","time":3,"i_long":106.665036,"line":0,"i_lat":-6.171811,"station_name":"Batuceper","is_transit":false},{"distance":2028,"station_id":"TTI","station_name":"Tanah Tinggi","is_transit":false,"time":3,"i_lat":-6.17331,"transit":false,"i_long":106.64657,"line":5}]]}