{"data":[[{"distance":0,"line":11,"i_long":106.836569,"is_transit":false,"station_name":"Rajawali","transit":false,"time":0,"i_lat":-6.14505,"station_id":"RJW"},{"line":4,"i_long":106.826365,"time":3,"is_transit":true,"transit":true,"distance":1444,"i_lat":-6.132549,"station_id":"KPB","station_name":"Kampung Bandan"},{"time":9,"distance":4102,"i_lat":-6.144674,"i_long":106.79867,"station_id":"AK","is_transit":false,"line":1,"transit":false,"station_name":"Angke"},{"line":1,"time":4,"station_id":"DU","station_name":"Duri","i_lat":-6.155215,"transit":false,"distance":1230,"i_long":106.800832,"is_transit":false},{"is_transit":true,"i_lat":-6.185545,"time":8,"station_name":"Tanah Abang","i_long":106.811091,"line":1,"station_id":"THB","distance":3632,"transit":true},{"line":6,"time":6,"i_long":106.79689,"transit":false,"station_id":"PLM","station_name":"Palmerah","is_transit":false,"distance":3191,"i_lat":-6.207404},{"time":7,"transit":false,"line":6,"is_transit":false,"distance":3737,"station_name":"Kebayoran","i_long":106.780334,"i_lat":-6.237242,"station_id":"KBY"},{"time":8,"line":6,"is_transit":false,"transit":false,"station_id":"PDJ","i_long":106.74273,"i_lat":-6.276362,"distance":6218,"station_name":"Pondokranji"},{"i_long":106.728916,"station_id":"JMU","time":3,"distance":2179,"transit":false,"is_transit":false,"station_name":"Jurangmangu","line":6,"i_lat":-6.288927},{"station_name":"Sudimara","station_id":"SDM","distance":1994,"time":4,"i_lat":-6.296963,"i_long":106.712277,"is_transit":false,"transit":false,"line":6},{"i_long":106.675475,"station_name":"Rawa Buntu","time":6,"i_lat":-6.314823,"transit":false,"distance":4566,"line":6,"station_id":"RU","is_transit":false},{"station_name":"Serpong","station_id":"SRP","time":4,"distance":2413,"is_transit":false,"i_lat":-6.319871,"line":6,"transit":false,"i_long":106.66566},{"time":4,"i_long":106.640411,"station_id":"CSK","station_name":"Cisauk","is_transit":false,"i_lat":-6.32484,"distance":1784,"transit":false,"line":3},{"station_id":"CC","i_long":106.617853,"time":4,"transit":false,"station_name":"Cicayur","distance":2519,"is_transit":false,"line":3,"i_lat":-6.329547},{"distance":5968,"i_long":106.568863,"line":6,"time":8,"transit":false,"i_lat":-6.3441410000000005,"station_name":"Parung Panjang","station_id":"PRP","is_transit":false},{"station_name":"Cilejit","station_id":"CJT","i_long":106.508482,"line":3,"distance":7025,"is_transit":false,"transit":false,"time":9,"i_lat":-6.354349},{"is_transit":false,"i_lat":-6.338021,"i_long":106.491338,"line":0,"distance":2675,"station_name":"Daru","station_id":"DAR","time":6,"transit":false},{"station_name":"Tenjo","transit":false,"distance":3902,"line":6,"time":5,"is_transit":false,"i_lat":-6.327251,"station_id":"TEJ","i_long":106.460812},{"is_transit":false,"station_id":"TGS","transit":false,"time":5,"i_lat":-6.328533,"distance":2974,"i_long":106.425991,"station_name":"Tigaraksa","line":6},{"station_name":"Cikoya","is_transit":false,"station_id":"CKY","time":3,"i_lat":-6.33561,"transit":false,"distance":2651,"i_long":106.411216,"line":3},{"distance":1853,"is_transit":false,"line":6,"transit":false,"station_id":"MJ","time":4,"i_lat":-6.332307,"i_long":106.394373,"station_name":"Maja"},{"station_name":"Citeras","i_lat":-6.334892,"station_id":"CTR","is_transit":false,"distance":7293,"time":10,"transit":false,"i_long":106.332092,"line":3}],[{"transit":false,"i_long":106.836569,"station_id":"RJW","is_transit":false,"station_name":"Rajawali","i_lat":-6.14505,"line":11,"distance":0,"time":0},{"time":5,"station_name":"Kemayoran","i_lat":-6.161728,"line":11,"is_transit":false,"transit":false,"i_long":106.839204,"station_id":"KMO","distance":1901},{"distance":1436,"station_id":"PSE","is_transit":false,"line":11,"station_name":"Pasar Senen","i_lat":-6.174784,"transit":false,"time":4,"i_long":106.84368},{"line":11,"time":8,"is_transit":false,"station_id":"GST","distance":1567,"i_lat":-6.185975,"station_name":"Gang Sentiong","i_long":106.850107,"transit":false},{"i_lat":-6.193792,"station_name":"Kramat","transit":false,"distance":973,"i_long":106.855437,"is_transit":false,"line":11,"station_id":"KMT","time":1},{"station_id":"POK","i_long":106.861737,"line":11,"station_name":"Pondok Jati","transit":false,"time":2,"is_transit":false,"distance":1829,"i_lat":-6.209188},{"i_lat":-6.215091,"line":1,"transit":true,"time":9,"distance":1236,"i_long":106.86807400000001,"station_name":"Jatinegara","is_transit":true,"station_id":"JNG"},{"station_name":"Matraman","is_transit":false,"transit":false,"station_id":"MTR","distance":1377,"i_lat":-6.212485,"time":2,"i_long":106.858896,"line":1},{"i_lat":-6.209883,"station_id":"MRI","i_long":106.84912,"station_name":"Manggarai","is_transit":false,"time":2,"distance":1275,"line":2,"transit":false},{"i_lat":-6.202263,"time":4,"distance":3186,"line":1,"transit":false,"station_id":"SUD","station_name":"Sudirman","is_transit":false,"i_long":106.822649},{"transit":false,"i_lat":-6.201433,"i_long":106.819881,"is_transit":false,"time":1,"station_id":"SUDB","station_name":"Sudirman Baru","distance":280,"line":1},{"distance":471,"transit":false,"i_long":106.816351,"station_name":"Karet","line":1,"is_transit":false,"i_lat":-6.20132,"time":1,"station_id":"KAT"},{"time":5,"station_id":"THB","i_long":106.811091,"line":1,"i_lat":-6.185545,"station_name":"Tanah Abang","distance":2029,"is_transit":true,"transit":true},{"station_id":"PLM","is_transit":false,"station_name":"Palmerah","i_long":106.79689,"distance":3191,"line":6,"transit":false,"time":6,"i_lat":-6.207404},{"i_long":106.780334,"time":7,"distance":3737,"i_lat":-6.237242,"line":6,"station_name":"Kebayoran","is_transit":false,"station_id":"KBY","transit":false},{"time":8,"i_long":106.74273,"is_transit":false,"station_name":"Pondokranji","station_id":"PDJ","distance":6218,"transit":false,"i_lat":-6.276362,"line":6},{"i_lat":-6.288927,"time":3,"i_long":106.728916,"station_name":"Jurangmangu","is_transit":false,"station_id":"JMU","transit":false,"distance":2179,"line":6},{"line":6,"station_id":"SDM","transit":false,"is_transit":false,"distance":1994,"i_lat":-6.296963,"time":4,"station_name":"Sudimara","i_long":106.712277},{"distance":4566,"time":6,"station_name":"Rawa Buntu","transit":false,"station_id":"RU","is_transit":false,"i_long":106.675475,"line":6,"i_lat":-6.314823},{"i_lat":-6.319871,"time":4,"distance":2413,"station_id":"SRP","i_long":106.66566,"station_name":"Serpong","is_transit":false,"transit":false,"line":6},{"i_long":106.640411,"transit":false,"distance":1784,"time":4,"i_lat":-6.32484,"is_transit":false,"station_name":"Cisauk","station_id":"CSK","line":3},{"time":4,"station_name":"Cicayur","station_id":"CC","is_transit":false,"distance":2519,"i_lat":-6.329547,"i_long":106.617853,"transit":false,"line":3},{"i_long":106.568863,"transit":false,"station_id":"PRP","is_transit":false,"time":8,"distance":5968,"station_name":"Parung Panjang","i_lat":-6.3441410000000005,"line":6},{"time":9,"station_id":"CJT","is_transit":false,"station_name":"Cilejit","i_lat":-6.354349,"distance":7025,"transit":false,"line":3,"i_long":106.508482},{"line":0,"transit":false,"i_lat":-6.338021,"distance":2675,"i_long":106.491338,"station_name":"Daru","station_id":"DAR","is_transit":false,"time":6},{"i_lat":-6.327251,"time":5,"transit":false,"station_name":"Tenjo","station_id":"TEJ","is_transit":false,"i_long":106.460812,"line":6,"distance":3902},{"station_name":"Tigaraksa","transit":false,"is_transit":false,"time":5,"station_id":"TGS","i_long":106.425991,"i_lat":-6.328533,"line":6,"distance":2974},{"station_id":"CKY","is_transit":false,"i_lat":-6.33561,"station_name":"Cikoya","distance":2651,"i_long":106.411216,"transit":false,"time":3,"line":3},{"line":6,"station_name":"Maja","distance":1853,"transit":false,"is_transit":false,"time":4,"i_lat":-6.332307,"station_id":"MJ","i_long":106.394373},{"time":10,"station_id":"CTR","i_lat":-6.334892,"station_name":"Citeras","i_long":106.332092,"distance":7293,"transit":false,"is_transit":false,"line":3}],[{"station_id":"RJW","transit":false,"time":0,"distance":0,"line":11,"i_long":106.836569,"i_lat":-6.14505,"is_transit":false,"station_name":"Rajawali"},{"distance":1444,"transit":true,"is_transit":true,"i_lat":-6.132549,"station_name":"Kampung Bandan","time":3,"station_id":"KPB","i_long":106.826365,"line":4},{"is_transit":true,"transit":true,"line":2,"station_id":"JAKK","time":3,"station_name":"Jakarta Kota","i_lat":-6.137569,"distance":1364,"i_long":106.812439},{"i_lat":-6.141205,"transit":false,"station_name":"Jayakarta","i_long":106.820901,"station_id":"JAY","distance":1264,"is_transit":false,"line":2,"time":4},{"line":2,"transit":false,"is_transit":false,"distance":1080,"i_lat":-6.149769,"i_long":106.82482,"station_id":"MGB","station_name":"Manggabesar","time":2},{"is_transit":false,"i_long":106.827103,"line":2,"time":2,"i_lat":-6.160725,"transit":false,"station_name":"Sawah Besar","distance":906,"station_id":"SW"},{"station_id":"JUA","is_transit":false,"transit":false,"station_name":"Juanda","i_lat":-6.166716,"i_long":106.828284,"distance":1149,"time":2,"line":2},{"i_lat":-6.186295,"station_id":"GDD","line":2,"station_name":"Gondangdia","time":4,"transit":false,"i_long":106.832183,"distance":2015,"is_transit":false},{"i_long":106.840169,"station_id":"CKI","distance":1750,"transit":false,"i_lat":-6.198556,"line":2,"station_name":"Cikini","time":3,"is_transit":false},{"transit":true,"time":4,"i_long":106.84912,"station_id":"MRI","station_name":"Manggarai","is_transit":true,"line":2,"i_lat":-6.209883,"distance":1590},{"line":1,"is_transit":false,"station_id":"SUD","i_long":106.822649,"transit":false,"distance":3186,"i_lat":-6.202263,"station_name":"Sudirman","time":4},{"line":1,"distance":280,"transit":false,"station_id":"SUDB","is_transit":false,"i_lat":-6.201433,"i_long":106.819881,"time":1,"station_name":"Sudirman Baru"},{"transit":false,"station_id":"KAT","distance":471,"station_name":"Karet","i_long":106.816351,"is_transit":false,"time":1,"line":1,"i_lat":-6.20132},{"line":1,"transit":true,"station_id":"THB","station_name":"Tanah Abang","i_long":106.811091,"time":5,"distance":2029,"is_transit":true,"i_lat":-6.185545},{"i_long":106.79689,"is_transit":false,"station_id":"PLM","transit":false,"i_lat":-6.207404,"time":6,"station_name":"Palmerah","distance":3191,"line":6},{"distance":3737,"line":6,"station_id":"KBY","i_lat":-6.237242,"transit":false,"is_transit":false,"time":7,"i_long":106.780334,"station_name":"Kebayoran"},{"transit":false,"i_lat":-6.276362,"line":6,"station_id":"PDJ","distance":6218,"i_long":106.74273,"station_name":"Pondokranji","is_transit":false,"time":8},{"is_transit":false,"station_name":"Jurangmangu","i_long":106.728916,"transit":false,"station_id":"JMU","i_lat":-6.288927,"line":6,"time":3,"distance":2179},{"is_transit":false,"i_long":106.712277,"station_id":"SDM","time":4,"distance":1994,"line":6,"transit":false,"i_lat":-6.296963,"station_name":"Sudimara"},{"station_name":"Rawa Buntu","is_transit":false,"distance":4566,"i_lat":-6.314823,"line":6,"station_id":"RU","transit":false,"time":6,"i_long":106.675475},{"line":6,"i_long":106.66566,"station_id":"SRP","distance":2413,"time":4,"i_lat":-6.319871,"is_transit":false,"transit":false,"station_name":"Serpong"},{"i_long":106.640411,"transit":false,"station_id":"CSK","distance":1784,"station_name":"Cisauk","is_transit":false,"time":4,"line":3,"i_lat":-6.32484},{"station_id":"CC","distance":2519,"time":4,"transit":false,"i_lat":-6.329547,"line":3,"station_name":"Cicayur","is_transit":false,"i_long":106.617853},{"is_transit":false,"time":8,"line":6,"station_id":"PRP","distance":5968,"transit":false,"i_long":106.568863,"i_lat":-6.3441410000000005,"station_name":"Parung Panjang"},{"station_id":"CJT","transit":false,"time":9,"is_transit":false,"i_lat":-6.354349,"distance":7025,"station_name":"Cilejit","i_long":106.508482,"line":3},{"station_id":"DAR","i_lat":-6.338021,"is_transit":false,"time":6,"transit":false,"distance":2675,"station_name":"Daru","i_long":106.491338,"line":0},{"station_id":"TEJ","is_transit":false,"time":5,"distance":3902,"i_lat":-6.327251,"i_long":106.460812,"line":6,"transit":false,"station_name":"Tenjo"},{"distance":2974,"line":6,"station_name":"Tigaraksa","station_id":"TGS","transit":false,"time":5,"i_lat":-6.328533,"i_long":106.425991,"is_transit":false},{"station_name":"Cikoya","transit":false,"is_transit":false,"i_long":106.411216,"station_id":"CKY","distance":2651,"time":3,"i_lat":-6.33561,"line":3},{"i_lat":-6.332307,"station_id":"MJ","line":6,"transit":false,"i_long":106.394373,"is_transit":false,"distance":1853,"time":4,"station_name":"Maja"},{"line":3,"transit":false,"i_lat":-6.334892,"station_id":"CTR","station_name":"Citeras","time":10,"distance":7293,"is_transit":false,"i_long":106.332092}],[{"station_name":"Rajawali","distance":0,"station_id":"RJW","i_long":106.836569,"i_lat":-6.14505,"line":11,"time":0,"is_transit":false,"transit":false},{"time":5,"transit":false,"distance":1901,"i_long":106.839204,"i_lat":-6.161728,"line":11,"station_name":"Kemayoran","is_transit":false,"station_id":"KMO"},{"distance":1436,"time":4,"i_long":106.84368,"is_transit":false,"station_id":"PSE","i_lat":-6.174784,"transit":false,"line":11,"station_name":"Pasar Senen"},{"is_transit":false,"line":11,"i_long":106.850107,"i_lat":-6.185975,"station_name":"Gang Sentiong","transit":false,"time":8,"distance":1567,"station_id":"GST"},{"i_lat":-6.193792,"i_long":106.855437,"time":1,"line":11,"is_transit":false,"distance":973,"transit":false,"station_name":"Kramat","station_id":"KMT"},{"transit":false,"distance":1829,"i_long":106.861737,"station_id":"POK","station_name":"Pondok Jati","time":2,"i_lat":-6.209188,"line":11,"is_transit":false},{"transit":true,"time":9,"i_lat":-6.215091,"station_name":"Jatinegara","station_id":"JNG","is_transit":true,"i_long":106.86807400000001,"line":1,"distance":1236},{"station_name":"Matraman","transit":false,"i_long":106.858896,"i_lat":-6.212485,"station_id":"MTR","is_transit":false,"distance":1377,"time":2,"line":1},{"station_name":"Manggarai","transit":true,"is_transit":true,"i_lat":-6.209883,"i_long":106.84912,"time":2,"station_id":"MRI","distance":1275,"line":2},{"i_long":106.840169,"distance":1590,"i_lat":-6.198556,"line":2,"station_name":"Cikini","station_id":"CKI","transit":false,"is_transit":false,"time":4},{"is_transit":false,"transit":false,"i_long":106.832183,"distance":1750,"i_lat":-6.186295,"station_name":"Gondangdia","time":3,"line":2,"station_id":"GDD"},{"i_long":106.828284,"time":4,"transit":false,"i_lat":-6.166716,"is_transit":false,"distance":2015,"line":2,"station_id":"JUA","station_name":"Juanda"},{"time":2,"is_transit":false,"line":2,"i_long":106.827103,"transit":false,"i_lat":-6.160725,"station_name":"Sawah Besar","station_id":"SW","distance":1149},{"time":2,"distance":906,"transit":false,"line":2,"station_name":"Manggabesar","i_lat":-6.149769,"is_transit":false,"i_long":106.82482,"station_id":"MGB"},{"line":2,"distance":1080,"station_name":"Jayakarta","transit":false,"is_transit":false,"i_lat":-6.141205,"time":2,"i_long":106.820901,"station_id":"JAY"},{"is_transit":true,"i_long":106.812439,"line":2,"time":4,"station_name":"Jakarta Kota","transit":true,"station_id":"JAKK","distance":1264,"i_lat":-6.137569},{"i_long":106.826365,"line":4,"i_lat":-6.132549,"station_id":"KPB","time":3,"transit":true,"station_name":"Kampung Bandan","distance":1364,"is_transit":true},{"time":9,"i_long":106.79867,"station_id":"AK","line":1,"transit":false,"is_transit":false,"distance":4102,"station_name":"Angke","i_lat":-6.144674},{"station_id":"DU","line":1,"distance":1230,"station_name":"Duri","transit":false,"is_transit":false,"i_lat":-6.155215,"time":4,"i_long":106.800832},{"i_lat":-6.185545,"distance":3632,"station_name":"Tanah Abang","time":8,"station_id":"THB","i_long":106.811091,"is_transit":true,"transit":true,"line":1},{"distance":3191,"transit":false,"station_name":"Palmerah","i_lat":-6.207404,"station_id":"PLM","i_long":106.79689,"time":6,"is_transit":false,"line":6},{"station_id":"KBY","time":7,"transit":false,"is_transit":false,"i_long":106.780334,"station_name":"Kebayoran","i_lat":-6.237242,"line":6,"distance":3737},{"i_long":106.74273,"line":6,"station_id":"PDJ","distance":6218,"transit":false,"time":8,"i_lat":-6.276362,"is_transit":false,"station_name":"Pondokranji"},{"line":6,"is_transit":false,"transit":false,"station_id":"JMU","distance":2179,"time":3,"i_long":106.728916,"i_lat":-6.288927,"station_name":"Jurangmangu"},{"time":4,"i_lat":-6.296963,"station_id":"SDM","distance":1994,"line":6,"station_name":"Sudimara","transit":false,"is_transit":false,"i_long":106.712277},{"station_id":"RU","i_long":106.675475,"station_name":"Rawa Buntu","distance":4566,"is_transit":false,"transit":false,"i_lat":-6.314823,"line":6,"time":6},{"i_long":106.66566,"transit":false,"i_lat":-6.319871,"station_name":"Serpong","is_transit":false,"distance":2413,"time":4,"station_id":"SRP","line":6},{"time":4,"distance":1784,"i_lat":-6.32484,"i_long":106.640411,"line":3,"transit":false,"station_id":"CSK","is_transit":false,"station_name":"Cisauk"},{"line":3,"station_name":"Cicayur","i_lat":-6.329547,"time":4,"transit":false,"station_id":"CC","is_transit":false,"distance":2519,"i_long":106.617853},{"distance":5968,"time":8,"is_transit":false,"transit":false,"station_name":"Parung Panjang","line":6,"station_id":"PRP","i_lat":-6.3441410000000005,"i_long":106.568863},{"line":3,"time":9,"i_long":106.508482,"station_name":"Cilejit","transit":false,"is_transit":false,"i_lat":-6.354349,"station_id":"CJT","distance":7025},{"station_id":"DAR","is_transit":false,"time":6,"transit":false,"distance":2675,"i_long":106.491338,"i_lat":-6.338021,"line":0,"station_name":"Daru"},{"time":5,"line":6,"transit":false,"station_name":"Tenjo","distance":3902,"i_lat":-6.327251,"is_transit":false,"i_long":106.460812,"station_id":"TEJ"},{"i_long":106.425991,"i_lat":-6.328533,"transit":false,"is_transit":false,"station_name":"Tigaraksa","time":5,"distance":2974,"line":6,"station_id":"TGS"},{"distance":2651,"station_name":"Cikoya","time":3,"i_long":106.411216,"i_lat":-6.33561,"is_transit":false,"line":3,"transit":false,"station_id":"CKY"},{"line":6,"is_transit":false,"time":4,"distance":1853,"station_id":"MJ","i_lat":-6.332307,"i_long":106.394373,"transit":false,"station_name":"Maja"},{"i_lat":-6.334892,"i_long":106.332092,"distance":7293,"station_name":"Citeras","time":10,"transit":false,"line":3,"station_id":"CTR","is_transit":false}]]}