{"data":[[{"distance":0,"i_long":106.836569,"time":0,"station_name":"Rajawali","is_transit":false,"transit":false,"i_lat":-6.14505,"line":11,"station_id":"RJW"},{"distance":1444,"station_id":"KPB","station_name":"Kampung Bandan","transit":true,"time":3,"is_transit":true,"i_long":106.826365,"i_lat":-6.132549,"line":4},{"transit":false,"distance":4102,"i_long":106.79867,"is_transit":false,"line":1,"time":9,"station_name":"Angke","i_lat":-6.144674,"station_id":"AK"},{"transit":false,"station_id":"DU","line":1,"station_name":"Duri","i_long":106.800832,"is_transit":false,"distance":1230,"i_lat":-6.155215,"time":4},{"station_name":"Tanah Abang","line":1,"i_long":106.811091,"distance":3632,"transit":true,"is_transit":true,"i_lat":-6.185545,"time":8,"station_id":"THB"},{"time":6,"is_transit":false,"transit":false,"line":6,"i_lat":-6.207404,"station_id":"PLM","station_name":"Palmerah","i_long":106.79689,"distance":3191},{"transit":false,"is_transit":false,"i_long":106.780334,"distance":3737,"i_lat":-6.237242,"time":7,"station_id":"KBY","station_name":"Kebayoran","line":6},{"i_lat":-6.276362,"i_long":106.74273,"time":8,"station_id":"PDJ","distance":6218,"is_transit":false,"station_name":"Pondokranji","transit":false,"line":6},{"station_name":"Jurangmangu","i_lat":-6.288927,"station_id":"JMU","is_transit":false,"transit":false,"i_long":106.728916,"time":3,"distance":2179,"line":6},{"transit":false,"distance":1994,"line":6,"time":4,"i_lat":-6.296963,"i_long":106.712277,"is_transit":false,"station_id":"SDM","station_name":"Sudimara"},{"line":6,"transit":false,"distance":4566,"i_long":106.675475,"i_lat":-6.314823,"time":6,"is_transit":false,"station_name":"Rawa Buntu","station_id":"RU"},{"is_transit":false,"time":4,"station_id":"SRP","transit":false,"i_lat":-6.319871,"distance":2413,"station_name":"Serpong","i_long":106.66566,"line":6},{"is_transit":false,"transit":false,"station_id":"CSK","i_lat":-6.32484,"station_name":"Cisauk","distance":1784,"i_long":106.640411,"time":4,"line":3},{"time":4,"i_lat":-6.329547,"i_long":106.617853,"distance":2519,"transit":false,"station_id":"CC","is_transit":false,"station_name":"Cicayur","line":3}],[{"station_name":"Rajawali","distance":0,"i_long":106.836569,"i_lat":-6.14505,"is_transit":false,"transit":false,"line":11,"station_id":"RJW","time":0},{"is_transit":false,"station_name":"Kemayoran","time":5,"distance":1901,"i_long":106.839204,"station_id":"KMO","i_lat":-6.161728,"transit":false,"line":11},{"distance":1436,"station_name":"Pasar Senen","line":11,"transit":false,"i_lat":-6.174784,"station_id":"PSE","is_transit":false,"i_long":106.84368,"time":4},{"station_name":"Gang Sentiong","time":8,"is_transit":false,"distance":1567,"station_id":"GST","i_long":106.850107,"transit":false,"i_lat":-6.185975,"line":11},{"station_name":"Kramat","i_lat":-6.193792,"i_long":106.855437,"distance":973,"station_id":"KMT","is_transit":false,"line":11,"transit":false,"time":1},{"station_name":"Pondok Jati","i_lat":-6.209188,"time":2,"transit":false,"station_id":"POK","distance":1829,"is_transit":false,"i_long":106.861737,"line":11},{"station_id":"JNG","station_name":"Jatinegara","transit":true,"i_long":106.86807400000001,"is_transit":true,"line":1,"distance":1236,"i_lat":-6.215091,"time":9},{"time":2,"i_lat":-6.212485,"is_transit":false,"station_id":"MTR","distance":1377,"station_name":"Matraman","line":1,"i_long":106.858896,"transit":false},{"distance":1275,"station_id":"MRI","i_long":106.84912,"i_lat":-6.209883,"line":2,"station_name":"Manggarai","time":2,"transit":false,"is_transit":false},{"station_name":"Sudirman","transit":false,"is_transit":false,"i_long":106.822649,"line":1,"station_id":"SUD","time":4,"i_lat":-6.202263,"distance":3186},{"station_id":"SUDB","i_long":106.819881,"i_lat":-6.201433,"time":1,"is_transit":false,"transit":false,"distance":280,"station_name":"Sudirman Baru","line":1},{"distance":471,"i_lat":-6.20132,"i_long":106.816351,"station_name":"Karet","station_id":"KAT","line":1,"is_transit":false,"transit":false,"time":1},{"i_long":106.811091,"station_id":"THB","is_transit":true,"line":1,"station_name":"Tanah Abang","time":5,"i_lat":-6.185545,"distance":2029,"transit":true},{"is_transit":false,"line":6,"transit":false,"station_id":"PLM","time":6,"station_name":"Palmerah","i_lat":-6.207404,"i_long":106.79689,"distance":3191},{"transit":false,"is_transit":false,"distance":3737,"station_id":"KBY","i_lat":-6.237242,"station_name":"Kebayoran","line":6,"time":7,"i_long":106.780334},{"distance":6218,"station_id":"PDJ","i_long":106.74273,"transit":false,"i_lat":-6.276362,"station_name":"Pondokranji","line":6,"time":8,"is_transit":false},{"i_long":106.728916,"distance":2179,"station_name":"Jurangmangu","i_lat":-6.288927,"station_id":"JMU","is_transit":false,"line":6,"transit":false,"time":3},{"is_transit":false,"station_name":"Sudimara","line":6,"transit":false,"time":4,"i_lat":-6.296963,"i_long":106.712277,"station_id":"SDM","distance":1994},{"time":6,"i_long":106.675475,"station_name":"Rawa Buntu","distance":4566,"i_lat":-6.314823,"station_id":"RU","is_transit":false,"transit":false,"line":6},{"distance":2413,"i_lat":-6.319871,"station_name":"Serpong","line":6,"i_long":106.66566,"station_id":"SRP","transit":false,"is_transit":false,"time":4},{"is_transit":false,"transit":false,"i_lat":-6.32484,"line":3,"station_id":"CSK","i_long":106.640411,"station_name":"Cisauk","distance":1784,"time":4},{"time":4,"station_name":"Cicayur","is_transit":false,"i_lat":-6.329547,"distance":2519,"i_long":106.617853,"line":3,"station_id":"CC","transit":false}],[{"station_id":"RJW","distance":0,"is_transit":false,"i_lat":-6.14505,"i_long":106.836569,"station_name":"Rajawali","transit":false,"line":11,"time":0},{"line":4,"i_long":106.826365,"station_name":"Kampung Bandan","is_transit":true,"station_id":"KPB","transit":true,"time":3,"distance":1444,"i_lat":-6.132549},{"i_long":106.812439,"is_transit":true,"distance":1364,"transit":true,"station_id":"JAKK","i_lat":-6.137569,"line":2,"time":3,"station_name":"Jakarta Kota"},{"i_long":106.820901,"line":2,"time":4,"distance":1264,"is_transit":false,"station_name":"Jayakarta","transit":false,"i_lat":-6.141205,"station_id":"JAY"},{"time":2,"i_lat":-6.149769,"line":2,"station_name":"Manggabesar","is_transit":false,"distance":1080,"i_long":106.82482,"station_id":"MGB","transit":false},{"line":2,"transit":false,"station_name":"Sawah Besar","time":2,"i_lat":-6.160725,"i_long":106.827103,"station_id":"SW","distance":906,"is_transit":false},{"is_transit":false,"station_id":"JUA","i_lat":-6.166716,"time":2,"transit":false,"distance":1149,"station_name":"Juanda","i_long":106.828284,"line":2},{"distance":2015,"i_long":106.832183,"i_lat":-6.186295,"time":4,"station_name":"Gondangdia","is_transit":false,"line":2,"transit":false,"station_id":"GDD"},{"distance":1750,"line":2,"transit":false,"time":3,"station_name":"Cikini","is_transit":false,"i_long":106.840169,"station_id":"CKI","i_lat":-6.198556},{"station_id":"MRI","line":2,"station_name":"Manggarai","time":4,"is_transit":true,"transit":true,"i_lat":-6.209883,"distance":1590,"i_long":106.84912},{"line":1,"i_lat":-6.202263,"is_transit":false,"station_name":"Sudirman","time":4,"i_long":106.822649,"distance":3186,"station_id":"SUD","transit":false},{"time":1,"transit":false,"station_name":"Sudirman Baru","i_lat":-6.201433,"station_id":"SUDB","distance":280,"line":1,"i_long":106.819881,"is_transit":false},{"is_transit":false,"transit":false,"i_long":106.816351,"station_id":"KAT","distance":471,"station_name":"Karet","time":1,"i_lat":-6.20132,"line":1},{"station_name":"Tanah Abang","i_lat":-6.185545,"i_long":106.811091,"distance":2029,"line":1,"transit":true,"station_id":"THB","time":5,"is_transit":true},{"line":6,"is_transit":false,"station_id":"PLM","time":6,"transit":false,"station_name":"Palmerah","distance":3191,"i_lat":-6.207404,"i_long":106.79689},{"i_lat":-6.237242,"i_long":106.780334,"is_transit":false,"time":7,"distance":3737,"transit":false,"line":6,"station_id":"KBY","station_name":"Kebayoran"},{"time":8,"distance":6218,"station_id":"PDJ","i_lat":-6.276362,"transit":false,"line":6,"station_name":"Pondokranji","i_long":106.74273,"is_transit":false},{"transit":false,"distance":2179,"station_name":"Jurangmangu","i_lat":-6.288927,"line":6,"is_transit":false,"time":3,"station_id":"JMU","i_long":106.728916},{"transit":false,"station_name":"Sudimara","i_lat":-6.296963,"line":6,"i_long":106.712277,"distance":1994,"is_transit":false,"station_id":"SDM","time":4},{"transit":false,"i_long":106.675475,"station_id":"RU","time":6,"distance":4566,"station_name":"Rawa Buntu","is_transit":false,"line":6,"i_lat":-6.314823},{"station_id":"SRP","transit":false,"i_long":106.66566,"station_name":"Serpong","i_lat":-6.319871,"line":6,"distance":2413,"is_transit":false,"time":4},{"station_id":"CSK","station_name":"Cisauk","i_long":106.640411,"transit":false,"line":3,"is_transit":false,"i_lat":-6.32484,"time":4,"distance":1784},{"is_transit":false,"i_lat":-6.329547,"distance":2519,"i_long":106.617853,"station_id":"CC","time":4,"line":3,"transit":false,"station_name":"Cicayur"}],[{"i_lat":-6.14505,"distance":0,"transit":false,"station_id":"RJW","is_transit":false,"station_name":"Rajawali","line":11,"time":0,"i_long":106.836569},{"transit":false,"is_transit":false,"i_lat":-6.161728,"station_id":"KMO","i_long":106.839204,"station_name":"Kemayoran","line":11,"time":5,"distance":1901},{"i_long":106.84368,"line":11,"transit":false,"station_name":"Pasar Senen","station_id":"PSE","distance":1436,"i_lat":-6.174784,"is_transit":false,"time":4},{"transit":false,"station_id":"GST","station_name":"Gang Sentiong","time":8,"is_transit":false,"distance":1567,"i_lat":-6.185975,"line":11,"i_long":106.850107},{"transit":false,"station_name":"Kramat","distance":973,"time":1,"is_transit":false,"i_long":106.855437,"i_lat":-6.193792,"station_id":"KMT","line":11},{"time":2,"transit":false,"station_id":"POK","i_lat":-6.209188,"distance":1829,"i_long":106.861737,"is_transit":false,"station_name":"Pondok Jati","line":11},{"i_long":106.86807400000001,"station_name":"Jatinegara","distance":1236,"is_transit":true,"line":1,"time":9,"i_lat":-6.215091,"transit":true,"station_id":"JNG"},{"i_long":106.858896,"is_transit":false,"transit":false,"station_id":"MTR","station_name":"Matraman","line":1,"distance":1377,"i_lat":-6.212485,"time":2},{"line":2,"station_id":"MRI","distance":1275,"time":2,"is_transit":true,"i_long":106.84912,"transit":true,"i_lat":-6.209883,"station_name":"Manggarai"},{"i_lat":-6.198556,"line":2,"i_long":106.840169,"station_id":"CKI","transit":false,"time":4,"station_name":"Cikini","is_transit":false,"distance":1590},{"transit":false,"distance":1750,"station_name":"Gondangdia","i_lat":-6.186295,"is_transit":false,"i_long":106.832183,"line":2,"station_id":"GDD","time":3},{"i_lat":-6.166716,"transit":false,"station_id":"JUA","time":4,"is_transit":false,"distance":2015,"station_name":"Juanda","i_long":106.828284,"line":2},{"distance":1149,"station_name":"Sawah Besar","i_long":106.827103,"is_transit":false,"i_lat":-6.160725,"line":2,"transit":false,"station_id":"SW","time":2},{"line":2,"i_lat":-6.149769,"distance":906,"station_name":"Manggabesar","is_transit":false,"i_long":106.82482,"station_id":"MGB","transit":false,"time":2},{"station_name":"Jayakarta","line":2,"time":2,"distance":1080,"is_transit":false,"station_id":"JAY","i_long":106.820901,"transit":false,"i_lat":-6.141205},{"i_lat":-6.137569,"i_long":106.812439,"station_id":"JAKK","line":2,"distance":1264,"transit":true,"time":4,"station_name":"Jakarta Kota","is_transit":true},{"station_name":"Kampung Bandan","station_id":"KPB","time":3,"distance":1364,"i_long":106.826365,"line":4,"i_lat":-6.132549,"is_transit":true,"transit":true},{"is_transit":false,"transit":false,"time":9,"distance":4102,"line":1,"i_lat":-6.144674,"station_id":"AK","station_name":"Angke","i_long":106.79867},{"line":1,"station_id":"DU","time":4,"i_lat":-6.155215,"distance":1230,"i_long":106.800832,"is_transit":false,"station_name":"Duri","transit":false},{"transit":true,"station_id":"THB","i_lat":-6.185545,"time":8,"distance":3632,"i_long":106.811091,"line":1,"station_name":"Tanah Abang","is_transit":true},{"distance":3191,"station_name":"Palmerah","time":6,"is_transit":false,"line":6,"station_id":"PLM","transit":false,"i_long":106.79689,"i_lat":-6.207404},{"is_transit":false,"station_id":"KBY","time":7,"i_long":106.780334,"line":6,"station_name":"Kebayoran","i_lat":-6.237242,"transit":false,"distance":3737},{"transit":false,"line":6,"station_name":"Pondokranji","i_long":106.74273,"i_lat":-6.276362,"distance":6218,"is_transit":false,"time":8,"station_id":"PDJ"},{"station_name":"Jurangmangu","i_long":106.728916,"station_id":"JMU","time":3,"is_transit":false,"line":6,"i_lat":-6.288927,"transit":false,"distance":2179},{"line":6,"station_id":"SDM","station_name":"Sudimara","distance":1994,"time":4,"transit":false,"is_transit":false,"i_long":106.712277,"i_lat":-6.296963},{"station_name":"Rawa Buntu","transit":false,"station_id":"RU","i_long":106.675475,"line":6,"distance":4566,"i_lat":-6.314823,"time":6,"is_transit":false},{"station_id":"SRP","transit":false,"distance":2413,"i_long":106.66566,"line":6,"station_name":"Serpong","i_lat":-6.319871,"time":4,"is_transit":false},{"time":4,"line":3,"distance":1784,"is_transit":false,"i_lat":-6.32484,"station_name":"Cisauk","transit":false,"station_id":"CSK","i_long":106.640411},{"transit":false,"station_id":"CC","i_long":106.617853,"line":3,"time":4,"i_lat":-6.329547,"station_name":"Cicayur","is_transit":false,"distance":2519}]]}