{"data":[[{"distance":0,"is_transit":false,"i_lat":-6.14505,"station_id":"RJW","i_long":106.836569,"time":0,"line":11,"transit":false,"station_name":"Rajawali"},{"is_transit":false,"distance":1901,"station_name":"Kemayoran","station_id":"KMO","line":11,"time":5,"i_long":106.839204,"transit":false,"i_lat":-6.161728},{"time":4,"line":11,"station_name":"Pasar Senen","i_long":106.84368,"transit":false,"is_transit":false,"distance":1436,"station_id":"PSE","i_lat":-6.174784},{"station_id":"GST","transit":false,"distance":1567,"i_lat":-6.185975,"i_long":106.850107,"is_transit":false,"time":8,"line":11,"station_name":"Gang Sentiong"},{"time":1,"station_id":"KMT","transit":false,"line":11,"station_name":"Kramat","i_lat":-6.193792,"is_transit":false,"i_long":106.855437,"distance":973},{"is_transit":false,"transit":false,"i_lat":-6.209188,"i_long":106.861737,"station_name":"Pondok Jati","time":2,"distance":1829,"station_id":"POK","line":11},{"i_long":106.86807400000001,"distance":1236,"station_name":"Jatinegara","line":1,"is_transit":true,"transit":true,"station_id":"JNG","time":9,"i_lat":-6.215091},{"i_lat":-6.2135,"line":1,"station_id":"KLD","is_transit":false,"transit":false,"distance":3395,"time":3,"i_long":106.899548,"station_name":"Klender"},{"time":2,"i_long":106.922662,"station_id":"BUA","is_transit":false,"distance":3100,"transit":false,"i_lat":-6.215568,"station_name":"Buaran","line":1},{"line":1,"transit":false,"is_transit":false,"i_lat":-6.217455,"distance":1305,"station_name":"Klenderbaru","i_long":106.939679,"station_id":"KLDB","time":1},{"line":1,"i_long":106.951283,"distance":1385,"station_name":"Cakung","time":8,"i_lat":-6.219053,"station_id":"CUK","is_transit":false,"transit":false},{"i_long":106.977657,"distance":3097,"time":3,"line":1,"is_transit":false,"station_id":"KRI","transit":false,"i_lat":-6.224515,"station_name":"Kranji"},{"station_id":"BKS","time":4,"is_transit":false,"transit":false,"distance":2520,"i_lat":-6.236616,"i_long":106.997013,"station_name":"Bekasi","line":1}],[{"distance":0,"i_lat":-6.14505,"i_long":106.836569,"line":11,"is_transit":false,"time":0,"transit":false,"station_name":"Rajawali","station_id":"RJW"},{"transit":true,"i_lat":-6.132549,"i_long":106.826365,"is_transit":true,"station_id":"KPB","station_name":"Kampung Bandan","time":3,"line":4,"distance":1444},{"is_transit":false,"transit":false,"station_id":"AK","time":9,"line":1,"station_name":"Angke","i_long":106.79867,"i_lat":-6.144674,"distance":4102},{"time":4,"transit":false,"i_lat":-6.155215,"is_transit":false,"i_long":106.800832,"distance":1230,"station_name":"Duri","line":1,"station_id":"DU"},{"line":1,"station_name":"Tanah Abang","transit":false,"is_transit":false,"station_id":"THB","i_long":106.811091,"time":8,"distance":3632,"i_lat":-6.185545},{"distance":2029,"station_name":"Karet","time":5,"i_long":106.816351,"station_id":"KAT","i_lat":-6.20132,"line":1,"is_transit":false,"transit":false},{"time":1,"transit":false,"station_id":"SUDB","i_lat":-6.201433,"distance":471,"station_name":"Sudirman Baru","line":1,"i_long":106.819881,"is_transit":false},{"distance":280,"transit":false,"i_long":106.822649,"line":1,"station_id":"SUD","is_transit":false,"station_name":"Sudirman","i_lat":-6.202263,"time":1},{"is_transit":false,"station_id":"MRI","station_name":"Manggarai","transit":false,"i_lat":-6.209883,"i_long":106.84912,"time":4,"line":2,"distance":3186},{"is_transit":false,"time":2,"transit":false,"station_id":"MTR","line":1,"i_lat":-6.212485,"station_name":"Matraman","i_long":106.858896,"distance":1275},{"is_transit":false,"distance":1377,"transit":false,"station_id":"JNG","i_lat":-6.215091,"time":8,"i_long":106.86807400000001,"line":1,"station_name":"Jatinegara"},{"is_transit":false,"station_id":"KLD","i_lat":-6.2135,"time":3,"station_name":"Klender","line":1,"transit":false,"i_long":106.899548,"distance":3395},{"i_long":106.922662,"line":1,"is_transit":false,"time":2,"distance":3100,"station_name":"Buaran","transit":false,"station_id":"BUA","i_lat":-6.215568},{"station_name":"Klenderbaru","is_transit":false,"distance":1305,"i_lat":-6.217455,"line":1,"transit":false,"station_id":"KLDB","i_long":106.939679,"time":1},{"time":8,"is_transit":false,"station_name":"Cakung","station_id":"CUK","transit":false,"line":1,"i_long":106.951283,"distance":1385,"i_lat":-6.219053},{"distance":3097,"line":1,"station_name":"Kranji","station_id":"KRI","i_lat":-6.224515,"is_transit":false,"i_long":106.977657,"time":3,"transit":false},{"time":4,"is_transit":false,"station_id":"BKS","transit":false,"station_name":"Bekasi","line":1,"distance":2520,"i_long":106.997013,"i_lat":-6.236616}],[{"i_long":106.836569,"is_transit":false,"station_name":"Rajawali","time":0,"line":11,"i_lat":-6.14505,"transit":false,"distance":0,"station_id":"RJW"},{"transit":true,"line":4,"distance":1444,"i_lat":-6.132549,"i_long":106.826365,"station_id":"KPB","station_name":"Kampung Bandan","time":3,"is_transit":true},{"time":3,"station_name":"Jakarta Kota","transit":true,"i_long":106.812439,"i_lat":-6.137569,"distance":1364,"line":2,"station_id":"JAKK","is_transit":true},{"is_transit":false,"station_name":"Jayakarta","transit":false,"station_id":"JAY","i_long":106.820901,"line":2,"distance":1264,"i_lat":-6.141205,"time":4},{"i_long":106.82482,"station_name":"Manggabesar","time":2,"line":2,"is_transit":false,"transit":false,"station_id":"MGB","distance":1080,"i_lat":-6.149769},{"time":2,"station_name":"Sawah Besar","transit":false,"i_long":106.827103,"line":2,"i_lat":-6.160725,"is_transit":false,"distance":906,"station_id":"SW"},{"time":2,"station_name":"Juanda","is_transit":false,"transit":false,"i_lat":-6.166716,"station_id":"JUA","line":2,"distance":1149,"i_long":106.828284},{"station_name":"Gondangdia","i_lat":-6.186295,"line":2,"transit":false,"time":4,"station_id":"GDD","i_long":106.832183,"is_transit":false,"distance":2015},{"line":2,"station_id":"CKI","i_long":106.840169,"is_transit":false,"i_lat":-6.198556,"transit":false,"distance":1750,"time":3,"station_name":"Cikini"},{"station_name":"Manggarai","i_long":106.84912,"is_transit":true,"station_id":"MRI","time":4,"distance":1590,"transit":true,"i_lat":-6.209883,"line":2},{"station_id":"MTR","i_long":106.858896,"station_name":"Matraman","transit":false,"is_transit":false,"i_lat":-6.212485,"line":1,"time":2,"distance":1275},{"time":8,"is_transit":false,"distance":1377,"i_lat":-6.215091,"station_name":"Jatinegara","station_id":"JNG","i_long":106.86807400000001,"line":1,"transit":false},{"i_long":106.899548,"station_id":"KLD","is_transit":false,"station_name":"Klender","i_lat":-6.2135,"line":1,"distance":3395,"transit":false,"time":3},{"distance":3100,"i_long":106.922662,"transit":false,"i_lat":-6.215568,"is_transit":false,"station_name":"Buaran","time":2,"line":1,"station_id":"BUA"},{"transit":false,"i_lat":-6.217455,"line":1,"station_name":"Klenderbaru","station_id":"KLDB","is_transit":false,"time":1,"distance":1305,"i_long":106.939679},{"is_transit":false,"station_name":"Cakung","transit":false,"station_id":"CUK","distance":1385,"i_lat":-6.219053,"i_long":106.951283,"line":1,"time":8},{"station_id":"KRI","station_name":"Kranji","i_long":106.977657,"line":1,"distance":3097,"is_transit":false,"i_lat":-6.224515,"time":3,"transit":false},{"transit":false,"station_id":"BKS","i_long":106.997013,"i_lat":-6.236616,"distance":2520,"line":1,"is_transit":false,"time":4,"station_name":"Bekasi"}]]}