{"data":[[{"station_id":"RJW","transit":false,"distance":0,"line":11,"time":0,"station_name":"Rajawali","i_lat":-6.14505,"is_transit":false,"i_long":106.836569},{"i_long":106.826365,"station_name":"Kampung Bandan","transit":true,"line":4,"distance":1444,"is_transit":true,"station_id":"KPB","i_lat":-6.132549,"time":3},{"line":1,"transit":false,"station_name":"Angke","station_id":"AK","i_lat":-6.144674,"is_transit":false,"i_long":106.79867,"time":9,"distance":4102},{"i_lat":-6.155215,"i_long":106.800832,"station_name":"Duri","distance":1230,"is_transit":false,"line":1,"station_id":"DU","time":4,"transit":false},{"transit":true,"time":8,"station_id":"THB","i_lat":-6.185545,"line":1,"station_name":"Tanah Abang","distance":3632,"is_transit":true,"i_long":106.811091},{"i_long":106.79689,"time":6,"line":6,"station_id":"PLM","distance":3191,"transit":false,"station_name":"Palmerah","is_transit":false,"i_lat":-6.207404},{"is_transit":false,"time":7,"i_lat":-6.237242,"transit":false,"station_name":"Kebayoran","station_id":"KBY","i_long":106.780334,"line":6,"distance":3737},{"line":6,"i_lat":-6.276362,"station_name":"Pondokranji","is_transit":false,"station_id":"PDJ","transit":false,"distance":6218,"i_long":106.74273,"time":8},{"line":6,"station_name":"Jurangmangu","is_transit":false,"i_long":106.728916,"station_id":"JMU","transit":false,"distance":2179,"time":3,"i_lat":-6.288927},{"i_lat":-6.296963,"i_long":106.712277,"time":4,"station_name":"Sudimara","station_id":"SDM","is_transit":false,"transit":false,"line":6,"distance":1994},{"station_id":"RU","time":6,"transit":false,"i_long":106.675475,"station_name":"Rawa Buntu","is_transit":false,"line":6,"distance":4566,"i_lat":-6.314823},{"i_long":106.66566,"station_name":"Serpong","time":4,"transit":false,"line":6,"distance":2413,"station_id":"SRP","i_lat":-6.319871,"is_transit":false},{"transit":false,"station_id":"CSK","station_name":"Cisauk","time":4,"distance":1784,"i_lat":-6.32484,"i_long":106.640411,"is_transit":false,"line":3},{"time":4,"i_long":106.617853,"is_transit":false,"distance":2519,"station_name":"Cicayur","transit":false,"station_id":"CC","line":3,"i_lat":-6.329547},{"station_name":"Parung Panjang","station_id":"PRP","time":8,"line":6,"i_long":106.568863,"transit":false,"i_lat":-6.3441410000000005,"distance":5968,"is_transit":false},{"is_transit":false,"station_id":"CJT","i_long":106.508482,"time":9,"transit":false,"i_lat":-6.354349,"line":3,"station_name":"Cilejit","distance":7025},{"station_name":"Daru","is_transit":false,"station_id":"DAR","time":6,"distance":2675,"i_lat":-6.338021,"transit":false,"line":0,"i_long":106.491338},{"station_id":"TEJ","i_long":106.460812,"line":6,"station_name":"Tenjo","distance":3902,"transit":false,"is_transit":false,"time":5,"i_lat":-6.327251},{"distance":2974,"station_id":"TGS","transit":false,"station_name":"Tigaraksa","line":6,"i_lat":-6.328533,"i_long":106.425991,"is_transit":false,"time":5},{"station_name":"Cikoya","station_id":"CKY","is_transit":false,"i_lat":-6.33561,"i_long":106.411216,"distance":2651,"time":3,"transit":false,"line":3},{"time":4,"i_lat":-6.332307,"i_long":106.394373,"line":6,"is_transit":false,"distance":1853,"station_name":"Maja","transit":false,"station_id":"MJ"}],[{"distance":0,"station_id":"RJW","transit":false,"i_long":106.836569,"line":11,"time":0,"i_lat":-6.14505,"station_name":"Rajawali","is_transit":false},{"station_name":"Kemayoran","line":11,"time":5,"distance":1901,"transit":false,"i_long":106.839204,"is_transit":false,"i_lat":-6.161728,"station_id":"KMO"},{"is_transit":false,"transit":false,"station_id":"PSE","distance":1436,"line":11,"i_long":106.84368,"station_name":"Pasar Senen","i_lat":-6.174784,"time":4},{"i_lat":-6.185975,"distance":1567,"i_long":106.850107,"station_name":"Gang Sentiong","is_transit":false,"line":11,"transit":false,"station_id":"GST","time":8},{"time":1,"station_id":"KMT","i_long":106.855437,"i_lat":-6.193792,"station_name":"Kramat","transit":false,"line":11,"is_transit":false,"distance":973},{"line":11,"is_transit":false,"time":2,"station_name":"Pondok Jati","distance":1829,"station_id":"POK","i_lat":-6.209188,"transit":false,"i_long":106.861737},{"i_long":106.86807400000001,"time":9,"is_transit":true,"station_name":"Jatinegara","station_id":"JNG","transit":true,"i_lat":-6.215091,"distance":1236,"line":1},{"time":2,"i_long":106.858896,"is_transit":false,"distance":1377,"i_lat":-6.212485,"line":1,"transit":false,"station_name":"Matraman","station_id":"MTR"},{"is_transit":false,"distance":1275,"transit":false,"i_long":106.84912,"line":2,"station_id":"MRI","time":2,"i_lat":-6.209883,"station_name":"Manggarai"},{"station_name":"Sudirman","time":4,"distance":3186,"transit":false,"i_lat":-6.202263,"i_long":106.822649,"line":1,"is_transit":false,"station_id":"SUD"},{"i_long":106.819881,"is_transit":false,"station_name":"Sudirman Baru","time":1,"distance":280,"station_id":"SUDB","transit":false,"line":1,"i_lat":-6.201433},{"time":1,"i_lat":-6.20132,"station_id":"KAT","distance":471,"station_name":"Karet","line":1,"is_transit":false,"transit":false,"i_long":106.816351},{"i_lat":-6.185545,"transit":true,"i_long":106.811091,"time":5,"is_transit":true,"line":1,"station_name":"Tanah Abang","distance":2029,"station_id":"THB"},{"is_transit":false,"distance":3191,"station_id":"PLM","i_long":106.79689,"i_lat":-6.207404,"line":6,"transit":false,"time":6,"station_name":"Palmerah"},{"station_id":"KBY","i_lat":-6.237242,"transit":false,"time":7,"station_name":"Kebayoran","line":6,"distance":3737,"is_transit":false,"i_long":106.780334},{"distance":6218,"station_id":"PDJ","transit":false,"line":6,"is_transit":false,"i_lat":-6.276362,"station_name":"Pondokranji","i_long":106.74273,"time":8},{"transit":false,"i_lat":-6.288927,"station_id":"JMU","time":3,"distance":2179,"i_long":106.728916,"line":6,"station_name":"Jurangmangu","is_transit":false},{"station_id":"SDM","line":6,"i_lat":-6.296963,"is_transit":false,"time":4,"station_name":"Sudimara","i_long":106.712277,"distance":1994,"transit":false},{"i_long":106.675475,"line":6,"time":6,"station_name":"Rawa Buntu","is_transit":false,"distance":4566,"transit":false,"i_lat":-6.314823,"station_id":"RU"},{"transit":false,"station_name":"Serpong","i_lat":-6.319871,"station_id":"SRP","i_long":106.66566,"line":6,"time":4,"distance":2413,"is_transit":false},{"time":4,"distance":1784,"transit":false,"i_long":106.640411,"station_id":"CSK","line":3,"station_name":"Cisauk","i_lat":-6.32484,"is_transit":false},{"i_lat":-6.329547,"station_name":"Cicayur","is_transit":false,"distance":2519,"time":4,"transit":false,"i_long":106.617853,"station_id":"CC","line":3},{"time":8,"distance":5968,"line":6,"station_name":"Parung Panjang","station_id":"PRP","i_lat":-6.3441410000000005,"transit":false,"i_long":106.568863,"is_transit":false},{"station_name":"Cilejit","distance":7025,"transit":false,"line":3,"is_transit":false,"i_long":106.508482,"station_id":"CJT","time":9,"i_lat":-6.354349},{"is_transit":false,"station_name":"Daru","time":6,"distance":2675,"transit":false,"i_long":106.491338,"line":0,"i_lat":-6.338021,"station_id":"DAR"},{"time":5,"station_name":"Tenjo","i_long":106.460812,"distance":3902,"i_lat":-6.327251,"is_transit":false,"station_id":"TEJ","line":6,"transit":false},{"station_id":"TGS","i_long":106.425991,"is_transit":false,"distance":2974,"transit":false,"station_name":"Tigaraksa","i_lat":-6.328533,"line":6,"time":5},{"station_id":"CKY","i_lat":-6.33561,"transit":false,"i_long":106.411216,"is_transit":false,"distance":2651,"station_name":"Cikoya","time":3,"line":3},{"is_transit":false,"time":4,"transit":false,"station_name":"Maja","station_id":"MJ","distance":1853,"line":6,"i_lat":-6.332307,"i_long":106.394373}],[{"distance":0,"is_transit":false,"station_name":"Rajawali","time":0,"station_id":"RJW","line":11,"i_long":106.836569,"transit":false,"i_lat":-6.14505},{"time":3,"station_name":"Kampung Bandan","distance":1444,"is_transit":true,"i_lat":-6.132549,"line":4,"station_id":"KPB","i_long":106.826365,"transit":true},{"station_id":"JAKK","i_lat":-6.137569,"is_transit":true,"distance":1364,"transit":true,"line":2,"station_name":"Jakarta Kota","i_long":106.812439,"time":3},{"line":2,"i_long":106.820901,"transit":false,"i_lat":-6.141205,"station_id":"JAY","station_name":"Jayakarta","is_transit":false,"time":4,"distance":1264},{"i_long":106.82482,"is_transit":false,"distance":1080,"station_id":"MGB","line":2,"i_lat":-6.149769,"transit":false,"time":2,"station_name":"Manggabesar"},{"time":2,"distance":906,"line":2,"is_transit":false,"station_id":"SW","station_name":"Sawah Besar","transit":false,"i_lat":-6.160725,"i_long":106.827103},{"line":2,"i_long":106.828284,"is_transit":false,"distance":1149,"time":2,"station_id":"JUA","transit":false,"i_lat":-6.166716,"station_name":"Juanda"},{"is_transit":false,"time":4,"i_long":106.832183,"station_name":"Gondangdia","line":2,"distance":2015,"station_id":"GDD","transit":false,"i_lat":-6.186295},{"time":3,"i_lat":-6.198556,"station_id":"CKI","line":2,"distance":1750,"i_long":106.840169,"station_name":"Cikini","is_transit":false,"transit":false},{"station_name":"Manggarai","time":4,"is_transit":true,"distance":1590,"station_id":"MRI","transit":true,"i_lat":-6.209883,"i_long":106.84912,"line":2},{"line":1,"i_long":106.822649,"transit":false,"i_lat":-6.202263,"station_name":"Sudirman","distance":3186,"time":4,"is_transit":false,"station_id":"SUD"},{"transit":false,"line":1,"time":1,"i_long":106.819881,"is_transit":false,"station_id":"SUDB","station_name":"Sudirman Baru","distance":280,"i_lat":-6.201433},{"transit":false,"i_lat":-6.20132,"i_long":106.816351,"line":1,"distance":471,"is_transit":false,"time":1,"station_name":"Karet","station_id":"KAT"},{"station_name":"Tanah Abang","time":5,"transit":true,"station_id":"THB","i_long":106.811091,"line":1,"is_transit":true,"i_lat":-6.185545,"distance":2029},{"time":6,"is_transit":false,"distance":3191,"transit":false,"station_name":"Palmerah","i_long":106.79689,"i_lat":-6.207404,"line":6,"station_id":"PLM"},{"distance":3737,"i_lat":-6.237242,"line":6,"is_transit":false,"i_long":106.780334,"transit":false,"station_name":"Kebayoran","station_id":"KBY","time":7},{"distance":6218,"is_transit":false,"i_lat":-6.276362,"station_id":"PDJ","station_name":"Pondokranji","transit":false,"line":6,"time":8,"i_long":106.74273},{"transit":false,"i_long":106.728916,"distance":2179,"time":3,"i_lat":-6.288927,"is_transit":false,"line":6,"station_name":"Jurangmangu","station_id":"JMU"},{"is_transit":false,"distance":1994,"transit":false,"line":6,"i_long":106.712277,"station_name":"Sudimara","time":4,"i_lat":-6.296963,"station_id":"SDM"},{"transit":false,"i_long":106.675475,"time":6,"distance":4566,"line":6,"station_id":"RU","station_name":"Rawa Buntu","is_transit":false,"i_lat":-6.314823},{"line":6,"station_id":"SRP","is_transit":false,"time":4,"i_long":106.66566,"station_name":"Serpong","distance":2413,"i_lat":-6.319871,"transit":false},{"i_lat":-6.32484,"is_transit":false,"distance":1784,"line":3,"station_name":"Cisauk","station_id":"CSK","i_long":106.640411,"transit":false,"time":4},{"transit":false,"is_transit":false,"time":4,"station_id":"CC","i_long":106.617853,"distance":2519,"i_lat":-6.329547,"station_name":"Cicayur","line":3},{"is_transit":false,"i_lat":-6.3441410000000005,"station_name":"Parung Panjang","time":8,"line":6,"station_id":"PRP","i_long":106.568863,"distance":5968,"transit":false},{"transit":false,"distance":7025,"station_name":"Cilejit","i_long":106.508482,"station_id":"CJT","line":3,"i_lat":-6.354349,"is_transit":false,"time":9},{"line":0,"i_lat":-6.338021,"i_long":106.491338,"is_transit":false,"time":6,"distance":2675,"station_name":"Daru","transit":false,"station_id":"DAR"},{"distance":3902,"transit":false,"i_lat":-6.327251,"i_long":106.460812,"is_transit":false,"station_name":"Tenjo","time":5,"line":6,"station_id":"TEJ"},{"line":6,"time":5,"is_transit":false,"transit":false,"distance":2974,"i_lat":-6.328533,"station_name":"Tigaraksa","station_id":"TGS","i_long":106.425991},{"station_name":"Cikoya","distance":2651,"time":3,"i_long":106.411216,"station_id":"CKY","line":3,"i_lat":-6.33561,"is_transit":false,"transit":false},{"transit":false,"line":6,"i_lat":-6.332307,"is_transit":false,"i_long":106.394373,"station_id":"MJ","station_name":"Maja","time":4,"distance":1853}],[{"station_id":"RJW","is_transit":false,"i_lat":-6.14505,"i_long":106.836569,"line":11,"station_name":"Rajawali","time":0,"distance":0,"transit":false},{"transit":false,"i_long":106.839204,"i_lat":-6.161728,"is_transit":false,"station_id":"KMO","time":5,"station_name":"Kemayoran","distance":1901,"line":11},{"station_name":"Pasar Senen","i_long":106.84368,"is_transit":false,"distance":1436,"i_lat":-6.174784,"time":4,"station_id":"PSE","line":11,"transit":false},{"line":11,"time":8,"is_transit":false,"station_id":"GST","i_long":106.850107,"station_name":"Gang Sentiong","transit":false,"distance":1567,"i_lat":-6.185975},{"i_lat":-6.193792,"line":11,"station_name":"Kramat","time":1,"station_id":"KMT","transit":false,"i_long":106.855437,"is_transit":false,"distance":973},{"is_transit":false,"transit":false,"distance":1829,"time":2,"i_lat":-6.209188,"station_name":"Pondok Jati","station_id":"POK","line":11,"i_long":106.861737},{"distance":1236,"is_transit":true,"time":9,"station_name":"Jatinegara","i_lat":-6.215091,"station_id":"JNG","line":1,"transit":true,"i_long":106.86807400000001},{"is_transit":false,"station_name":"Matraman","distance":1377,"time":2,"station_id":"MTR","transit":false,"i_lat":-6.212485,"i_long":106.858896,"line":1},{"i_lat":-6.209883,"line":2,"station_id":"MRI","time":2,"i_long":106.84912,"is_transit":true,"distance":1275,"station_name":"Manggarai","transit":true},{"i_long":106.840169,"i_lat":-6.198556,"is_transit":false,"time":4,"line":2,"station_id":"CKI","station_name":"Cikini","distance":1590,"transit":false},{"time":3,"transit":false,"is_transit":false,"i_lat":-6.186295,"line":2,"i_long":106.832183,"station_name":"Gondangdia","station_id":"GDD","distance":1750},{"transit":false,"station_name":"Juanda","i_lat":-6.166716,"distance":2015,"time":4,"station_id":"JUA","i_long":106.828284,"line":2,"is_transit":false},{"distance":1149,"transit":false,"time":2,"line":2,"station_name":"Sawah Besar","station_id":"SW","is_transit":false,"i_lat":-6.160725,"i_long":106.827103},{"station_id":"MGB","transit":false,"i_lat":-6.149769,"station_name":"Manggabesar","is_transit":false,"time":2,"i_long":106.82482,"distance":906,"line":2},{"station_id":"JAY","line":2,"i_long":106.820901,"distance":1080,"i_lat":-6.141205,"is_transit":false,"transit":false,"time":2,"station_name":"Jayakarta"},{"distance":1264,"transit":true,"station_id":"JAKK","i_long":106.812439,"i_lat":-6.137569,"is_transit":true,"station_name":"Jakarta Kota","time":4,"line":2},{"station_name":"Kampung Bandan","station_id":"KPB","line":4,"is_transit":true,"time":3,"transit":true,"i_lat":-6.132549,"distance":1364,"i_long":106.826365},{"i_lat":-6.144674,"distance":4102,"i_long":106.79867,"time":9,"is_transit":false,"station_id":"AK","line":1,"station_name":"Angke","transit":false},{"is_transit":false,"distance":1230,"station_name":"Duri","station_id":"DU","i_long":106.800832,"time":4,"transit":false,"i_lat":-6.155215,"line":1},{"time":8,"i_long":106.811091,"is_transit":true,"station_id":"THB","station_name":"Tanah Abang","distance":3632,"i_lat":-6.185545,"line":1,"transit":true},{"transit":false,"is_transit":false,"time":6,"distance":3191,"line":6,"i_lat":-6.207404,"station_name":"Palmerah","station_id":"PLM","i_long":106.79689},{"transit":false,"distance":3737,"station_id":"KBY","time":7,"line":6,"is_transit":false,"i_lat":-6.237242,"station_name":"Kebayoran","i_long":106.780334},{"station_name":"Pondokranji","time":8,"station_id":"PDJ","transit":false,"distance":6218,"is_transit":false,"i_lat":-6.276362,"i_long":106.74273,"line":6},{"distance":2179,"station_id":"JMU","i_lat":-6.288927,"line":6,"transit":false,"station_name":"Jurangmangu","i_long":106.728916,"is_transit":false,"time":3},{"station_name":"Sudimara","distance":1994,"time":4,"is_transit":false,"station_id":"SDM","i_long":106.712277,"line":6,"transit":false,"i_lat":-6.296963},{"i_long":106.675475,"i_lat":-6.314823,"station_name":"Rawa Buntu","time":6,"distance":4566,"station_id":"RU","line":6,"is_transit":false,"transit":false},{"time":4,"is_transit":false,"station_name":"Serpong","transit":false,"distance":2413,"line":6,"i_long":106.66566,"i_lat":-6.319871,"station_id":"SRP"},{"line":3,"station_name":"Cisauk","station_id":"CSK","time":4,"distance":1784,"transit":false,"i_lat":-6.32484,"is_transit":false,"i_long":106.640411},{"station_id":"CC","station_name":"Cicayur","i_long":106.617853,"transit":false,"time":4,"i_lat":-6.329547,"distance":2519,"is_transit":false,"line":3},{"station_name":"Parung Panjang","transit":false,"i_long":106.568863,"is_transit":false,"line":6,"time":8,"distance":5968,"i_lat":-6.3441410000000005,"station_id":"PRP"},{"line":3,"distance":7025,"i_lat":-6.354349,"i_long":106.508482,"time":9,"transit":false,"station_name":"Cilejit","is_transit":false,"station_id":"CJT"},{"distance":2675,"time":6,"i_lat":-6.338021,"line":0,"is_transit":false,"i_long":106.491338,"station_id":"DAR","transit":false,"station_name":"Daru"},{"station_name":"Tenjo","time":5,"distance":3902,"station_id":"TEJ","i_long":106.460812,"line":6,"is_transit":false,"transit":false,"i_lat":-6.327251},{"line":6,"is_transit":false,"station_id":"TGS","distance":2974,"i_lat":-6.328533,"station_name":"Tigaraksa","transit":false,"i_long":106.425991,"time":5},{"i_lat":-6.33561,"i_long":106.411216,"station_id":"CKY","transit":false,"line":3,"distance":2651,"is_transit":false,"station_name":"Cikoya","time":3},{"line":6,"i_lat":-6.332307,"time":4,"is_transit":false,"station_name":"Maja","station_id":"MJ","transit":false,"distance":1853,"i_long":106.394373}]]}