{"data":[[{"i_lat":-6.14505,"i_long":106.836569,"station_id":"RJW","line":11,"station_name":"Rajawali","is_transit":false,"distance":0,"transit":false,"time":0},{"transit":false,"i_long":106.826365,"time":3,"station_name":"Kampung Bandan","line":4,"is_transit":false,"i_lat":-6.132549,"distance":1444,"station_id":"KPB"}],[{"i_lat":-6.14505,"i_long":106.836569,"transit":false,"distance":0,"station_id":"RJW","station_name":"Rajawali","time":0,"is_transit":false,"line":11},{"time":5,"i_lat":-6.161728,"line":11,"station_id":"KMO","i_long":106.839204,"distance":1901,"transit":false,"station_name":"Kemayoran","is_transit":false},{"station_name":"Pasar Senen","transit":false,"is_transit":false,"i_long":106.84368,"i_lat":-6.174784,"distance":1436,"line":11,"station_id":"PSE","time":4},{"i_long":106.850107,"i_lat":-6.185975,"line":11,"station_name":"Gang Sentiong","transit":false,"time":8,"station_id":"GST","is_transit":false,"distance":1567},{"transit":false,"distance":973,"station_name":"Kramat","station_id":"KMT","is_transit":false,"i_lat":-6.193792,"line":11,"i_long":106.855437,"time":1},{"distance":1829,"is_transit":false,"time":2,"line":11,"i_lat":-6.209188,"i_long":106.861737,"station_name":"Pondok Jati","transit":false,"station_id":"POK"},{"distance":1236,"i_lat":-6.215091,"line":1,"station_id":"JNG","station_name":"Jatinegara","i_long":106.86807400000001,"time":9,"transit":true,"is_transit":true},{"time":2,"i_lat":-6.212485,"station_name":"Matraman","station_id":"MTR","i_long":106.858896,"is_transit":false,"line":1,"distance":1377,"transit":false},{"distance":1275,"station_id":"MRI","line":2,"i_lat":-6.209883,"i_long":106.84912,"transit":false,"time":2,"is_transit":false,"station_name":"Manggarai"},{"station_name":"Sudirman","time":4,"station_id":"SUD","i_lat":-6.202263,"i_long":106.822649,"line":1,"transit":false,"is_transit":false,"distance":3186},{"transit":false,"distance":280,"is_transit":false,"station_id":"SUDB","i_long":106.819881,"time":1,"station_name":"Sudirman Baru","line":1,"i_lat":-6.201433},{"station_id":"KAT","distance":471,"is_transit":false,"line":1,"i_lat":-6.20132,"i_long":106.816351,"transit":false,"station_name":"Karet","time":1},{"time":5,"i_lat":-6.185545,"transit":false,"station_id":"THB","i_long":106.811091,"line":1,"distance":2029,"station_name":"Tanah Abang","is_transit":false},{"distance":3632,"transit":false,"time":8,"station_id":"DU","i_long":106.800832,"line":1,"i_lat":-6.155215,"station_name":"Duri","is_transit":false},{"station_id":"AK","station_name":"Angke","transit":false,"time":4,"i_long":106.79867,"is_transit":false,"i_lat":-6.144674,"line":1,"distance":1230},{"station_name":"Kampung Bandan","transit":false,"is_transit":false,"time":9,"i_lat":-6.132549,"i_long":106.826365,"line":4,"station_id":"KPB","distance":4102}],[{"is_transit":false,"station_id":"RJW","time":0,"transit":false,"station_name":"Rajawali","distance":0,"line":11,"i_lat":-6.14505,"i_long":106.836569},{"distance":1901,"station_name":"Kemayoran","i_long":106.839204,"is_transit":false,"station_id":"KMO","i_lat":-6.161728,"time":5,"transit":false,"line":11},{"station_id":"PSE","i_long":106.84368,"time":4,"transit":false,"station_name":"Pasar Senen","distance":1436,"i_lat":-6.174784,"line":11,"is_transit":false},{"is_transit":false,"station_name":"Gang Sentiong","time":8,"distance":1567,"i_long":106.850107,"station_id":"GST","line":11,"i_lat":-6.185975,"transit":false},{"station_name":"Kramat","time":1,"is_transit":false,"station_id":"KMT","i_lat":-6.193792,"i_long":106.855437,"distance":973,"line":11,"transit":false},{"station_name":"Pondok Jati","time":2,"transit":false,"is_transit":false,"i_long":106.861737,"station_id":"POK","i_lat":-6.209188,"line":11,"distance":1829},{"station_id":"JNG","i_long":106.86807400000001,"is_transit":true,"line":1,"distance":1236,"time":9,"transit":true,"station_name":"Jatinegara","i_lat":-6.215091},{"station_name":"Matraman","station_id":"MTR","transit":false,"line":1,"time":2,"is_transit":false,"distance":1377,"i_long":106.858896,"i_lat":-6.212485},{"distance":1275,"i_long":106.84912,"station_id":"MRI","station_name":"Manggarai","time":2,"i_lat":-6.209883,"transit":true,"is_transit":true,"line":2},{"i_lat":-6.198556,"i_long":106.840169,"transit":false,"is_transit":false,"station_id":"CKI","distance":1590,"time":4,"station_name":"Cikini","line":2},{"i_long":106.832183,"i_lat":-6.186295,"transit":false,"is_transit":false,"station_id":"GDD","distance":1750,"time":3,"station_name":"Gondangdia","line":2},{"transit":false,"i_long":106.828284,"station_name":"Juanda","time":4,"station_id":"JUA","is_transit":false,"distance":2015,"i_lat":-6.166716,"line":2},{"time":2,"transit":false,"distance":1149,"station_name":"Sawah Besar","line":2,"i_lat":-6.160725,"i_long":106.827103,"station_id":"SW","is_transit":false},{"line":2,"i_lat":-6.149769,"time":2,"station_name":"Manggabesar","station_id":"MGB","transit":false,"distance":906,"i_long":106.82482,"is_transit":false},{"line":2,"transit":false,"station_name":"Jayakarta","is_transit":false,"distance":1080,"i_lat":-6.141205,"time":2,"i_long":106.820901,"station_id":"JAY"},{"station_id":"JAKK","line":2,"i_lat":-6.137569,"i_long":106.812439,"is_transit":true,"time":4,"distance":1264,"station_name":"Jakarta Kota","transit":true},{"line":4,"i_lat":-6.132549,"time":3,"is_transit":false,"distance":1364,"station_name":"Kampung Bandan","station_id":"KPB","i_long":106.826365,"transit":false}]]}