{"data":[[{"station_name":"Rajawali","i_long":106.836569,"transit":false,"station_id":"RJW","time":0,"line":11,"is_transit":false,"distance":0,"i_lat":-6.14505},{"is_transit":true,"time":3,"distance":1444,"line":0,"i_long":106.826365,"station_name":"Kampung Bandan","transit":true,"station_id":"KPB","i_lat":-6.132549},{"i_lat":-6.144674,"station_name":"Angke","time":9,"is_transit":false,"transit":false,"i_long":106.79867,"line":0,"distance":4102,"station_id":"AK"},{"i_long":106.800832,"station_id":"DU","time":4,"i_lat":-6.155215,"station_name":"Duri","is_transit":true,"line":1,"distance":1230,"transit":true},{"is_transit":true,"station_name":"Tanah Abang","i_lat":-6.185545,"time":8,"transit":false,"i_long":106.811091,"distance":3632,"station_id":"THB","line":1},{"distance":2029,"station_id":"KAT","i_long":106.816351,"is_transit":false,"line":1,"time":5,"transit":false,"station_name":"Karet","i_lat":-6.20132}],[{"distance":0,"time":0,"station_name":"Rajawali","i_lat":-6.14505,"station_id":"RJW","i_long":106.836569,"is_transit":false,"line":11,"transit":false},{"station_name":"Kemayoran","station_id":"KMO","transit":false,"i_long":106.839204,"time":5,"distance":1901,"i_lat":-6.161728,"line":11,"is_transit":false},{"distance":1436,"is_transit":false,"station_id":"PSE","transit":false,"station_name":"Pasar Senen","i_lat":-6.174784,"i_long":106.84368,"time":4,"line":11},{"station_id":"GST","i_lat":-6.185975,"distance":1567,"transit":false,"i_long":106.850107,"line":11,"is_transit":false,"station_name":"Gang Sentiong","time":8},{"i_lat":-6.193792,"transit":false,"distance":973,"station_name":"Kramat","time":1,"station_id":"KMT","line":11,"is_transit":false,"i_long":106.855437},{"line":11,"station_id":"POK","is_transit":false,"transit":false,"i_lat":-6.209188,"time":2,"distance":1829,"station_name":"Pondok Jati","i_long":106.861737},{"time":9,"station_name":"Jatinegara","transit":true,"line":0,"i_lat":-6.215091,"distance":1236,"is_transit":true,"i_long":106.86807400000001,"station_id":"JNG"},{"station_id":"MTR","time":2,"i_lat":-6.212485,"i_long":106.858896,"station_name":"Matraman","is_transit":false,"transit":false,"line":1,"distance":1377},{"time":2,"transit":false,"station_id":"MRI","distance":1275,"line":0,"station_name":"Manggarai","i_long":106.84912,"i_lat":-6.209883,"is_transit":true},{"station_id":"SUD","i_long":106.822649,"station_name":"Sudirman","line":1,"i_lat":-6.202263,"time":4,"is_transit":false,"transit":false,"distance":3186},{"time":1,"i_long":106.819881,"station_name":"Sudirman Baru","line":1,"i_lat":-6.201433,"transit":false,"is_transit":false,"station_id":"SUDB","distance":280},{"station_id":"KAT","transit":false,"time":1,"station_name":"Karet","i_lat":-6.20132,"i_long":106.816351,"distance":471,"is_transit":false,"line":1}],[{"distance":0,"is_transit":false,"station_name":"Rajawali","transit":false,"time":0,"station_id":"RJW","i_lat":-6.14505,"line":11,"i_long":106.836569},{"distance":1444,"station_name":"Kampung Bandan","i_lat":-6.132549,"line":0,"transit":true,"i_long":106.826365,"is_transit":true,"station_id":"KPB","time":3},{"is_transit":true,"distance":1364,"i_lat":-6.137569,"station_name":"Jakarta Kota","i_long":106.812439,"transit":true,"station_id":"JAKK","line":0,"time":3},{"line":7,"transit":false,"distance":1264,"station_id":"JAY","time":4,"i_long":106.820901,"station_name":"Jayakarta","i_lat":-6.141205,"is_transit":false},{"station_id":"MGB","time":2,"distance":1080,"station_name":"Manggabesar","i_long":106.82482,"line":2,"i_lat":-6.149769,"is_transit":false,"transit":false},{"line":2,"time":2,"transit":false,"station_id":"SW","i_long":106.827103,"distance":906,"is_transit":false,"station_name":"Sawah Besar","i_lat":-6.160725},{"station_name":"Juanda","is_transit":false,"station_id":"JUA","distance":1149,"time":2,"i_long":106.828284,"i_lat":-6.166716,"transit":false,"line":2},{"i_long":106.832183,"distance":2015,"station_id":"GDD","is_transit":false,"i_lat":-6.186295,"transit":false,"line":2,"station_name":"Gondangdia","time":4},{"is_transit":false,"station_name":"Cikini","time":3,"distance":1750,"station_id":"CKI","i_lat":-6.198556,"line":0,"i_long":106.840169,"transit":false},{"station_name":"Manggarai","distance":1590,"i_long":106.84912,"line":0,"i_lat":-6.209883,"time":4,"transit":true,"station_id":"MRI","is_transit":true},{"station_id":"SUD","distance":3186,"station_name":"Sudirman","transit":false,"i_lat":-6.202263,"time":4,"line":1,"i_long":106.822649,"is_transit":false},{"transit":false,"station_name":"Sudirman Baru","time":1,"distance":280,"i_lat":-6.201433,"i_long":106.819881,"line":1,"is_transit":false,"station_id":"SUDB"},{"time":1,"transit":false,"line":1,"distance":471,"i_lat":-6.20132,"is_transit":false,"station_name":"Karet","station_id":"KAT","i_long":106.816351}],[{"i_long":106.836569,"i_lat":-6.14505,"transit":false,"line":11,"time":0,"is_transit":false,"distance":0,"station_id":"RJW","station_name":"Rajawali"},{"distance":1901,"transit":false,"line":11,"i_lat":-6.161728,"i_long":106.839204,"station_id":"KMO","is_transit":false,"station_name":"Kemayoran","time":5},{"is_transit":false,"i_lat":-6.174784,"transit":false,"time":4,"distance":1436,"i_long":106.84368,"station_id":"PSE","station_name":"Pasar Senen","line":11},{"time":8,"station_name":"Gang Sentiong","is_transit":false,"i_long":106.850107,"station_id":"GST","line":11,"transit":false,"i_lat":-6.185975,"distance":1567},{"line":11,"transit":false,"distance":973,"i_lat":-6.193792,"i_long":106.855437,"is_transit":false,"time":1,"station_id":"KMT","station_name":"Kramat"},{"station_id":"POK","i_lat":-6.209188,"station_name":"Pondok Jati","i_long":106.861737,"is_transit":false,"transit":false,"time":2,"line":11,"distance":1829},{"i_lat":-6.215091,"line":0,"is_transit":true,"station_id":"JNG","distance":1236,"transit":true,"i_long":106.86807400000001,"station_name":"Jatinegara","time":9},{"station_id":"MTR","station_name":"Matraman","transit":false,"line":1,"i_lat":-6.212485,"is_transit":false,"time":2,"i_long":106.858896,"distance":1377},{"is_transit":true,"time":2,"line":0,"i_long":106.84912,"station_id":"MRI","i_lat":-6.209883,"transit":true,"distance":1275,"station_name":"Manggarai"},{"line":0,"is_transit":false,"station_id":"CKI","transit":false,"i_long":106.840169,"station_name":"Cikini","distance":1590,"i_lat":-6.198556,"time":4},{"time":3,"line":2,"station_name":"Gondangdia","distance":1750,"station_id":"GDD","i_lat":-6.186295,"transit":false,"i_long":106.832183,"is_transit":false},{"distance":2015,"i_lat":-6.166716,"line":2,"station_id":"JUA","is_transit":false,"time":4,"station_name":"Juanda","transit":false,"i_long":106.828284},{"is_transit":false,"line":2,"i_lat":-6.160725,"distance":1149,"station_id":"SW","time":2,"i_long":106.827103,"station_name":"Sawah Besar","transit":false},{"transit":false,"line":2,"is_transit":false,"station_name":"Manggabesar","time":2,"station_id":"MGB","distance":906,"i_long":106.82482,"i_lat":-6.149769},{"time":2,"station_id":"JAY","station_name":"Jayakarta","is_transit":false,"i_long":106.820901,"i_lat":-6.141205,"distance":1080,"transit":false,"line":7},{"is_transit":true,"line":0,"station_name":"Jakarta Kota","station_id":"JAKK","i_lat":-6.137569,"transit":true,"time":4,"distance":1264,"i_long":106.812439},{"station_id":"KPB","i_long":106.826365,"transit":false,"station_name":"Kampung Bandan","time":3,"distance":1364,"i_lat":-6.132549,"is_transit":true,"line":0},{"time":9,"line":0,"distance":4102,"transit":false,"i_long":106.79867,"i_lat":-6.144674,"station_id":"AK","is_transit":false,"station_name":"Angke"},{"is_transit":true,"transit":true,"line":1,"time":4,"i_long":106.800832,"distance":1230,"i_lat":-6.155215,"station_id":"DU","station_name":"Duri"},{"is_transit":true,"time":8,"i_long":106.811091,"transit":false,"distance":3632,"station_id":"THB","i_lat":-6.185545,"line":1,"station_name":"Tanah Abang"},{"is_transit":false,"station_id":"KAT","transit":false,"i_lat":-6.20132,"time":5,"i_long":106.816351,"line":1,"station_name":"Karet","distance":2029}]]}