{"data":[[{"line":11,"is_transit":false,"transit":false,"time":0,"station_id":"RJW","distance":0,"i_long":106.836569,"station_name":"Rajawali","i_lat":-6.14505},{"station_id":"KPB","station_name":"Kampung Bandan","is_transit":false,"i_long":106.826365,"line":4,"transit":false,"i_lat":-6.132549,"time":3,"distance":1444}],[{"is_transit":false,"transit":false,"i_lat":-6.14505,"i_long":106.836569,"station_name":"Rajawali","distance":0,"line":11,"station_id":"RJW","time":0},{"transit":false,"station_id":"KMO","is_transit":false,"time":5,"line":11,"i_lat":-6.161728,"distance":1901,"i_long":106.839204,"station_name":"Kemayoran"},{"distance":1436,"time":4,"line":11,"is_transit":false,"station_id":"PSE","station_name":"Pasar Senen","i_lat":-6.174784,"transit":false,"i_long":106.84368},{"is_transit":false,"i_long":106.850107,"line":11,"station_id":"GST","transit":false,"i_lat":-6.185975,"distance":1567,"time":8,"station_name":"Gang Sentiong"},{"line":11,"i_lat":-6.193792,"i_long":106.855437,"station_name":"Kramat","station_id":"KMT","time":1,"distance":973,"is_transit":false,"transit":false},{"station_id":"POK","time":2,"distance":1829,"is_transit":false,"i_lat":-6.209188,"i_long":106.861737,"line":11,"station_name":"Pondok Jati","transit":false},{"i_long":106.86807400000001,"transit":true,"distance":1236,"station_name":"Jatinegara","is_transit":true,"station_id":"JNG","line":1,"time":9,"i_lat":-6.215091},{"transit":false,"i_lat":-6.212485,"i_long":106.858896,"time":2,"distance":1377,"line":1,"station_id":"MTR","is_transit":false,"station_name":"Matraman"},{"i_lat":-6.209883,"i_long":106.84912,"line":2,"time":2,"station_id":"MRI","station_name":"Manggarai","distance":1275,"is_transit":false,"transit":false},{"distance":3186,"line":1,"is_transit":false,"time":4,"station_name":"Sudirman","i_long":106.822649,"transit":false,"i_lat":-6.202263,"station_id":"SUD"},{"station_name":"Sudirman Baru","is_transit":false,"transit":false,"i_long":106.819881,"distance":280,"line":1,"time":1,"i_lat":-6.201433,"station_id":"SUDB"},{"i_lat":-6.20132,"line":1,"station_name":"Karet","time":1,"distance":471,"transit":false,"station_id":"KAT","is_transit":false,"i_long":106.816351},{"is_transit":false,"i_long":106.811091,"distance":2029,"line":1,"station_name":"Tanah Abang","station_id":"THB","time":5,"transit":false,"i_lat":-6.185545},{"station_id":"DU","is_transit":false,"i_lat":-6.155215,"transit":false,"i_long":106.800832,"line":1,"station_name":"Duri","distance":3632,"time":8},{"i_lat":-6.144674,"distance":1230,"station_id":"AK","i_long":106.79867,"transit":false,"line":1,"is_transit":false,"station_name":"Angke","time":4},{"station_name":"Kampung Bandan","line":4,"is_transit":false,"time":9,"transit":false,"station_id":"KPB","distance":4102,"i_lat":-6.132549,"i_long":106.826365}],[{"i_lat":-6.14505,"is_transit":false,"i_long":106.836569,"line":11,"distance":0,"transit":false,"station_name":"Rajawali","time":0,"station_id":"RJW"},{"station_name":"Kemayoran","distance":1901,"station_id":"KMO","transit":false,"i_lat":-6.161728,"line":11,"time":5,"is_transit":false,"i_long":106.839204},{"line":11,"station_id":"PSE","time":4,"station_name":"Pasar Senen","i_lat":-6.174784,"distance":1436,"is_transit":false,"transit":false,"i_long":106.84368},{"station_name":"Gang Sentiong","time":8,"distance":1567,"station_id":"GST","i_long":106.850107,"line":11,"i_lat":-6.185975,"is_transit":false,"transit":false},{"distance":973,"station_name":"Kramat","is_transit":false,"line":11,"time":1,"station_id":"KMT","i_lat":-6.193792,"i_long":106.855437,"transit":false},{"is_transit":false,"transit":false,"i_long":106.861737,"time":2,"station_id":"POK","station_name":"Pondok Jati","i_lat":-6.209188,"line":11,"distance":1829},{"i_lat":-6.215091,"i_long":106.86807400000001,"time":9,"station_id":"JNG","line":1,"transit":true,"is_transit":true,"distance":1236,"station_name":"Jatinegara"},{"i_long":106.858896,"station_name":"Matraman","time":2,"distance":1377,"station_id":"MTR","is_transit":false,"transit":false,"i_lat":-6.212485,"line":1},{"distance":1275,"transit":true,"i_long":106.84912,"station_id":"MRI","line":2,"station_name":"Manggarai","is_transit":true,"i_lat":-6.209883,"time":2},{"time":4,"i_long":106.840169,"transit":false,"is_transit":false,"station_id":"CKI","distance":1590,"station_name":"Cikini","i_lat":-6.198556,"line":2},{"line":2,"distance":1750,"time":3,"i_lat":-6.186295,"station_name":"Gondangdia","is_transit":false,"i_long":106.832183,"station_id":"GDD","transit":false},{"distance":2015,"i_lat":-6.166716,"station_id":"JUA","station_name":"Juanda","line":2,"transit":false,"is_transit":false,"time":4,"i_long":106.828284},{"transit":false,"station_name":"Sawah Besar","time":2,"i_lat":-6.160725,"i_long":106.827103,"line":2,"station_id":"SW","is_transit":false,"distance":1149},{"distance":906,"time":2,"station_id":"MGB","is_transit":false,"i_lat":-6.149769,"i_long":106.82482,"line":2,"transit":false,"station_name":"Manggabesar"},{"i_long":106.820901,"time":2,"distance":1080,"station_id":"JAY","transit":false,"is_transit":false,"i_lat":-6.141205,"line":2,"station_name":"Jayakarta"},{"distance":1264,"station_id":"JAKK","station_name":"Jakarta Kota","time":4,"is_transit":true,"transit":true,"i_long":106.812439,"line":2,"i_lat":-6.137569},{"distance":1364,"station_name":"Kampung Bandan","transit":false,"station_id":"KPB","i_long":106.826365,"is_transit":false,"line":4,"i_lat":-6.132549,"time":3}]]}