{"data":[[{"i_long":106.836569,"distance":0,"time":0,"is_transit":false,"line":11,"station_name":"Rajawali","i_lat":-6.14505,"transit":false,"station_id":"RJW"},{"station_name":"Kampung Bandan","time":3,"transit":true,"i_long":106.826365,"line":4,"station_id":"KPB","i_lat":-6.132549,"distance":1444,"is_transit":true},{"i_lat":-6.144674,"station_name":"Angke","transit":false,"time":9,"distance":4102,"i_long":106.79867,"is_transit":false,"station_id":"AK","line":1},{"station_id":"DU","station_name":"Duri","i_lat":-6.155215,"i_long":106.800832,"line":1,"time":4,"distance":1230,"is_transit":false,"transit":false},{"transit":true,"station_name":"Tanah Abang","i_long":106.811091,"time":8,"i_lat":-6.185545,"line":1,"distance":3632,"is_transit":true,"station_id":"THB"},{"is_transit":false,"time":6,"station_id":"PLM","distance":3191,"station_name":"Palmerah","line":6,"i_lat":-6.207404,"i_long":106.79689,"transit":false},{"distance":3737,"time":7,"is_transit":false,"i_long":106.780334,"line":6,"station_id":"KBY","transit":false,"station_name":"Kebayoran","i_lat":-6.237242}],[{"i_lat":-6.14505,"i_long":106.836569,"line":11,"is_transit":false,"station_id":"RJW","transit":false,"station_name":"Rajawali","distance":0,"time":0},{"transit":false,"i_long":106.839204,"station_name":"Kemayoran","i_lat":-6.161728,"time":5,"distance":1901,"is_transit":false,"station_id":"KMO","line":11},{"line":11,"is_transit":false,"time":4,"station_name":"Pasar Senen","transit":false,"station_id":"PSE","distance":1436,"i_lat":-6.174784,"i_long":106.84368},{"i_long":106.850107,"transit":false,"station_id":"GST","station_name":"Gang Sentiong","time":8,"is_transit":false,"i_lat":-6.185975,"line":11,"distance":1567},{"distance":973,"is_transit":false,"i_lat":-6.193792,"i_long":106.855437,"station_name":"Kramat","time":1,"station_id":"KMT","transit":false,"line":11},{"i_long":106.861737,"i_lat":-6.209188,"is_transit":false,"time":2,"station_name":"Pondok Jati","line":11,"transit":false,"station_id":"POK","distance":1829},{"distance":1236,"is_transit":true,"line":1,"time":9,"station_id":"JNG","i_lat":-6.215091,"i_long":106.86807400000001,"station_name":"Jatinegara","transit":true},{"i_lat":-6.212485,"i_long":106.858896,"transit":false,"line":1,"distance":1377,"station_id":"MTR","is_transit":false,"station_name":"Matraman","time":2},{"is_transit":false,"i_long":106.84912,"station_name":"Manggarai","station_id":"MRI","transit":false,"distance":1275,"time":2,"i_lat":-6.209883,"line":2},{"distance":3186,"time":4,"station_id":"SUD","is_transit":false,"i_long":106.822649,"station_name":"Sudirman","line":1,"transit":false,"i_lat":-6.202263},{"i_lat":-6.201433,"station_name":"Sudirman Baru","i_long":106.819881,"is_transit":false,"line":1,"distance":280,"transit":false,"station_id":"SUDB","time":1},{"transit":false,"station_id":"KAT","distance":471,"station_name":"Karet","is_transit":false,"i_lat":-6.20132,"time":1,"i_long":106.816351,"line":1},{"station_id":"THB","is_transit":true,"distance":2029,"i_long":106.811091,"i_lat":-6.185545,"time":5,"line":1,"transit":true,"station_name":"Tanah Abang"},{"time":6,"is_transit":false,"distance":3191,"i_long":106.79689,"i_lat":-6.207404,"line":6,"transit":false,"station_id":"PLM","station_name":"Palmerah"},{"line":6,"time":7,"transit":false,"distance":3737,"station_id":"KBY","is_transit":false,"i_lat":-6.237242,"i_long":106.780334,"station_name":"Kebayoran"}],[{"distance":0,"station_id":"RJW","station_name":"Rajawali","time":0,"is_transit":false,"transit":false,"i_long":106.836569,"line":11,"i_lat":-6.14505},{"station_name":"Kampung Bandan","line":4,"is_transit":true,"transit":true,"i_lat":-6.132549,"distance":1444,"station_id":"KPB","i_long":106.826365,"time":3},{"transit":true,"station_id":"JAKK","line":2,"i_lat":-6.137569,"is_transit":true,"station_name":"Jakarta Kota","distance":1364,"time":3,"i_long":106.812439},{"distance":1264,"i_lat":-6.141205,"transit":false,"station_name":"Jayakarta","i_long":106.820901,"is_transit":false,"line":2,"station_id":"JAY","time":4},{"transit":false,"station_name":"Manggabesar","is_transit":false,"i_long":106.82482,"line":2,"station_id":"MGB","i_lat":-6.149769,"distance":1080,"time":2},{"station_name":"Sawah Besar","i_lat":-6.160725,"station_id":"SW","i_long":106.827103,"is_transit":false,"time":2,"transit":false,"distance":906,"line":2},{"is_transit":false,"i_long":106.828284,"distance":1149,"station_name":"Juanda","transit":false,"time":2,"station_id":"JUA","i_lat":-6.166716,"line":2},{"station_name":"Gondangdia","i_long":106.832183,"i_lat":-6.186295,"distance":2015,"station_id":"GDD","is_transit":false,"transit":false,"time":4,"line":2},{"i_lat":-6.198556,"station_name":"Cikini","i_long":106.840169,"station_id":"CKI","is_transit":false,"distance":1750,"time":3,"transit":false,"line":2},{"station_name":"Manggarai","i_lat":-6.209883,"is_transit":true,"i_long":106.84912,"time":4,"station_id":"MRI","line":2,"distance":1590,"transit":true},{"time":4,"i_lat":-6.202263,"i_long":106.822649,"distance":3186,"is_transit":false,"transit":false,"station_name":"Sudirman","station_id":"SUD","line":1},{"time":1,"transit":false,"station_id":"SUDB","station_name":"Sudirman Baru","line":1,"i_long":106.819881,"i_lat":-6.201433,"is_transit":false,"distance":280},{"i_lat":-6.20132,"distance":471,"time":1,"is_transit":false,"transit":false,"station_id":"KAT","i_long":106.816351,"station_name":"Karet","line":1},{"station_name":"Tanah Abang","time":5,"i_lat":-6.185545,"is_transit":true,"i_long":106.811091,"line":1,"distance":2029,"station_id":"THB","transit":true},{"time":6,"is_transit":false,"distance":3191,"i_lat":-6.207404,"line":6,"station_name":"Palmerah","transit":false,"i_long":106.79689,"station_id":"PLM"},{"distance":3737,"time":7,"station_id":"KBY","is_transit":false,"transit":false,"i_long":106.780334,"i_lat":-6.237242,"station_name":"Kebayoran","line":6}],[{"i_long":106.836569,"line":11,"transit":false,"station_id":"RJW","is_transit":false,"time":0,"station_name":"Rajawali","i_lat":-6.14505,"distance":0},{"is_transit":false,"station_name":"Kemayoran","time":5,"station_id":"KMO","transit":false,"i_lat":-6.161728,"i_long":106.839204,"distance":1901,"line":11},{"i_long":106.84368,"distance":1436,"is_transit":false,"transit":false,"i_lat":-6.174784,"station_id":"PSE","station_name":"Pasar Senen","time":4,"line":11},{"time":8,"distance":1567,"is_transit":false,"transit":false,"station_name":"Gang Sentiong","station_id":"GST","i_lat":-6.185975,"line":11,"i_long":106.850107},{"is_transit":false,"i_lat":-6.193792,"station_name":"Kramat","line":11,"i_long":106.855437,"time":1,"transit":false,"distance":973,"station_id":"KMT"},{"station_id":"POK","transit":false,"distance":1829,"is_transit":false,"station_name":"Pondok Jati","i_long":106.861737,"i_lat":-6.209188,"line":11,"time":2},{"distance":1236,"time":9,"station_id":"JNG","station_name":"Jatinegara","i_lat":-6.215091,"i_long":106.86807400000001,"line":1,"is_transit":true,"transit":true},{"time":2,"i_long":106.858896,"transit":false,"distance":1377,"is_transit":false,"station_id":"MTR","station_name":"Matraman","i_lat":-6.212485,"line":1},{"station_name":"Manggarai","line":2,"distance":1275,"is_transit":true,"station_id":"MRI","transit":true,"i_lat":-6.209883,"time":2,"i_long":106.84912},{"station_id":"CKI","time":4,"is_transit":false,"distance":1590,"i_lat":-6.198556,"i_long":106.840169,"station_name":"Cikini","transit":false,"line":2},{"is_transit":false,"station_name":"Gondangdia","i_long":106.832183,"i_lat":-6.186295,"line":2,"distance":1750,"station_id":"GDD","time":3,"transit":false},{"transit":false,"is_transit":false,"station_name":"Juanda","i_lat":-6.166716,"distance":2015,"line":2,"i_long":106.828284,"station_id":"JUA","time":4},{"is_transit":false,"station_name":"Sawah Besar","i_long":106.827103,"time":2,"i_lat":-6.160725,"distance":1149,"station_id":"SW","line":2,"transit":false},{"line":2,"i_lat":-6.149769,"is_transit":false,"station_id":"MGB","station_name":"Manggabesar","time":2,"distance":906,"transit":false,"i_long":106.82482},{"time":2,"station_name":"Jayakarta","i_lat":-6.141205,"i_long":106.820901,"line":2,"station_id":"JAY","is_transit":false,"distance":1080,"transit":false},{"i_long":106.812439,"station_name":"Jakarta Kota","is_transit":true,"distance":1264,"station_id":"JAKK","i_lat":-6.137569,"line":2,"transit":true,"time":4},{"station_name":"Kampung Bandan","distance":1364,"time":3,"is_transit":true,"transit":true,"i_lat":-6.132549,"i_long":106.826365,"line":4,"station_id":"KPB"},{"transit":false,"distance":4102,"is_transit":false,"i_long":106.79867,"line":1,"i_lat":-6.144674,"station_id":"AK","station_name":"Angke","time":9},{"station_id":"DU","is_transit":false,"i_long":106.800832,"line":1,"distance":1230,"time":4,"i_lat":-6.155215,"transit":false,"station_name":"Duri"},{"transit":true,"line":1,"station_name":"Tanah Abang","is_transit":true,"i_lat":-6.185545,"time":8,"distance":3632,"i_long":106.811091,"station_id":"THB"},{"distance":3191,"is_transit":false,"i_lat":-6.207404,"i_long":106.79689,"transit":false,"station_id":"PLM","time":6,"station_name":"Palmerah","line":6},{"is_transit":false,"distance":3737,"i_long":106.780334,"station_name":"Kebayoran","station_id":"KBY","i_lat":-6.237242,"line":6,"transit":false,"time":7}]]}