{"data":[[{"i_long":106.836569,"transit":false,"station_name":"Rajawali","time":0,"station_id":"RJW","is_transit":false,"i_lat":-6.14505,"distance":0,"line":11},{"is_transit":false,"i_lat":-6.161728,"transit":false,"time":5,"line":11,"station_name":"Kemayoran","station_id":"KMO","i_long":106.839204,"distance":1901},{"i_lat":-6.174784,"i_long":106.84368,"transit":false,"distance":1436,"line":11,"station_name":"Pasar Senen","station_id":"PSE","is_transit":false,"time":4},{"is_transit":false,"line":11,"transit":false,"i_long":106.850107,"distance":1567,"station_id":"GST","station_name":"Gang Sentiong","i_lat":-6.185975,"time":8},{"transit":false,"is_transit":false,"i_long":106.855437,"station_name":"Kramat","i_lat":-6.193792,"line":11,"station_id":"KMT","time":1,"distance":973},{"station_name":"Pondok Jati","distance":1829,"is_transit":false,"transit":false,"i_lat":-6.209188,"line":11,"i_long":106.861737,"station_id":"POK","time":2},{"line":0,"is_transit":true,"station_name":"Jatinegara","transit":true,"distance":1236,"station_id":"JNG","time":9,"i_long":106.86807400000001,"i_lat":-6.215091},{"station_id":"MTR","line":1,"transit":false,"i_lat":-6.212485,"station_name":"Matraman","is_transit":false,"time":2,"distance":1377,"i_long":106.858896},{"station_name":"Manggarai","is_transit":true,"transit":true,"line":0,"i_lat":-6.209883,"i_long":106.84912,"time":2,"station_id":"MRI","distance":1275},{"distance":2610,"time":4,"is_transit":false,"line":2,"i_lat":-6.226659,"i_long":106.857948,"station_id":"TEB","station_name":"Tebet","transit":false},{"line":0,"is_transit":false,"station_id":"CW","distance":1230,"station_name":"Cawang","transit":false,"time":2,"i_long":106.856607,"i_lat":-6.242512},{"station_name":"Duren Kalibata","line":0,"distance":1546,"i_long":106.85449,"transit":false,"is_transit":false,"time":3,"i_lat":-6.255332,"station_id":"DRN"},{"i_lat":-6.263214,"transit":false,"time":2,"distance":824,"i_long":106.851577,"station_id":"PSMB","is_transit":false,"line":2,"station_name":"Pasar Minggu Baru"}],[{"station_name":"Rajawali","line":11,"distance":0,"transit":false,"time":0,"is_transit":false,"i_long":106.836569,"i_lat":-6.14505,"station_id":"RJW"},{"time":3,"station_id":"KPB","station_name":"Kampung Bandan","transit":true,"distance":1444,"i_long":106.826365,"is_transit":true,"i_lat":-6.132549,"line":0},{"transit":false,"station_id":"AK","time":9,"i_lat":-6.144674,"line":0,"station_name":"Angke","i_long":106.79867,"distance":4102,"is_transit":false},{"line":1,"distance":1230,"i_long":106.800832,"transit":true,"i_lat":-6.155215,"time":4,"station_name":"Duri","is_transit":true,"station_id":"DU"},{"is_transit":true,"line":1,"i_lat":-6.185545,"station_id":"THB","station_name":"Tanah Abang","i_long":106.811091,"distance":3632,"transit":false,"time":8},{"station_name":"Karet","transit":false,"i_lat":-6.20132,"station_id":"KAT","time":5,"i_long":106.816351,"line":1,"is_transit":false,"distance":2029},{"transit":false,"time":1,"i_long":106.819881,"line":1,"station_id":"SUDB","is_transit":false,"i_lat":-6.201433,"station_name":"Sudirman Baru","distance":471},{"transit":false,"line":1,"station_id":"SUD","i_lat":-6.202263,"time":1,"distance":280,"is_transit":false,"station_name":"Sudirman","i_long":106.822649},{"is_transit":true,"line":0,"i_long":106.84912,"distance":3186,"i_lat":-6.209883,"station_id":"MRI","time":4,"station_name":"Manggarai","transit":true},{"i_long":106.857948,"time":4,"station_name":"Tebet","transit":false,"i_lat":-6.226659,"line":2,"distance":2610,"station_id":"TEB","is_transit":false},{"station_id":"CW","time":2,"i_lat":-6.242512,"i_long":106.856607,"transit":false,"line":0,"station_name":"Cawang","distance":1230,"is_transit":false},{"time":3,"distance":1546,"line":0,"station_name":"Duren Kalibata","i_lat":-6.255332,"is_transit":false,"station_id":"DRN","transit":false,"i_long":106.85449},{"station_id":"PSMB","station_name":"Pasar Minggu Baru","time":2,"i_lat":-6.263214,"line":2,"is_transit":false,"transit":false,"i_long":106.851577,"distance":824}],[{"is_transit":false,"station_id":"RJW","i_long":106.836569,"transit":false,"distance":0,"i_lat":-6.14505,"line":11,"time":0,"station_name":"Rajawali"},{"time":3,"is_transit":true,"station_id":"KPB","distance":1444,"transit":true,"station_name":"Kampung Bandan","i_long":106.826365,"line":0,"i_lat":-6.132549},{"transit":true,"line":0,"distance":1364,"is_transit":true,"station_id":"JAKK","station_name":"Jakarta Kota","time":3,"i_lat":-6.137569,"i_long":106.812439},{"distance":1264,"station_id":"JAY","station_name":"Jayakarta","line":7,"i_long":106.820901,"transit":false,"is_transit":false,"time":4,"i_lat":-6.141205},{"transit":false,"i_lat":-6.149769,"time":2,"station_id":"MGB","station_name":"Manggabesar","line":2,"distance":1080,"i_long":106.82482,"is_transit":false},{"station_id":"SW","station_name":"Sawah Besar","time":2,"is_transit":false,"i_lat":-6.160725,"transit":false,"distance":906,"i_long":106.827103,"line":2},{"time":2,"transit":false,"i_lat":-6.166716,"is_transit":false,"station_name":"Juanda","distance":1149,"i_long":106.828284,"line":2,"station_id":"JUA"},{"time":4,"i_lat":-6.186295,"is_transit":false,"station_name":"Gondangdia","station_id":"GDD","line":2,"distance":2015,"transit":false,"i_long":106.832183},{"distance":1750,"is_transit":false,"transit":false,"time":3,"i_long":106.840169,"line":0,"station_id":"CKI","station_name":"Cikini","i_lat":-6.198556},{"transit":true,"station_id":"MRI","distance":1590,"station_name":"Manggarai","is_transit":true,"i_lat":-6.209883,"i_long":106.84912,"line":0,"time":4},{"i_long":106.857948,"is_transit":false,"time":4,"station_id":"TEB","transit":false,"station_name":"Tebet","i_lat":-6.226659,"line":2,"distance":2610},{"transit":false,"time":2,"station_name":"Cawang","distance":1230,"line":0,"station_id":"CW","is_transit":false,"i_lat":-6.242512,"i_long":106.856607},{"distance":1546,"transit":false,"i_lat":-6.255332,"line":0,"is_transit":false,"i_long":106.85449,"station_id":"DRN","station_name":"Duren Kalibata","time":3},{"i_lat":-6.263214,"distance":824,"station_name":"Pasar Minggu Baru","is_transit":false,"i_long":106.851577,"transit":false,"time":2,"line":2,"station_id":"PSMB"}]]}