{"data":[[{"transit":false,"line":11,"distance":0,"is_transit":false,"time":0,"i_lat":-6.14505,"station_id":"RJW","i_long":106.836569,"station_name":"Rajawali"},{"i_long":106.826365,"transit":true,"station_id":"KPB","is_transit":true,"i_lat":-6.132549,"line":4,"station_name":"Kampung Bandan","time":3,"distance":1444},{"station_name":"Angke","time":9,"station_id":"AK","distance":4102,"is_transit":false,"line":1,"transit":false,"i_lat":-6.144674,"i_long":106.79867},{"i_long":106.800832,"line":1,"is_transit":false,"time":4,"station_id":"DU","station_name":"Duri","transit":false,"i_lat":-6.155215,"distance":1230},{"time":8,"transit":true,"line":1,"station_name":"Tanah Abang","is_transit":true,"distance":3632,"station_id":"THB","i_lat":-6.185545,"i_long":106.811091},{"i_lat":-6.207404,"transit":false,"is_transit":false,"distance":3191,"station_id":"PLM","station_name":"Palmerah","time":6,"i_long":106.79689,"line":6},{"station_name":"Kebayoran","is_transit":false,"transit":false,"i_lat":-6.237242,"i_long":106.780334,"line":6,"distance":3737,"station_id":"KBY","time":7},{"time":8,"station_id":"PDJ","is_transit":false,"transit":false,"i_lat":-6.276362,"station_name":"Pondokranji","i_long":106.74273,"line":6,"distance":6218},{"station_name":"Jurangmangu","distance":2179,"station_id":"JMU","i_long":106.728916,"i_lat":-6.288927,"transit":false,"line":6,"is_transit":false,"time":3},{"line":6,"time":4,"station_name":"Sudimara","station_id":"SDM","transit":false,"distance":1994,"i_lat":-6.296963,"is_transit":false,"i_long":106.712277},{"distance":4566,"i_long":106.675475,"transit":false,"station_name":"Rawa Buntu","is_transit":false,"station_id":"RU","time":6,"i_lat":-6.314823,"line":6},{"i_lat":-6.319871,"transit":false,"time":4,"station_name":"Serpong","is_transit":false,"station_id":"SRP","i_long":106.66566,"distance":2413,"line":6},{"transit":false,"i_lat":-6.32484,"i_long":106.640411,"line":3,"station_id":"CSK","station_name":"Cisauk","is_transit":false,"distance":1784,"time":4},{"line":3,"distance":2519,"station_id":"CC","i_lat":-6.329547,"station_name":"Cicayur","transit":false,"is_transit":false,"time":4,"i_long":106.617853},{"time":8,"i_lat":-6.3441410000000005,"transit":false,"distance":5968,"station_name":"Parung Panjang","i_long":106.568863,"is_transit":false,"station_id":"PRP","line":6},{"transit":false,"time":9,"is_transit":false,"line":3,"station_name":"Cilejit","distance":7025,"i_lat":-6.354349,"i_long":106.508482,"station_id":"CJT"},{"transit":false,"line":0,"i_long":106.491338,"is_transit":false,"i_lat":-6.338021,"distance":2675,"time":6,"station_name":"Daru","station_id":"DAR"},{"transit":false,"i_long":106.460812,"station_id":"TEJ","is_transit":false,"time":5,"distance":3902,"station_name":"Tenjo","i_lat":-6.327251,"line":6},{"transit":false,"i_lat":-6.328533,"i_long":106.425991,"time":5,"is_transit":false,"distance":2974,"line":6,"station_id":"TGS","station_name":"Tigaraksa"}],[{"station_id":"RJW","station_name":"Rajawali","line":11,"time":0,"i_lat":-6.14505,"i_long":106.836569,"is_transit":false,"transit":false,"distance":0},{"station_id":"KMO","is_transit":false,"i_long":106.839204,"distance":1901,"station_name":"Kemayoran","transit":false,"time":5,"i_lat":-6.161728,"line":11},{"time":4,"station_id":"PSE","transit":false,"station_name":"Pasar Senen","i_long":106.84368,"is_transit":false,"line":11,"distance":1436,"i_lat":-6.174784},{"i_long":106.850107,"is_transit":false,"distance":1567,"time":8,"line":11,"i_lat":-6.185975,"station_name":"Gang Sentiong","station_id":"GST","transit":false},{"distance":973,"station_id":"KMT","time":1,"i_lat":-6.193792,"transit":false,"i_long":106.855437,"line":11,"is_transit":false,"station_name":"Kramat"},{"station_name":"Pondok Jati","distance":1829,"i_long":106.861737,"station_id":"POK","transit":false,"is_transit":false,"time":2,"i_lat":-6.209188,"line":11},{"i_lat":-6.215091,"i_long":106.86807400000001,"is_transit":true,"transit":true,"station_id":"JNG","station_name":"Jatinegara","distance":1236,"line":1,"time":9},{"station_name":"Matraman","i_lat":-6.212485,"time":2,"line":1,"i_long":106.858896,"distance":1377,"transit":false,"station_id":"MTR","is_transit":false},{"time":2,"line":2,"i_long":106.84912,"is_transit":false,"transit":false,"station_name":"Manggarai","distance":1275,"i_lat":-6.209883,"station_id":"MRI"},{"time":4,"transit":false,"station_name":"Sudirman","i_lat":-6.202263,"is_transit":false,"i_long":106.822649,"line":1,"station_id":"SUD","distance":3186},{"line":1,"transit":false,"station_name":"Sudirman Baru","is_transit":false,"distance":280,"station_id":"SUDB","i_long":106.819881,"time":1,"i_lat":-6.201433},{"station_name":"Karet","station_id":"KAT","i_long":106.816351,"time":1,"transit":false,"i_lat":-6.20132,"is_transit":false,"distance":471,"line":1},{"time":5,"distance":2029,"i_long":106.811091,"i_lat":-6.185545,"station_id":"THB","line":1,"transit":true,"station_name":"Tanah Abang","is_transit":true},{"time":6,"i_lat":-6.207404,"station_id":"PLM","is_transit":false,"i_long":106.79689,"transit":false,"station_name":"Palmerah","line":6,"distance":3191},{"transit":false,"is_transit":false,"station_id":"KBY","time":7,"distance":3737,"line":6,"i_long":106.780334,"station_name":"Kebayoran","i_lat":-6.237242},{"distance":6218,"i_long":106.74273,"station_id":"PDJ","transit":false,"station_name":"Pondokranji","is_transit":false,"time":8,"line":6,"i_lat":-6.276362},{"transit":false,"is_transit":false,"station_name":"Jurangmangu","time":3,"station_id":"JMU","distance":2179,"i_lat":-6.288927,"line":6,"i_long":106.728916},{"station_name":"Sudimara","distance":1994,"line":6,"time":4,"is_transit":false,"station_id":"SDM","transit":false,"i_long":106.712277,"i_lat":-6.296963},{"station_name":"Rawa Buntu","i_long":106.675475,"line":6,"i_lat":-6.314823,"is_transit":false,"time":6,"distance":4566,"station_id":"RU","transit":false},{"time":4,"station_name":"Serpong","i_long":106.66566,"distance":2413,"station_id":"SRP","line":6,"is_transit":false,"i_lat":-6.319871,"transit":false},{"line":3,"transit":false,"distance":1784,"i_long":106.640411,"station_name":"Cisauk","is_transit":false,"i_lat":-6.32484,"station_id":"CSK","time":4},{"line":3,"is_transit":false,"transit":false,"time":4,"i_lat":-6.329547,"station_id":"CC","station_name":"Cicayur","distance":2519,"i_long":106.617853},{"transit":false,"distance":5968,"time":8,"station_id":"PRP","i_long":106.568863,"is_transit":false,"line":6,"station_name":"Parung Panjang","i_lat":-6.3441410000000005},{"line":3,"i_lat":-6.354349,"transit":false,"station_name":"Cilejit","is_transit":false,"distance":7025,"station_id":"CJT","time":9,"i_long":106.508482},{"station_id":"DAR","transit":false,"is_transit":false,"i_long":106.491338,"station_name":"Daru","time":6,"distance":2675,"i_lat":-6.338021,"line":0},{"distance":3902,"i_lat":-6.327251,"i_long":106.460812,"line":6,"station_id":"TEJ","transit":false,"station_name":"Tenjo","is_transit":false,"time":5},{"station_name":"Tigaraksa","distance":2974,"station_id":"TGS","is_transit":false,"i_lat":-6.328533,"transit":false,"time":5,"i_long":106.425991,"line":6}],[{"is_transit":false,"i_lat":-6.14505,"transit":false,"station_id":"RJW","line":11,"time":0,"distance":0,"station_name":"Rajawali","i_long":106.836569},{"time":3,"station_id":"KPB","transit":true,"station_name":"Kampung Bandan","i_long":106.826365,"is_transit":true,"i_lat":-6.132549,"distance":1444,"line":4},{"is_transit":true,"station_name":"Jakarta Kota","i_long":106.812439,"station_id":"JAKK","time":3,"line":2,"i_lat":-6.137569,"transit":true,"distance":1364},{"i_lat":-6.141205,"i_long":106.820901,"distance":1264,"time":4,"line":2,"transit":false,"station_name":"Jayakarta","is_transit":false,"station_id":"JAY"},{"i_lat":-6.149769,"line":2,"transit":false,"station_name":"Manggabesar","distance":1080,"time":2,"i_long":106.82482,"is_transit":false,"station_id":"MGB"},{"station_id":"SW","is_transit":false,"station_name":"Sawah Besar","transit":false,"i_lat":-6.160725,"i_long":106.827103,"time":2,"line":2,"distance":906},{"station_name":"Juanda","line":2,"time":2,"is_transit":false,"i_lat":-6.166716,"station_id":"JUA","transit":false,"i_long":106.828284,"distance":1149},{"line":2,"time":4,"station_id":"GDD","station_name":"Gondangdia","distance":2015,"i_long":106.832183,"is_transit":false,"i_lat":-6.186295,"transit":false},{"station_name":"Cikini","transit":false,"distance":1750,"is_transit":false,"i_long":106.840169,"i_lat":-6.198556,"station_id":"CKI","line":2,"time":3},{"time":4,"i_lat":-6.209883,"transit":true,"station_name":"Manggarai","is_transit":true,"distance":1590,"line":2,"station_id":"MRI","i_long":106.84912},{"i_lat":-6.202263,"is_transit":false,"time":4,"station_name":"Sudirman","transit":false,"distance":3186,"station_id":"SUD","i_long":106.822649,"line":1},{"line":1,"is_transit":false,"time":1,"i_lat":-6.201433,"i_long":106.819881,"station_name":"Sudirman Baru","station_id":"SUDB","transit":false,"distance":280},{"is_transit":false,"line":1,"transit":false,"station_name":"Karet","time":1,"distance":471,"i_long":106.816351,"station_id":"KAT","i_lat":-6.20132},{"is_transit":true,"station_id":"THB","i_lat":-6.185545,"i_long":106.811091,"station_name":"Tanah Abang","time":5,"line":1,"distance":2029,"transit":true},{"i_long":106.79689,"is_transit":false,"time":6,"i_lat":-6.207404,"distance":3191,"line":6,"station_id":"PLM","transit":false,"station_name":"Palmerah"},{"distance":3737,"station_id":"KBY","i_lat":-6.237242,"i_long":106.780334,"line":6,"is_transit":false,"station_name":"Kebayoran","time":7,"transit":false},{"transit":false,"i_long":106.74273,"is_transit":false,"distance":6218,"i_lat":-6.276362,"line":6,"station_id":"PDJ","station_name":"Pondokranji","time":8},{"station_name":"Jurangmangu","station_id":"JMU","i_long":106.728916,"i_lat":-6.288927,"time":3,"transit":false,"distance":2179,"line":6,"is_transit":false},{"station_name":"Sudimara","i_lat":-6.296963,"station_id":"SDM","time":4,"is_transit":false,"distance":1994,"i_long":106.712277,"line":6,"transit":false},{"i_long":106.675475,"station_name":"Rawa Buntu","station_id":"RU","is_transit":false,"time":6,"transit":false,"distance":4566,"line":6,"i_lat":-6.314823},{"transit":false,"distance":2413,"station_id":"SRP","is_transit":false,"station_name":"Serpong","time":4,"line":6,"i_lat":-6.319871,"i_long":106.66566},{"distance":1784,"time":4,"station_id":"CSK","line":3,"transit":false,"station_name":"Cisauk","is_transit":false,"i_lat":-6.32484,"i_long":106.640411},{"i_lat":-6.329547,"time":4,"is_transit":false,"distance":2519,"i_long":106.617853,"transit":false,"station_name":"Cicayur","station_id":"CC","line":3},{"line":6,"time":8,"station_id":"PRP","station_name":"Parung Panjang","distance":5968,"transit":false,"is_transit":false,"i_lat":-6.3441410000000005,"i_long":106.568863},{"line":3,"i_long":106.508482,"distance":7025,"i_lat":-6.354349,"station_id":"CJT","station_name":"Cilejit","is_transit":false,"time":9,"transit":false},{"line":0,"i_long":106.491338,"station_id":"DAR","i_lat":-6.338021,"is_transit":false,"time":6,"transit":false,"distance":2675,"station_name":"Daru"},{"transit":false,"i_lat":-6.327251,"line":6,"is_transit":false,"distance":3902,"time":5,"i_long":106.460812,"station_id":"TEJ","station_name":"Tenjo"},{"time":5,"is_transit":false,"line":6,"transit":false,"i_long":106.425991,"station_id":"TGS","distance":2974,"station_name":"Tigaraksa","i_lat":-6.328533}],[{"is_transit":false,"station_id":"RJW","distance":0,"transit":false,"station_name":"Rajawali","i_long":106.836569,"line":11,"time":0,"i_lat":-6.14505},{"station_id":"KMO","transit":false,"i_lat":-6.161728,"station_name":"Kemayoran","time":5,"distance":1901,"i_long":106.839204,"line":11,"is_transit":false},{"i_long":106.84368,"distance":1436,"station_id":"PSE","time":4,"transit":false,"i_lat":-6.174784,"station_name":"Pasar Senen","is_transit":false,"line":11},{"station_id":"GST","distance":1567,"i_long":106.850107,"i_lat":-6.185975,"station_name":"Gang Sentiong","is_transit":false,"transit":false,"time":8,"line":11},{"line":11,"station_id":"KMT","transit":false,"distance":973,"i_lat":-6.193792,"is_transit":false,"time":1,"i_long":106.855437,"station_name":"Kramat"},{"i_lat":-6.209188,"station_id":"POK","distance":1829,"station_name":"Pondok Jati","i_long":106.861737,"is_transit":false,"line":11,"transit":false,"time":2},{"transit":true,"i_long":106.86807400000001,"time":9,"distance":1236,"i_lat":-6.215091,"line":1,"station_name":"Jatinegara","station_id":"JNG","is_transit":true},{"transit":false,"distance":1377,"line":1,"i_lat":-6.212485,"i_long":106.858896,"station_id":"MTR","station_name":"Matraman","time":2,"is_transit":false},{"is_transit":true,"line":2,"transit":true,"station_id":"MRI","i_lat":-6.209883,"station_name":"Manggarai","time":2,"i_long":106.84912,"distance":1275},{"station_name":"Cikini","station_id":"CKI","is_transit":false,"time":4,"transit":false,"line":2,"i_long":106.840169,"distance":1590,"i_lat":-6.198556},{"station_name":"Gondangdia","i_long":106.832183,"station_id":"GDD","i_lat":-6.186295,"time":3,"is_transit":false,"distance":1750,"line":2,"transit":false},{"transit":false,"station_id":"JUA","distance":2015,"is_transit":false,"line":2,"station_name":"Juanda","time":4,"i_long":106.828284,"i_lat":-6.166716},{"distance":1149,"transit":false,"is_transit":false,"i_long":106.827103,"i_lat":-6.160725,"line":2,"station_name":"Sawah Besar","station_id":"SW","time":2},{"line":2,"time":2,"distance":906,"i_lat":-6.149769,"i_long":106.82482,"station_name":"Manggabesar","station_id":"MGB","is_transit":false,"transit":false},{"station_name":"Jayakarta","i_lat":-6.141205,"is_transit":false,"distance":1080,"i_long":106.820901,"transit":false,"line":2,"station_id":"JAY","time":2},{"is_transit":true,"station_name":"Jakarta Kota","i_long":106.812439,"station_id":"JAKK","transit":true,"i_lat":-6.137569,"time":4,"distance":1264,"line":2},{"station_name":"Kampung Bandan","i_lat":-6.132549,"station_id":"KPB","line":4,"is_transit":true,"time":3,"distance":1364,"i_long":106.826365,"transit":true},{"i_lat":-6.144674,"transit":false,"i_long":106.79867,"line":1,"station_id":"AK","station_name":"Angke","is_transit":false,"distance":4102,"time":9},{"i_long":106.800832,"transit":false,"station_name":"Duri","is_transit":false,"station_id":"DU","distance":1230,"i_lat":-6.155215,"time":4,"line":1},{"transit":true,"time":8,"i_long":106.811091,"i_lat":-6.185545,"line":1,"station_id":"THB","is_transit":true,"station_name":"Tanah Abang","distance":3632},{"station_name":"Palmerah","i_long":106.79689,"line":6,"transit":false,"distance":3191,"station_id":"PLM","is_transit":false,"i_lat":-6.207404,"time":6},{"is_transit":false,"i_lat":-6.237242,"i_long":106.780334,"station_name":"Kebayoran","transit":false,"station_id":"KBY","time":7,"line":6,"distance":3737},{"i_lat":-6.276362,"line":6,"time":8,"is_transit":false,"station_id":"PDJ","transit":false,"station_name":"Pondokranji","distance":6218,"i_long":106.74273},{"distance":2179,"i_long":106.728916,"line":6,"station_id":"JMU","time":3,"i_lat":-6.288927,"transit":false,"station_name":"Jurangmangu","is_transit":false},{"distance":1994,"line":6,"station_id":"SDM","station_name":"Sudimara","i_lat":-6.296963,"i_long":106.712277,"transit":false,"is_transit":false,"time":4},{"transit":false,"i_lat":-6.314823,"time":6,"distance":4566,"station_name":"Rawa Buntu","i_long":106.675475,"is_transit":false,"line":6,"station_id":"RU"},{"station_id":"SRP","distance":2413,"station_name":"Serpong","line":6,"i_long":106.66566,"i_lat":-6.319871,"transit":false,"is_transit":false,"time":4},{"transit":false,"distance":1784,"i_long":106.640411,"station_name":"Cisauk","is_transit":false,"i_lat":-6.32484,"time":4,"station_id":"CSK","line":3},{"station_id":"CC","time":4,"i_lat":-6.329547,"station_name":"Cicayur","is_transit":false,"line":3,"transit":false,"distance":2519,"i_long":106.617853},{"station_name":"Parung Panjang","transit":false,"is_transit":false,"i_long":106.568863,"distance":5968,"time":8,"line":6,"i_lat":-6.3441410000000005,"station_id":"PRP"},{"time":9,"station_id":"CJT","distance":7025,"i_long":106.508482,"transit":false,"line":3,"is_transit":false,"station_name":"Cilejit","i_lat":-6.354349},{"is_transit":false,"line":0,"i_long":106.491338,"distance":2675,"transit":false,"station_id":"DAR","station_name":"Daru","time":6,"i_lat":-6.338021},{"time":5,"is_transit":false,"station_name":"Tenjo","distance":3902,"line":6,"transit":false,"i_long":106.460812,"station_id":"TEJ","i_lat":-6.327251},{"station_id":"TGS","i_long":106.425991,"station_name":"Tigaraksa","distance":2974,"is_transit":false,"transit":false,"time":5,"i_lat":-6.328533,"line":6}]]}