{"data":[[{"transit":false,"line":11,"station_name":"Rajawali","i_lat":-6.14505,"distance":0,"i_long":106.836569,"is_transit":false,"station_id":"RJW","time":0},{"station_name":"Kemayoran","distance":1901,"station_id":"KMO","i_lat":-6.161728,"time":5,"is_transit":false,"transit":false,"i_long":106.839204,"line":11},{"i_long":106.84368,"distance":1436,"time":4,"transit":false,"station_name":"Pasar Senen","station_id":"PSE","line":11,"i_lat":-6.174784,"is_transit":false},{"time":8,"transit":false,"line":11,"distance":1567,"station_name":"Gang Sentiong","i_lat":-6.185975,"i_long":106.850107,"is_transit":false,"station_id":"GST"},{"is_transit":false,"transit":false,"distance":973,"time":1,"i_long":106.855437,"line":11,"station_name":"Kramat","i_lat":-6.193792,"station_id":"KMT"},{"is_transit":false,"i_lat":-6.209188,"line":11,"transit":false,"station_name":"Pondok Jati","i_long":106.861737,"station_id":"POK","distance":1829,"time":2},{"transit":true,"station_name":"Jatinegara","time":9,"line":1,"i_lat":-6.215091,"station_id":"JNG","distance":1236,"i_long":106.86807400000001,"is_transit":true},{"is_transit":false,"transit":false,"i_lat":-6.212485,"station_name":"Matraman","time":2,"i_long":106.858896,"station_id":"MTR","distance":1377,"line":1},{"station_id":"MRI","line":2,"distance":1275,"transit":true,"i_long":106.84912,"is_transit":true,"i_lat":-6.209883,"time":2,"station_name":"Manggarai"},{"time":4,"is_transit":false,"i_lat":-6.226659,"distance":2610,"transit":false,"line":2,"station_id":"TEB","i_long":106.857948,"station_name":"Tebet"},{"i_lat":-6.242512,"station_id":"CW","is_transit":false,"station_name":"Cawang","i_long":106.856607,"line":2,"time":2,"transit":false,"distance":1230},{"time":3,"i_lat":-6.255332,"line":2,"i_long":106.85449,"station_name":"Duren Kalibata","station_id":"DRN","distance":1546,"transit":false,"is_transit":false},{"transit":false,"station_name":"Pasar Minggu Baru","i_long":106.851577,"i_lat":-6.263214,"time":2,"line":2,"station_id":"PSMB","distance":824,"is_transit":false},{"station_name":"Pasar Minggu","distance":2380,"transit":false,"i_lat":-6.2842400000000005,"time":2,"station_id":"PSM","is_transit":false,"i_long":106.843999,"line":2},{"station_id":"TNT","i_long":106.838896,"time":4,"line":2,"transit":false,"i_lat":-6.3080680000000005,"station_name":"Tanjung Barat","is_transit":false,"distance":2820},{"transit":false,"distance":2671,"i_long":106.832616,"time":3,"i_lat":-6.330363,"station_name":"Lenteng Agung","station_id":"LNA","line":2,"is_transit":false},{"time":2,"i_lat":-6.339291,"station_name":"Univ. Pancasila","distance":1029,"i_long":106.834175,"is_transit":false,"line":2,"station_id":"UP","transit":false},{"station_id":"UI","time":3,"distance":2264,"i_lat":-6.360749,"line":2,"station_name":"Univ. Indonesia","transit":false,"is_transit":false,"i_long":106.831474},{"station_id":"POC","distance":1109,"station_name":"Pondok Cina","i_lat":-6.369073,"is_transit":false,"transit":false,"line":2,"i_long":106.831114,"time":2},{"line":2,"transit":false,"time":4,"i_long":106.819451,"station_id":"DPB","i_lat":-6.391065,"station_name":"Depokbaru","is_transit":false,"distance":2727},{"transit":false,"time":3,"is_transit":false,"i_lat":-6.405256,"station_id":"DP","i_long":106.816926,"station_name":"Depok","line":2,"distance":1584},{"station_name":"Citayam","transit":false,"distance":5084,"line":2,"time":6,"i_long":106.800298,"i_lat":-6.448811,"is_transit":false,"station_id":"CTA"},{"station_name":"Bojonggede","time":5,"station_id":"BJD","line":2,"i_lat":-6.493243,"transit":false,"i_long":106.792719,"is_transit":false,"distance":5197}],[{"time":0,"i_lat":-6.14505,"is_transit":false,"station_name":"Rajawali","transit":false,"distance":0,"line":11,"i_long":106.836569,"station_id":"RJW"},{"is_transit":true,"time":3,"i_long":106.826365,"line":4,"i_lat":-6.132549,"distance":1444,"station_name":"Kampung Bandan","transit":true,"station_id":"KPB"},{"time":9,"station_name":"Angke","transit":false,"is_transit":false,"i_lat":-6.144674,"i_long":106.79867,"station_id":"AK","distance":4102,"line":1},{"time":4,"station_name":"Duri","distance":1230,"station_id":"DU","i_long":106.800832,"line":1,"i_lat":-6.155215,"is_transit":false,"transit":false},{"is_transit":false,"time":8,"i_lat":-6.185545,"distance":3632,"i_long":106.811091,"station_name":"Tanah Abang","transit":false,"station_id":"THB","line":1},{"i_long":106.816351,"line":1,"time":5,"station_name":"Karet","is_transit":false,"transit":false,"station_id":"KAT","distance":2029,"i_lat":-6.20132},{"is_transit":false,"station_name":"Sudirman Baru","i_lat":-6.201433,"distance":471,"i_long":106.819881,"time":1,"line":1,"transit":false,"station_id":"SUDB"},{"station_id":"SUD","i_lat":-6.202263,"i_long":106.822649,"transit":false,"distance":280,"station_name":"Sudirman","time":1,"is_transit":false,"line":1},{"distance":3186,"i_lat":-6.209883,"i_long":106.84912,"transit":true,"time":4,"line":2,"station_id":"MRI","is_transit":true,"station_name":"Manggarai"},{"is_transit":false,"distance":2610,"transit":false,"i_lat":-6.226659,"time":4,"i_long":106.857948,"line":2,"station_id":"TEB","station_name":"Tebet"},{"is_transit":false,"distance":1230,"i_lat":-6.242512,"line":2,"i_long":106.856607,"station_id":"CW","time":2,"station_name":"Cawang","transit":false},{"transit":false,"station_id":"DRN","station_name":"Duren Kalibata","time":3,"is_transit":false,"distance":1546,"i_lat":-6.255332,"i_long":106.85449,"line":2},{"line":2,"distance":824,"is_transit":false,"station_name":"Pasar Minggu Baru","i_long":106.851577,"time":2,"transit":false,"station_id":"PSMB","i_lat":-6.263214},{"transit":false,"station_id":"PSM","i_long":106.843999,"time":2,"is_transit":false,"distance":2380,"i_lat":-6.2842400000000005,"line":2,"station_name":"Pasar Minggu"},{"transit":false,"is_transit":false,"station_id":"TNT","i_lat":-6.3080680000000005,"station_name":"Tanjung Barat","distance":2820,"time":4,"line":2,"i_long":106.838896},{"is_transit":false,"station_name":"Lenteng Agung","time":3,"distance":2671,"i_lat":-6.330363,"line":2,"station_id":"LNA","i_long":106.832616,"transit":false},{"line":2,"distance":1029,"station_name":"Univ. Pancasila","transit":false,"i_lat":-6.339291,"station_id":"UP","i_long":106.834175,"is_transit":false,"time":2},{"i_lat":-6.360749,"line":2,"distance":2264,"is_transit":false,"transit":false,"station_id":"UI","station_name":"Univ. Indonesia","time":3,"i_long":106.831474},{"i_lat":-6.369073,"distance":1109,"line":2,"transit":false,"i_long":106.831114,"station_id":"POC","station_name":"Pondok Cina","is_transit":false,"time":2},{"time":4,"i_long":106.819451,"i_lat":-6.391065,"station_id":"DPB","transit":false,"line":2,"is_transit":false,"distance":2727,"station_name":"Depokbaru"},{"station_name":"Depok","transit":false,"station_id":"DP","i_long":106.816926,"is_transit":false,"distance":1584,"i_lat":-6.405256,"line":2,"time":3},{"time":6,"station_name":"Citayam","i_lat":-6.448811,"i_long":106.800298,"distance":5084,"station_id":"CTA","is_transit":false,"line":2,"transit":false},{"transit":false,"i_long":106.792719,"is_transit":false,"time":5,"station_id":"BJD","distance":5197,"i_lat":-6.493243,"line":2,"station_name":"Bojonggede"}],[{"station_name":"Rajawali","transit":false,"station_id":"RJW","is_transit":false,"i_lat":-6.14505,"distance":0,"line":11,"time":0,"i_long":106.836569},{"station_id":"KPB","is_transit":true,"i_lat":-6.132549,"i_long":106.826365,"time":3,"distance":1444,"station_name":"Kampung Bandan","line":4,"transit":true},{"time":3,"i_long":106.812439,"is_transit":true,"transit":true,"station_name":"Jakarta Kota","station_id":"JAKK","line":2,"distance":1364,"i_lat":-6.137569},{"i_lat":-6.141205,"distance":1264,"i_long":106.820901,"transit":false,"station_id":"JAY","time":4,"line":2,"station_name":"Jayakarta","is_transit":false},{"line":2,"transit":false,"distance":1080,"i_long":106.82482,"station_name":"Manggabesar","is_transit":false,"station_id":"MGB","time":2,"i_lat":-6.149769},{"time":2,"i_lat":-6.160725,"station_id":"SW","transit":false,"is_transit":false,"station_name":"Sawah Besar","distance":906,"i_long":106.827103,"line":2},{"is_transit":false,"station_name":"Juanda","i_lat":-6.166716,"time":2,"transit":false,"distance":1149,"station_id":"JUA","i_long":106.828284,"line":2},{"is_transit":false,"distance":2015,"i_lat":-6.186295,"transit":false,"station_name":"Gondangdia","line":2,"time":4,"station_id":"GDD","i_long":106.832183},{"transit":false,"time":3,"station_id":"CKI","line":2,"is_transit":false,"distance":1750,"i_long":106.840169,"station_name":"Cikini","i_lat":-6.198556},{"is_transit":false,"time":4,"station_id":"MRI","i_long":106.84912,"line":2,"station_name":"Manggarai","distance":1590,"transit":false,"i_lat":-6.209883},{"station_name":"Tebet","is_transit":false,"time":4,"distance":2610,"i_long":106.857948,"station_id":"TEB","transit":false,"i_lat":-6.226659,"line":2},{"transit":false,"is_transit":false,"distance":1230,"station_id":"CW","i_lat":-6.242512,"i_long":106.856607,"time":2,"line":2,"station_name":"Cawang"},{"is_transit":false,"i_long":106.85449,"line":2,"i_lat":-6.255332,"station_id":"DRN","distance":1546,"transit":false,"station_name":"Duren Kalibata","time":3},{"i_lat":-6.263214,"station_id":"PSMB","is_transit":false,"i_long":106.851577,"line":2,"time":2,"transit":false,"station_name":"Pasar Minggu Baru","distance":824},{"transit":false,"station_name":"Pasar Minggu","i_lat":-6.2842400000000005,"station_id":"PSM","line":2,"i_long":106.843999,"is_transit":false,"time":2,"distance":2380},{"station_id":"TNT","is_transit":false,"station_name":"Tanjung Barat","line":2,"i_lat":-6.3080680000000005,"time":4,"distance":2820,"transit":false,"i_long":106.838896},{"station_name":"Lenteng Agung","is_transit":false,"line":2,"transit":false,"i_lat":-6.330363,"i_long":106.832616,"distance":2671,"time":3,"station_id":"LNA"},{"is_transit":false,"station_id":"UP","distance":1029,"station_name":"Univ. Pancasila","i_long":106.834175,"time":2,"transit":false,"line":2,"i_lat":-6.339291},{"transit":false,"station_name":"Univ. Indonesia","i_lat":-6.360749,"is_transit":false,"distance":2264,"station_id":"UI","line":2,"time":3,"i_long":106.831474},{"transit":false,"i_lat":-6.369073,"station_id":"POC","is_transit":false,"i_long":106.831114,"line":2,"time":2,"station_name":"Pondok Cina","distance":1109},{"time":4,"distance":2727,"station_name":"Depokbaru","i_lat":-6.391065,"transit":false,"i_long":106.819451,"station_id":"DPB","is_transit":false,"line":2},{"station_id":"DP","is_transit":false,"i_long":106.816926,"time":3,"station_name":"Depok","distance":1584,"transit":false,"line":2,"i_lat":-6.405256},{"time":6,"is_transit":false,"station_name":"Citayam","distance":5084,"i_lat":-6.448811,"line":2,"transit":false,"station_id":"CTA","i_long":106.800298},{"is_transit":false,"line":2,"time":5,"station_name":"Bojonggede","station_id":"BJD","transit":false,"distance":5197,"i_lat":-6.493243,"i_long":106.792719}]]}