{"data":[[{"distance":0,"station_name":"Rajawali","transit":false,"line":11,"i_lat":-6.14505,"station_id":"RJW","i_long":106.836569,"time":0,"is_transit":false},{"station_name":"Kampung Bandan","transit":true,"line":4,"i_lat":-6.132549,"distance":1444,"i_long":106.826365,"station_id":"KPB","time":3,"is_transit":true},{"time":9,"line":1,"station_id":"AK","distance":4102,"i_long":106.79867,"station_name":"Angke","is_transit":false,"i_lat":-6.144674,"transit":false},{"distance":1230,"station_id":"DU","transit":true,"i_long":106.800832,"i_lat":-6.155215,"is_transit":true,"line":1,"time":4,"station_name":"Duri"},{"i_long":106.788277,"i_lat":-6.162021,"distance":1700,"station_id":"GGL","transit":false,"station_name":"Grogol","is_transit":false,"line":5,"time":3},{"i_lat":-6.161433,"station_id":"PSG","station_name":"Pesing","time":2,"line":5,"i_long":106.771379,"is_transit":false,"transit":false,"distance":2036},{"i_lat":-6.1587309999999995,"time":2,"transit":false,"is_transit":false,"i_long":106.756522,"distance":1614,"station_name":"Taman Kota","line":5,"station_id":"TKO"},{"distance":2334,"station_name":"Bojongindah","i_long":106.737035,"time":2,"is_transit":false,"transit":false,"i_lat":-6.159876,"station_id":"BOI","line":5},{"line":5,"station_name":"Rawa Buaya","time":4,"station_id":"RW","distance":1152,"is_transit":false,"i_long":106.723064,"transit":false,"i_lat":-6.162758},{"time":3,"station_id":"KDS","i_long":106.701612,"line":5,"is_transit":false,"station_name":"Kalideres","transit":false,"i_lat":-6.166068,"distance":2504},{"time":3,"transit":false,"i_lat":-6.169933,"station_id":"PI","i_long":106.679458,"line":5,"distance":2548,"is_transit":false,"station_name":"Poris"},{"distance":1834,"station_id":"BPR","is_transit":false,"i_lat":-6.171811,"i_long":106.665036,"line":5,"transit":false,"time":3,"station_name":"Batuceper"},{"station_id":"TTI","station_name":"Tanah Tinggi","transit":false,"i_long":106.64657,"line":5,"is_transit":false,"i_lat":-6.17331,"time":3,"distance":2028}],[{"is_transit":false,"station_name":"Rajawali","distance":0,"transit":false,"station_id":"RJW","time":0,"i_long":106.836569,"i_lat":-6.14505,"line":11},{"is_transit":false,"i_lat":-6.161728,"line":11,"station_name":"Kemayoran","transit":false,"distance":1901,"time":5,"station_id":"KMO","i_long":106.839204},{"time":4,"transit":false,"line":11,"distance":1436,"station_id":"PSE","station_name":"Pasar Senen","i_long":106.84368,"i_lat":-6.174784,"is_transit":false},{"time":8,"station_name":"Gang Sentiong","transit":false,"i_lat":-6.185975,"i_long":106.850107,"station_id":"GST","is_transit":false,"distance":1567,"line":11},{"line":11,"transit":false,"distance":973,"station_name":"Kramat","is_transit":false,"station_id":"KMT","i_lat":-6.193792,"time":1,"i_long":106.855437},{"distance":1829,"i_lat":-6.209188,"i_long":106.861737,"transit":false,"time":2,"station_id":"POK","is_transit":false,"line":11,"station_name":"Pondok Jati"},{"i_long":106.86807400000001,"station_id":"JNG","line":1,"i_lat":-6.215091,"time":9,"transit":true,"is_transit":true,"station_name":"Jatinegara","distance":1236},{"station_name":"Matraman","is_transit":false,"transit":false,"station_id":"MTR","time":2,"line":1,"i_lat":-6.212485,"i_long":106.858896,"distance":1377},{"time":2,"station_id":"MRI","is_transit":false,"i_lat":-6.209883,"i_long":106.84912,"transit":false,"distance":1275,"line":2,"station_name":"Manggarai"},{"distance":3186,"transit":false,"i_long":106.822649,"line":1,"time":4,"i_lat":-6.202263,"station_id":"SUD","station_name":"Sudirman","is_transit":false},{"transit":false,"i_lat":-6.201433,"distance":280,"station_id":"SUDB","time":1,"station_name":"Sudirman Baru","line":1,"is_transit":false,"i_long":106.819881},{"is_transit":false,"i_long":106.816351,"i_lat":-6.20132,"time":1,"station_id":"KAT","distance":471,"transit":false,"line":1,"station_name":"Karet"},{"line":1,"transit":false,"i_long":106.811091,"distance":2029,"station_name":"Tanah Abang","station_id":"THB","is_transit":false,"time":5,"i_lat":-6.185545},{"station_id":"DU","i_lat":-6.155215,"station_name":"Duri","i_long":106.800832,"distance":3632,"line":1,"time":8,"is_transit":true,"transit":true},{"station_id":"GGL","line":5,"i_long":106.788277,"transit":false,"distance":1700,"station_name":"Grogol","is_transit":false,"i_lat":-6.162021,"time":3},{"i_long":106.771379,"line":5,"is_transit":false,"time":2,"transit":false,"i_lat":-6.161433,"distance":2036,"station_id":"PSG","station_name":"Pesing"},{"i_long":106.756522,"transit":false,"time":2,"line":5,"station_id":"TKO","distance":1614,"station_name":"Taman Kota","is_transit":false,"i_lat":-6.1587309999999995},{"station_name":"Bojongindah","i_long":106.737035,"line":5,"i_lat":-6.159876,"distance":2334,"time":2,"is_transit":false,"station_id":"BOI","transit":false},{"is_transit":false,"time":4,"station_id":"RW","station_name":"Rawa Buaya","transit":false,"i_long":106.723064,"i_lat":-6.162758,"distance":1152,"line":5},{"i_long":106.701612,"time":3,"transit":false,"is_transit":false,"station_id":"KDS","line":5,"distance":2504,"station_name":"Kalideres","i_lat":-6.166068},{"i_long":106.679458,"line":5,"distance":2548,"transit":false,"station_name":"Poris","is_transit":false,"time":3,"i_lat":-6.169933,"station_id":"PI"},{"is_transit":false,"distance":1834,"station_name":"Batuceper","station_id":"BPR","time":3,"transit":false,"i_lat":-6.171811,"i_long":106.665036,"line":5},{"time":3,"i_lat":-6.17331,"i_long":106.64657,"station_id":"TTI","transit":false,"line":5,"station_name":"Tanah Tinggi","distance":2028,"is_transit":false}],[{"distance":0,"time":0,"station_name":"Rajawali","is_transit":false,"station_id":"RJW","transit":false,"i_long":106.836569,"line":11,"i_lat":-6.14505},{"time":3,"is_transit":true,"distance":1444,"i_long":106.826365,"transit":true,"station_name":"Kampung Bandan","line":4,"i_lat":-6.132549,"station_id":"KPB"},{"distance":1364,"i_lat":-6.137569,"station_id":"JAKK","station_name":"Jakarta Kota","line":2,"transit":true,"time":3,"is_transit":true,"i_long":106.812439},{"line":2,"i_lat":-6.141205,"transit":false,"time":4,"station_name":"Jayakarta","station_id":"JAY","i_long":106.820901,"is_transit":false,"distance":1264},{"transit":false,"time":2,"station_id":"MGB","distance":1080,"i_lat":-6.149769,"station_name":"Manggabesar","is_transit":false,"line":2,"i_long":106.82482},{"station_name":"Sawah Besar","i_lat":-6.160725,"time":2,"transit":false,"distance":906,"station_id":"SW","i_long":106.827103,"is_transit":false,"line":2},{"time":2,"station_name":"Juanda","transit":false,"is_transit":false,"distance":1149,"i_lat":-6.166716,"station_id":"JUA","line":2,"i_long":106.828284},{"station_name":"Gondangdia","i_long":106.832183,"is_transit":false,"station_id":"GDD","time":4,"transit":false,"line":2,"distance":2015,"i_lat":-6.186295},{"station_name":"Cikini","time":3,"i_long":106.840169,"line":2,"distance":1750,"transit":false,"station_id":"CKI","is_transit":false,"i_lat":-6.198556},{"distance":1590,"transit":true,"station_name":"Manggarai","i_lat":-6.209883,"i_long":106.84912,"is_transit":true,"time":4,"station_id":"MRI","line":2},{"station_name":"Sudirman","i_lat":-6.202263,"distance":3186,"i_long":106.822649,"time":4,"line":1,"is_transit":false,"transit":false,"station_id":"SUD"},{"station_name":"Sudirman Baru","i_long":106.819881,"i_lat":-6.201433,"time":1,"distance":280,"line":1,"transit":false,"is_transit":false,"station_id":"SUDB"},{"transit":false,"distance":471,"line":1,"i_lat":-6.20132,"time":1,"i_long":106.816351,"is_transit":false,"station_name":"Karet","station_id":"KAT"},{"transit":false,"station_name":"Tanah Abang","i_lat":-6.185545,"distance":2029,"time":5,"station_id":"THB","is_transit":false,"line":1,"i_long":106.811091},{"is_transit":true,"line":1,"i_lat":-6.155215,"time":8,"transit":true,"station_id":"DU","station_name":"Duri","i_long":106.800832,"distance":3632},{"distance":1700,"station_name":"Grogol","i_long":106.788277,"is_transit":false,"station_id":"GGL","time":3,"i_lat":-6.162021,"line":5,"transit":false},{"is_transit":false,"station_name":"Pesing","distance":2036,"station_id":"PSG","time":2,"i_lat":-6.161433,"i_long":106.771379,"transit":false,"line":5},{"time":2,"distance":1614,"i_lat":-6.1587309999999995,"i_long":106.756522,"station_id":"TKO","transit":false,"station_name":"Taman Kota","line":5,"is_transit":false},{"i_long":106.737035,"transit":false,"station_name":"Bojongindah","is_transit":false,"time":2,"distance":2334,"i_lat":-6.159876,"line":5,"station_id":"BOI"},{"transit":false,"station_name":"Rawa Buaya","i_long":106.723064,"distance":1152,"station_id":"RW","is_transit":false,"time":4,"i_lat":-6.162758,"line":5},{"transit":false,"i_lat":-6.166068,"station_id":"KDS","time":3,"station_name":"Kalideres","i_long":106.701612,"line":5,"distance":2504,"is_transit":false},{"line":5,"time":3,"station_id":"PI","is_transit":false,"i_long":106.679458,"transit":false,"i_lat":-6.169933,"station_name":"Poris","distance":2548},{"distance":1834,"station_name":"Batuceper","is_transit":false,"i_long":106.665036,"transit":false,"time":3,"i_lat":-6.171811,"line":5,"station_id":"BPR"},{"i_long":106.64657,"distance":2028,"transit":false,"is_transit":false,"time":3,"station_id":"TTI","station_name":"Tanah Tinggi","i_lat":-6.17331,"line":5}],[{"time":0,"station_name":"Rajawali","i_lat":-6.14505,"is_transit":false,"station_id":"RJW","line":11,"distance":0,"i_long":106.836569,"transit":false},{"station_id":"KMO","i_lat":-6.161728,"station_name":"Kemayoran","distance":1901,"time":5,"i_long":106.839204,"transit":false,"is_transit":false,"line":11},{"i_lat":-6.174784,"station_name":"Pasar Senen","is_transit":false,"station_id":"PSE","line":11,"i_long":106.84368,"time":4,"transit":false,"distance":1436},{"distance":1567,"i_long":106.850107,"transit":false,"station_name":"Gang Sentiong","is_transit":false,"i_lat":-6.185975,"time":8,"station_id":"GST","line":11},{"time":1,"is_transit":false,"transit":false,"station_name":"Kramat","i_long":106.855437,"line":11,"station_id":"KMT","distance":973,"i_lat":-6.193792},{"i_lat":-6.209188,"is_transit":false,"transit":false,"time":2,"i_long":106.861737,"line":11,"station_name":"Pondok Jati","station_id":"POK","distance":1829},{"station_id":"JNG","i_long":106.86807400000001,"transit":true,"station_name":"Jatinegara","is_transit":true,"i_lat":-6.215091,"line":1,"distance":1236,"time":9},{"i_lat":-6.212485,"i_long":106.858896,"distance":1377,"time":2,"is_transit":false,"transit":false,"station_name":"Matraman","line":1,"station_id":"MTR"},{"i_long":106.84912,"station_id":"MRI","station_name":"Manggarai","transit":true,"time":2,"distance":1275,"line":2,"i_lat":-6.209883,"is_transit":true},{"line":2,"transit":false,"station_name":"Cikini","distance":1590,"is_transit":false,"i_long":106.840169,"i_lat":-6.198556,"time":4,"station_id":"CKI"},{"station_name":"Gondangdia","i_lat":-6.186295,"i_long":106.832183,"time":3,"transit":false,"is_transit":false,"distance":1750,"station_id":"GDD","line":2},{"station_name":"Juanda","time":4,"transit":false,"station_id":"JUA","i_lat":-6.166716,"is_transit":false,"distance":2015,"line":2,"i_long":106.828284},{"station_id":"SW","station_name":"Sawah Besar","transit":false,"i_lat":-6.160725,"distance":1149,"is_transit":false,"i_long":106.827103,"line":2,"time":2},{"time":2,"i_long":106.82482,"station_id":"MGB","line":2,"station_name":"Manggabesar","transit":false,"distance":906,"i_lat":-6.149769,"is_transit":false},{"i_lat":-6.141205,"transit":false,"station_id":"JAY","distance":1080,"station_name":"Jayakarta","is_transit":false,"time":2,"line":2,"i_long":106.820901},{"distance":1264,"line":2,"i_long":106.812439,"transit":true,"time":4,"station_id":"JAKK","station_name":"Jakarta Kota","is_transit":true,"i_lat":-6.137569},{"is_transit":true,"time":3,"i_long":106.826365,"i_lat":-6.132549,"transit":true,"distance":1364,"station_name":"Kampung Bandan","line":4,"station_id":"KPB"},{"i_long":106.79867,"station_id":"AK","station_name":"Angke","is_transit":false,"transit":false,"time":9,"distance":4102,"line":1,"i_lat":-6.144674},{"i_lat":-6.155215,"line":1,"is_transit":true,"time":4,"i_long":106.800832,"distance":1230,"transit":true,"station_id":"DU","station_name":"Duri"},{"time":3,"line":5,"i_lat":-6.162021,"is_transit":false,"distance":1700,"transit":false,"station_name":"Grogol","i_long":106.788277,"station_id":"GGL"},{"station_name":"Pesing","time":2,"station_id":"PSG","line":5,"is_transit":false,"distance":2036,"i_lat":-6.161433,"i_long":106.771379,"transit":false},{"i_long":106.756522,"time":2,"distance":1614,"line":5,"transit":false,"station_id":"TKO","is_transit":false,"i_lat":-6.1587309999999995,"station_name":"Taman Kota"},{"station_id":"BOI","distance":2334,"i_lat":-6.159876,"transit":false,"time":2,"station_name":"Bojongindah","is_transit":false,"i_long":106.737035,"line":5},{"is_transit":false,"i_long":106.723064,"time":4,"transit":false,"station_name":"Rawa Buaya","distance":1152,"i_lat":-6.162758,"line":5,"station_id":"RW"},{"time":3,"station_id":"KDS","i_long":106.701612,"transit":false,"station_name":"Kalideres","is_transit":false,"distance":2504,"i_lat":-6.166068,"line":5},{"i_long":106.679458,"is_transit":false,"line":5,"i_lat":-6.169933,"time":3,"station_name":"Poris","distance":2548,"transit":false,"station_id":"PI"},{"station_name":"Batuceper","i_lat":-6.171811,"i_long":106.665036,"time":3,"is_transit":false,"line":5,"transit":false,"distance":1834,"station_id":"BPR"},{"i_lat":-6.17331,"station_name":"Tanah Tinggi","i_long":106.64657,"line":5,"transit":false,"time":3,"distance":2028,"is_transit":false,"station_id":"TTI"}]]}