{"data":[[{"is_transit":false,"i_long":106.836569,"transit":false,"time":0,"station_id":"RJW","distance":0,"line":11,"station_name":"Rajawali","i_lat":-6.14505},{"distance":1444,"i_long":106.826365,"line":4,"transit":true,"station_name":"Kampung Bandan","station_id":"KPB","time":3,"is_transit":true,"i_lat":-6.132549},{"i_long":106.79867,"line":1,"i_lat":-6.144674,"is_transit":false,"time":9,"station_id":"AK","station_name":"Angke","transit":false,"distance":4102},{"distance":1230,"station_id":"DU","i_lat":-6.155215,"line":1,"time":4,"i_long":106.800832,"is_transit":true,"station_name":"Duri","transit":true},{"i_lat":-6.162021,"is_transit":false,"i_long":106.788277,"transit":false,"line":5,"station_name":"Grogol","station_id":"GGL","distance":1700,"time":3},{"station_name":"Pesing","station_id":"PSG","i_long":106.771379,"line":5,"is_transit":false,"distance":2036,"i_lat":-6.161433,"transit":false,"time":2},{"station_id":"TKO","is_transit":false,"i_lat":-6.1587309999999995,"line":5,"i_long":106.756522,"transit":false,"distance":1614,"station_name":"Taman Kota","time":2},{"distance":2334,"time":2,"line":5,"transit":false,"station_id":"BOI","station_name":"Bojongindah","is_transit":false,"i_lat":-6.159876,"i_long":106.737035},{"is_transit":false,"transit":false,"station_name":"Rawa Buaya","time":4,"i_lat":-6.162758,"distance":1152,"line":5,"i_long":106.723064,"station_id":"RW"}],[{"distance":0,"line":11,"is_transit":false,"station_name":"Rajawali","station_id":"RJW","transit":false,"i_long":106.836569,"time":0,"i_lat":-6.14505},{"distance":1901,"is_transit":false,"line":11,"station_name":"Kemayoran","i_long":106.839204,"time":5,"station_id":"KMO","transit":false,"i_lat":-6.161728},{"distance":1436,"station_id":"PSE","time":4,"transit":false,"line":11,"is_transit":false,"i_long":106.84368,"i_lat":-6.174784,"station_name":"Pasar Senen"},{"station_name":"Gang Sentiong","i_lat":-6.185975,"is_transit":false,"station_id":"GST","line":11,"i_long":106.850107,"transit":false,"time":8,"distance":1567},{"time":1,"distance":973,"i_lat":-6.193792,"i_long":106.855437,"transit":false,"station_id":"KMT","line":11,"station_name":"Kramat","is_transit":false},{"i_long":106.861737,"transit":false,"station_name":"Pondok Jati","is_transit":false,"time":2,"line":11,"i_lat":-6.209188,"station_id":"POK","distance":1829},{"time":9,"distance":1236,"i_lat":-6.215091,"i_long":106.86807400000001,"station_id":"JNG","transit":true,"station_name":"Jatinegara","line":1,"is_transit":true},{"station_id":"MTR","distance":1377,"time":2,"i_long":106.858896,"transit":false,"is_transit":false,"i_lat":-6.212485,"station_name":"Matraman","line":1},{"i_lat":-6.209883,"transit":false,"station_id":"MRI","distance":1275,"time":2,"line":2,"is_transit":false,"i_long":106.84912,"station_name":"Manggarai"},{"transit":false,"station_id":"SUD","line":1,"is_transit":false,"i_lat":-6.202263,"distance":3186,"i_long":106.822649,"station_name":"Sudirman","time":4},{"transit":false,"time":1,"distance":280,"line":1,"station_name":"Sudirman Baru","is_transit":false,"i_lat":-6.201433,"i_long":106.819881,"station_id":"SUDB"},{"transit":false,"i_long":106.816351,"is_transit":false,"station_id":"KAT","line":1,"distance":471,"i_lat":-6.20132,"time":1,"station_name":"Karet"},{"is_transit":false,"time":5,"i_long":106.811091,"station_name":"Tanah Abang","distance":2029,"station_id":"THB","i_lat":-6.185545,"transit":false,"line":1},{"station_id":"DU","distance":3632,"transit":true,"is_transit":true,"line":1,"station_name":"Duri","i_long":106.800832,"i_lat":-6.155215,"time":8},{"distance":1700,"station_name":"Grogol","station_id":"GGL","i_lat":-6.162021,"i_long":106.788277,"is_transit":false,"line":5,"time":3,"transit":false},{"station_id":"PSG","i_long":106.771379,"line":5,"i_lat":-6.161433,"distance":2036,"transit":false,"station_name":"Pesing","is_transit":false,"time":2},{"i_long":106.756522,"is_transit":false,"i_lat":-6.1587309999999995,"distance":1614,"time":2,"transit":false,"station_name":"Taman Kota","station_id":"TKO","line":5},{"i_lat":-6.159876,"i_long":106.737035,"transit":false,"station_name":"Bojongindah","line":5,"is_transit":false,"station_id":"BOI","time":2,"distance":2334},{"i_long":106.723064,"line":5,"station_name":"Rawa Buaya","station_id":"RW","i_lat":-6.162758,"transit":false,"is_transit":false,"distance":1152,"time":4}],[{"station_name":"Rajawali","distance":0,"transit":false,"line":11,"is_transit":false,"i_lat":-6.14505,"i_long":106.836569,"station_id":"RJW","time":0},{"station_name":"Kampung Bandan","i_lat":-6.132549,"time":3,"line":4,"transit":true,"station_id":"KPB","is_transit":true,"distance":1444,"i_long":106.826365},{"station_name":"Jakarta Kota","distance":1364,"transit":true,"station_id":"JAKK","line":2,"i_lat":-6.137569,"time":3,"i_long":106.812439,"is_transit":true},{"station_name":"Jayakarta","station_id":"JAY","distance":1264,"i_long":106.820901,"line":2,"i_lat":-6.141205,"time":4,"transit":false,"is_transit":false},{"station_id":"MGB","is_transit":false,"i_lat":-6.149769,"line":2,"time":2,"distance":1080,"transit":false,"i_long":106.82482,"station_name":"Manggabesar"},{"transit":false,"is_transit":false,"time":2,"line":2,"station_id":"SW","distance":906,"i_long":106.827103,"station_name":"Sawah Besar","i_lat":-6.160725},{"transit":false,"station_name":"Juanda","i_long":106.828284,"station_id":"JUA","i_lat":-6.166716,"distance":1149,"time":2,"is_transit":false,"line":2},{"time":4,"i_long":106.832183,"station_name":"Gondangdia","line":2,"station_id":"GDD","transit":false,"is_transit":false,"distance":2015,"i_lat":-6.186295},{"station_id":"CKI","distance":1750,"station_name":"Cikini","time":3,"transit":false,"i_lat":-6.198556,"is_transit":false,"i_long":106.840169,"line":2},{"time":4,"line":2,"transit":true,"i_lat":-6.209883,"i_long":106.84912,"station_name":"Manggarai","is_transit":true,"distance":1590,"station_id":"MRI"},{"i_long":106.822649,"is_transit":false,"line":1,"station_id":"SUD","station_name":"Sudirman","transit":false,"time":4,"i_lat":-6.202263,"distance":3186},{"distance":280,"i_long":106.819881,"is_transit":false,"station_name":"Sudirman Baru","station_id":"SUDB","i_lat":-6.201433,"time":1,"line":1,"transit":false},{"is_transit":false,"i_lat":-6.20132,"line":1,"transit":false,"time":1,"station_id":"KAT","i_long":106.816351,"distance":471,"station_name":"Karet"},{"i_long":106.811091,"station_name":"Tanah Abang","line":1,"is_transit":false,"time":5,"transit":false,"station_id":"THB","i_lat":-6.185545,"distance":2029},{"line":1,"transit":true,"time":8,"is_transit":true,"station_name":"Duri","distance":3632,"station_id":"DU","i_long":106.800832,"i_lat":-6.155215},{"station_name":"Grogol","line":5,"distance":1700,"time":3,"i_lat":-6.162021,"transit":false,"is_transit":false,"station_id":"GGL","i_long":106.788277},{"line":5,"time":2,"is_transit":false,"i_long":106.771379,"station_name":"Pesing","i_lat":-6.161433,"distance":2036,"transit":false,"station_id":"PSG"},{"time":2,"i_lat":-6.1587309999999995,"station_name":"Taman Kota","station_id":"TKO","line":5,"distance":1614,"transit":false,"i_long":106.756522,"is_transit":false},{"line":5,"i_lat":-6.159876,"station_id":"BOI","distance":2334,"transit":false,"i_long":106.737035,"station_name":"Bojongindah","is_transit":false,"time":2},{"station_name":"Rawa Buaya","station_id":"RW","is_transit":false,"distance":1152,"i_long":106.723064,"line":5,"transit":false,"i_lat":-6.162758,"time":4}],[{"transit":false,"time":0,"i_lat":-6.14505,"station_name":"Rajawali","is_transit":false,"distance":0,"i_long":106.836569,"line":11,"station_id":"RJW"},{"transit":false,"distance":1901,"time":5,"i_lat":-6.161728,"line":11,"station_id":"KMO","is_transit":false,"i_long":106.839204,"station_name":"Kemayoran"},{"time":4,"transit":false,"i_lat":-6.174784,"station_name":"Pasar Senen","is_transit":false,"i_long":106.84368,"line":11,"station_id":"PSE","distance":1436},{"time":8,"i_long":106.850107,"distance":1567,"station_name":"Gang Sentiong","is_transit":false,"station_id":"GST","transit":false,"i_lat":-6.185975,"line":11},{"i_lat":-6.193792,"is_transit":false,"line":11,"time":1,"transit":false,"station_name":"Kramat","station_id":"KMT","distance":973,"i_long":106.855437},{"i_long":106.861737,"time":2,"line":11,"i_lat":-6.209188,"is_transit":false,"distance":1829,"station_name":"Pondok Jati","station_id":"POK","transit":false},{"i_long":106.86807400000001,"is_transit":true,"distance":1236,"time":9,"transit":true,"station_id":"JNG","line":1,"station_name":"Jatinegara","i_lat":-6.215091},{"transit":false,"i_lat":-6.212485,"i_long":106.858896,"station_id":"MTR","line":1,"station_name":"Matraman","time":2,"is_transit":false,"distance":1377},{"distance":1275,"is_transit":true,"line":2,"i_lat":-6.209883,"station_name":"Manggarai","time":2,"station_id":"MRI","i_long":106.84912,"transit":true},{"station_name":"Cikini","transit":false,"line":2,"i_lat":-6.198556,"i_long":106.840169,"is_transit":false,"time":4,"distance":1590,"station_id":"CKI"},{"i_lat":-6.186295,"station_id":"GDD","time":3,"is_transit":false,"i_long":106.832183,"line":2,"station_name":"Gondangdia","transit":false,"distance":1750},{"station_id":"JUA","is_transit":false,"time":4,"distance":2015,"i_lat":-6.166716,"line":2,"transit":false,"i_long":106.828284,"station_name":"Juanda"},{"station_name":"Sawah Besar","time":2,"station_id":"SW","distance":1149,"i_long":106.827103,"is_transit":false,"i_lat":-6.160725,"transit":false,"line":2},{"transit":false,"station_id":"MGB","is_transit":false,"station_name":"Manggabesar","i_lat":-6.149769,"time":2,"distance":906,"i_long":106.82482,"line":2},{"station_name":"Jayakarta","time":2,"line":2,"transit":false,"station_id":"JAY","is_transit":false,"distance":1080,"i_lat":-6.141205,"i_long":106.820901},{"time":4,"line":2,"is_transit":true,"i_long":106.812439,"i_lat":-6.137569,"station_name":"Jakarta Kota","distance":1264,"station_id":"JAKK","transit":true},{"time":3,"distance":1364,"station_name":"Kampung Bandan","station_id":"KPB","i_lat":-6.132549,"i_long":106.826365,"line":4,"transit":true,"is_transit":true},{"i_long":106.79867,"is_transit":false,"line":1,"station_name":"Angke","station_id":"AK","distance":4102,"transit":false,"time":9,"i_lat":-6.144674},{"transit":true,"i_lat":-6.155215,"distance":1230,"i_long":106.800832,"line":1,"station_name":"Duri","is_transit":true,"station_id":"DU","time":4},{"distance":1700,"line":5,"station_id":"GGL","time":3,"transit":false,"i_lat":-6.162021,"i_long":106.788277,"station_name":"Grogol","is_transit":false},{"is_transit":false,"time":2,"station_name":"Pesing","distance":2036,"i_long":106.771379,"i_lat":-6.161433,"transit":false,"station_id":"PSG","line":5},{"transit":false,"station_name":"Taman Kota","time":2,"distance":1614,"is_transit":false,"i_long":106.756522,"station_id":"TKO","i_lat":-6.1587309999999995,"line":5},{"is_transit":false,"time":2,"i_lat":-6.159876,"distance":2334,"station_id":"BOI","i_long":106.737035,"line":5,"transit":false,"station_name":"Bojongindah"},{"line":5,"distance":1152,"is_transit":false,"station_id":"RW","station_name":"Rawa Buaya","i_long":106.723064,"time":4,"i_lat":-6.162758,"transit":false}]]}