{"data":[[{"transit":false,"time":0,"station_name":"Rajawali","distance":0,"i_long":106.836569,"station_id":"RJW","is_transit":false,"i_lat":-6.14505,"line":11},{"i_lat":-6.132549,"distance":1444,"is_transit":true,"station_id":"KPB","station_name":"Kampung Bandan","time":3,"transit":false,"i_long":106.826365,"line":0}],[{"line":11,"is_transit":false,"distance":0,"transit":false,"station_id":"RJW","i_lat":-6.14505,"i_long":106.836569,"station_name":"Rajawali","time":0},{"station_name":"Kemayoran","distance":1901,"i_long":106.839204,"is_transit":false,"transit":false,"station_id":"KMO","i_lat":-6.161728,"line":11,"time":5},{"i_long":106.84368,"station_id":"PSE","transit":false,"i_lat":-6.174784,"is_transit":false,"station_name":"Pasar Senen","time":4,"line":11,"distance":1436},{"line":11,"time":8,"i_lat":-6.185975,"station_name":"Gang Sentiong","transit":false,"i_long":106.850107,"station_id":"GST","distance":1567,"is_transit":false},{"station_name":"Kramat","transit":false,"is_transit":false,"time":1,"station_id":"KMT","distance":973,"i_long":106.855437,"i_lat":-6.193792,"line":11},{"time":2,"line":11,"station_name":"Pondok Jati","is_transit":false,"i_long":106.861737,"distance":1829,"station_id":"POK","transit":false,"i_lat":-6.209188},{"time":9,"i_long":106.86807400000001,"transit":true,"line":0,"is_transit":true,"station_id":"JNG","station_name":"Jatinegara","i_lat":-6.215091,"distance":1236},{"is_transit":false,"time":2,"station_name":"Matraman","i_lat":-6.212485,"transit":false,"distance":1377,"i_long":106.858896,"line":1,"station_id":"MTR"},{"time":2,"line":0,"is_transit":true,"i_long":106.84912,"transit":false,"i_lat":-6.209883,"station_id":"MRI","station_name":"Manggarai","distance":1275},{"station_name":"Sudirman","i_lat":-6.202263,"time":4,"station_id":"SUD","line":1,"i_long":106.822649,"is_transit":false,"distance":3186,"transit":false},{"i_long":106.819881,"distance":280,"is_transit":false,"transit":false,"time":1,"i_lat":-6.201433,"station_name":"Sudirman Baru","station_id":"SUDB","line":1},{"i_long":106.816351,"is_transit":false,"station_id":"KAT","transit":false,"time":1,"line":1,"station_name":"Karet","distance":471,"i_lat":-6.20132},{"station_id":"THB","time":5,"i_lat":-6.185545,"is_transit":true,"station_name":"Tanah Abang","i_long":106.811091,"line":1,"distance":2029,"transit":false},{"i_lat":-6.155215,"distance":3632,"is_transit":true,"i_long":106.800832,"time":8,"station_id":"DU","line":1,"station_name":"Duri","transit":true},{"transit":false,"time":4,"i_lat":-6.144674,"distance":1230,"i_long":106.79867,"is_transit":false,"station_id":"AK","line":0,"station_name":"Angke"},{"transit":false,"line":0,"station_name":"Kampung Bandan","time":9,"i_long":106.826365,"station_id":"KPB","is_transit":true,"i_lat":-6.132549,"distance":4102}],[{"is_transit":false,"station_id":"RJW","line":11,"station_name":"Rajawali","transit":false,"time":0,"i_long":106.836569,"i_lat":-6.14505,"distance":0},{"transit":false,"distance":1901,"line":11,"is_transit":false,"time":5,"i_lat":-6.161728,"i_long":106.839204,"station_id":"KMO","station_name":"Kemayoran"},{"i_lat":-6.174784,"distance":1436,"time":4,"is_transit":false,"i_long":106.84368,"station_name":"Pasar Senen","line":11,"transit":false,"station_id":"PSE"},{"transit":false,"i_lat":-6.185975,"station_id":"GST","i_long":106.850107,"is_transit":false,"distance":1567,"line":11,"station_name":"Gang Sentiong","time":8},{"is_transit":false,"station_name":"Kramat","transit":false,"distance":973,"station_id":"KMT","time":1,"i_long":106.855437,"i_lat":-6.193792,"line":11},{"time":2,"i_long":106.861737,"i_lat":-6.209188,"distance":1829,"station_id":"POK","is_transit":false,"station_name":"Pondok Jati","transit":false,"line":11},{"is_transit":true,"station_name":"Jatinegara","line":0,"i_lat":-6.215091,"distance":1236,"i_long":106.86807400000001,"station_id":"JNG","transit":true,"time":9},{"time":2,"distance":1377,"is_transit":false,"station_id":"MTR","i_lat":-6.212485,"i_long":106.858896,"line":1,"transit":false,"station_name":"Matraman"},{"is_transit":true,"distance":1275,"transit":true,"time":2,"i_lat":-6.209883,"station_id":"MRI","i_long":106.84912,"station_name":"Manggarai","line":0},{"is_transit":false,"station_name":"Cikini","i_lat":-6.198556,"time":4,"i_long":106.840169,"distance":1590,"line":0,"station_id":"CKI","transit":false},{"is_transit":false,"station_id":"GDD","station_name":"Gondangdia","transit":false,"i_long":106.832183,"time":3,"line":2,"distance":1750,"i_lat":-6.186295},{"i_lat":-6.166716,"line":2,"i_long":106.828284,"time":4,"station_id":"JUA","is_transit":false,"transit":false,"distance":2015,"station_name":"Juanda"},{"is_transit":false,"station_id":"SW","station_name":"Sawah Besar","line":2,"time":2,"i_lat":-6.160725,"transit":false,"i_long":106.827103,"distance":1149},{"distance":906,"i_lat":-6.149769,"i_long":106.82482,"transit":false,"line":2,"station_name":"Manggabesar","time":2,"is_transit":false,"station_id":"MGB"},{"distance":1080,"time":2,"line":7,"transit":false,"i_long":106.820901,"i_lat":-6.141205,"station_name":"Jayakarta","is_transit":false,"station_id":"JAY"},{"station_name":"Jakarta Kota","time":4,"i_lat":-6.137569,"transit":true,"line":0,"distance":1264,"i_long":106.812439,"is_transit":true,"station_id":"JAKK"},{"line":0,"is_transit":true,"distance":1364,"transit":false,"time":3,"i_long":106.826365,"station_name":"Kampung Bandan","i_lat":-6.132549,"station_id":"KPB"}]]}