{"data":[[{"time":0,"i_long":106.836569,"line":11,"transit":false,"is_transit":false,"station_name":"Rajawali","station_id":"RJW","i_lat":-6.14505,"distance":0},{"station_id":"KMO","is_transit":false,"time":5,"distance":1901,"i_long":106.839204,"station_name":"Kemayoran","i_lat":-6.161728,"transit":false,"line":11},{"i_long":106.84368,"line":11,"station_name":"Pasar Senen","transit":false,"i_lat":-6.174784,"station_id":"PSE","is_transit":false,"time":4,"distance":1436},{"line":11,"i_lat":-6.185975,"is_transit":false,"station_name":"Gang Sentiong","time":8,"distance":1567,"transit":false,"station_id":"GST","i_long":106.850107},{"time":1,"distance":973,"transit":false,"i_long":106.855437,"line":11,"station_name":"Kramat","i_lat":-6.193792,"station_id":"KMT","is_transit":false},{"transit":false,"line":11,"distance":1829,"time":2,"i_lat":-6.209188,"is_transit":false,"i_long":106.861737,"station_id":"POK","station_name":"Pondok Jati"},{"i_long":106.86807400000001,"distance":1236,"line":1,"is_transit":true,"station_name":"Jatinegara","transit":true,"station_id":"JNG","time":9,"i_lat":-6.215091},{"i_long":106.858896,"i_lat":-6.212485,"line":1,"time":2,"station_name":"Matraman","transit":false,"is_transit":false,"distance":1377,"station_id":"MTR"},{"i_long":106.84912,"i_lat":-6.209883,"station_name":"Manggarai","line":2,"station_id":"MRI","transit":false,"is_transit":false,"time":2,"distance":1275}],[{"station_id":"RJW","i_long":106.836569,"line":11,"i_lat":-6.14505,"is_transit":false,"station_name":"Rajawali","time":0,"distance":0,"transit":false},{"i_long":106.826365,"is_transit":true,"station_name":"Kampung Bandan","time":3,"i_lat":-6.132549,"line":4,"transit":true,"distance":1444,"station_id":"KPB"},{"i_lat":-6.144674,"station_id":"AK","station_name":"Angke","i_long":106.79867,"line":1,"transit":false,"distance":4102,"time":9,"is_transit":false},{"line":1,"station_name":"Duri","transit":false,"time":4,"station_id":"DU","i_lat":-6.155215,"i_long":106.800832,"distance":1230,"is_transit":false},{"distance":3632,"i_long":106.811091,"transit":false,"station_id":"THB","time":8,"line":1,"is_transit":false,"station_name":"Tanah Abang","i_lat":-6.185545},{"station_name":"Karet","station_id":"KAT","i_long":106.816351,"transit":false,"is_transit":false,"time":5,"i_lat":-6.20132,"line":1,"distance":2029},{"line":1,"i_lat":-6.201433,"transit":false,"station_name":"Sudirman Baru","distance":471,"i_long":106.819881,"station_id":"SUDB","time":1,"is_transit":false},{"time":1,"i_lat":-6.202263,"i_long":106.822649,"station_id":"SUD","transit":false,"is_transit":false,"station_name":"Sudirman","distance":280,"line":1},{"i_lat":-6.209883,"i_long":106.84912,"time":4,"is_transit":false,"line":2,"distance":3186,"station_name":"Manggarai","transit":false,"station_id":"MRI"}],[{"i_long":106.836569,"station_id":"RJW","is_transit":false,"time":0,"distance":0,"i_lat":-6.14505,"station_name":"Rajawali","line":11,"transit":false},{"i_long":106.826365,"station_name":"Kampung Bandan","transit":true,"line":4,"is_transit":true,"i_lat":-6.132549,"station_id":"KPB","time":3,"distance":1444},{"transit":true,"is_transit":true,"station_id":"JAKK","time":3,"station_name":"Jakarta Kota","distance":1364,"i_lat":-6.137569,"i_long":106.812439,"line":2},{"station_name":"Jayakarta","time":4,"transit":false,"is_transit":false,"station_id":"JAY","distance":1264,"i_lat":-6.141205,"i_long":106.820901,"line":2},{"i_long":106.82482,"transit":false,"is_transit":false,"time":2,"i_lat":-6.149769,"station_id":"MGB","line":2,"distance":1080,"station_name":"Manggabesar"},{"time":2,"line":2,"station_id":"SW","is_transit":false,"station_name":"Sawah Besar","i_lat":-6.160725,"i_long":106.827103,"transit":false,"distance":906},{"station_id":"JUA","is_transit":false,"line":2,"i_long":106.828284,"transit":false,"time":2,"distance":1149,"station_name":"Juanda","i_lat":-6.166716},{"distance":2015,"station_name":"Gondangdia","i_long":106.832183,"line":2,"is_transit":false,"time":4,"transit":false,"i_lat":-6.186295,"station_id":"GDD"},{"distance":1750,"station_id":"CKI","i_long":106.840169,"line":2,"station_name":"Cikini","i_lat":-6.198556,"is_transit":false,"time":3,"transit":false},{"i_long":106.84912,"line":2,"station_name":"Manggarai","station_id":"MRI","time":4,"distance":1590,"transit":false,"is_transit":false,"i_lat":-6.209883}]]}