{"data":[[{"is_transit":false,"line":11,"transit":false,"distance":0,"time":0,"i_lat":-6.14505,"station_id":"RJW","i_long":106.836569,"station_name":"Rajawali"},{"transit":false,"distance":1901,"i_lat":-6.161728,"line":11,"station_id":"KMO","i_long":106.839204,"is_transit":false,"time":5,"station_name":"Kemayoran"},{"station_id":"PSE","distance":1436,"station_name":"Pasar Senen","i_long":106.84368,"line":11,"is_transit":false,"transit":false,"i_lat":-6.174784,"time":4},{"line":11,"station_name":"Gang Sentiong","station_id":"GST","transit":false,"distance":1567,"i_lat":-6.185975,"is_transit":false,"time":8,"i_long":106.850107},{"i_lat":-6.193792,"station_name":"Kramat","line":11,"is_transit":false,"time":1,"distance":973,"station_id":"KMT","i_long":106.855437,"transit":false},{"i_lat":-6.209188,"transit":false,"time":2,"i_long":106.861737,"station_id":"POK","is_transit":false,"distance":1829,"line":11,"station_name":"Pondok Jati"},{"station_id":"JNG","is_transit":true,"i_lat":-6.215091,"distance":1236,"station_name":"Jatinegara","line":1,"i_long":106.86807400000001,"time":9,"transit":true},{"time":3,"is_transit":false,"distance":3395,"transit":false,"i_long":106.899548,"i_lat":-6.2135,"line":1,"station_id":"KLD","station_name":"Klender"},{"transit":false,"i_long":106.922662,"distance":3100,"station_id":"BUA","line":1,"is_transit":false,"station_name":"Buaran","i_lat":-6.215568,"time":2},{"i_lat":-6.217455,"distance":1305,"is_transit":false,"transit":false,"station_id":"KLDB","station_name":"Klenderbaru","i_long":106.939679,"line":1,"time":1},{"i_lat":-6.219053,"station_id":"CUK","station_name":"Cakung","line":1,"is_transit":false,"distance":1385,"transit":false,"time":8,"i_long":106.951283},{"distance":3097,"time":3,"station_id":"KRI","i_lat":-6.224515,"line":1,"i_long":106.977657,"station_name":"Kranji","transit":false,"is_transit":false},{"distance":2520,"is_transit":false,"line":1,"i_lat":-6.236616,"transit":false,"time":4,"station_id":"BKS","station_name":"Bekasi","i_long":106.997013},{"distance":2368,"transit":false,"time":2,"is_transit":false,"i_long":107.016735,"station_name":"Bekasi Timur","line":1,"station_id":"BKST","i_lat":-6.248029},{"station_id":"TB","i_lat":-6.258864,"i_long":107.055722,"line":1,"transit":false,"time":7,"is_transit":false,"station_name":"Tambun","distance":4460}],[{"is_transit":false,"distance":0,"i_long":106.836569,"i_lat":-6.14505,"line":11,"station_name":"Rajawali","transit":false,"station_id":"RJW","time":0},{"is_transit":true,"line":4,"transit":true,"i_long":106.826365,"time":3,"station_id":"KPB","distance":1444,"i_lat":-6.132549,"station_name":"Kampung Bandan"},{"transit":false,"time":9,"is_transit":false,"distance":4102,"i_lat":-6.144674,"station_name":"Angke","i_long":106.79867,"station_id":"AK","line":1},{"transit":false,"distance":1230,"line":1,"time":4,"station_id":"DU","is_transit":false,"i_lat":-6.155215,"i_long":106.800832,"station_name":"Duri"},{"station_id":"THB","time":8,"transit":false,"distance":3632,"station_name":"Tanah Abang","i_lat":-6.185545,"i_long":106.811091,"is_transit":false,"line":1},{"station_id":"KAT","is_transit":false,"transit":false,"line":1,"station_name":"Karet","distance":2029,"i_long":106.816351,"i_lat":-6.20132,"time":5},{"distance":471,"i_long":106.819881,"transit":false,"i_lat":-6.201433,"station_name":"Sudirman Baru","time":1,"station_id":"SUDB","is_transit":false,"line":1},{"i_long":106.822649,"i_lat":-6.202263,"line":1,"is_transit":false,"transit":false,"distance":280,"station_name":"Sudirman","time":1,"station_id":"SUD"},{"transit":false,"station_name":"Manggarai","line":2,"distance":3186,"time":4,"is_transit":false,"station_id":"MRI","i_lat":-6.209883,"i_long":106.84912},{"i_long":106.858896,"station_id":"MTR","line":1,"distance":1275,"is_transit":false,"station_name":"Matraman","i_lat":-6.212485,"time":2,"transit":false},{"station_name":"Jatinegara","time":8,"line":1,"i_lat":-6.215091,"i_long":106.86807400000001,"distance":1377,"is_transit":false,"station_id":"JNG","transit":false},{"i_long":106.899548,"is_transit":false,"station_name":"Klender","transit":false,"line":1,"time":3,"station_id":"KLD","i_lat":-6.2135,"distance":3395},{"station_name":"Buaran","i_lat":-6.215568,"is_transit":false,"i_long":106.922662,"distance":3100,"transit":false,"station_id":"BUA","time":2,"line":1},{"time":1,"i_long":106.939679,"station_id":"KLDB","distance":1305,"station_name":"Klenderbaru","i_lat":-6.217455,"is_transit":false,"line":1,"transit":false},{"time":8,"distance":1385,"transit":false,"i_lat":-6.219053,"line":1,"is_transit":false,"station_name":"Cakung","i_long":106.951283,"station_id":"CUK"},{"station_name":"Kranji","transit":false,"i_long":106.977657,"line":1,"i_lat":-6.224515,"distance":3097,"time":3,"is_transit":false,"station_id":"KRI"},{"time":4,"transit":false,"i_lat":-6.236616,"station_name":"Bekasi","is_transit":false,"i_long":106.997013,"distance":2520,"line":1,"station_id":"BKS"},{"i_long":107.016735,"station_id":"BKST","station_name":"Bekasi Timur","i_lat":-6.248029,"is_transit":false,"line":1,"distance":2368,"time":2,"transit":false},{"i_long":107.055722,"line":1,"is_transit":false,"transit":false,"i_lat":-6.258864,"time":7,"distance":4460,"station_id":"TB","station_name":"Tambun"}],[{"i_long":106.836569,"line":11,"i_lat":-6.14505,"time":0,"station_id":"RJW","transit":false,"station_name":"Rajawali","is_transit":false,"distance":0},{"station_id":"KPB","station_name":"Kampung Bandan","line":4,"i_long":106.826365,"i_lat":-6.132549,"time":3,"transit":true,"distance":1444,"is_transit":true},{"i_long":106.812439,"station_id":"JAKK","i_lat":-6.137569,"transit":true,"station_name":"Jakarta Kota","is_transit":true,"time":3,"distance":1364,"line":2},{"time":4,"i_long":106.820901,"line":2,"station_id":"JAY","distance":1264,"is_transit":false,"transit":false,"i_lat":-6.141205,"station_name":"Jayakarta"},{"time":2,"station_id":"MGB","transit":false,"distance":1080,"line":2,"i_lat":-6.149769,"i_long":106.82482,"station_name":"Manggabesar","is_transit":false},{"station_name":"Sawah Besar","i_lat":-6.160725,"distance":906,"time":2,"i_long":106.827103,"line":2,"transit":false,"is_transit":false,"station_id":"SW"},{"transit":false,"i_lat":-6.166716,"station_name":"Juanda","i_long":106.828284,"is_transit":false,"time":2,"line":2,"station_id":"JUA","distance":1149},{"i_long":106.832183,"distance":2015,"i_lat":-6.186295,"line":2,"station_id":"GDD","station_name":"Gondangdia","is_transit":false,"time":4,"transit":false},{"station_name":"Cikini","i_long":106.840169,"i_lat":-6.198556,"line":2,"is_transit":false,"station_id":"CKI","distance":1750,"time":3,"transit":false},{"station_name":"Manggarai","i_lat":-6.209883,"station_id":"MRI","transit":true,"distance":1590,"line":2,"i_long":106.84912,"is_transit":true,"time":4},{"line":1,"distance":1275,"station_id":"MTR","i_long":106.858896,"time":2,"is_transit":false,"i_lat":-6.212485,"station_name":"Matraman","transit":false},{"station_name":"Jatinegara","i_lat":-6.215091,"station_id":"JNG","distance":1377,"line":1,"is_transit":false,"transit":false,"i_long":106.86807400000001,"time":8},{"time":3,"distance":3395,"i_lat":-6.2135,"station_id":"KLD","station_name":"Klender","is_transit":false,"line":1,"transit":false,"i_long":106.899548},{"i_long":106.922662,"time":2,"line":1,"i_lat":-6.215568,"is_transit":false,"station_id":"BUA","distance":3100,"station_name":"Buaran","transit":false},{"time":1,"station_name":"Klenderbaru","distance":1305,"i_lat":-6.217455,"line":1,"station_id":"KLDB","transit":false,"i_long":106.939679,"is_transit":false},{"time":8,"line":1,"transit":false,"is_transit":false,"distance":1385,"station_name":"Cakung","i_lat":-6.219053,"station_id":"CUK","i_long":106.951283},{"station_name":"Kranji","transit":false,"i_lat":-6.224515,"line":1,"is_transit":false,"station_id":"KRI","distance":3097,"i_long":106.977657,"time":3},{"line":1,"time":4,"is_transit":false,"transit":false,"i_lat":-6.236616,"station_name":"Bekasi","i_long":106.997013,"station_id":"BKS","distance":2520},{"distance":2368,"time":2,"is_transit":false,"i_long":107.016735,"station_name":"Bekasi Timur","transit":false,"line":1,"station_id":"BKST","i_lat":-6.248029},{"time":7,"station_id":"TB","transit":false,"i_lat":-6.258864,"station_name":"Tambun","distance":4460,"line":1,"i_long":107.055722,"is_transit":false}]]}