{"data":[[{"time":0,"transit":false,"line":11,"distance":0,"station_name":"Rajawali","is_transit":false,"station_id":"RJW","i_long":106.836569,"i_lat":-6.14505},{"i_lat":-6.161728,"transit":false,"station_name":"Kemayoran","distance":1901,"time":5,"i_long":106.839204,"line":11,"station_id":"KMO","is_transit":false},{"station_id":"PSE","station_name":"Pasar Senen","i_long":106.84368,"time":4,"line":11,"is_transit":false,"i_lat":-6.174784,"distance":1436,"transit":false},{"distance":1567,"i_lat":-6.185975,"station_name":"Gang Sentiong","time":8,"line":11,"is_transit":false,"station_id":"GST","transit":false,"i_long":106.850107},{"time":1,"distance":973,"i_long":106.855437,"is_transit":false,"line":11,"transit":false,"station_id":"KMT","i_lat":-6.193792,"station_name":"Kramat"},{"line":11,"distance":1829,"time":2,"station_name":"Pondok Jati","is_transit":false,"station_id":"POK","i_long":106.861737,"transit":false,"i_lat":-6.209188},{"station_name":"Jatinegara","i_long":106.86807400000001,"station_id":"JNG","time":9,"line":1,"is_transit":true,"transit":true,"i_lat":-6.215091,"distance":1236},{"distance":3395,"transit":false,"i_lat":-6.2135,"is_transit":false,"station_id":"KLD","i_long":106.899548,"time":3,"line":1,"station_name":"Klender"},{"i_lat":-6.215568,"line":1,"is_transit":false,"station_id":"BUA","station_name":"Buaran","transit":false,"i_long":106.922662,"time":2,"distance":3100},{"time":1,"station_name":"Klenderbaru","i_lat":-6.217455,"is_transit":false,"station_id":"KLDB","line":1,"transit":false,"distance":1305,"i_long":106.939679},{"is_transit":false,"transit":false,"station_id":"CUK","time":8,"distance":1385,"i_lat":-6.219053,"i_long":106.951283,"line":1,"station_name":"Cakung"},{"is_transit":false,"station_id":"KRI","distance":3097,"i_lat":-6.224515,"i_long":106.977657,"line":1,"station_name":"Kranji","transit":false,"time":3},{"station_id":"BKS","distance":2520,"station_name":"Bekasi","transit":false,"time":4,"is_transit":false,"i_lat":-6.236616,"line":1,"i_long":106.997013},{"line":1,"distance":2368,"is_transit":false,"time":2,"transit":false,"station_name":"Bekasi Timur","i_lat":-6.248029,"i_long":107.016735,"station_id":"BKST"},{"station_id":"TB","is_transit":false,"station_name":"Tambun","transit":false,"line":1,"distance":4460,"i_lat":-6.258864,"time":7,"i_long":107.055722}],[{"station_name":"Rajawali","station_id":"RJW","time":0,"is_transit":false,"i_lat":-6.14505,"transit":false,"distance":0,"line":11,"i_long":106.836569},{"station_name":"Kampung Bandan","transit":true,"time":3,"i_long":106.826365,"station_id":"KPB","i_lat":-6.132549,"line":4,"distance":1444,"is_transit":true},{"station_id":"AK","line":1,"distance":4102,"i_lat":-6.144674,"is_transit":false,"time":9,"station_name":"Angke","transit":false,"i_long":106.79867},{"station_id":"DU","i_lat":-6.155215,"is_transit":false,"i_long":106.800832,"distance":1230,"line":1,"transit":false,"station_name":"Duri","time":4},{"distance":3632,"i_long":106.811091,"transit":false,"station_id":"THB","line":1,"is_transit":false,"time":8,"station_name":"Tanah Abang","i_lat":-6.185545},{"station_id":"KAT","is_transit":false,"transit":false,"time":5,"i_lat":-6.20132,"i_long":106.816351,"line":1,"distance":2029,"station_name":"Karet"},{"i_lat":-6.201433,"line":1,"i_long":106.819881,"time":1,"station_id":"SUDB","transit":false,"distance":471,"station_name":"Sudirman Baru","is_transit":false},{"time":1,"i_long":106.822649,"i_lat":-6.202263,"station_name":"Sudirman","is_transit":false,"transit":false,"station_id":"SUD","line":1,"distance":280},{"station_id":"MRI","transit":false,"is_transit":false,"i_long":106.84912,"time":4,"station_name":"Manggarai","i_lat":-6.209883,"distance":3186,"line":2},{"transit":false,"i_lat":-6.212485,"time":2,"is_transit":false,"distance":1275,"line":1,"station_name":"Matraman","station_id":"MTR","i_long":106.858896},{"station_name":"Jatinegara","is_transit":false,"distance":1377,"time":8,"line":1,"i_long":106.86807400000001,"transit":false,"station_id":"JNG","i_lat":-6.215091},{"i_long":106.899548,"time":3,"station_name":"Klender","transit":false,"line":1,"station_id":"KLD","i_lat":-6.2135,"distance":3395,"is_transit":false},{"station_name":"Buaran","station_id":"BUA","time":2,"distance":3100,"i_long":106.922662,"i_lat":-6.215568,"line":1,"transit":false,"is_transit":false},{"transit":false,"station_name":"Klenderbaru","time":1,"is_transit":false,"line":1,"distance":1305,"i_long":106.939679,"station_id":"KLDB","i_lat":-6.217455},{"station_name":"Cakung","transit":false,"time":8,"distance":1385,"i_lat":-6.219053,"is_transit":false,"station_id":"CUK","line":1,"i_long":106.951283},{"i_long":106.977657,"transit":false,"line":1,"distance":3097,"station_id":"KRI","i_lat":-6.224515,"is_transit":false,"time":3,"station_name":"Kranji"},{"distance":2520,"is_transit":false,"i_lat":-6.236616,"line":1,"i_long":106.997013,"station_name":"Bekasi","transit":false,"station_id":"BKS","time":4},{"station_name":"Bekasi Timur","i_long":107.016735,"time":2,"transit":false,"station_id":"BKST","i_lat":-6.248029,"is_transit":false,"distance":2368,"line":1},{"is_transit":false,"station_name":"Tambun","station_id":"TB","time":7,"i_long":107.055722,"transit":false,"distance":4460,"i_lat":-6.258864,"line":1}],[{"is_transit":false,"transit":false,"station_name":"Rajawali","time":0,"station_id":"RJW","distance":0,"i_lat":-6.14505,"i_long":106.836569,"line":11},{"is_transit":true,"time":3,"station_name":"Kampung Bandan","station_id":"KPB","distance":1444,"transit":true,"i_long":106.826365,"line":4,"i_lat":-6.132549},{"transit":true,"i_long":106.812439,"distance":1364,"time":3,"is_transit":true,"station_name":"Jakarta Kota","line":2,"i_lat":-6.137569,"station_id":"JAKK"},{"station_id":"JAY","transit":false,"line":2,"is_transit":false,"station_name":"Jayakarta","distance":1264,"i_long":106.820901,"i_lat":-6.141205,"time":4},{"is_transit":false,"i_lat":-6.149769,"station_name":"Manggabesar","i_long":106.82482,"transit":false,"station_id":"MGB","time":2,"distance":1080,"line":2},{"line":2,"transit":false,"station_name":"Sawah Besar","time":2,"station_id":"SW","i_long":106.827103,"distance":906,"is_transit":false,"i_lat":-6.160725},{"station_name":"Juanda","time":2,"i_long":106.828284,"line":2,"transit":false,"is_transit":false,"station_id":"JUA","i_lat":-6.166716,"distance":1149},{"i_lat":-6.186295,"time":4,"distance":2015,"station_id":"GDD","transit":false,"line":2,"is_transit":false,"station_name":"Gondangdia","i_long":106.832183},{"time":3,"line":2,"i_lat":-6.198556,"station_id":"CKI","transit":false,"station_name":"Cikini","distance":1750,"is_transit":false,"i_long":106.840169},{"i_long":106.84912,"station_name":"Manggarai","i_lat":-6.209883,"line":2,"transit":true,"time":4,"distance":1590,"is_transit":true,"station_id":"MRI"},{"line":1,"station_name":"Matraman","i_long":106.858896,"transit":false,"time":2,"is_transit":false,"station_id":"MTR","i_lat":-6.212485,"distance":1275},{"station_id":"JNG","i_lat":-6.215091,"is_transit":false,"distance":1377,"transit":false,"time":8,"i_long":106.86807400000001,"station_name":"Jatinegara","line":1},{"station_id":"KLD","station_name":"Klender","time":3,"i_lat":-6.2135,"is_transit":false,"transit":false,"line":1,"distance":3395,"i_long":106.899548},{"is_transit":false,"time":2,"transit":false,"station_name":"Buaran","station_id":"BUA","i_lat":-6.215568,"distance":3100,"i_long":106.922662,"line":1},{"is_transit":false,"time":1,"transit":false,"station_id":"KLDB","station_name":"Klenderbaru","distance":1305,"i_lat":-6.217455,"line":1,"i_long":106.939679},{"i_lat":-6.219053,"station_name":"Cakung","is_transit":false,"transit":false,"station_id":"CUK","line":1,"time":8,"distance":1385,"i_long":106.951283},{"i_lat":-6.224515,"i_long":106.977657,"transit":false,"is_transit":false,"time":3,"line":1,"station_name":"Kranji","station_id":"KRI","distance":3097},{"line":1,"is_transit":false,"station_name":"Bekasi","time":4,"station_id":"BKS","transit":false,"i_lat":-6.236616,"distance":2520,"i_long":106.997013},{"i_long":107.016735,"station_name":"Bekasi Timur","station_id":"BKST","time":2,"distance":2368,"is_transit":false,"i_lat":-6.248029,"line":1,"transit":false},{"time":7,"transit":false,"is_transit":false,"station_id":"TB","line":1,"i_lat":-6.258864,"i_long":107.055722,"station_name":"Tambun","distance":4460}]]}