{"data":[[{"station_name":"Rajawali","i_lat":-6.14505,"line":11,"time":0,"transit":false,"i_long":106.836569,"is_transit":false,"station_id":"RJW","distance":0},{"line":11,"distance":1901,"station_id":"KMO","time":5,"is_transit":false,"station_name":"Kemayoran","transit":false,"i_lat":-6.161728,"i_long":106.839204},{"transit":false,"line":11,"is_transit":false,"distance":1436,"station_name":"Pasar Senen","time":4,"i_long":106.84368,"station_id":"PSE","i_lat":-6.174784},{"distance":1567,"station_id":"GST","line":11,"i_long":106.850107,"is_transit":false,"i_lat":-6.185975,"time":8,"station_name":"Gang Sentiong","transit":false},{"time":1,"distance":973,"is_transit":false,"station_name":"Kramat","i_lat":-6.193792,"line":11,"transit":false,"station_id":"KMT","i_long":106.855437},{"transit":false,"i_lat":-6.209188,"station_id":"POK","is_transit":false,"i_long":106.861737,"distance":1829,"time":2,"line":11,"station_name":"Pondok Jati"},{"transit":true,"is_transit":true,"i_lat":-6.215091,"station_name":"Jatinegara","i_long":106.86807400000001,"distance":1236,"line":1,"time":9,"station_id":"JNG"},{"station_id":"KLD","is_transit":false,"station_name":"Klender","i_lat":-6.2135,"line":1,"distance":3395,"time":3,"i_long":106.899548,"transit":false},{"distance":3100,"time":2,"line":1,"i_lat":-6.215568,"station_name":"Buaran","transit":false,"station_id":"BUA","i_long":106.922662,"is_transit":false},{"station_name":"Klenderbaru","i_long":106.939679,"transit":false,"distance":1305,"is_transit":false,"i_lat":-6.217455,"line":1,"time":1,"station_id":"KLDB"},{"time":8,"i_long":106.951283,"distance":1385,"is_transit":false,"station_name":"Cakung","line":1,"i_lat":-6.219053,"transit":false,"station_id":"CUK"},{"time":3,"station_name":"Kranji","i_lat":-6.224515,"line":1,"i_long":106.977657,"transit":false,"station_id":"KRI","is_transit":false,"distance":3097},{"station_name":"Bekasi","i_lat":-6.236616,"transit":false,"i_long":106.997013,"is_transit":false,"line":1,"distance":2520,"time":4,"station_id":"BKS"}],[{"i_long":106.836569,"line":11,"transit":false,"time":0,"is_transit":false,"station_name":"Rajawali","distance":0,"station_id":"RJW","i_lat":-6.14505},{"station_id":"KPB","station_name":"Kampung Bandan","line":4,"transit":true,"is_transit":true,"time":3,"i_lat":-6.132549,"distance":1444,"i_long":106.826365},{"is_transit":false,"line":1,"station_id":"AK","distance":4102,"i_lat":-6.144674,"time":9,"transit":false,"station_name":"Angke","i_long":106.79867},{"time":4,"distance":1230,"is_transit":false,"i_lat":-6.155215,"station_id":"DU","station_name":"Duri","i_long":106.800832,"line":1,"transit":false},{"station_id":"THB","distance":3632,"is_transit":false,"station_name":"Tanah Abang","time":8,"i_lat":-6.185545,"i_long":106.811091,"transit":false,"line":1},{"transit":false,"distance":2029,"station_name":"Karet","station_id":"KAT","time":5,"i_lat":-6.20132,"line":1,"is_transit":false,"i_long":106.816351},{"station_id":"SUDB","i_lat":-6.201433,"line":1,"transit":false,"i_long":106.819881,"time":1,"is_transit":false,"station_name":"Sudirman Baru","distance":471},{"station_name":"Sudirman","station_id":"SUD","i_long":106.822649,"time":1,"line":1,"i_lat":-6.202263,"is_transit":false,"distance":280,"transit":false},{"station_id":"MRI","transit":false,"station_name":"Manggarai","i_lat":-6.209883,"i_long":106.84912,"line":2,"distance":3186,"is_transit":false,"time":4},{"i_lat":-6.212485,"station_name":"Matraman","i_long":106.858896,"time":2,"transit":false,"line":1,"station_id":"MTR","distance":1275,"is_transit":false},{"i_lat":-6.215091,"station_name":"Jatinegara","i_long":106.86807400000001,"distance":1377,"time":8,"station_id":"JNG","transit":false,"line":1,"is_transit":false},{"time":3,"station_id":"KLD","i_lat":-6.2135,"transit":false,"is_transit":false,"station_name":"Klender","distance":3395,"line":1,"i_long":106.899548},{"is_transit":false,"station_id":"BUA","time":2,"station_name":"Buaran","distance":3100,"i_lat":-6.215568,"i_long":106.922662,"line":1,"transit":false},{"station_name":"Klenderbaru","station_id":"KLDB","distance":1305,"is_transit":false,"time":1,"i_lat":-6.217455,"line":1,"i_long":106.939679,"transit":false},{"station_name":"Cakung","is_transit":false,"station_id":"CUK","i_lat":-6.219053,"time":8,"transit":false,"i_long":106.951283,"line":1,"distance":1385},{"station_name":"Kranji","line":1,"distance":3097,"is_transit":false,"transit":false,"time":3,"i_long":106.977657,"i_lat":-6.224515,"station_id":"KRI"},{"line":1,"i_long":106.997013,"distance":2520,"transit":false,"is_transit":false,"time":4,"station_id":"BKS","station_name":"Bekasi","i_lat":-6.236616}],[{"is_transit":false,"station_name":"Rajawali","i_lat":-6.14505,"transit":false,"line":11,"station_id":"RJW","time":0,"i_long":106.836569,"distance":0},{"station_id":"KPB","line":4,"time":3,"i_long":106.826365,"distance":1444,"station_name":"Kampung Bandan","transit":true,"is_transit":true,"i_lat":-6.132549},{"time":3,"i_long":106.812439,"station_name":"Jakarta Kota","is_transit":true,"line":2,"transit":true,"station_id":"JAKK","i_lat":-6.137569,"distance":1364},{"line":2,"transit":false,"i_lat":-6.141205,"station_id":"JAY","station_name":"Jayakarta","time":4,"is_transit":false,"distance":1264,"i_long":106.820901},{"time":2,"is_transit":false,"line":2,"station_id":"MGB","station_name":"Manggabesar","distance":1080,"i_lat":-6.149769,"i_long":106.82482,"transit":false},{"transit":false,"i_lat":-6.160725,"station_name":"Sawah Besar","time":2,"i_long":106.827103,"station_id":"SW","distance":906,"line":2,"is_transit":false},{"distance":1149,"i_long":106.828284,"line":2,"station_name":"Juanda","transit":false,"time":2,"i_lat":-6.166716,"station_id":"JUA","is_transit":false},{"transit":false,"time":4,"station_name":"Gondangdia","is_transit":false,"distance":2015,"station_id":"GDD","i_lat":-6.186295,"line":2,"i_long":106.832183},{"distance":1750,"transit":false,"line":2,"i_lat":-6.198556,"station_id":"CKI","is_transit":false,"station_name":"Cikini","i_long":106.840169,"time":3},{"i_lat":-6.209883,"station_id":"MRI","station_name":"Manggarai","transit":true,"time":4,"distance":1590,"i_long":106.84912,"is_transit":true,"line":2},{"station_name":"Matraman","distance":1275,"is_transit":false,"i_long":106.858896,"i_lat":-6.212485,"line":1,"transit":false,"time":2,"station_id":"MTR"},{"time":8,"i_long":106.86807400000001,"i_lat":-6.215091,"station_name":"Jatinegara","distance":1377,"station_id":"JNG","transit":false,"is_transit":false,"line":1},{"station_id":"KLD","distance":3395,"station_name":"Klender","time":3,"transit":false,"i_lat":-6.2135,"i_long":106.899548,"is_transit":false,"line":1},{"i_long":106.922662,"line":1,"i_lat":-6.215568,"station_id":"BUA","transit":false,"station_name":"Buaran","is_transit":false,"time":2,"distance":3100},{"i_long":106.939679,"station_id":"KLDB","is_transit":false,"i_lat":-6.217455,"line":1,"distance":1305,"station_name":"Klenderbaru","time":1,"transit":false},{"distance":1385,"station_name":"Cakung","transit":false,"is_transit":false,"time":8,"i_long":106.951283,"line":1,"station_id":"CUK","i_lat":-6.219053},{"time":3,"distance":3097,"i_long":106.977657,"station_id":"KRI","transit":false,"line":1,"station_name":"Kranji","is_transit":false,"i_lat":-6.224515},{"transit":false,"line":1,"station_name":"Bekasi","is_transit":false,"time":4,"distance":2520,"station_id":"BKS","i_long":106.997013,"i_lat":-6.236616}]]}