{"data":[[{"station_id":"RJW","i_lat":-6.14505,"line":11,"is_transit":false,"station_name":"Rajawali","transit":false,"time":0,"distance":0,"i_long":106.836569},{"station_id":"KPB","transit":true,"station_name":"Kampung Bandan","distance":1444,"is_transit":true,"time":3,"i_long":106.826365,"i_lat":-6.132549,"line":4},{"transit":false,"station_id":"AK","distance":4102,"time":9,"is_transit":false,"i_long":106.79867,"station_name":"Angke","i_lat":-6.144674,"line":1},{"station_id":"DU","time":4,"distance":1230,"i_long":106.800832,"transit":false,"i_lat":-6.155215,"line":1,"station_name":"Duri","is_transit":false}],[{"distance":0,"i_long":106.836569,"line":11,"is_transit":false,"station_name":"Rajawali","time":0,"station_id":"RJW","i_lat":-6.14505,"transit":false},{"is_transit":false,"time":5,"i_lat":-6.161728,"distance":1901,"transit":false,"station_id":"KMO","line":11,"i_long":106.839204,"station_name":"Kemayoran"},{"distance":1436,"i_long":106.84368,"line":11,"time":4,"i_lat":-6.174784,"is_transit":false,"transit":false,"station_name":"Pasar Senen","station_id":"PSE"},{"is_transit":false,"i_lat":-6.185975,"transit":false,"time":8,"station_name":"Gang Sentiong","distance":1567,"station_id":"GST","i_long":106.850107,"line":11},{"is_transit":false,"station_name":"Kramat","time":1,"line":11,"transit":false,"station_id":"KMT","distance":973,"i_long":106.855437,"i_lat":-6.193792},{"time":2,"station_name":"Pondok Jati","station_id":"POK","distance":1829,"i_lat":-6.209188,"i_long":106.861737,"is_transit":false,"line":11,"transit":false},{"is_transit":true,"time":9,"station_id":"JNG","distance":1236,"station_name":"Jatinegara","i_long":106.86807400000001,"transit":true,"line":1,"i_lat":-6.215091},{"station_name":"Matraman","distance":1377,"i_lat":-6.212485,"time":2,"i_long":106.858896,"line":1,"station_id":"MTR","transit":false,"is_transit":false},{"i_lat":-6.209883,"i_long":106.84912,"line":2,"is_transit":false,"time":2,"station_id":"MRI","distance":1275,"transit":false,"station_name":"Manggarai"},{"i_lat":-6.202263,"time":4,"i_long":106.822649,"transit":false,"station_id":"SUD","station_name":"Sudirman","line":1,"is_transit":false,"distance":3186},{"is_transit":false,"i_lat":-6.201433,"i_long":106.819881,"distance":280,"time":1,"station_name":"Sudirman Baru","line":1,"station_id":"SUDB","transit":false},{"transit":false,"station_name":"Karet","station_id":"KAT","distance":471,"i_lat":-6.20132,"is_transit":false,"i_long":106.816351,"line":1,"time":1},{"station_name":"Tanah Abang","is_transit":false,"time":5,"station_id":"THB","i_lat":-6.185545,"i_long":106.811091,"line":1,"transit":false,"distance":2029},{"line":1,"i_long":106.800832,"distance":3632,"is_transit":false,"transit":false,"station_id":"DU","i_lat":-6.155215,"station_name":"Duri","time":8}],[{"line":11,"transit":false,"station_id":"RJW","i_long":106.836569,"time":0,"i_lat":-6.14505,"station_name":"Rajawali","distance":0,"is_transit":false},{"station_id":"KPB","transit":true,"is_transit":true,"distance":1444,"time":3,"i_lat":-6.132549,"line":4,"i_long":106.826365,"station_name":"Kampung Bandan"},{"transit":true,"station_name":"Jakarta Kota","i_long":106.812439,"line":2,"i_lat":-6.137569,"is_transit":true,"station_id":"JAKK","time":3,"distance":1364},{"line":2,"station_id":"JAY","time":4,"i_long":106.820901,"is_transit":false,"transit":false,"station_name":"Jayakarta","distance":1264,"i_lat":-6.141205},{"is_transit":false,"i_long":106.82482,"i_lat":-6.149769,"line":2,"station_id":"MGB","distance":1080,"transit":false,"time":2,"station_name":"Manggabesar"},{"i_long":106.827103,"line":2,"station_name":"Sawah Besar","is_transit":false,"transit":false,"time":2,"station_id":"SW","i_lat":-6.160725,"distance":906},{"time":2,"distance":1149,"station_id":"JUA","line":2,"transit":false,"i_lat":-6.166716,"station_name":"Juanda","is_transit":false,"i_long":106.828284},{"i_lat":-6.186295,"station_name":"Gondangdia","time":4,"distance":2015,"transit":false,"i_long":106.832183,"station_id":"GDD","is_transit":false,"line":2},{"station_name":"Cikini","station_id":"CKI","time":3,"i_lat":-6.198556,"line":2,"i_long":106.840169,"transit":false,"is_transit":false,"distance":1750},{"station_name":"Manggarai","transit":true,"is_transit":true,"station_id":"MRI","distance":1590,"time":4,"i_lat":-6.209883,"i_long":106.84912,"line":2},{"station_name":"Sudirman","time":4,"i_long":106.822649,"distance":3186,"station_id":"SUD","i_lat":-6.202263,"line":1,"transit":false,"is_transit":false},{"i_lat":-6.201433,"distance":280,"station_name":"Sudirman Baru","line":1,"i_long":106.819881,"station_id":"SUDB","is_transit":false,"time":1,"transit":false},{"station_name":"Karet","distance":471,"i_lat":-6.20132,"transit":false,"i_long":106.816351,"line":1,"is_transit":false,"time":1,"station_id":"KAT"},{"transit":false,"time":5,"distance":2029,"i_lat":-6.185545,"is_transit":false,"i_long":106.811091,"line":1,"station_name":"Tanah Abang","station_id":"THB"},{"is_transit":false,"station_name":"Duri","time":8,"transit":false,"i_lat":-6.155215,"i_long":106.800832,"distance":3632,"station_id":"DU","line":1}],[{"i_long":106.836569,"station_id":"RJW","transit":false,"station_name":"Rajawali","is_transit":false,"time":0,"distance":0,"i_lat":-6.14505,"line":11},{"station_name":"Kemayoran","is_transit":false,"i_long":106.839204,"line":11,"distance":1901,"transit":false,"station_id":"KMO","time":5,"i_lat":-6.161728},{"distance":1436,"station_id":"PSE","line":11,"station_name":"Pasar Senen","time":4,"is_transit":false,"i_lat":-6.174784,"transit":false,"i_long":106.84368},{"i_lat":-6.185975,"time":8,"distance":1567,"station_id":"GST","is_transit":false,"transit":false,"station_name":"Gang Sentiong","line":11,"i_long":106.850107},{"i_lat":-6.193792,"time":1,"station_name":"Kramat","is_transit":false,"station_id":"KMT","transit":false,"line":11,"i_long":106.855437,"distance":973},{"station_name":"Pondok Jati","is_transit":false,"station_id":"POK","transit":false,"time":2,"i_long":106.861737,"i_lat":-6.209188,"distance":1829,"line":11},{"i_long":106.86807400000001,"transit":true,"station_name":"Jatinegara","is_transit":true,"line":1,"time":9,"distance":1236,"station_id":"JNG","i_lat":-6.215091},{"station_name":"Matraman","distance":1377,"station_id":"MTR","i_lat":-6.212485,"i_long":106.858896,"transit":false,"line":1,"time":2,"is_transit":false},{"i_lat":-6.209883,"transit":true,"station_id":"MRI","is_transit":true,"time":2,"station_name":"Manggarai","distance":1275,"i_long":106.84912,"line":2},{"i_lat":-6.198556,"distance":1590,"transit":false,"i_long":106.840169,"station_id":"CKI","station_name":"Cikini","is_transit":false,"time":4,"line":2},{"i_long":106.832183,"transit":false,"station_id":"GDD","line":2,"station_name":"Gondangdia","time":3,"i_lat":-6.186295,"distance":1750,"is_transit":false},{"transit":false,"i_long":106.828284,"distance":2015,"is_transit":false,"time":4,"station_name":"Juanda","i_lat":-6.166716,"station_id":"JUA","line":2},{"is_transit":false,"station_id":"SW","time":2,"line":2,"i_lat":-6.160725,"distance":1149,"station_name":"Sawah Besar","i_long":106.827103,"transit":false},{"i_long":106.82482,"station_name":"Manggabesar","i_lat":-6.149769,"transit":false,"station_id":"MGB","line":2,"is_transit":false,"time":2,"distance":906},{"time":2,"is_transit":false,"transit":false,"i_long":106.820901,"distance":1080,"i_lat":-6.141205,"line":2,"station_id":"JAY","station_name":"Jayakarta"},{"line":2,"i_long":106.812439,"station_name":"Jakarta Kota","time":4,"i_lat":-6.137569,"distance":1264,"is_transit":true,"station_id":"JAKK","transit":true},{"station_id":"KPB","line":4,"distance":1364,"transit":true,"i_lat":-6.132549,"time":3,"i_long":106.826365,"station_name":"Kampung Bandan","is_transit":true},{"time":9,"is_transit":false,"station_id":"AK","distance":4102,"i_lat":-6.144674,"i_long":106.79867,"station_name":"Angke","line":1,"transit":false},{"line":1,"i_lat":-6.155215,"station_name":"Duri","transit":false,"i_long":106.800832,"time":4,"is_transit":false,"station_id":"DU","distance":1230}]]}