{"data":[[{"time":0,"is_transit":false,"distance":0,"line":11,"station_id":"RJW","i_long":106.836569,"i_lat":-6.14505,"transit":false,"station_name":"Rajawali"},{"i_long":106.826365,"transit":true,"i_lat":-6.132549,"is_transit":true,"time":3,"distance":1444,"line":4,"station_name":"Kampung Bandan","station_id":"KPB"},{"i_long":106.79867,"station_name":"Angke","time":9,"distance":4102,"line":1,"i_lat":-6.144674,"transit":false,"station_id":"AK","is_transit":false},{"time":4,"distance":1230,"station_id":"DU","i_long":106.800832,"is_transit":false,"line":1,"station_name":"Duri","transit":false,"i_lat":-6.155215}],[{"transit":false,"i_lat":-6.14505,"station_id":"RJW","i_long":106.836569,"distance":0,"time":0,"is_transit":false,"line":11,"station_name":"Rajawali"},{"i_lat":-6.161728,"time":5,"distance":1901,"station_name":"Kemayoran","i_long":106.839204,"line":11,"is_transit":false,"transit":false,"station_id":"KMO"},{"transit":false,"station_name":"Pasar Senen","time":4,"i_lat":-6.174784,"station_id":"PSE","i_long":106.84368,"line":11,"distance":1436,"is_transit":false},{"distance":1567,"line":11,"is_transit":false,"time":8,"transit":false,"i_lat":-6.185975,"i_long":106.850107,"station_id":"GST","station_name":"Gang Sentiong"},{"station_id":"KMT","i_long":106.855437,"distance":973,"is_transit":false,"time":1,"station_name":"Kramat","line":11,"i_lat":-6.193792,"transit":false},{"is_transit":false,"station_name":"Pondok Jati","time":2,"line":11,"transit":false,"distance":1829,"i_long":106.861737,"i_lat":-6.209188,"station_id":"POK"},{"station_id":"JNG","time":9,"i_lat":-6.215091,"distance":1236,"station_name":"Jatinegara","is_transit":true,"i_long":106.86807400000001,"line":1,"transit":true},{"time":2,"station_name":"Matraman","distance":1377,"station_id":"MTR","i_lat":-6.212485,"is_transit":false,"line":1,"i_long":106.858896,"transit":false},{"transit":false,"line":2,"station_name":"Manggarai","i_lat":-6.209883,"station_id":"MRI","distance":1275,"is_transit":false,"i_long":106.84912,"time":2},{"time":4,"station_name":"Sudirman","i_long":106.822649,"distance":3186,"line":1,"is_transit":false,"transit":false,"station_id":"SUD","i_lat":-6.202263},{"time":1,"station_name":"Sudirman Baru","station_id":"SUDB","transit":false,"i_long":106.819881,"is_transit":false,"line":1,"distance":280,"i_lat":-6.201433},{"is_transit":false,"i_long":106.816351,"line":1,"i_lat":-6.20132,"transit":false,"time":1,"distance":471,"station_id":"KAT","station_name":"Karet"},{"i_long":106.811091,"distance":2029,"i_lat":-6.185545,"transit":false,"time":5,"line":1,"is_transit":false,"station_id":"THB","station_name":"Tanah Abang"},{"i_long":106.800832,"line":1,"station_name":"Duri","transit":false,"time":8,"is_transit":false,"distance":3632,"i_lat":-6.155215,"station_id":"DU"}],[{"i_long":106.836569,"is_transit":false,"distance":0,"station_id":"RJW","time":0,"transit":false,"station_name":"Rajawali","i_lat":-6.14505,"line":11},{"station_id":"KPB","transit":true,"station_name":"Kampung Bandan","line":4,"i_long":106.826365,"i_lat":-6.132549,"is_transit":true,"time":3,"distance":1444},{"distance":1364,"transit":true,"is_transit":true,"time":3,"i_lat":-6.137569,"i_long":106.812439,"station_name":"Jakarta Kota","line":2,"station_id":"JAKK"},{"station_name":"Jayakarta","station_id":"JAY","distance":1264,"line":2,"i_lat":-6.141205,"is_transit":false,"transit":false,"i_long":106.820901,"time":4},{"transit":false,"line":2,"i_lat":-6.149769,"time":2,"station_id":"MGB","is_transit":false,"i_long":106.82482,"station_name":"Manggabesar","distance":1080},{"time":2,"distance":906,"i_lat":-6.160725,"line":2,"station_name":"Sawah Besar","station_id":"SW","is_transit":false,"transit":false,"i_long":106.827103},{"time":2,"station_id":"JUA","i_lat":-6.166716,"i_long":106.828284,"station_name":"Juanda","line":2,"distance":1149,"transit":false,"is_transit":false},{"station_id":"GDD","i_lat":-6.186295,"distance":2015,"line":2,"i_long":106.832183,"transit":false,"time":4,"is_transit":false,"station_name":"Gondangdia"},{"time":3,"station_name":"Cikini","i_lat":-6.198556,"is_transit":false,"line":2,"i_long":106.840169,"transit":false,"distance":1750,"station_id":"CKI"},{"station_id":"MRI","is_transit":true,"line":2,"i_long":106.84912,"transit":true,"station_name":"Manggarai","i_lat":-6.209883,"distance":1590,"time":4},{"i_lat":-6.202263,"station_id":"SUD","transit":false,"i_long":106.822649,"time":4,"station_name":"Sudirman","distance":3186,"is_transit":false,"line":1},{"station_id":"SUDB","i_long":106.819881,"is_transit":false,"transit":false,"line":1,"i_lat":-6.201433,"time":1,"distance":280,"station_name":"Sudirman Baru"},{"station_name":"Karet","is_transit":false,"line":1,"time":1,"distance":471,"i_lat":-6.20132,"i_long":106.816351,"transit":false,"station_id":"KAT"},{"station_id":"THB","station_name":"Tanah Abang","line":1,"distance":2029,"time":5,"transit":false,"i_long":106.811091,"is_transit":false,"i_lat":-6.185545},{"line":1,"transit":false,"is_transit":false,"station_name":"Duri","i_lat":-6.155215,"i_long":106.800832,"time":8,"station_id":"DU","distance":3632}],[{"i_long":106.836569,"line":11,"transit":false,"distance":0,"is_transit":false,"i_lat":-6.14505,"station_id":"RJW","station_name":"Rajawali","time":0},{"time":5,"transit":false,"i_lat":-6.161728,"station_id":"KMO","i_long":106.839204,"station_name":"Kemayoran","is_transit":false,"distance":1901,"line":11},{"is_transit":false,"time":4,"station_id":"PSE","station_name":"Pasar Senen","i_long":106.84368,"transit":false,"line":11,"i_lat":-6.174784,"distance":1436},{"transit":false,"station_id":"GST","time":8,"line":11,"station_name":"Gang Sentiong","i_long":106.850107,"distance":1567,"i_lat":-6.185975,"is_transit":false},{"i_long":106.855437,"i_lat":-6.193792,"time":1,"line":11,"distance":973,"station_name":"Kramat","is_transit":false,"transit":false,"station_id":"KMT"},{"is_transit":false,"i_lat":-6.209188,"station_name":"Pondok Jati","transit":false,"distance":1829,"i_long":106.861737,"time":2,"station_id":"POK","line":11},{"time":9,"i_lat":-6.215091,"station_id":"JNG","distance":1236,"transit":true,"station_name":"Jatinegara","i_long":106.86807400000001,"is_transit":true,"line":1},{"distance":1377,"is_transit":false,"transit":false,"i_lat":-6.212485,"station_name":"Matraman","i_long":106.858896,"station_id":"MTR","time":2,"line":1},{"transit":true,"line":2,"is_transit":true,"distance":1275,"i_long":106.84912,"time":2,"i_lat":-6.209883,"station_name":"Manggarai","station_id":"MRI"},{"station_id":"CKI","is_transit":false,"station_name":"Cikini","line":2,"time":4,"transit":false,"distance":1590,"i_long":106.840169,"i_lat":-6.198556},{"time":3,"distance":1750,"i_long":106.832183,"line":2,"station_name":"Gondangdia","is_transit":false,"i_lat":-6.186295,"transit":false,"station_id":"GDD"},{"i_long":106.828284,"distance":2015,"station_id":"JUA","line":2,"transit":false,"station_name":"Juanda","is_transit":false,"time":4,"i_lat":-6.166716},{"station_name":"Sawah Besar","transit":false,"i_long":106.827103,"distance":1149,"time":2,"is_transit":false,"i_lat":-6.160725,"station_id":"SW","line":2},{"i_long":106.82482,"distance":906,"station_name":"Manggabesar","i_lat":-6.149769,"is_transit":false,"line":2,"station_id":"MGB","time":2,"transit":false},{"i_long":106.820901,"transit":false,"time":2,"i_lat":-6.141205,"distance":1080,"station_name":"Jayakarta","line":2,"station_id":"JAY","is_transit":false},{"i_lat":-6.137569,"line":2,"is_transit":true,"transit":true,"i_long":106.812439,"distance":1264,"station_name":"Jakarta Kota","station_id":"JAKK","time":4},{"is_transit":true,"station_id":"KPB","i_long":106.826365,"time":3,"transit":true,"distance":1364,"i_lat":-6.132549,"line":4,"station_name":"Kampung Bandan"},{"is_transit":false,"i_lat":-6.144674,"line":1,"i_long":106.79867,"station_name":"Angke","transit":false,"time":9,"distance":4102,"station_id":"AK"},{"i_lat":-6.155215,"time":4,"line":1,"station_name":"Duri","transit":false,"distance":1230,"is_transit":false,"i_long":106.800832,"station_id":"DU"}]]}