{"data":[[{"transit":false,"i_long":106.836569,"time":0,"station_name":"Rajawali","is_transit":false,"distance":0,"station_id":"RJW","line":11,"i_lat":-6.14505},{"i_lat":-6.161728,"i_long":106.839204,"station_name":"Kemayoran","is_transit":false,"time":5,"station_id":"KMO","distance":1901,"line":11,"transit":false},{"line":11,"transit":false,"is_transit":false,"station_name":"Pasar Senen","time":4,"station_id":"PSE","distance":1436,"i_long":106.84368,"i_lat":-6.174784},{"station_id":"GST","distance":1567,"is_transit":false,"i_long":106.850107,"station_name":"Gang Sentiong","line":11,"transit":false,"i_lat":-6.185975,"time":8},{"time":1,"i_long":106.855437,"station_name":"Kramat","line":11,"is_transit":false,"distance":973,"i_lat":-6.193792,"station_id":"KMT","transit":false},{"i_long":106.861737,"line":11,"transit":false,"station_id":"POK","distance":1829,"is_transit":false,"station_name":"Pondok Jati","time":2,"i_lat":-6.209188},{"transit":true,"station_name":"Jatinegara","line":1,"i_long":106.86807400000001,"distance":1236,"i_lat":-6.215091,"is_transit":true,"time":9,"station_id":"JNG"},{"station_name":"Klender","line":1,"time":3,"is_transit":false,"distance":3395,"transit":false,"i_lat":-6.2135,"i_long":106.899548,"station_id":"KLD"},{"is_transit":false,"station_id":"BUA","transit":false,"station_name":"Buaran","time":2,"i_lat":-6.215568,"distance":3100,"i_long":106.922662,"line":1},{"distance":1305,"transit":false,"station_name":"Klenderbaru","is_transit":false,"station_id":"KLDB","time":1,"i_long":106.939679,"line":1,"i_lat":-6.217455},{"transit":false,"station_id":"CUK","time":8,"distance":1385,"station_name":"Cakung","i_lat":-6.219053,"i_long":106.951283,"line":1,"is_transit":false},{"i_long":106.977657,"distance":3097,"station_id":"KRI","line":1,"station_name":"Kranji","transit":false,"i_lat":-6.224515,"is_transit":false,"time":3},{"is_transit":false,"transit":false,"time":4,"distance":2520,"i_lat":-6.236616,"i_long":106.997013,"station_id":"BKS","line":1,"station_name":"Bekasi"}],[{"station_id":"RJW","is_transit":false,"time":0,"line":11,"transit":false,"station_name":"Rajawali","distance":0,"i_lat":-6.14505,"i_long":106.836569},{"station_name":"Kampung Bandan","i_long":106.826365,"station_id":"KPB","is_transit":true,"transit":true,"i_lat":-6.132549,"line":4,"time":3,"distance":1444},{"transit":false,"i_long":106.79867,"station_id":"AK","distance":4102,"i_lat":-6.144674,"is_transit":false,"time":9,"line":1,"station_name":"Angke"},{"i_long":106.800832,"time":4,"station_id":"DU","station_name":"Duri","distance":1230,"line":1,"transit":false,"is_transit":false,"i_lat":-6.155215},{"time":8,"station_id":"THB","station_name":"Tanah Abang","distance":3632,"transit":false,"i_lat":-6.185545,"i_long":106.811091,"is_transit":false,"line":1},{"i_lat":-6.20132,"station_id":"KAT","is_transit":false,"i_long":106.816351,"transit":false,"time":5,"line":1,"distance":2029,"station_name":"Karet"},{"line":1,"is_transit":false,"station_name":"Sudirman Baru","transit":false,"i_long":106.819881,"station_id":"SUDB","distance":471,"i_lat":-6.201433,"time":1},{"transit":false,"line":1,"time":1,"is_transit":false,"i_lat":-6.202263,"station_id":"SUD","distance":280,"station_name":"Sudirman","i_long":106.822649},{"distance":3186,"line":2,"transit":false,"i_long":106.84912,"time":4,"station_id":"MRI","i_lat":-6.209883,"is_transit":false,"station_name":"Manggarai"},{"station_id":"MTR","transit":false,"is_transit":false,"i_long":106.858896,"time":2,"i_lat":-6.212485,"line":1,"station_name":"Matraman","distance":1275},{"i_lat":-6.215091,"i_long":106.86807400000001,"line":1,"time":8,"station_name":"Jatinegara","station_id":"JNG","distance":1377,"transit":false,"is_transit":false},{"distance":3395,"transit":false,"time":3,"station_id":"KLD","line":1,"station_name":"Klender","i_lat":-6.2135,"is_transit":false,"i_long":106.899548},{"transit":false,"station_name":"Buaran","station_id":"BUA","time":2,"line":1,"i_long":106.922662,"i_lat":-6.215568,"is_transit":false,"distance":3100},{"station_name":"Klenderbaru","station_id":"KLDB","i_lat":-6.217455,"time":1,"distance":1305,"i_long":106.939679,"line":1,"transit":false,"is_transit":false},{"transit":false,"station_name":"Cakung","time":8,"is_transit":false,"distance":1385,"i_lat":-6.219053,"line":1,"station_id":"CUK","i_long":106.951283},{"station_name":"Kranji","transit":false,"station_id":"KRI","distance":3097,"time":3,"i_lat":-6.224515,"i_long":106.977657,"line":1,"is_transit":false},{"station_name":"Bekasi","station_id":"BKS","is_transit":false,"distance":2520,"i_lat":-6.236616,"line":1,"transit":false,"time":4,"i_long":106.997013}],[{"i_lat":-6.14505,"is_transit":false,"i_long":106.836569,"station_name":"Rajawali","line":11,"time":0,"station_id":"RJW","distance":0,"transit":false},{"station_name":"Kampung Bandan","transit":true,"i_long":106.826365,"station_id":"KPB","line":4,"i_lat":-6.132549,"distance":1444,"is_transit":true,"time":3},{"transit":true,"station_id":"JAKK","station_name":"Jakarta Kota","is_transit":true,"distance":1364,"i_lat":-6.137569,"i_long":106.812439,"time":3,"line":2},{"transit":false,"i_long":106.820901,"distance":1264,"i_lat":-6.141205,"station_name":"Jayakarta","is_transit":false,"station_id":"JAY","line":2,"time":4},{"time":2,"i_lat":-6.149769,"is_transit":false,"distance":1080,"station_id":"MGB","i_long":106.82482,"line":2,"station_name":"Manggabesar","transit":false},{"i_long":106.827103,"i_lat":-6.160725,"line":2,"transit":false,"time":2,"distance":906,"station_name":"Sawah Besar","is_transit":false,"station_id":"SW"},{"transit":false,"time":2,"line":2,"station_id":"JUA","is_transit":false,"i_lat":-6.166716,"i_long":106.828284,"station_name":"Juanda","distance":1149},{"is_transit":false,"i_lat":-6.186295,"line":2,"i_long":106.832183,"distance":2015,"transit":false,"station_id":"GDD","time":4,"station_name":"Gondangdia"},{"time":3,"station_id":"CKI","distance":1750,"transit":false,"station_name":"Cikini","i_long":106.840169,"line":2,"is_transit":false,"i_lat":-6.198556},{"station_id":"MRI","time":4,"transit":true,"i_lat":-6.209883,"i_long":106.84912,"station_name":"Manggarai","distance":1590,"line":2,"is_transit":true},{"line":1,"distance":1275,"is_transit":false,"i_long":106.858896,"transit":false,"time":2,"station_name":"Matraman","station_id":"MTR","i_lat":-6.212485},{"distance":1377,"line":1,"time":8,"i_lat":-6.215091,"i_long":106.86807400000001,"station_name":"Jatinegara","station_id":"JNG","transit":false,"is_transit":false},{"is_transit":false,"station_name":"Klender","i_lat":-6.2135,"time":3,"transit":false,"distance":3395,"station_id":"KLD","i_long":106.899548,"line":1},{"transit":false,"time":2,"station_name":"Buaran","line":1,"i_lat":-6.215568,"i_long":106.922662,"is_transit":false,"distance":3100,"station_id":"BUA"},{"line":1,"time":1,"station_id":"KLDB","i_lat":-6.217455,"transit":false,"station_name":"Klenderbaru","i_long":106.939679,"is_transit":false,"distance":1305},{"transit":false,"distance":1385,"station_id":"CUK","line":1,"is_transit":false,"station_name":"Cakung","i_lat":-6.219053,"time":8,"i_long":106.951283},{"distance":3097,"line":1,"i_lat":-6.224515,"is_transit":false,"transit":false,"station_id":"KRI","station_name":"Kranji","time":3,"i_long":106.977657},{"distance":2520,"i_lat":-6.236616,"line":1,"is_transit":false,"i_long":106.997013,"transit":false,"station_name":"Bekasi","time":4,"station_id":"BKS"}]]}