{"data":[[{"station_name":"Rajawali","line":11,"station_id":"RJW","transit":false,"is_transit":false,"i_lat":-6.14505,"distance":0,"time":0,"i_long":106.836569},{"i_lat":-6.161728,"station_name":"Kemayoran","i_long":106.839204,"line":11,"time":5,"station_id":"KMO","is_transit":false,"transit":false,"distance":1901},{"station_id":"PSE","station_name":"Pasar Senen","transit":false,"is_transit":false,"time":4,"i_lat":-6.174784,"line":11,"distance":1436,"i_long":106.84368},{"transit":false,"is_transit":false,"station_name":"Gang Sentiong","line":11,"i_long":106.850107,"station_id":"GST","time":8,"i_lat":-6.185975,"distance":1567},{"i_lat":-6.193792,"distance":973,"time":1,"station_id":"KMT","station_name":"Kramat","transit":false,"i_long":106.855437,"is_transit":false,"line":11},{"line":11,"distance":1829,"transit":false,"station_id":"POK","i_long":106.861737,"i_lat":-6.209188,"time":2,"is_transit":false,"station_name":"Pondok Jati"},{"i_long":106.86807400000001,"transit":true,"distance":1236,"station_id":"JNG","is_transit":true,"time":9,"i_lat":-6.215091,"station_name":"Jatinegara","line":0},{"i_long":106.899548,"transit":false,"is_transit":false,"i_lat":-6.2135,"line":1,"station_id":"KLD","distance":3395,"station_name":"Klender","time":3},{"station_name":"Buaran","is_transit":false,"i_long":106.922662,"transit":false,"station_id":"BUA","i_lat":-6.215568,"time":2,"line":0,"distance":3100},{"time":1,"i_long":106.939679,"line":1,"station_name":"Klenderbaru","distance":1305,"station_id":"KLDB","i_lat":-6.217455,"is_transit":false,"transit":false},{"is_transit":false,"station_name":"Cakung","distance":1385,"transit":false,"time":8,"i_lat":-6.219053,"line":0,"station_id":"CUK","i_long":106.951283},{"station_id":"KRI","i_long":106.977657,"i_lat":-6.224515,"line":1,"is_transit":false,"station_name":"Kranji","transit":false,"distance":3097,"time":3},{"i_lat":-6.236616,"line":0,"station_id":"BKS","i_long":106.997013,"is_transit":false,"station_name":"Bekasi","time":4,"distance":2520,"transit":false}],[{"station_id":"RJW","time":0,"i_long":106.836569,"i_lat":-6.14505,"is_transit":false,"station_name":"Rajawali","transit":false,"distance":0,"line":11},{"station_name":"Kampung Bandan","i_long":106.826365,"line":0,"i_lat":-6.132549,"station_id":"KPB","is_transit":true,"transit":true,"time":3,"distance":1444},{"is_transit":false,"distance":4102,"line":0,"station_name":"Angke","transit":false,"time":9,"i_lat":-6.144674,"i_long":106.79867,"station_id":"AK"},{"line":1,"i_long":106.800832,"station_id":"DU","time":4,"distance":1230,"station_name":"Duri","transit":true,"is_transit":true,"i_lat":-6.155215},{"station_id":"THB","is_transit":true,"time":8,"line":1,"i_lat":-6.185545,"station_name":"Tanah Abang","transit":false,"distance":3632,"i_long":106.811091},{"station_name":"Karet","i_lat":-6.20132,"station_id":"KAT","i_long":106.816351,"distance":2029,"is_transit":false,"time":5,"line":1,"transit":false},{"line":1,"station_name":"Sudirman Baru","is_transit":false,"i_long":106.819881,"transit":false,"i_lat":-6.201433,"station_id":"SUDB","time":1,"distance":471},{"i_lat":-6.202263,"i_long":106.822649,"line":1,"time":1,"transit":false,"station_id":"SUD","is_transit":false,"station_name":"Sudirman","distance":280},{"i_lat":-6.209883,"distance":3186,"is_transit":true,"station_id":"MRI","station_name":"Manggarai","transit":false,"time":4,"i_long":106.84912,"line":0},{"line":1,"time":2,"distance":1275,"station_id":"MTR","is_transit":false,"transit":false,"i_lat":-6.212485,"i_long":106.858896,"station_name":"Matraman"},{"station_name":"Jatinegara","i_lat":-6.215091,"station_id":"JNG","transit":false,"line":0,"is_transit":true,"i_long":106.86807400000001,"time":8,"distance":1377},{"transit":false,"i_long":106.899548,"line":1,"distance":3395,"is_transit":false,"station_id":"KLD","i_lat":-6.2135,"time":3,"station_name":"Klender"},{"transit":false,"i_lat":-6.215568,"time":2,"distance":3100,"station_id":"BUA","i_long":106.922662,"line":0,"station_name":"Buaran","is_transit":false},{"time":1,"i_lat":-6.217455,"station_id":"KLDB","transit":false,"is_transit":false,"station_name":"Klenderbaru","i_long":106.939679,"distance":1305,"line":1},{"station_id":"CUK","time":8,"distance":1385,"i_long":106.951283,"line":0,"is_transit":false,"station_name":"Cakung","transit":false,"i_lat":-6.219053},{"station_id":"KRI","station_name":"Kranji","transit":false,"line":1,"time":3,"is_transit":false,"i_lat":-6.224515,"i_long":106.977657,"distance":3097},{"line":0,"distance":2520,"station_id":"BKS","station_name":"Bekasi","time":4,"i_lat":-6.236616,"i_long":106.997013,"transit":false,"is_transit":false}],[{"i_long":106.836569,"transit":false,"station_id":"RJW","distance":0,"line":11,"station_name":"Rajawali","i_lat":-6.14505,"is_transit":false,"time":0},{"station_id":"KPB","line":0,"time":3,"i_long":106.826365,"transit":true,"station_name":"Kampung Bandan","i_lat":-6.132549,"distance":1444,"is_transit":true},{"i_long":106.812439,"i_lat":-6.137569,"is_transit":true,"station_name":"Jakarta Kota","distance":1364,"transit":true,"station_id":"JAKK","time":3,"line":0},{"is_transit":false,"station_id":"JAY","station_name":"Jayakarta","transit":false,"time":4,"i_long":106.820901,"line":7,"distance":1264,"i_lat":-6.141205},{"station_id":"MGB","distance":1080,"is_transit":false,"transit":false,"i_long":106.82482,"line":2,"station_name":"Manggabesar","time":2,"i_lat":-6.149769},{"line":2,"station_name":"Sawah Besar","is_transit":false,"station_id":"SW","i_long":106.827103,"time":2,"i_lat":-6.160725,"transit":false,"distance":906},{"is_transit":false,"station_name":"Juanda","transit":false,"time":2,"i_long":106.828284,"line":2,"i_lat":-6.166716,"distance":1149,"station_id":"JUA"},{"station_name":"Gondangdia","i_long":106.832183,"line":2,"time":4,"distance":2015,"i_lat":-6.186295,"transit":false,"is_transit":false,"station_id":"GDD"},{"i_lat":-6.198556,"distance":1750,"station_name":"Cikini","station_id":"CKI","line":0,"is_transit":false,"transit":false,"i_long":106.840169,"time":3},{"is_transit":true,"station_id":"MRI","line":0,"time":4,"transit":true,"distance":1590,"i_long":106.84912,"station_name":"Manggarai","i_lat":-6.209883},{"station_name":"Matraman","station_id":"MTR","line":1,"i_lat":-6.212485,"transit":false,"time":2,"is_transit":false,"i_long":106.858896,"distance":1275},{"line":0,"distance":1377,"transit":false,"is_transit":true,"station_name":"Jatinegara","station_id":"JNG","i_lat":-6.215091,"time":8,"i_long":106.86807400000001},{"i_lat":-6.2135,"i_long":106.899548,"station_id":"KLD","station_name":"Klender","time":3,"line":1,"is_transit":false,"distance":3395,"transit":false},{"time":2,"is_transit":false,"i_long":106.922662,"line":0,"i_lat":-6.215568,"distance":3100,"transit":false,"station_id":"BUA","station_name":"Buaran"},{"line":1,"transit":false,"i_long":106.939679,"time":1,"station_name":"Klenderbaru","distance":1305,"is_transit":false,"i_lat":-6.217455,"station_id":"KLDB"},{"station_name":"Cakung","line":0,"is_transit":false,"i_lat":-6.219053,"i_long":106.951283,"transit":false,"station_id":"CUK","time":8,"distance":1385},{"transit":false,"station_id":"KRI","distance":3097,"is_transit":false,"station_name":"Kranji","time":3,"i_long":106.977657,"line":1,"i_lat":-6.224515},{"i_long":106.997013,"station_id":"BKS","distance":2520,"time":4,"line":0,"is_transit":false,"station_name":"Bekasi","i_lat":-6.236616,"transit":false}]]}