{"data":[[{"time":0,"is_transit":false,"station_id":"RJW","station_name":"Rajawali","distance":0,"i_long":106.836569,"i_lat":-6.14505,"line":11,"transit":false},{"is_transit":true,"i_long":106.826365,"i_lat":-6.132549,"time":3,"transit":true,"distance":1444,"station_name":"Kampung Bandan","line":4,"station_id":"KPB"},{"i_lat":-6.144674,"station_id":"AK","station_name":"Angke","distance":4102,"time":9,"is_transit":false,"i_long":106.79867,"line":1,"transit":false},{"i_long":106.800832,"station_name":"Duri","line":1,"distance":1230,"station_id":"DU","i_lat":-6.155215,"time":4,"transit":false,"is_transit":false},{"time":8,"i_long":106.811091,"line":1,"i_lat":-6.185545,"station_name":"Tanah Abang","transit":true,"station_id":"THB","is_transit":true,"distance":3632},{"line":6,"station_id":"PLM","station_name":"Palmerah","is_transit":false,"i_long":106.79689,"i_lat":-6.207404,"distance":3191,"time":6,"transit":false},{"time":7,"station_name":"Kebayoran","transit":false,"distance":3737,"station_id":"KBY","is_transit":false,"i_lat":-6.237242,"i_long":106.780334,"line":6},{"transit":false,"station_id":"PDJ","is_transit":false,"line":6,"i_lat":-6.276362,"station_name":"Pondokranji","distance":6218,"i_long":106.74273,"time":8},{"station_id":"JMU","line":6,"transit":false,"i_lat":-6.288927,"station_name":"Jurangmangu","i_long":106.728916,"distance":2179,"time":3,"is_transit":false},{"time":4,"transit":false,"i_lat":-6.296963,"is_transit":false,"line":6,"distance":1994,"station_name":"Sudimara","i_long":106.712277,"station_id":"SDM"},{"is_transit":false,"i_lat":-6.314823,"i_long":106.675475,"station_id":"RU","line":6,"time":6,"station_name":"Rawa Buntu","distance":4566,"transit":false},{"distance":2413,"is_transit":false,"transit":false,"line":6,"time":4,"station_id":"SRP","station_name":"Serpong","i_lat":-6.319871,"i_long":106.66566},{"station_name":"Cisauk","distance":1784,"station_id":"CSK","transit":false,"is_transit":false,"time":4,"i_lat":-6.32484,"line":3,"i_long":106.640411},{"transit":false,"i_lat":-6.329547,"i_long":106.617853,"line":3,"is_transit":false,"station_name":"Cicayur","distance":2519,"station_id":"CC","time":4},{"transit":false,"station_name":"Parung Panjang","i_lat":-6.3441410000000005,"is_transit":false,"time":8,"distance":5968,"i_long":106.568863,"line":6,"station_id":"PRP"},{"line":3,"is_transit":false,"distance":7025,"time":9,"transit":false,"i_long":106.508482,"station_id":"CJT","i_lat":-6.354349,"station_name":"Cilejit"},{"distance":2675,"transit":false,"line":0,"is_transit":false,"station_name":"Daru","station_id":"DAR","i_lat":-6.338021,"i_long":106.491338,"time":6},{"distance":3902,"station_name":"Tenjo","is_transit":false,"transit":false,"i_long":106.460812,"time":5,"line":6,"i_lat":-6.327251,"station_id":"TEJ"},{"transit":false,"station_id":"TGS","i_lat":-6.328533,"line":6,"time":5,"station_name":"Tigaraksa","is_transit":false,"i_long":106.425991,"distance":2974},{"is_transit":false,"i_lat":-6.33561,"line":3,"station_name":"Cikoya","station_id":"CKY","time":3,"distance":2651,"i_long":106.411216,"transit":false},{"time":4,"station_name":"Maja","station_id":"MJ","transit":false,"i_long":106.394373,"distance":1853,"is_transit":false,"line":6,"i_lat":-6.332307}],[{"station_id":"RJW","line":11,"i_lat":-6.14505,"distance":0,"is_transit":false,"time":0,"i_long":106.836569,"transit":false,"station_name":"Rajawali"},{"time":5,"is_transit":false,"line":11,"transit":false,"station_id":"KMO","i_lat":-6.161728,"i_long":106.839204,"station_name":"Kemayoran","distance":1901},{"time":4,"distance":1436,"i_lat":-6.174784,"station_id":"PSE","is_transit":false,"i_long":106.84368,"line":11,"station_name":"Pasar Senen","transit":false},{"i_long":106.850107,"station_id":"GST","line":11,"station_name":"Gang Sentiong","transit":false,"i_lat":-6.185975,"distance":1567,"is_transit":false,"time":8},{"i_long":106.855437,"is_transit":false,"transit":false,"distance":973,"line":11,"i_lat":-6.193792,"time":1,"station_name":"Kramat","station_id":"KMT"},{"is_transit":false,"line":11,"station_id":"POK","i_lat":-6.209188,"transit":false,"i_long":106.861737,"distance":1829,"station_name":"Pondok Jati","time":2},{"distance":1236,"time":9,"i_long":106.86807400000001,"transit":true,"station_name":"Jatinegara","station_id":"JNG","i_lat":-6.215091,"line":1,"is_transit":true},{"station_name":"Matraman","station_id":"MTR","distance":1377,"line":1,"is_transit":false,"i_lat":-6.212485,"transit":false,"time":2,"i_long":106.858896},{"distance":1275,"i_lat":-6.209883,"i_long":106.84912,"line":2,"transit":false,"time":2,"is_transit":false,"station_name":"Manggarai","station_id":"MRI"},{"transit":false,"distance":3186,"station_name":"Sudirman","is_transit":false,"i_lat":-6.202263,"time":4,"station_id":"SUD","i_long":106.822649,"line":1},{"station_name":"Sudirman Baru","line":1,"station_id":"SUDB","transit":false,"distance":280,"time":1,"is_transit":false,"i_lat":-6.201433,"i_long":106.819881},{"time":1,"distance":471,"i_long":106.816351,"i_lat":-6.20132,"line":1,"station_id":"KAT","station_name":"Karet","is_transit":false,"transit":false},{"is_transit":true,"station_id":"THB","i_lat":-6.185545,"distance":2029,"station_name":"Tanah Abang","transit":true,"i_long":106.811091,"line":1,"time":5},{"i_long":106.79689,"line":6,"station_name":"Palmerah","distance":3191,"is_transit":false,"station_id":"PLM","time":6,"i_lat":-6.207404,"transit":false},{"line":6,"i_lat":-6.237242,"station_id":"KBY","is_transit":false,"transit":false,"station_name":"Kebayoran","distance":3737,"time":7,"i_long":106.780334},{"distance":6218,"station_name":"Pondokranji","i_long":106.74273,"i_lat":-6.276362,"line":6,"time":8,"transit":false,"station_id":"PDJ","is_transit":false},{"station_id":"JMU","i_lat":-6.288927,"is_transit":false,"i_long":106.728916,"line":6,"transit":false,"distance":2179,"time":3,"station_name":"Jurangmangu"},{"time":4,"i_lat":-6.296963,"station_id":"SDM","distance":1994,"i_long":106.712277,"line":6,"is_transit":false,"transit":false,"station_name":"Sudimara"},{"time":6,"distance":4566,"is_transit":false,"station_id":"RU","transit":false,"line":6,"station_name":"Rawa Buntu","i_long":106.675475,"i_lat":-6.314823},{"time":4,"station_name":"Serpong","station_id":"SRP","distance":2413,"line":6,"transit":false,"i_lat":-6.319871,"i_long":106.66566,"is_transit":false},{"station_id":"CSK","i_lat":-6.32484,"station_name":"Cisauk","i_long":106.640411,"transit":false,"time":4,"distance":1784,"line":3,"is_transit":false},{"i_lat":-6.329547,"station_name":"Cicayur","station_id":"CC","line":3,"i_long":106.617853,"is_transit":false,"time":4,"distance":2519,"transit":false},{"station_name":"Parung Panjang","distance":5968,"is_transit":false,"time":8,"station_id":"PRP","transit":false,"i_lat":-6.3441410000000005,"i_long":106.568863,"line":6},{"i_lat":-6.354349,"time":9,"transit":false,"station_id":"CJT","distance":7025,"i_long":106.508482,"station_name":"Cilejit","is_transit":false,"line":3},{"station_name":"Daru","time":6,"is_transit":false,"i_lat":-6.338021,"transit":false,"distance":2675,"station_id":"DAR","line":0,"i_long":106.491338},{"transit":false,"station_name":"Tenjo","station_id":"TEJ","time":5,"i_lat":-6.327251,"line":6,"distance":3902,"i_long":106.460812,"is_transit":false},{"line":6,"is_transit":false,"station_name":"Tigaraksa","i_long":106.425991,"distance":2974,"time":5,"i_lat":-6.328533,"transit":false,"station_id":"TGS"},{"time":3,"station_name":"Cikoya","i_long":106.411216,"is_transit":false,"i_lat":-6.33561,"transit":false,"distance":2651,"line":3,"station_id":"CKY"},{"is_transit":false,"i_lat":-6.332307,"transit":false,"station_name":"Maja","station_id":"MJ","distance":1853,"i_long":106.394373,"time":4,"line":6}],[{"distance":0,"transit":false,"station_name":"Rajawali","time":0,"i_long":106.836569,"i_lat":-6.14505,"is_transit":false,"station_id":"RJW","line":11},{"station_id":"KPB","is_transit":true,"i_lat":-6.132549,"i_long":106.826365,"distance":1444,"line":4,"time":3,"transit":true,"station_name":"Kampung Bandan"},{"transit":true,"station_name":"Jakarta Kota","is_transit":true,"time":3,"station_id":"JAKK","distance":1364,"i_long":106.812439,"line":2,"i_lat":-6.137569},{"transit":false,"time":4,"is_transit":false,"station_name":"Jayakarta","station_id":"JAY","distance":1264,"i_lat":-6.141205,"i_long":106.820901,"line":2},{"transit":false,"i_lat":-6.149769,"i_long":106.82482,"line":2,"is_transit":false,"distance":1080,"station_id":"MGB","station_name":"Manggabesar","time":2},{"station_name":"Sawah Besar","transit":false,"is_transit":false,"station_id":"SW","distance":906,"line":2,"time":2,"i_lat":-6.160725,"i_long":106.827103},{"transit":false,"station_id":"JUA","time":2,"i_lat":-6.166716,"i_long":106.828284,"distance":1149,"station_name":"Juanda","is_transit":false,"line":2},{"time":4,"is_transit":false,"distance":2015,"i_lat":-6.186295,"transit":false,"line":2,"station_id":"GDD","i_long":106.832183,"station_name":"Gondangdia"},{"time":3,"station_id":"CKI","i_lat":-6.198556,"i_long":106.840169,"station_name":"Cikini","is_transit":false,"transit":false,"distance":1750,"line":2},{"distance":1590,"i_lat":-6.209883,"station_name":"Manggarai","is_transit":true,"i_long":106.84912,"line":2,"station_id":"MRI","transit":true,"time":4},{"i_lat":-6.202263,"i_long":106.822649,"transit":false,"line":1,"is_transit":false,"time":4,"distance":3186,"station_id":"SUD","station_name":"Sudirman"},{"time":1,"transit":false,"distance":280,"i_lat":-6.201433,"i_long":106.819881,"station_name":"Sudirman Baru","line":1,"is_transit":false,"station_id":"SUDB"},{"station_id":"KAT","i_long":106.816351,"is_transit":false,"i_lat":-6.20132,"time":1,"station_name":"Karet","line":1,"transit":false,"distance":471},{"i_lat":-6.185545,"time":5,"i_long":106.811091,"station_name":"Tanah Abang","is_transit":true,"station_id":"THB","distance":2029,"transit":true,"line":1},{"line":6,"distance":3191,"station_name":"Palmerah","is_transit":false,"time":6,"i_long":106.79689,"station_id":"PLM","i_lat":-6.207404,"transit":false},{"time":7,"is_transit":false,"i_long":106.780334,"station_name":"Kebayoran","i_lat":-6.237242,"line":6,"station_id":"KBY","distance":3737,"transit":false},{"time":8,"station_id":"PDJ","is_transit":false,"i_lat":-6.276362,"line":6,"i_long":106.74273,"station_name":"Pondokranji","transit":false,"distance":6218},{"station_name":"Jurangmangu","is_transit":false,"transit":false,"distance":2179,"line":6,"i_long":106.728916,"i_lat":-6.288927,"station_id":"JMU","time":3},{"transit":false,"i_long":106.712277,"station_name":"Sudimara","line":6,"station_id":"SDM","time":4,"distance":1994,"i_lat":-6.296963,"is_transit":false},{"i_lat":-6.314823,"time":6,"station_name":"Rawa Buntu","distance":4566,"i_long":106.675475,"station_id":"RU","transit":false,"line":6,"is_transit":false},{"station_id":"SRP","i_long":106.66566,"transit":false,"station_name":"Serpong","line":6,"time":4,"distance":2413,"is_transit":false,"i_lat":-6.319871},{"transit":false,"i_lat":-6.32484,"station_name":"Cisauk","station_id":"CSK","line":3,"distance":1784,"is_transit":false,"i_long":106.640411,"time":4},{"transit":false,"i_lat":-6.329547,"i_long":106.617853,"is_transit":false,"distance":2519,"station_id":"CC","time":4,"station_name":"Cicayur","line":3},{"station_name":"Parung Panjang","is_transit":false,"i_long":106.568863,"line":6,"time":8,"station_id":"PRP","i_lat":-6.3441410000000005,"transit":false,"distance":5968},{"distance":7025,"time":9,"station_name":"Cilejit","station_id":"CJT","i_lat":-6.354349,"is_transit":false,"transit":false,"i_long":106.508482,"line":3},{"line":0,"station_id":"DAR","is_transit":false,"transit":false,"time":6,"distance":2675,"station_name":"Daru","i_lat":-6.338021,"i_long":106.491338},{"line":6,"transit":false,"station_id":"TEJ","i_lat":-6.327251,"is_transit":false,"i_long":106.460812,"distance":3902,"time":5,"station_name":"Tenjo"},{"line":6,"i_lat":-6.328533,"transit":false,"is_transit":false,"station_id":"TGS","station_name":"Tigaraksa","distance":2974,"i_long":106.425991,"time":5},{"transit":false,"is_transit":false,"i_lat":-6.33561,"station_id":"CKY","line":3,"time":3,"distance":2651,"i_long":106.411216,"station_name":"Cikoya"},{"i_lat":-6.332307,"is_transit":false,"station_id":"MJ","station_name":"Maja","line":6,"i_long":106.394373,"time":4,"transit":false,"distance":1853}],[{"time":0,"is_transit":false,"i_lat":-6.14505,"i_long":106.836569,"transit":false,"station_name":"Rajawali","station_id":"RJW","line":11,"distance":0},{"station_name":"Kemayoran","i_lat":-6.161728,"time":5,"distance":1901,"station_id":"KMO","transit":false,"line":11,"i_long":106.839204,"is_transit":false},{"time":4,"distance":1436,"station_name":"Pasar Senen","i_long":106.84368,"station_id":"PSE","transit":false,"is_transit":false,"i_lat":-6.174784,"line":11},{"time":8,"line":11,"station_name":"Gang Sentiong","is_transit":false,"transit":false,"station_id":"GST","distance":1567,"i_lat":-6.185975,"i_long":106.850107},{"time":1,"station_name":"Kramat","transit":false,"station_id":"KMT","distance":973,"is_transit":false,"line":11,"i_lat":-6.193792,"i_long":106.855437},{"i_long":106.861737,"time":2,"transit":false,"station_id":"POK","station_name":"Pondok Jati","distance":1829,"line":11,"is_transit":false,"i_lat":-6.209188},{"time":9,"station_id":"JNG","transit":true,"station_name":"Jatinegara","distance":1236,"line":1,"i_lat":-6.215091,"is_transit":true,"i_long":106.86807400000001},{"transit":false,"station_name":"Matraman","time":2,"distance":1377,"i_long":106.858896,"line":1,"station_id":"MTR","is_transit":false,"i_lat":-6.212485},{"is_transit":true,"time":2,"station_name":"Manggarai","distance":1275,"line":2,"i_lat":-6.209883,"transit":true,"i_long":106.84912,"station_id":"MRI"},{"distance":1590,"station_id":"CKI","transit":false,"line":2,"is_transit":false,"time":4,"station_name":"Cikini","i_long":106.840169,"i_lat":-6.198556},{"is_transit":false,"time":3,"i_long":106.832183,"station_id":"GDD","station_name":"Gondangdia","distance":1750,"i_lat":-6.186295,"transit":false,"line":2},{"station_id":"JUA","line":2,"i_lat":-6.166716,"transit":false,"time":4,"is_transit":false,"i_long":106.828284,"distance":2015,"station_name":"Juanda"},{"distance":1149,"i_long":106.827103,"i_lat":-6.160725,"station_id":"SW","time":2,"line":2,"station_name":"Sawah Besar","transit":false,"is_transit":false},{"is_transit":false,"i_long":106.82482,"transit":false,"station_name":"Manggabesar","station_id":"MGB","distance":906,"i_lat":-6.149769,"line":2,"time":2},{"time":2,"transit":false,"station_id":"JAY","line":2,"i_long":106.820901,"is_transit":false,"distance":1080,"i_lat":-6.141205,"station_name":"Jayakarta"},{"i_lat":-6.137569,"transit":true,"time":4,"station_name":"Jakarta Kota","station_id":"JAKK","line":2,"distance":1264,"i_long":106.812439,"is_transit":true},{"transit":true,"time":3,"station_id":"KPB","i_lat":-6.132549,"distance":1364,"i_long":106.826365,"is_transit":true,"line":4,"station_name":"Kampung Bandan"},{"time":9,"station_name":"Angke","is_transit":false,"distance":4102,"i_lat":-6.144674,"station_id":"AK","line":1,"transit":false,"i_long":106.79867},{"station_id":"DU","transit":false,"station_name":"Duri","distance":1230,"i_lat":-6.155215,"i_long":106.800832,"line":1,"time":4,"is_transit":false},{"transit":true,"time":8,"is_transit":true,"station_id":"THB","distance":3632,"line":1,"i_long":106.811091,"i_lat":-6.185545,"station_name":"Tanah Abang"},{"line":6,"station_id":"PLM","is_transit":false,"transit":false,"time":6,"station_name":"Palmerah","distance":3191,"i_lat":-6.207404,"i_long":106.79689},{"line":6,"station_id":"KBY","time":7,"is_transit":false,"transit":false,"station_name":"Kebayoran","distance":3737,"i_long":106.780334,"i_lat":-6.237242},{"line":6,"station_name":"Pondokranji","transit":false,"i_lat":-6.276362,"distance":6218,"is_transit":false,"i_long":106.74273,"station_id":"PDJ","time":8},{"is_transit":false,"station_name":"Jurangmangu","i_lat":-6.288927,"transit":false,"station_id":"JMU","distance":2179,"time":3,"i_long":106.728916,"line":6},{"station_name":"Sudimara","distance":1994,"station_id":"SDM","is_transit":false,"i_lat":-6.296963,"transit":false,"i_long":106.712277,"time":4,"line":6},{"i_lat":-6.314823,"time":6,"station_name":"Rawa Buntu","line":6,"is_transit":false,"transit":false,"station_id":"RU","distance":4566,"i_long":106.675475},{"station_name":"Serpong","i_long":106.66566,"time":4,"is_transit":false,"line":6,"i_lat":-6.319871,"transit":false,"station_id":"SRP","distance":2413},{"line":3,"station_id":"CSK","is_transit":false,"i_lat":-6.32484,"time":4,"distance":1784,"i_long":106.640411,"transit":false,"station_name":"Cisauk"},{"i_lat":-6.329547,"i_long":106.617853,"station_name":"Cicayur","distance":2519,"is_transit":false,"line":3,"time":4,"transit":false,"station_id":"CC"},{"distance":5968,"transit":false,"i_lat":-6.3441410000000005,"is_transit":false,"line":6,"station_name":"Parung Panjang","i_long":106.568863,"time":8,"station_id":"PRP"},{"line":3,"station_id":"CJT","station_name":"Cilejit","distance":7025,"is_transit":false,"i_lat":-6.354349,"transit":false,"i_long":106.508482,"time":9},{"time":6,"distance":2675,"i_lat":-6.338021,"station_id":"DAR","transit":false,"line":0,"is_transit":false,"station_name":"Daru","i_long":106.491338},{"transit":false,"distance":3902,"station_name":"Tenjo","i_long":106.460812,"i_lat":-6.327251,"time":5,"station_id":"TEJ","is_transit":false,"line":6},{"transit":false,"line":6,"is_transit":false,"station_id":"TGS","station_name":"Tigaraksa","time":5,"i_lat":-6.328533,"distance":2974,"i_long":106.425991},{"transit":false,"station_name":"Cikoya","time":3,"is_transit":false,"station_id":"CKY","distance":2651,"i_lat":-6.33561,"i_long":106.411216,"line":3},{"station_id":"MJ","station_name":"Maja","is_transit":false,"i_long":106.394373,"line":6,"time":4,"distance":1853,"i_lat":-6.332307,"transit":false}]]}