{"data":[[{"time":0,"i_lat":-6.14505,"transit":false,"i_long":106.836569,"is_transit":false,"station_id":"RJW","line":11,"station_name":"Rajawali","distance":0},{"i_lat":-6.132549,"is_transit":true,"i_long":106.826365,"transit":true,"time":3,"distance":1444,"station_id":"KPB","line":0,"station_name":"Kampung Bandan"},{"transit":false,"station_id":"AK","line":0,"is_transit":false,"time":9,"station_name":"Angke","i_lat":-6.144674,"distance":4102,"i_long":106.79867},{"i_lat":-6.155215,"station_id":"DU","line":1,"is_transit":true,"transit":true,"distance":1230,"time":4,"station_name":"Duri","i_long":106.800832},{"station_name":"Tanah Abang","time":8,"is_transit":true,"transit":true,"station_id":"THB","i_lat":-6.185545,"distance":3632,"i_long":106.811091,"line":1},{"line":6,"station_name":"Palmerah","distance":3191,"station_id":"PLM","i_long":106.79689,"time":6,"transit":false,"is_transit":false,"i_lat":-6.207404},{"transit":false,"i_lat":-6.237242,"is_transit":false,"station_id":"KBY","distance":3737,"time":7,"i_long":106.780334,"station_name":"Kebayoran","line":6},{"station_id":"PDJ","i_long":106.74273,"is_transit":false,"distance":6218,"time":8,"i_lat":-6.276362,"line":6,"transit":false,"station_name":"Pondokranji"},{"transit":false,"is_transit":false,"i_long":106.728916,"i_lat":-6.288927,"line":6,"distance":2179,"station_name":"Jurangmangu","time":3,"station_id":"JMU"},{"time":4,"i_long":106.712277,"transit":false,"line":6,"station_id":"SDM","i_lat":-6.296963,"station_name":"Sudimara","is_transit":false,"distance":1994},{"i_long":106.675475,"line":6,"transit":false,"station_id":"RU","is_transit":false,"i_lat":-6.314823,"station_name":"Rawa Buntu","time":6,"distance":4566},{"transit":false,"i_long":106.66566,"is_transit":false,"i_lat":-6.319871,"time":4,"station_name":"Serpong","station_id":"SRP","distance":2413,"line":6},{"i_lat":-6.32484,"i_long":106.640411,"transit":false,"is_transit":false,"station_id":"CSK","time":4,"station_name":"Cisauk","line":0,"distance":1784},{"station_id":"CC","distance":2519,"time":4,"is_transit":false,"station_name":"Cicayur","i_lat":-6.329547,"transit":false,"i_long":106.617853,"line":0},{"station_name":"Parung Panjang","transit":false,"is_transit":false,"distance":5968,"time":8,"station_id":"PRP","i_long":106.568863,"line":6,"i_lat":-6.3441410000000005},{"time":9,"i_long":106.508482,"is_transit":false,"distance":7025,"i_lat":-6.354349,"station_id":"CJT","line":0,"transit":false,"station_name":"Cilejit"},{"distance":2675,"i_lat":-6.338021,"is_transit":false,"i_long":106.491338,"line":0,"transit":false,"time":6,"station_id":"DAR","station_name":"Daru"},{"i_lat":-6.327251,"station_name":"Tenjo","distance":3902,"station_id":"TEJ","time":5,"transit":false,"is_transit":false,"line":6,"i_long":106.460812},{"is_transit":false,"time":5,"i_long":106.425991,"i_lat":-6.328533,"station_id":"TGS","line":6,"station_name":"Tigaraksa","transit":false,"distance":2974}],[{"i_long":106.836569,"time":0,"line":11,"station_name":"Rajawali","is_transit":false,"transit":false,"station_id":"RJW","i_lat":-6.14505,"distance":0},{"is_transit":false,"i_lat":-6.161728,"transit":false,"i_long":106.839204,"line":11,"station_name":"Kemayoran","distance":1901,"station_id":"KMO","time":5},{"i_long":106.84368,"transit":false,"distance":1436,"station_id":"PSE","i_lat":-6.174784,"is_transit":false,"line":11,"time":4,"station_name":"Pasar Senen"},{"i_long":106.850107,"line":11,"station_name":"Gang Sentiong","is_transit":false,"distance":1567,"transit":false,"i_lat":-6.185975,"station_id":"GST","time":8},{"i_lat":-6.193792,"station_name":"Kramat","station_id":"KMT","transit":false,"distance":973,"i_long":106.855437,"line":11,"is_transit":false,"time":1},{"time":2,"distance":1829,"i_lat":-6.209188,"transit":false,"i_long":106.861737,"station_name":"Pondok Jati","line":11,"station_id":"POK","is_transit":false},{"i_lat":-6.215091,"station_name":"Jatinegara","transit":true,"distance":1236,"time":9,"line":0,"station_id":"JNG","i_long":106.86807400000001,"is_transit":true},{"line":1,"station_name":"Matraman","is_transit":false,"distance":1377,"transit":false,"time":2,"station_id":"MTR","i_lat":-6.212485,"i_long":106.858896},{"is_transit":true,"station_name":"Manggarai","transit":false,"time":2,"station_id":"MRI","i_long":106.84912,"line":0,"distance":1275,"i_lat":-6.209883},{"i_long":106.822649,"station_name":"Sudirman","line":1,"i_lat":-6.202263,"time":4,"distance":3186,"station_id":"SUD","transit":false,"is_transit":false},{"i_long":106.819881,"station_name":"Sudirman Baru","i_lat":-6.201433,"line":1,"station_id":"SUDB","transit":false,"is_transit":false,"distance":280,"time":1},{"station_id":"KAT","station_name":"Karet","i_lat":-6.20132,"i_long":106.816351,"time":1,"line":1,"distance":471,"is_transit":false,"transit":false},{"i_long":106.811091,"transit":true,"is_transit":true,"time":5,"line":1,"station_id":"THB","i_lat":-6.185545,"distance":2029,"station_name":"Tanah Abang"},{"is_transit":false,"station_id":"PLM","station_name":"Palmerah","transit":false,"distance":3191,"line":6,"time":6,"i_lat":-6.207404,"i_long":106.79689},{"i_long":106.780334,"line":6,"transit":false,"is_transit":false,"time":7,"station_id":"KBY","i_lat":-6.237242,"station_name":"Kebayoran","distance":3737},{"line":6,"station_id":"PDJ","time":8,"i_lat":-6.276362,"transit":false,"station_name":"Pondokranji","distance":6218,"i_long":106.74273,"is_transit":false},{"distance":2179,"station_id":"JMU","i_long":106.728916,"is_transit":false,"line":6,"station_name":"Jurangmangu","transit":false,"time":3,"i_lat":-6.288927},{"is_transit":false,"distance":1994,"transit":false,"time":4,"station_name":"Sudimara","station_id":"SDM","i_lat":-6.296963,"i_long":106.712277,"line":6},{"transit":false,"distance":4566,"is_transit":false,"station_name":"Rawa Buntu","station_id":"RU","line":6,"i_lat":-6.314823,"i_long":106.675475,"time":6},{"i_long":106.66566,"station_name":"Serpong","time":4,"distance":2413,"transit":false,"station_id":"SRP","line":6,"is_transit":false,"i_lat":-6.319871},{"is_transit":false,"station_id":"CSK","i_long":106.640411,"i_lat":-6.32484,"time":4,"distance":1784,"station_name":"Cisauk","line":0,"transit":false},{"station_name":"Cicayur","transit":false,"time":4,"i_lat":-6.329547,"i_long":106.617853,"is_transit":false,"line":0,"station_id":"CC","distance":2519},{"is_transit":false,"transit":false,"time":8,"i_long":106.568863,"distance":5968,"station_id":"PRP","line":6,"i_lat":-6.3441410000000005,"station_name":"Parung Panjang"},{"transit":false,"station_id":"CJT","station_name":"Cilejit","i_long":106.508482,"distance":7025,"i_lat":-6.354349,"is_transit":false,"line":0,"time":9},{"i_lat":-6.338021,"distance":2675,"station_name":"Daru","is_transit":false,"transit":false,"time":6,"line":0,"station_id":"DAR","i_long":106.491338},{"i_long":106.460812,"distance":3902,"station_id":"TEJ","station_name":"Tenjo","line":6,"time":5,"is_transit":false,"transit":false,"i_lat":-6.327251},{"line":6,"transit":false,"is_transit":false,"distance":2974,"time":5,"station_name":"Tigaraksa","station_id":"TGS","i_lat":-6.328533,"i_long":106.425991}],[{"station_id":"RJW","time":0,"line":11,"transit":false,"station_name":"Rajawali","i_lat":-6.14505,"i_long":106.836569,"distance":0,"is_transit":false},{"time":3,"distance":1444,"station_name":"Kampung Bandan","transit":true,"i_long":106.826365,"station_id":"KPB","is_transit":true,"line":0,"i_lat":-6.132549},{"is_transit":true,"time":3,"distance":1364,"station_id":"JAKK","line":0,"station_name":"Jakarta Kota","i_lat":-6.137569,"transit":true,"i_long":106.812439},{"transit":false,"i_lat":-6.141205,"is_transit":false,"distance":1264,"time":4,"i_long":106.820901,"line":7,"station_name":"Jayakarta","station_id":"JAY"},{"line":2,"station_name":"Manggabesar","time":2,"i_lat":-6.149769,"transit":false,"distance":1080,"station_id":"MGB","is_transit":false,"i_long":106.82482},{"station_name":"Sawah Besar","distance":906,"time":2,"is_transit":false,"i_long":106.827103,"station_id":"SW","transit":false,"i_lat":-6.160725,"line":2},{"is_transit":false,"i_long":106.828284,"station_id":"JUA","line":2,"station_name":"Juanda","transit":false,"distance":1149,"i_lat":-6.166716,"time":2},{"time":4,"station_name":"Gondangdia","station_id":"GDD","distance":2015,"i_lat":-6.186295,"i_long":106.832183,"line":2,"is_transit":false,"transit":false},{"transit":false,"is_transit":false,"station_id":"CKI","i_long":106.840169,"distance":1750,"time":3,"line":0,"station_name":"Cikini","i_lat":-6.198556},{"transit":true,"is_transit":true,"time":4,"distance":1590,"station_id":"MRI","i_lat":-6.209883,"line":0,"i_long":106.84912,"station_name":"Manggarai"},{"is_transit":false,"station_id":"SUD","transit":false,"distance":3186,"i_lat":-6.202263,"line":1,"i_long":106.822649,"station_name":"Sudirman","time":4},{"distance":280,"i_long":106.819881,"i_lat":-6.201433,"line":1,"station_name":"Sudirman Baru","station_id":"SUDB","transit":false,"time":1,"is_transit":false},{"i_long":106.816351,"time":1,"transit":false,"station_name":"Karet","is_transit":false,"i_lat":-6.20132,"line":1,"station_id":"KAT","distance":471},{"i_lat":-6.185545,"is_transit":true,"time":5,"transit":true,"station_name":"Tanah Abang","station_id":"THB","i_long":106.811091,"line":1,"distance":2029},{"transit":false,"line":6,"station_id":"PLM","time":6,"i_lat":-6.207404,"is_transit":false,"distance":3191,"i_long":106.79689,"station_name":"Palmerah"},{"station_name":"Kebayoran","is_transit":false,"line":6,"distance":3737,"i_lat":-6.237242,"transit":false,"station_id":"KBY","i_long":106.780334,"time":7},{"is_transit":false,"distance":6218,"time":8,"i_long":106.74273,"line":6,"station_name":"Pondokranji","i_lat":-6.276362,"transit":false,"station_id":"PDJ"},{"line":6,"i_long":106.728916,"transit":false,"station_id":"JMU","distance":2179,"time":3,"i_lat":-6.288927,"station_name":"Jurangmangu","is_transit":false},{"is_transit":false,"station_id":"SDM","i_long":106.712277,"time":4,"line":6,"i_lat":-6.296963,"transit":false,"station_name":"Sudimara","distance":1994},{"station_id":"RU","i_lat":-6.314823,"transit":false,"i_long":106.675475,"line":6,"time":6,"is_transit":false,"station_name":"Rawa Buntu","distance":4566},{"station_id":"SRP","i_long":106.66566,"is_transit":false,"station_name":"Serpong","time":4,"i_lat":-6.319871,"distance":2413,"transit":false,"line":6},{"i_long":106.640411,"transit":false,"time":4,"line":0,"distance":1784,"station_id":"CSK","i_lat":-6.32484,"station_name":"Cisauk","is_transit":false},{"transit":false,"time":4,"is_transit":false,"station_id":"CC","line":0,"distance":2519,"i_lat":-6.329547,"station_name":"Cicayur","i_long":106.617853},{"station_id":"PRP","i_lat":-6.3441410000000005,"i_long":106.568863,"is_transit":false,"station_name":"Parung Panjang","transit":false,"time":8,"distance":5968,"line":6},{"i_lat":-6.354349,"line":0,"station_id":"CJT","station_name":"Cilejit","distance":7025,"i_long":106.508482,"time":9,"transit":false,"is_transit":false},{"i_lat":-6.338021,"station_id":"DAR","i_long":106.491338,"line":0,"is_transit":false,"station_name":"Daru","transit":false,"distance":2675,"time":6},{"line":6,"station_name":"Tenjo","distance":3902,"i_lat":-6.327251,"transit":false,"time":5,"station_id":"TEJ","is_transit":false,"i_long":106.460812},{"distance":2974,"time":5,"station_id":"TGS","is_transit":false,"i_long":106.425991,"i_lat":-6.328533,"transit":false,"station_name":"Tigaraksa","line":6}],[{"i_lat":-6.14505,"station_name":"Rajawali","is_transit":false,"line":11,"station_id":"RJW","time":0,"distance":0,"i_long":106.836569,"transit":false},{"line":11,"transit":false,"i_lat":-6.161728,"i_long":106.839204,"distance":1901,"time":5,"station_id":"KMO","station_name":"Kemayoran","is_transit":false},{"distance":1436,"is_transit":false,"time":4,"station_name":"Pasar Senen","line":11,"station_id":"PSE","i_long":106.84368,"i_lat":-6.174784,"transit":false},{"i_long":106.850107,"distance":1567,"time":8,"line":11,"is_transit":false,"station_name":"Gang Sentiong","transit":false,"station_id":"GST","i_lat":-6.185975},{"station_name":"Kramat","is_transit":false,"distance":973,"time":1,"line":11,"transit":false,"station_id":"KMT","i_lat":-6.193792,"i_long":106.855437},{"station_id":"POK","i_lat":-6.209188,"transit":false,"station_name":"Pondok Jati","is_transit":false,"distance":1829,"line":11,"time":2,"i_long":106.861737},{"distance":1236,"transit":true,"line":0,"is_transit":true,"i_lat":-6.215091,"i_long":106.86807400000001,"station_id":"JNG","time":9,"station_name":"Jatinegara"},{"station_name":"Matraman","line":1,"transit":false,"time":2,"i_long":106.858896,"is_transit":false,"distance":1377,"station_id":"MTR","i_lat":-6.212485},{"is_transit":true,"i_lat":-6.209883,"line":0,"distance":1275,"transit":true,"station_id":"MRI","station_name":"Manggarai","i_long":106.84912,"time":2},{"is_transit":false,"time":4,"station_id":"CKI","i_long":106.840169,"distance":1590,"transit":false,"i_lat":-6.198556,"line":0,"station_name":"Cikini"},{"i_lat":-6.186295,"is_transit":false,"transit":false,"station_name":"Gondangdia","station_id":"GDD","line":2,"distance":1750,"i_long":106.832183,"time":3},{"station_id":"JUA","transit":false,"station_name":"Juanda","i_long":106.828284,"time":4,"line":2,"is_transit":false,"i_lat":-6.166716,"distance":2015},{"time":2,"transit":false,"i_long":106.827103,"station_id":"SW","distance":1149,"station_name":"Sawah Besar","line":2,"is_transit":false,"i_lat":-6.160725},{"distance":906,"station_name":"Manggabesar","time":2,"is_transit":false,"line":2,"i_long":106.82482,"i_lat":-6.149769,"station_id":"MGB","transit":false},{"is_transit":false,"distance":1080,"station_id":"JAY","time":2,"i_long":106.820901,"i_lat":-6.141205,"station_name":"Jayakarta","transit":false,"line":7},{"i_lat":-6.137569,"distance":1264,"is_transit":true,"line":0,"time":4,"i_long":106.812439,"station_id":"JAKK","station_name":"Jakarta Kota","transit":true},{"i_long":106.826365,"station_id":"KPB","line":0,"distance":1364,"i_lat":-6.132549,"transit":false,"station_name":"Kampung Bandan","is_transit":true,"time":3},{"i_long":106.79867,"transit":false,"is_transit":false,"i_lat":-6.144674,"station_name":"Angke","distance":4102,"station_id":"AK","line":0,"time":9},{"distance":1230,"station_id":"DU","i_lat":-6.155215,"line":1,"transit":true,"i_long":106.800832,"is_transit":true,"station_name":"Duri","time":4},{"station_id":"THB","i_lat":-6.185545,"line":1,"transit":true,"distance":3632,"time":8,"station_name":"Tanah Abang","is_transit":true,"i_long":106.811091},{"transit":false,"i_long":106.79689,"station_id":"PLM","time":6,"station_name":"Palmerah","i_lat":-6.207404,"line":6,"is_transit":false,"distance":3191},{"is_transit":false,"i_long":106.780334,"time":7,"line":6,"distance":3737,"station_id":"KBY","i_lat":-6.237242,"transit":false,"station_name":"Kebayoran"},{"time":8,"station_id":"PDJ","transit":false,"i_lat":-6.276362,"is_transit":false,"i_long":106.74273,"distance":6218,"line":6,"station_name":"Pondokranji"},{"time":3,"i_long":106.728916,"line":6,"is_transit":false,"distance":2179,"transit":false,"i_lat":-6.288927,"station_name":"Jurangmangu","station_id":"JMU"},{"distance":1994,"line":6,"transit":false,"time":4,"station_name":"Sudimara","is_transit":false,"station_id":"SDM","i_lat":-6.296963,"i_long":106.712277},{"i_lat":-6.314823,"station_name":"Rawa Buntu","transit":false,"station_id":"RU","distance":4566,"time":6,"is_transit":false,"i_long":106.675475,"line":6},{"i_long":106.66566,"is_transit":false,"transit":false,"time":4,"station_name":"Serpong","station_id":"SRP","i_lat":-6.319871,"distance":2413,"line":6},{"time":4,"i_lat":-6.32484,"line":0,"station_name":"Cisauk","is_transit":false,"distance":1784,"i_long":106.640411,"station_id":"CSK","transit":false},{"time":4,"i_lat":-6.329547,"transit":false,"line":0,"station_name":"Cicayur","i_long":106.617853,"station_id":"CC","distance":2519,"is_transit":false},{"station_name":"Parung Panjang","i_long":106.568863,"is_transit":false,"transit":false,"time":8,"distance":5968,"line":6,"station_id":"PRP","i_lat":-6.3441410000000005},{"time":9,"distance":7025,"transit":false,"i_lat":-6.354349,"station_id":"CJT","i_long":106.508482,"line":0,"is_transit":false,"station_name":"Cilejit"},{"transit":false,"is_transit":false,"i_lat":-6.338021,"station_id":"DAR","line":0,"time":6,"station_name":"Daru","i_long":106.491338,"distance":2675},{"is_transit":false,"distance":3902,"i_long":106.460812,"time":5,"station_id":"TEJ","station_name":"Tenjo","line":6,"i_lat":-6.327251,"transit":false},{"is_transit":false,"station_id":"TGS","line":6,"transit":false,"distance":2974,"time":5,"i_long":106.425991,"i_lat":-6.328533,"station_name":"Tigaraksa"}]]}