{"data":[[{"is_transit":false,"transit":false,"i_long":106.836569,"station_id":"RJW","time":0,"i_lat":-6.14505,"distance":0,"station_name":"Rajawali","line":11},{"transit":true,"i_long":106.826365,"line":0,"distance":1444,"is_transit":true,"station_id":"KPB","station_name":"Kampung Bandan","time":3,"i_lat":-6.132549},{"distance":4102,"i_long":106.79867,"i_lat":-6.144674,"station_id":"AK","transit":false,"time":9,"station_name":"Angke","is_transit":false,"line":0},{"station_id":"DU","distance":1230,"time":4,"line":1,"is_transit":true,"i_long":106.800832,"transit":true,"station_name":"Duri","i_lat":-6.155215},{"station_name":"Grogol","transit":false,"distance":1700,"line":5,"i_long":106.788277,"is_transit":false,"i_lat":-6.162021,"station_id":"GGL","time":3},{"i_lat":-6.161433,"line":5,"is_transit":false,"distance":2036,"station_id":"PSG","transit":false,"time":2,"i_long":106.771379,"station_name":"Pesing"},{"station_name":"Taman Kota","i_long":106.756522,"i_lat":-6.1587309999999995,"is_transit":false,"distance":1614,"line":5,"station_id":"TKO","transit":false,"time":2},{"station_name":"Bojongindah","distance":2334,"transit":false,"i_long":106.737035,"line":0,"is_transit":false,"time":2,"i_lat":-6.159876,"station_id":"BOI"},{"is_transit":false,"i_lat":-6.162758,"line":5,"station_name":"Rawa Buaya","i_long":106.723064,"transit":false,"distance":1152,"time":4,"station_id":"RW"}],[{"i_lat":-6.14505,"line":11,"distance":0,"is_transit":false,"time":0,"i_long":106.836569,"station_id":"RJW","station_name":"Rajawali","transit":false},{"time":5,"transit":false,"line":11,"distance":1901,"station_id":"KMO","station_name":"Kemayoran","i_lat":-6.161728,"i_long":106.839204,"is_transit":false},{"i_lat":-6.174784,"i_long":106.84368,"transit":false,"station_id":"PSE","time":4,"distance":1436,"is_transit":false,"station_name":"Pasar Senen","line":11},{"transit":false,"is_transit":false,"time":8,"line":11,"distance":1567,"station_id":"GST","station_name":"Gang Sentiong","i_long":106.850107,"i_lat":-6.185975},{"i_long":106.855437,"station_id":"KMT","is_transit":false,"distance":973,"time":1,"transit":false,"station_name":"Kramat","i_lat":-6.193792,"line":11},{"i_long":106.861737,"station_name":"Pondok Jati","time":2,"i_lat":-6.209188,"is_transit":false,"transit":false,"line":11,"station_id":"POK","distance":1829},{"time":9,"line":0,"i_lat":-6.215091,"transit":true,"distance":1236,"is_transit":true,"station_id":"JNG","station_name":"Jatinegara","i_long":106.86807400000001},{"station_name":"Matraman","transit":false,"station_id":"MTR","line":1,"i_lat":-6.212485,"time":2,"i_long":106.858896,"is_transit":false,"distance":1377},{"station_name":"Manggarai","transit":false,"station_id":"MRI","time":2,"i_lat":-6.209883,"i_long":106.84912,"distance":1275,"is_transit":true,"line":0},{"station_id":"SUD","time":4,"is_transit":false,"i_lat":-6.202263,"i_long":106.822649,"transit":false,"distance":3186,"station_name":"Sudirman","line":1},{"is_transit":false,"i_lat":-6.201433,"line":1,"time":1,"transit":false,"i_long":106.819881,"station_name":"Sudirman Baru","distance":280,"station_id":"SUDB"},{"station_id":"KAT","i_long":106.816351,"transit":false,"distance":471,"time":1,"line":1,"station_name":"Karet","i_lat":-6.20132,"is_transit":false},{"station_name":"Tanah Abang","transit":false,"i_lat":-6.185545,"i_long":106.811091,"is_transit":true,"station_id":"THB","distance":2029,"line":1,"time":5},{"time":8,"i_lat":-6.155215,"i_long":106.800832,"is_transit":true,"station_name":"Duri","transit":true,"distance":3632,"station_id":"DU","line":1},{"station_id":"GGL","line":5,"is_transit":false,"time":3,"station_name":"Grogol","transit":false,"distance":1700,"i_lat":-6.162021,"i_long":106.788277},{"line":5,"station_name":"Pesing","is_transit":false,"i_long":106.771379,"distance":2036,"station_id":"PSG","transit":false,"i_lat":-6.161433,"time":2},{"transit":false,"distance":1614,"is_transit":false,"time":2,"station_name":"Taman Kota","i_lat":-6.1587309999999995,"line":5,"i_long":106.756522,"station_id":"TKO"},{"line":0,"is_transit":false,"i_lat":-6.159876,"station_name":"Bojongindah","distance":2334,"station_id":"BOI","time":2,"i_long":106.737035,"transit":false},{"station_id":"RW","station_name":"Rawa Buaya","transit":false,"line":5,"distance":1152,"is_transit":false,"i_long":106.723064,"time":4,"i_lat":-6.162758}],[{"station_name":"Rajawali","i_lat":-6.14505,"i_long":106.836569,"line":11,"station_id":"RJW","time":0,"transit":false,"distance":0,"is_transit":false},{"distance":1444,"station_name":"Kampung Bandan","i_lat":-6.132549,"time":3,"line":0,"station_id":"KPB","transit":true,"i_long":106.826365,"is_transit":true},{"line":0,"is_transit":true,"time":3,"station_name":"Jakarta Kota","distance":1364,"transit":true,"station_id":"JAKK","i_lat":-6.137569,"i_long":106.812439},{"is_transit":false,"station_id":"JAY","distance":1264,"station_name":"Jayakarta","transit":false,"i_lat":-6.141205,"time":4,"i_long":106.820901,"line":7},{"i_long":106.82482,"distance":1080,"line":2,"is_transit":false,"station_id":"MGB","i_lat":-6.149769,"station_name":"Manggabesar","transit":false,"time":2},{"distance":906,"time":2,"station_id":"SW","transit":false,"i_lat":-6.160725,"is_transit":false,"station_name":"Sawah Besar","i_long":106.827103,"line":2},{"distance":1149,"station_name":"Juanda","is_transit":false,"station_id":"JUA","line":2,"time":2,"i_long":106.828284,"transit":false,"i_lat":-6.166716},{"station_name":"Gondangdia","transit":false,"i_lat":-6.186295,"station_id":"GDD","distance":2015,"time":4,"i_long":106.832183,"line":2,"is_transit":false},{"transit":false,"station_id":"CKI","station_name":"Cikini","distance":1750,"time":3,"i_long":106.840169,"is_transit":false,"i_lat":-6.198556,"line":0},{"line":0,"distance":1590,"is_transit":true,"transit":true,"time":4,"i_lat":-6.209883,"station_id":"MRI","i_long":106.84912,"station_name":"Manggarai"},{"distance":3186,"is_transit":false,"time":4,"i_long":106.822649,"line":1,"transit":false,"station_id":"SUD","i_lat":-6.202263,"station_name":"Sudirman"},{"station_id":"SUDB","station_name":"Sudirman Baru","i_lat":-6.201433,"line":1,"distance":280,"i_long":106.819881,"is_transit":false,"transit":false,"time":1},{"time":1,"i_lat":-6.20132,"distance":471,"station_name":"Karet","line":1,"i_long":106.816351,"station_id":"KAT","is_transit":false,"transit":false},{"i_lat":-6.185545,"i_long":106.811091,"distance":2029,"is_transit":true,"station_id":"THB","line":1,"transit":false,"time":5,"station_name":"Tanah Abang"},{"transit":true,"time":8,"is_transit":true,"station_name":"Duri","i_long":106.800832,"distance":3632,"i_lat":-6.155215,"line":1,"station_id":"DU"},{"is_transit":false,"i_lat":-6.162021,"distance":1700,"station_id":"GGL","station_name":"Grogol","i_long":106.788277,"line":5,"transit":false,"time":3},{"i_lat":-6.161433,"line":5,"time":2,"station_name":"Pesing","transit":false,"distance":2036,"is_transit":false,"i_long":106.771379,"station_id":"PSG"},{"distance":1614,"transit":false,"i_lat":-6.1587309999999995,"station_id":"TKO","time":2,"i_long":106.756522,"line":5,"is_transit":false,"station_name":"Taman Kota"},{"i_long":106.737035,"station_id":"BOI","distance":2334,"time":2,"station_name":"Bojongindah","transit":false,"i_lat":-6.159876,"is_transit":false,"line":0},{"station_name":"Rawa Buaya","i_long":106.723064,"transit":false,"is_transit":false,"distance":1152,"time":4,"line":5,"station_id":"RW","i_lat":-6.162758}],[{"transit":false,"is_transit":false,"time":0,"i_lat":-6.14505,"station_name":"Rajawali","i_long":106.836569,"distance":0,"station_id":"RJW","line":11},{"station_name":"Kemayoran","is_transit":false,"station_id":"KMO","transit":false,"line":11,"time":5,"distance":1901,"i_lat":-6.161728,"i_long":106.839204},{"station_id":"PSE","station_name":"Pasar Senen","transit":false,"line":11,"time":4,"i_long":106.84368,"distance":1436,"is_transit":false,"i_lat":-6.174784},{"i_lat":-6.185975,"station_name":"Gang Sentiong","is_transit":false,"line":11,"station_id":"GST","transit":false,"i_long":106.850107,"time":8,"distance":1567},{"distance":973,"station_name":"Kramat","time":1,"station_id":"KMT","i_long":106.855437,"i_lat":-6.193792,"transit":false,"line":11,"is_transit":false},{"time":2,"distance":1829,"transit":false,"i_lat":-6.209188,"i_long":106.861737,"is_transit":false,"station_name":"Pondok Jati","line":11,"station_id":"POK"},{"station_name":"Jatinegara","station_id":"JNG","i_long":106.86807400000001,"distance":1236,"time":9,"i_lat":-6.215091,"transit":true,"is_transit":true,"line":0},{"is_transit":false,"station_id":"MTR","transit":false,"i_lat":-6.212485,"line":1,"i_long":106.858896,"time":2,"station_name":"Matraman","distance":1377},{"station_id":"MRI","distance":1275,"i_long":106.84912,"line":0,"station_name":"Manggarai","is_transit":true,"time":2,"i_lat":-6.209883,"transit":true},{"station_name":"Cikini","i_lat":-6.198556,"station_id":"CKI","time":4,"transit":false,"line":0,"distance":1590,"is_transit":false,"i_long":106.840169},{"i_lat":-6.186295,"transit":false,"distance":1750,"i_long":106.832183,"line":2,"is_transit":false,"station_name":"Gondangdia","time":3,"station_id":"GDD"},{"station_name":"Juanda","i_lat":-6.166716,"time":4,"distance":2015,"station_id":"JUA","i_long":106.828284,"line":2,"transit":false,"is_transit":false},{"station_name":"Sawah Besar","station_id":"SW","transit":false,"time":2,"distance":1149,"i_long":106.827103,"line":2,"i_lat":-6.160725,"is_transit":false},{"transit":false,"station_name":"Manggabesar","i_long":106.82482,"station_id":"MGB","distance":906,"is_transit":false,"i_lat":-6.149769,"time":2,"line":2},{"i_long":106.820901,"station_id":"JAY","transit":false,"time":2,"is_transit":false,"line":7,"i_lat":-6.141205,"distance":1080,"station_name":"Jayakarta"},{"i_lat":-6.137569,"distance":1264,"i_long":106.812439,"line":0,"is_transit":true,"station_name":"Jakarta Kota","transit":true,"time":4,"station_id":"JAKK"},{"is_transit":true,"time":3,"station_name":"Kampung Bandan","transit":false,"i_lat":-6.132549,"i_long":106.826365,"station_id":"KPB","line":0,"distance":1364},{"distance":4102,"line":0,"station_name":"Angke","transit":false,"station_id":"AK","time":9,"is_transit":false,"i_lat":-6.144674,"i_long":106.79867},{"station_name":"Duri","time":4,"distance":1230,"transit":true,"i_long":106.800832,"line":1,"is_transit":true,"station_id":"DU","i_lat":-6.155215},{"i_long":106.788277,"is_transit":false,"station_id":"GGL","i_lat":-6.162021,"distance":1700,"station_name":"Grogol","time":3,"transit":false,"line":5},{"transit":false,"distance":2036,"time":2,"station_name":"Pesing","i_lat":-6.161433,"i_long":106.771379,"line":5,"station_id":"PSG","is_transit":false},{"station_id":"TKO","station_name":"Taman Kota","line":5,"is_transit":false,"i_long":106.756522,"time":2,"distance":1614,"transit":false,"i_lat":-6.1587309999999995},{"time":2,"is_transit":false,"i_long":106.737035,"i_lat":-6.159876,"station_id":"BOI","transit":false,"line":0,"distance":2334,"station_name":"Bojongindah"},{"station_name":"Rawa Buaya","time":4,"i_long":106.723064,"distance":1152,"is_transit":false,"line":5,"i_lat":-6.162758,"station_id":"RW","transit":false}]]}