{"data":[[{"time":0,"station_id":"RJW","is_transit":false,"line":11,"i_lat":-6.14505,"distance":0,"i_long":106.836569,"station_name":"Rajawali","transit":false},{"station_id":"KMO","i_long":106.839204,"distance":1901,"line":11,"station_name":"Kemayoran","is_transit":false,"i_lat":-6.161728,"transit":false,"time":5},{"is_transit":false,"station_name":"Pasar Senen","i_lat":-6.174784,"distance":1436,"station_id":"PSE","line":11,"time":4,"transit":false,"i_long":106.84368},{"transit":false,"i_lat":-6.185975,"station_id":"GST","station_name":"Gang Sentiong","i_long":106.850107,"distance":1567,"time":8,"line":11,"is_transit":false},{"time":1,"is_transit":false,"station_name":"Kramat","distance":973,"i_long":106.855437,"transit":false,"station_id":"KMT","line":11,"i_lat":-6.193792},{"transit":false,"is_transit":false,"distance":1829,"station_id":"POK","time":2,"line":11,"i_long":106.861737,"station_name":"Pondok Jati","i_lat":-6.209188},{"time":9,"distance":1236,"i_lat":-6.215091,"station_name":"Jatinegara","transit":true,"line":1,"is_transit":true,"i_long":106.86807400000001,"station_id":"JNG"},{"is_transit":false,"line":1,"i_lat":-6.212485,"i_long":106.858896,"station_id":"MTR","transit":false,"distance":1377,"time":2,"station_name":"Matraman"},{"is_transit":true,"transit":true,"time":2,"station_id":"MRI","i_long":106.84912,"line":2,"station_name":"Manggarai","distance":1275,"i_lat":-6.209883},{"time":4,"transit":false,"line":2,"i_long":106.857948,"station_id":"TEB","is_transit":false,"i_lat":-6.226659,"distance":2610,"station_name":"Tebet"},{"is_transit":false,"line":2,"time":2,"transit":false,"i_lat":-6.242512,"distance":1230,"station_id":"CW","i_long":106.856607,"station_name":"Cawang"},{"is_transit":false,"distance":1546,"time":3,"transit":false,"station_id":"DRN","line":2,"station_name":"Duren Kalibata","i_lat":-6.255332,"i_long":106.85449},{"line":2,"time":2,"transit":false,"station_name":"Pasar Minggu Baru","is_transit":false,"i_lat":-6.263214,"distance":824,"station_id":"PSMB","i_long":106.851577},{"is_transit":false,"distance":2380,"time":2,"i_long":106.843999,"transit":false,"station_name":"Pasar Minggu","line":2,"station_id":"PSM","i_lat":-6.2842400000000005},{"distance":2820,"is_transit":false,"i_long":106.838896,"station_name":"Tanjung Barat","transit":false,"time":4,"i_lat":-6.3080680000000005,"station_id":"TNT","line":2},{"i_lat":-6.330363,"station_name":"Lenteng Agung","is_transit":false,"i_long":106.832616,"line":2,"time":3,"distance":2671,"transit":false,"station_id":"LNA"},{"station_name":"Univ. Pancasila","station_id":"UP","line":2,"transit":false,"time":2,"is_transit":false,"i_long":106.834175,"i_lat":-6.339291,"distance":1029},{"distance":2264,"station_id":"UI","station_name":"Univ. Indonesia","transit":false,"line":2,"time":3,"i_lat":-6.360749,"i_long":106.831474,"is_transit":false},{"transit":false,"line":2,"station_name":"Pondok Cina","time":2,"distance":1109,"station_id":"POC","i_long":106.831114,"i_lat":-6.369073,"is_transit":false},{"transit":false,"station_id":"DPB","is_transit":false,"time":4,"station_name":"Depokbaru","i_lat":-6.391065,"i_long":106.819451,"line":2,"distance":2727},{"line":2,"i_lat":-6.405256,"time":3,"distance":1584,"is_transit":false,"transit":false,"station_name":"Depok","station_id":"DP","i_long":106.816926},{"line":2,"time":6,"station_id":"CTA","station_name":"Citayam","is_transit":false,"distance":5084,"i_lat":-6.448811,"i_long":106.800298,"transit":false},{"i_lat":-6.493243,"i_long":106.792719,"station_name":"Bojonggede","time":5,"is_transit":false,"station_id":"BJD","distance":5197,"transit":false,"line":2}],[{"transit":false,"time":0,"i_long":106.836569,"is_transit":false,"i_lat":-6.14505,"station_name":"Rajawali","line":11,"station_id":"RJW","distance":0},{"station_name":"Kampung Bandan","distance":1444,"is_transit":true,"transit":true,"station_id":"KPB","i_lat":-6.132549,"i_long":106.826365,"time":3,"line":4},{"station_id":"AK","line":1,"station_name":"Angke","time":9,"i_long":106.79867,"i_lat":-6.144674,"transit":false,"is_transit":false,"distance":4102},{"station_name":"Duri","time":4,"distance":1230,"is_transit":false,"transit":false,"i_lat":-6.155215,"i_long":106.800832,"line":1,"station_id":"DU"},{"line":1,"distance":3632,"station_id":"THB","station_name":"Tanah Abang","transit":false,"time":8,"i_lat":-6.185545,"is_transit":false,"i_long":106.811091},{"line":1,"transit":false,"time":5,"distance":2029,"is_transit":false,"station_name":"Karet","station_id":"KAT","i_lat":-6.20132,"i_long":106.816351},{"station_id":"SUDB","distance":471,"is_transit":false,"i_long":106.819881,"transit":false,"time":1,"station_name":"Sudirman Baru","i_lat":-6.201433,"line":1},{"line":1,"i_long":106.822649,"station_id":"SUD","i_lat":-6.202263,"time":1,"is_transit":false,"transit":false,"distance":280,"station_name":"Sudirman"},{"i_lat":-6.209883,"station_name":"Manggarai","i_long":106.84912,"line":2,"is_transit":true,"time":4,"transit":true,"distance":3186,"station_id":"MRI"},{"i_lat":-6.226659,"distance":2610,"transit":false,"time":4,"is_transit":false,"station_name":"Tebet","station_id":"TEB","i_long":106.857948,"line":2},{"line":2,"distance":1230,"station_name":"Cawang","is_transit":false,"transit":false,"i_lat":-6.242512,"i_long":106.856607,"time":2,"station_id":"CW"},{"is_transit":false,"station_id":"DRN","i_lat":-6.255332,"distance":1546,"transit":false,"line":2,"station_name":"Duren Kalibata","i_long":106.85449,"time":3},{"station_name":"Pasar Minggu Baru","i_long":106.851577,"time":2,"i_lat":-6.263214,"is_transit":false,"line":2,"station_id":"PSMB","transit":false,"distance":824},{"distance":2380,"line":2,"transit":false,"i_lat":-6.2842400000000005,"time":2,"i_long":106.843999,"is_transit":false,"station_name":"Pasar Minggu","station_id":"PSM"},{"line":2,"station_id":"TNT","i_lat":-6.3080680000000005,"transit":false,"distance":2820,"time":4,"station_name":"Tanjung Barat","i_long":106.838896,"is_transit":false},{"line":2,"station_name":"Lenteng Agung","station_id":"LNA","is_transit":false,"time":3,"i_long":106.832616,"distance":2671,"i_lat":-6.330363,"transit":false},{"station_name":"Univ. Pancasila","station_id":"UP","i_long":106.834175,"i_lat":-6.339291,"time":2,"line":2,"distance":1029,"is_transit":false,"transit":false},{"time":3,"transit":false,"station_id":"UI","i_lat":-6.360749,"i_long":106.831474,"is_transit":false,"station_name":"Univ. Indonesia","line":2,"distance":2264},{"distance":1109,"time":2,"transit":false,"is_transit":false,"station_name":"Pondok Cina","i_lat":-6.369073,"i_long":106.831114,"line":2,"station_id":"POC"},{"distance":2727,"transit":false,"is_transit":false,"i_long":106.819451,"station_id":"DPB","i_lat":-6.391065,"line":2,"station_name":"Depokbaru","time":4},{"distance":1584,"i_lat":-6.405256,"transit":false,"is_transit":false,"station_id":"DP","line":2,"time":3,"station_name":"Depok","i_long":106.816926},{"i_lat":-6.448811,"transit":false,"station_id":"CTA","line":2,"is_transit":false,"distance":5084,"time":6,"i_long":106.800298,"station_name":"Citayam"},{"station_id":"BJD","i_lat":-6.493243,"transit":false,"is_transit":false,"station_name":"Bojonggede","i_long":106.792719,"line":2,"time":5,"distance":5197}],[{"transit":false,"time":0,"station_name":"Rajawali","station_id":"RJW","i_lat":-6.14505,"is_transit":false,"line":11,"distance":0,"i_long":106.836569},{"station_name":"Kampung Bandan","transit":true,"i_lat":-6.132549,"station_id":"KPB","line":4,"i_long":106.826365,"time":3,"is_transit":true,"distance":1444},{"i_lat":-6.137569,"time":3,"station_id":"JAKK","distance":1364,"transit":true,"i_long":106.812439,"line":2,"is_transit":true,"station_name":"Jakarta Kota"},{"transit":false,"i_lat":-6.141205,"distance":1264,"is_transit":false,"i_long":106.820901,"time":4,"station_name":"Jayakarta","station_id":"JAY","line":2},{"distance":1080,"i_lat":-6.149769,"transit":false,"is_transit":false,"time":2,"station_id":"MGB","i_long":106.82482,"station_name":"Manggabesar","line":2},{"i_lat":-6.160725,"line":2,"time":2,"i_long":106.827103,"distance":906,"transit":false,"station_name":"Sawah Besar","station_id":"SW","is_transit":false},{"i_lat":-6.166716,"i_long":106.828284,"transit":false,"time":2,"is_transit":false,"line":2,"station_name":"Juanda","station_id":"JUA","distance":1149},{"transit":false,"time":4,"station_id":"GDD","distance":2015,"i_lat":-6.186295,"is_transit":false,"i_long":106.832183,"station_name":"Gondangdia","line":2},{"is_transit":false,"transit":false,"station_id":"CKI","time":3,"distance":1750,"i_long":106.840169,"line":2,"station_name":"Cikini","i_lat":-6.198556},{"distance":1590,"station_id":"MRI","i_long":106.84912,"line":2,"station_name":"Manggarai","i_lat":-6.209883,"is_transit":false,"transit":false,"time":4},{"station_id":"TEB","is_transit":false,"line":2,"transit":false,"time":4,"distance":2610,"i_lat":-6.226659,"station_name":"Tebet","i_long":106.857948},{"time":2,"is_transit":false,"station_id":"CW","line":2,"transit":false,"i_long":106.856607,"i_lat":-6.242512,"distance":1230,"station_name":"Cawang"},{"station_name":"Duren Kalibata","i_lat":-6.255332,"is_transit":false,"transit":false,"line":2,"time":3,"station_id":"DRN","distance":1546,"i_long":106.85449},{"is_transit":false,"distance":824,"i_lat":-6.263214,"line":2,"time":2,"station_id":"PSMB","transit":false,"station_name":"Pasar Minggu Baru","i_long":106.851577},{"line":2,"i_long":106.843999,"i_lat":-6.2842400000000005,"transit":false,"station_name":"Pasar Minggu","station_id":"PSM","is_transit":false,"time":2,"distance":2380},{"i_long":106.838896,"is_transit":false,"transit":false,"distance":2820,"station_name":"Tanjung Barat","time":4,"line":2,"station_id":"TNT","i_lat":-6.3080680000000005},{"line":2,"time":3,"station_id":"LNA","i_long":106.832616,"transit":false,"station_name":"Lenteng Agung","is_transit":false,"distance":2671,"i_lat":-6.330363},{"is_transit":false,"line":2,"transit":false,"i_lat":-6.339291,"station_id":"UP","time":2,"distance":1029,"station_name":"Univ. Pancasila","i_long":106.834175},{"transit":false,"distance":2264,"time":3,"is_transit":false,"station_id":"UI","i_lat":-6.360749,"i_long":106.831474,"line":2,"station_name":"Univ. Indonesia"},{"time":2,"is_transit":false,"station_id":"POC","station_name":"Pondok Cina","distance":1109,"i_long":106.831114,"i_lat":-6.369073,"line":2,"transit":false},{"station_id":"DPB","i_long":106.819451,"i_lat":-6.391065,"time":4,"transit":false,"station_name":"Depokbaru","distance":2727,"line":2,"is_transit":false},{"i_lat":-6.405256,"station_id":"DP","station_name":"Depok","is_transit":false,"time":3,"distance":1584,"i_long":106.816926,"line":2,"transit":false},{"i_long":106.800298,"station_name":"Citayam","line":2,"distance":5084,"station_id":"CTA","i_lat":-6.448811,"time":6,"transit":false,"is_transit":false},{"time":5,"i_long":106.792719,"line":2,"i_lat":-6.493243,"transit":false,"station_name":"Bojonggede","station_id":"BJD","is_transit":false,"distance":5197}]]}