{"data":[[{"station_id":"RJW","i_lat":-6.14505,"line":11,"transit":false,"time":0,"i_long":106.836569,"is_transit":false,"distance":0,"station_name":"Rajawali"},{"i_long":106.826365,"distance":1444,"time":3,"line":0,"station_name":"Kampung Bandan","station_id":"KPB","is_transit":true,"i_lat":-6.132549,"transit":true},{"transit":false,"time":9,"i_long":106.79867,"distance":4102,"is_transit":false,"station_id":"AK","station_name":"Angke","line":0,"i_lat":-6.144674},{"station_id":"DU","i_lat":-6.155215,"time":4,"i_long":106.800832,"line":1,"transit":true,"station_name":"Duri","distance":1230,"is_transit":true},{"is_transit":true,"i_lat":-6.185545,"time":8,"station_name":"Tanah Abang","i_long":106.811091,"line":1,"station_id":"THB","transit":true,"distance":3632},{"is_transit":false,"line":6,"distance":3191,"station_id":"PLM","station_name":"Palmerah","transit":false,"i_lat":-6.207404,"i_long":106.79689,"time":6}],[{"is_transit":false,"time":0,"transit":false,"i_long":106.836569,"station_name":"Rajawali","i_lat":-6.14505,"station_id":"RJW","line":11,"distance":0},{"transit":false,"time":5,"i_lat":-6.161728,"is_transit":false,"distance":1901,"station_id":"KMO","station_name":"Kemayoran","i_long":106.839204,"line":11},{"i_long":106.84368,"transit":false,"station_id":"PSE","i_lat":-6.174784,"is_transit":false,"distance":1436,"line":11,"time":4,"station_name":"Pasar Senen"},{"i_long":106.850107,"i_lat":-6.185975,"line":11,"station_id":"GST","is_transit":false,"station_name":"Gang Sentiong","time":8,"distance":1567,"transit":false},{"is_transit":false,"time":1,"line":11,"distance":973,"transit":false,"station_name":"Kramat","station_id":"KMT","i_lat":-6.193792,"i_long":106.855437},{"station_id":"POK","transit":false,"i_lat":-6.209188,"station_name":"Pondok Jati","i_long":106.861737,"line":11,"time":2,"is_transit":false,"distance":1829},{"transit":true,"is_transit":true,"station_name":"Jatinegara","distance":1236,"time":9,"i_lat":-6.215091,"i_long":106.86807400000001,"station_id":"JNG","line":0},{"station_id":"MTR","station_name":"Matraman","is_transit":false,"time":2,"i_long":106.858896,"distance":1377,"transit":false,"i_lat":-6.212485,"line":1},{"time":2,"station_id":"MRI","transit":false,"i_lat":-6.209883,"distance":1275,"line":0,"i_long":106.84912,"is_transit":true,"station_name":"Manggarai"},{"i_long":106.822649,"i_lat":-6.202263,"line":1,"station_name":"Sudirman","time":4,"is_transit":false,"station_id":"SUD","transit":false,"distance":3186},{"time":1,"i_long":106.819881,"i_lat":-6.201433,"distance":280,"line":1,"station_name":"Sudirman Baru","is_transit":false,"station_id":"SUDB","transit":false},{"station_id":"KAT","is_transit":false,"station_name":"Karet","time":1,"i_lat":-6.20132,"i_long":106.816351,"line":1,"transit":false,"distance":471},{"station_id":"THB","is_transit":true,"distance":2029,"transit":true,"i_lat":-6.185545,"line":1,"time":5,"station_name":"Tanah Abang","i_long":106.811091},{"i_long":106.79689,"station_name":"Palmerah","transit":false,"i_lat":-6.207404,"distance":3191,"is_transit":false,"station_id":"PLM","time":6,"line":6}],[{"line":11,"station_name":"Rajawali","is_transit":false,"i_long":106.836569,"station_id":"RJW","transit":false,"time":0,"distance":0,"i_lat":-6.14505},{"transit":true,"i_lat":-6.132549,"station_id":"KPB","is_transit":true,"line":0,"distance":1444,"time":3,"station_name":"Kampung Bandan","i_long":106.826365},{"is_transit":true,"station_name":"Jakarta Kota","time":3,"i_lat":-6.137569,"station_id":"JAKK","i_long":106.812439,"line":0,"transit":true,"distance":1364},{"station_name":"Jayakarta","is_transit":false,"transit":false,"i_lat":-6.141205,"i_long":106.820901,"line":7,"distance":1264,"time":4,"station_id":"JAY"},{"distance":1080,"station_id":"MGB","transit":false,"time":2,"i_long":106.82482,"is_transit":false,"i_lat":-6.149769,"line":2,"station_name":"Manggabesar"},{"is_transit":false,"i_long":106.827103,"i_lat":-6.160725,"time":2,"station_id":"SW","distance":906,"station_name":"Sawah Besar","line":2,"transit":false},{"station_name":"Juanda","line":2,"distance":1149,"station_id":"JUA","transit":false,"i_long":106.828284,"is_transit":false,"time":2,"i_lat":-6.166716},{"distance":2015,"station_id":"GDD","line":2,"station_name":"Gondangdia","time":4,"transit":false,"is_transit":false,"i_lat":-6.186295,"i_long":106.832183},{"i_long":106.840169,"distance":1750,"is_transit":false,"transit":false,"i_lat":-6.198556,"line":0,"station_id":"CKI","station_name":"Cikini","time":3},{"transit":true,"distance":1590,"station_id":"MRI","i_lat":-6.209883,"line":0,"station_name":"Manggarai","time":4,"is_transit":true,"i_long":106.84912},{"i_lat":-6.202263,"station_id":"SUD","is_transit":false,"time":4,"line":1,"distance":3186,"transit":false,"i_long":106.822649,"station_name":"Sudirman"},{"station_name":"Sudirman Baru","station_id":"SUDB","transit":false,"i_lat":-6.201433,"i_long":106.819881,"distance":280,"is_transit":false,"line":1,"time":1},{"distance":471,"i_lat":-6.20132,"station_id":"KAT","transit":false,"is_transit":false,"station_name":"Karet","time":1,"line":1,"i_long":106.816351},{"i_lat":-6.185545,"is_transit":true,"i_long":106.811091,"station_id":"THB","distance":2029,"station_name":"Tanah Abang","transit":true,"time":5,"line":1},{"transit":false,"time":6,"i_long":106.79689,"i_lat":-6.207404,"line":6,"station_id":"PLM","distance":3191,"station_name":"Palmerah","is_transit":false}],[{"i_long":106.836569,"line":11,"transit":false,"station_id":"RJW","time":0,"is_transit":false,"i_lat":-6.14505,"station_name":"Rajawali","distance":0},{"station_id":"KMO","i_long":106.839204,"i_lat":-6.161728,"is_transit":false,"distance":1901,"station_name":"Kemayoran","transit":false,"time":5,"line":11},{"station_name":"Pasar Senen","is_transit":false,"distance":1436,"station_id":"PSE","i_lat":-6.174784,"i_long":106.84368,"transit":false,"line":11,"time":4},{"distance":1567,"station_name":"Gang Sentiong","is_transit":false,"transit":false,"i_long":106.850107,"line":11,"station_id":"GST","time":8,"i_lat":-6.185975},{"is_transit":false,"time":1,"i_lat":-6.193792,"line":11,"distance":973,"transit":false,"i_long":106.855437,"station_name":"Kramat","station_id":"KMT"},{"i_lat":-6.209188,"i_long":106.861737,"line":11,"is_transit":false,"station_name":"Pondok Jati","distance":1829,"time":2,"transit":false,"station_id":"POK"},{"transit":true,"station_name":"Jatinegara","i_long":106.86807400000001,"line":0,"distance":1236,"is_transit":true,"station_id":"JNG","time":9,"i_lat":-6.215091},{"station_id":"MTR","is_transit":false,"distance":1377,"station_name":"Matraman","time":2,"i_lat":-6.212485,"transit":false,"line":1,"i_long":106.858896},{"i_lat":-6.209883,"transit":true,"is_transit":true,"line":0,"station_id":"MRI","time":2,"i_long":106.84912,"distance":1275,"station_name":"Manggarai"},{"distance":1590,"time":4,"i_lat":-6.198556,"is_transit":false,"i_long":106.840169,"station_name":"Cikini","transit":false,"station_id":"CKI","line":0},{"line":2,"distance":1750,"station_name":"Gondangdia","i_lat":-6.186295,"station_id":"GDD","transit":false,"is_transit":false,"time":3,"i_long":106.832183},{"station_id":"JUA","time":4,"is_transit":false,"i_long":106.828284,"station_name":"Juanda","line":2,"i_lat":-6.166716,"distance":2015,"transit":false},{"i_long":106.827103,"line":2,"station_name":"Sawah Besar","time":2,"is_transit":false,"transit":false,"station_id":"SW","i_lat":-6.160725,"distance":1149},{"transit":false,"i_long":106.82482,"station_id":"MGB","distance":906,"i_lat":-6.149769,"time":2,"is_transit":false,"line":2,"station_name":"Manggabesar"},{"line":7,"station_id":"JAY","transit":false,"distance":1080,"is_transit":false,"time":2,"i_lat":-6.141205,"station_name":"Jayakarta","i_long":106.820901},{"station_id":"JAKK","i_long":106.812439,"is_transit":true,"time":4,"transit":true,"i_lat":-6.137569,"distance":1264,"line":0,"station_name":"Jakarta Kota"},{"i_long":106.826365,"station_name":"Kampung Bandan","distance":1364,"is_transit":true,"transit":false,"i_lat":-6.132549,"time":3,"station_id":"KPB","line":0},{"transit":false,"is_transit":false,"station_name":"Angke","i_long":106.79867,"station_id":"AK","time":9,"distance":4102,"i_lat":-6.144674,"line":0},{"station_id":"DU","transit":true,"station_name":"Duri","i_long":106.800832,"i_lat":-6.155215,"time":4,"line":1,"distance":1230,"is_transit":true},{"transit":true,"line":1,"distance":3632,"station_name":"Tanah Abang","station_id":"THB","i_long":106.811091,"time":8,"is_transit":true,"i_lat":-6.185545},{"transit":false,"station_name":"Palmerah","line":6,"time":6,"i_lat":-6.207404,"is_transit":false,"distance":3191,"i_long":106.79689,"station_id":"PLM"}]]}