{"data":[[{"is_transit":false,"transit":false,"time":0,"line":11,"distance":0,"i_lat":-6.14505,"station_id":"RJW","i_long":106.836569,"station_name":"Rajawali"},{"is_transit":false,"station_id":"KMO","i_lat":-6.161728,"time":5,"transit":false,"distance":1901,"i_long":106.839204,"line":11,"station_name":"Kemayoran"},{"i_long":106.84368,"line":11,"time":4,"transit":false,"is_transit":false,"distance":1436,"station_id":"PSE","station_name":"Pasar Senen","i_lat":-6.174784},{"is_transit":false,"distance":1567,"station_name":"Gang Sentiong","time":8,"i_long":106.850107,"transit":false,"line":11,"i_lat":-6.185975,"station_id":"GST"},{"transit":false,"station_name":"Kramat","i_long":106.855437,"station_id":"KMT","line":11,"is_transit":false,"time":1,"distance":973,"i_lat":-6.193792},{"i_lat":-6.209188,"station_name":"Pondok Jati","time":2,"is_transit":false,"transit":false,"line":11,"station_id":"POK","i_long":106.861737,"distance":1829},{"is_transit":true,"time":9,"station_name":"Jatinegara","transit":true,"i_lat":-6.215091,"i_long":106.86807400000001,"line":0,"distance":1236,"station_id":"JNG"},{"line":1,"transit":false,"i_lat":-6.2135,"distance":3395,"station_id":"KLD","i_long":106.899548,"is_transit":false,"station_name":"Klender","time":3},{"i_lat":-6.215568,"line":0,"distance":3100,"is_transit":false,"station_id":"BUA","transit":false,"time":2,"i_long":106.922662,"station_name":"Buaran"},{"time":1,"transit":false,"line":1,"station_id":"KLDB","is_transit":false,"station_name":"Klenderbaru","i_lat":-6.217455,"distance":1305,"i_long":106.939679},{"station_id":"CUK","i_long":106.951283,"line":0,"time":8,"i_lat":-6.219053,"transit":false,"distance":1385,"is_transit":false,"station_name":"Cakung"},{"transit":false,"i_long":106.977657,"line":1,"station_id":"KRI","i_lat":-6.224515,"is_transit":false,"station_name":"Kranji","time":3,"distance":3097},{"is_transit":false,"i_lat":-6.236616,"line":0,"transit":false,"station_name":"Bekasi","station_id":"BKS","time":4,"i_long":106.997013,"distance":2520},{"is_transit":false,"distance":2368,"station_id":"BKST","i_lat":-6.248029,"station_name":"Bekasi Timur","i_long":107.016735,"transit":false,"time":2,"line":0},{"time":7,"i_lat":-6.258864,"i_long":107.055722,"station_name":"Tambun","distance":4460,"transit":false,"line":1,"is_transit":false,"station_id":"TB"}],[{"transit":false,"station_id":"RJW","station_name":"Rajawali","distance":0,"i_long":106.836569,"i_lat":-6.14505,"line":11,"is_transit":false,"time":0},{"distance":1444,"station_name":"Kampung Bandan","station_id":"KPB","time":3,"i_lat":-6.132549,"i_long":106.826365,"is_transit":true,"transit":true,"line":0},{"transit":false,"i_long":106.79867,"i_lat":-6.144674,"is_transit":false,"line":0,"station_name":"Angke","time":9,"distance":4102,"station_id":"AK"},{"time":4,"i_lat":-6.155215,"station_id":"DU","is_transit":true,"transit":true,"distance":1230,"i_long":106.800832,"line":1,"station_name":"Duri"},{"is_transit":true,"station_id":"THB","station_name":"Tanah Abang","transit":false,"distance":3632,"time":8,"i_lat":-6.185545,"i_long":106.811091,"line":1},{"i_lat":-6.20132,"i_long":106.816351,"distance":2029,"transit":false,"station_name":"Karet","is_transit":false,"time":5,"station_id":"KAT","line":1},{"i_lat":-6.201433,"is_transit":false,"transit":false,"line":1,"station_id":"SUDB","distance":471,"station_name":"Sudirman Baru","time":1,"i_long":106.819881},{"distance":280,"i_lat":-6.202263,"is_transit":false,"station_id":"SUD","station_name":"Sudirman","transit":false,"line":1,"time":1,"i_long":106.822649},{"time":4,"i_lat":-6.209883,"line":0,"station_name":"Manggarai","distance":3186,"is_transit":true,"station_id":"MRI","transit":false,"i_long":106.84912},{"distance":1275,"i_lat":-6.212485,"station_id":"MTR","time":2,"line":1,"station_name":"Matraman","is_transit":false,"i_long":106.858896,"transit":false},{"line":0,"time":8,"is_transit":true,"station_id":"JNG","station_name":"Jatinegara","i_lat":-6.215091,"i_long":106.86807400000001,"transit":false,"distance":1377},{"station_id":"KLD","i_long":106.899548,"distance":3395,"is_transit":false,"i_lat":-6.2135,"station_name":"Klender","time":3,"transit":false,"line":1},{"time":2,"i_long":106.922662,"is_transit":false,"line":0,"station_name":"Buaran","transit":false,"i_lat":-6.215568,"distance":3100,"station_id":"BUA"},{"station_id":"KLDB","transit":false,"i_long":106.939679,"is_transit":false,"time":1,"line":1,"i_lat":-6.217455,"distance":1305,"station_name":"Klenderbaru"},{"i_long":106.951283,"distance":1385,"is_transit":false,"time":8,"i_lat":-6.219053,"transit":false,"station_name":"Cakung","station_id":"CUK","line":0},{"time":3,"i_lat":-6.224515,"station_name":"Kranji","distance":3097,"line":1,"transit":false,"i_long":106.977657,"is_transit":false,"station_id":"KRI"},{"line":0,"transit":false,"is_transit":false,"distance":2520,"station_name":"Bekasi","station_id":"BKS","i_long":106.997013,"time":4,"i_lat":-6.236616},{"i_long":107.016735,"time":2,"line":0,"station_name":"Bekasi Timur","i_lat":-6.248029,"distance":2368,"is_transit":false,"station_id":"BKST","transit":false},{"is_transit":false,"i_long":107.055722,"time":7,"i_lat":-6.258864,"line":1,"station_id":"TB","distance":4460,"transit":false,"station_name":"Tambun"}],[{"i_lat":-6.14505,"i_long":106.836569,"line":11,"distance":0,"transit":false,"time":0,"station_name":"Rajawali","is_transit":false,"station_id":"RJW"},{"time":3,"i_long":106.826365,"transit":true,"distance":1444,"i_lat":-6.132549,"station_name":"Kampung Bandan","is_transit":true,"line":0,"station_id":"KPB"},{"distance":1364,"transit":true,"line":0,"station_name":"Jakarta Kota","i_long":106.812439,"is_transit":true,"time":3,"i_lat":-6.137569,"station_id":"JAKK"},{"distance":1264,"station_id":"JAY","time":4,"is_transit":false,"station_name":"Jayakarta","i_lat":-6.141205,"line":7,"transit":false,"i_long":106.820901},{"station_name":"Manggabesar","i_long":106.82482,"is_transit":false,"distance":1080,"time":2,"i_lat":-6.149769,"station_id":"MGB","transit":false,"line":2},{"line":2,"is_transit":false,"transit":false,"distance":906,"station_name":"Sawah Besar","time":2,"i_lat":-6.160725,"i_long":106.827103,"station_id":"SW"},{"distance":1149,"station_id":"JUA","line":2,"is_transit":false,"station_name":"Juanda","i_lat":-6.166716,"transit":false,"i_long":106.828284,"time":2},{"transit":false,"time":4,"station_id":"GDD","i_lat":-6.186295,"i_long":106.832183,"station_name":"Gondangdia","is_transit":false,"line":2,"distance":2015},{"station_name":"Cikini","i_long":106.840169,"time":3,"transit":false,"distance":1750,"is_transit":false,"station_id":"CKI","line":0,"i_lat":-6.198556},{"line":0,"transit":true,"station_name":"Manggarai","is_transit":true,"i_long":106.84912,"distance":1590,"station_id":"MRI","time":4,"i_lat":-6.209883},{"transit":false,"station_name":"Matraman","station_id":"MTR","line":1,"is_transit":false,"distance":1275,"time":2,"i_long":106.858896,"i_lat":-6.212485},{"time":8,"transit":false,"station_name":"Jatinegara","distance":1377,"line":0,"i_long":106.86807400000001,"station_id":"JNG","is_transit":true,"i_lat":-6.215091},{"time":3,"distance":3395,"line":1,"i_lat":-6.2135,"is_transit":false,"transit":false,"station_id":"KLD","station_name":"Klender","i_long":106.899548},{"is_transit":false,"station_id":"BUA","time":2,"station_name":"Buaran","distance":3100,"transit":false,"i_lat":-6.215568,"i_long":106.922662,"line":0},{"line":1,"distance":1305,"station_id":"KLDB","station_name":"Klenderbaru","time":1,"is_transit":false,"i_lat":-6.217455,"transit":false,"i_long":106.939679},{"is_transit":false,"transit":false,"station_id":"CUK","i_long":106.951283,"station_name":"Cakung","line":0,"distance":1385,"time":8,"i_lat":-6.219053},{"line":1,"is_transit":false,"transit":false,"station_name":"Kranji","distance":3097,"i_lat":-6.224515,"station_id":"KRI","i_long":106.977657,"time":3},{"distance":2520,"line":0,"transit":false,"station_name":"Bekasi","time":4,"i_lat":-6.236616,"is_transit":false,"station_id":"BKS","i_long":106.997013},{"distance":2368,"station_name":"Bekasi Timur","transit":false,"i_lat":-6.248029,"line":0,"is_transit":false,"station_id":"BKST","i_long":107.016735,"time":2},{"distance":4460,"station_id":"TB","is_transit":false,"station_name":"Tambun","transit":false,"time":7,"i_lat":-6.258864,"i_long":107.055722,"line":1}]]}