{"data":[[{"transit":false,"i_lat":-6.14505,"station_name":"Rajawali","distance":0,"is_transit":false,"i_long":106.836569,"time":0,"line":11,"station_id":"RJW"},{"i_lat":-6.132549,"distance":1444,"station_name":"Kampung Bandan","transit":true,"is_transit":true,"line":0,"station_id":"KPB","time":3,"i_long":106.826365},{"transit":false,"distance":4102,"time":9,"i_lat":-6.144674,"is_transit":false,"i_long":106.79867,"station_name":"Angke","line":0,"station_id":"AK"},{"time":4,"station_id":"DU","station_name":"Duri","i_lat":-6.155215,"i_long":106.800832,"transit":true,"distance":1230,"line":1,"is_transit":true},{"is_transit":true,"transit":true,"line":1,"distance":3632,"time":8,"i_long":106.811091,"station_name":"Tanah Abang","station_id":"THB","i_lat":-6.185545},{"distance":3191,"is_transit":false,"transit":false,"time":6,"i_lat":-6.207404,"station_id":"PLM","i_long":106.79689,"line":6,"station_name":"Palmerah"},{"time":7,"station_name":"Kebayoran","distance":3737,"transit":false,"i_lat":-6.237242,"i_long":106.780334,"is_transit":false,"line":6,"station_id":"KBY"},{"line":6,"i_lat":-6.276362,"station_name":"Pondokranji","station_id":"PDJ","transit":false,"is_transit":false,"time":8,"i_long":106.74273,"distance":6218},{"distance":2179,"time":3,"i_long":106.728916,"is_transit":false,"transit":false,"station_id":"JMU","line":6,"station_name":"Jurangmangu","i_lat":-6.288927},{"i_long":106.712277,"is_transit":false,"station_name":"Sudimara","i_lat":-6.296963,"station_id":"SDM","transit":false,"line":6,"time":4,"distance":1994},{"distance":4566,"is_transit":false,"station_id":"RU","transit":false,"time":6,"i_lat":-6.314823,"line":6,"station_name":"Rawa Buntu","i_long":106.675475},{"i_lat":-6.319871,"distance":2413,"line":6,"is_transit":false,"transit":false,"time":4,"station_name":"Serpong","i_long":106.66566,"station_id":"SRP"},{"transit":false,"i_lat":-6.32484,"i_long":106.640411,"is_transit":false,"line":0,"station_id":"CSK","time":4,"distance":1784,"station_name":"Cisauk"},{"station_name":"Cicayur","is_transit":false,"time":4,"i_long":106.617853,"distance":2519,"station_id":"CC","transit":false,"i_lat":-6.329547,"line":0}],[{"station_name":"Rajawali","time":0,"is_transit":false,"station_id":"RJW","transit":false,"i_lat":-6.14505,"distance":0,"i_long":106.836569,"line":11},{"i_lat":-6.161728,"station_name":"Kemayoran","transit":false,"line":11,"time":5,"is_transit":false,"station_id":"KMO","i_long":106.839204,"distance":1901},{"is_transit":false,"station_name":"Pasar Senen","time":4,"i_long":106.84368,"i_lat":-6.174784,"distance":1436,"station_id":"PSE","transit":false,"line":11},{"station_id":"GST","i_lat":-6.185975,"line":11,"time":8,"station_name":"Gang Sentiong","distance":1567,"transit":false,"i_long":106.850107,"is_transit":false},{"i_lat":-6.193792,"distance":973,"station_id":"KMT","transit":false,"time":1,"station_name":"Kramat","line":11,"i_long":106.855437,"is_transit":false},{"i_long":106.861737,"transit":false,"time":2,"i_lat":-6.209188,"station_name":"Pondok Jati","distance":1829,"line":11,"is_transit":false,"station_id":"POK"},{"transit":true,"i_long":106.86807400000001,"station_name":"Jatinegara","i_lat":-6.215091,"station_id":"JNG","line":0,"is_transit":true,"time":9,"distance":1236},{"line":1,"distance":1377,"station_name":"Matraman","i_lat":-6.212485,"is_transit":false,"station_id":"MTR","transit":false,"i_long":106.858896,"time":2},{"time":2,"i_lat":-6.209883,"i_long":106.84912,"distance":1275,"line":0,"station_id":"MRI","is_transit":true,"station_name":"Manggarai","transit":false},{"i_lat":-6.202263,"station_id":"SUD","station_name":"Sudirman","distance":3186,"time":4,"is_transit":false,"line":1,"transit":false,"i_long":106.822649},{"transit":false,"i_lat":-6.201433,"is_transit":false,"distance":280,"time":1,"station_id":"SUDB","station_name":"Sudirman Baru","i_long":106.819881,"line":1},{"i_long":106.816351,"transit":false,"station_name":"Karet","distance":471,"is_transit":false,"i_lat":-6.20132,"station_id":"KAT","time":1,"line":1},{"is_transit":true,"i_long":106.811091,"station_id":"THB","distance":2029,"time":5,"line":1,"transit":true,"station_name":"Tanah Abang","i_lat":-6.185545},{"time":6,"is_transit":false,"station_name":"Palmerah","i_long":106.79689,"i_lat":-6.207404,"line":6,"transit":false,"distance":3191,"station_id":"PLM"},{"i_lat":-6.237242,"station_id":"KBY","station_name":"Kebayoran","is_transit":false,"transit":false,"time":7,"i_long":106.780334,"line":6,"distance":3737},{"distance":6218,"time":8,"i_lat":-6.276362,"is_transit":false,"station_name":"Pondokranji","transit":false,"line":6,"station_id":"PDJ","i_long":106.74273},{"distance":2179,"station_id":"JMU","line":6,"is_transit":false,"time":3,"transit":false,"i_lat":-6.288927,"station_name":"Jurangmangu","i_long":106.728916},{"line":6,"distance":1994,"i_long":106.712277,"i_lat":-6.296963,"time":4,"is_transit":false,"station_id":"SDM","station_name":"Sudimara","transit":false},{"i_long":106.675475,"distance":4566,"is_transit":false,"i_lat":-6.314823,"station_id":"RU","transit":false,"time":6,"station_name":"Rawa Buntu","line":6},{"station_name":"Serpong","i_long":106.66566,"transit":false,"station_id":"SRP","time":4,"line":6,"is_transit":false,"distance":2413,"i_lat":-6.319871},{"is_transit":false,"time":4,"distance":1784,"line":0,"i_long":106.640411,"station_name":"Cisauk","transit":false,"station_id":"CSK","i_lat":-6.32484},{"i_lat":-6.329547,"station_name":"Cicayur","time":4,"is_transit":false,"transit":false,"i_long":106.617853,"line":0,"distance":2519,"station_id":"CC"}],[{"i_long":106.836569,"station_id":"RJW","time":0,"i_lat":-6.14505,"station_name":"Rajawali","is_transit":false,"line":11,"distance":0,"transit":false},{"is_transit":true,"station_name":"Kampung Bandan","i_lat":-6.132549,"time":3,"transit":true,"i_long":106.826365,"distance":1444,"station_id":"KPB","line":0},{"distance":1364,"station_id":"JAKK","i_long":106.812439,"is_transit":true,"line":0,"time":3,"transit":true,"station_name":"Jakarta Kota","i_lat":-6.137569},{"distance":1264,"time":4,"station_name":"Jayakarta","i_lat":-6.141205,"station_id":"JAY","i_long":106.820901,"is_transit":false,"line":7,"transit":false},{"station_name":"Manggabesar","station_id":"MGB","transit":false,"i_long":106.82482,"time":2,"distance":1080,"i_lat":-6.149769,"line":2,"is_transit":false},{"distance":906,"is_transit":false,"station_id":"SW","transit":false,"station_name":"Sawah Besar","i_lat":-6.160725,"i_long":106.827103,"time":2,"line":2},{"station_id":"JUA","i_lat":-6.166716,"distance":1149,"transit":false,"i_long":106.828284,"line":2,"is_transit":false,"station_name":"Juanda","time":2},{"i_lat":-6.186295,"transit":false,"distance":2015,"station_name":"Gondangdia","time":4,"station_id":"GDD","line":2,"is_transit":false,"i_long":106.832183},{"line":0,"station_id":"CKI","is_transit":false,"transit":false,"i_lat":-6.198556,"time":3,"distance":1750,"station_name":"Cikini","i_long":106.840169},{"time":4,"station_name":"Manggarai","transit":true,"line":0,"i_lat":-6.209883,"distance":1590,"is_transit":true,"i_long":106.84912,"station_id":"MRI"},{"station_id":"SUD","time":4,"i_lat":-6.202263,"i_long":106.822649,"station_name":"Sudirman","is_transit":false,"transit":false,"line":1,"distance":3186},{"time":1,"transit":false,"station_id":"SUDB","distance":280,"line":1,"station_name":"Sudirman Baru","i_long":106.819881,"i_lat":-6.201433,"is_transit":false},{"station_id":"KAT","i_long":106.816351,"station_name":"Karet","line":1,"i_lat":-6.20132,"time":1,"is_transit":false,"transit":false,"distance":471},{"time":5,"i_long":106.811091,"station_name":"Tanah Abang","line":1,"i_lat":-6.185545,"transit":true,"is_transit":true,"station_id":"THB","distance":2029},{"station_id":"PLM","transit":false,"time":6,"station_name":"Palmerah","i_lat":-6.207404,"i_long":106.79689,"distance":3191,"is_transit":false,"line":6},{"distance":3737,"is_transit":false,"station_name":"Kebayoran","transit":false,"time":7,"station_id":"KBY","i_lat":-6.237242,"line":6,"i_long":106.780334},{"distance":6218,"station_name":"Pondokranji","i_lat":-6.276362,"line":6,"transit":false,"i_long":106.74273,"is_transit":false,"station_id":"PDJ","time":8},{"is_transit":false,"line":6,"transit":false,"station_name":"Jurangmangu","i_long":106.728916,"distance":2179,"time":3,"station_id":"JMU","i_lat":-6.288927},{"is_transit":false,"line":6,"station_name":"Sudimara","i_long":106.712277,"time":4,"transit":false,"i_lat":-6.296963,"station_id":"SDM","distance":1994},{"distance":4566,"station_name":"Rawa Buntu","is_transit":false,"i_lat":-6.314823,"line":6,"i_long":106.675475,"transit":false,"time":6,"station_id":"RU"},{"i_lat":-6.319871,"transit":false,"is_transit":false,"station_name":"Serpong","i_long":106.66566,"station_id":"SRP","time":4,"distance":2413,"line":6},{"i_lat":-6.32484,"station_id":"CSK","transit":false,"i_long":106.640411,"station_name":"Cisauk","distance":1784,"time":4,"is_transit":false,"line":0},{"i_lat":-6.329547,"station_id":"CC","is_transit":false,"i_long":106.617853,"distance":2519,"station_name":"Cicayur","time":4,"transit":false,"line":0}],[{"i_lat":-6.14505,"i_long":106.836569,"is_transit":false,"transit":false,"line":11,"time":0,"distance":0,"station_name":"Rajawali","station_id":"RJW"},{"time":5,"distance":1901,"station_name":"Kemayoran","station_id":"KMO","transit":false,"i_long":106.839204,"i_lat":-6.161728,"line":11,"is_transit":false},{"station_name":"Pasar Senen","station_id":"PSE","time":4,"is_transit":false,"transit":false,"i_lat":-6.174784,"i_long":106.84368,"distance":1436,"line":11},{"line":11,"is_transit":false,"i_long":106.850107,"transit":false,"time":8,"station_id":"GST","distance":1567,"i_lat":-6.185975,"station_name":"Gang Sentiong"},{"station_id":"KMT","station_name":"Kramat","time":1,"line":11,"i_long":106.855437,"distance":973,"transit":false,"is_transit":false,"i_lat":-6.193792},{"time":2,"is_transit":false,"station_name":"Pondok Jati","line":11,"transit":false,"distance":1829,"i_lat":-6.209188,"station_id":"POK","i_long":106.861737},{"i_long":106.86807400000001,"line":0,"transit":true,"distance":1236,"is_transit":true,"station_name":"Jatinegara","station_id":"JNG","time":9,"i_lat":-6.215091},{"i_lat":-6.212485,"i_long":106.858896,"is_transit":false,"line":1,"transit":false,"distance":1377,"station_id":"MTR","station_name":"Matraman","time":2},{"distance":1275,"station_id":"MRI","line":0,"is_transit":true,"time":2,"transit":true,"i_lat":-6.209883,"station_name":"Manggarai","i_long":106.84912},{"time":4,"transit":false,"station_id":"CKI","distance":1590,"line":0,"is_transit":false,"i_long":106.840169,"i_lat":-6.198556,"station_name":"Cikini"},{"line":2,"is_transit":false,"i_long":106.832183,"distance":1750,"station_name":"Gondangdia","i_lat":-6.186295,"transit":false,"time":3,"station_id":"GDD"},{"time":4,"is_transit":false,"station_id":"JUA","distance":2015,"transit":false,"i_long":106.828284,"station_name":"Juanda","line":2,"i_lat":-6.166716},{"time":2,"i_long":106.827103,"station_name":"Sawah Besar","distance":1149,"line":2,"i_lat":-6.160725,"station_id":"SW","is_transit":false,"transit":false},{"i_lat":-6.149769,"distance":906,"station_id":"MGB","i_long":106.82482,"transit":false,"station_name":"Manggabesar","is_transit":false,"line":2,"time":2},{"station_id":"JAY","distance":1080,"transit":false,"time":2,"i_long":106.820901,"station_name":"Jayakarta","line":7,"i_lat":-6.141205,"is_transit":false},{"station_name":"Jakarta Kota","line":0,"distance":1264,"i_long":106.812439,"transit":true,"i_lat":-6.137569,"station_id":"JAKK","time":4,"is_transit":true},{"line":0,"i_long":106.826365,"station_name":"Kampung Bandan","time":3,"distance":1364,"station_id":"KPB","i_lat":-6.132549,"transit":false,"is_transit":true},{"distance":4102,"line":0,"i_lat":-6.144674,"station_id":"AK","i_long":106.79867,"station_name":"Angke","time":9,"is_transit":false,"transit":false},{"is_transit":true,"transit":true,"time":4,"distance":1230,"i_lat":-6.155215,"line":1,"i_long":106.800832,"station_id":"DU","station_name":"Duri"},{"station_id":"THB","line":1,"time":8,"station_name":"Tanah Abang","i_lat":-6.185545,"i_long":106.811091,"transit":true,"distance":3632,"is_transit":true},{"distance":3191,"time":6,"i_lat":-6.207404,"i_long":106.79689,"station_id":"PLM","is_transit":false,"transit":false,"line":6,"station_name":"Palmerah"},{"transit":false,"time":7,"is_transit":false,"distance":3737,"i_long":106.780334,"station_name":"Kebayoran","i_lat":-6.237242,"station_id":"KBY","line":6},{"distance":6218,"i_lat":-6.276362,"is_transit":false,"time":8,"line":6,"station_name":"Pondokranji","i_long":106.74273,"station_id":"PDJ","transit":false},{"station_name":"Jurangmangu","transit":false,"time":3,"distance":2179,"line":6,"i_long":106.728916,"i_lat":-6.288927,"is_transit":false,"station_id":"JMU"},{"time":4,"distance":1994,"station_id":"SDM","i_lat":-6.296963,"is_transit":false,"i_long":106.712277,"line":6,"station_name":"Sudimara","transit":false},{"time":6,"transit":false,"i_lat":-6.314823,"i_long":106.675475,"station_name":"Rawa Buntu","station_id":"RU","line":6,"is_transit":false,"distance":4566},{"is_transit":false,"line":6,"i_long":106.66566,"transit":false,"time":4,"distance":2413,"station_id":"SRP","station_name":"Serpong","i_lat":-6.319871},{"time":4,"transit":false,"distance":1784,"i_lat":-6.32484,"line":0,"i_long":106.640411,"station_name":"Cisauk","is_transit":false,"station_id":"CSK"},{"station_id":"CC","is_transit":false,"distance":2519,"station_name":"Cicayur","transit":false,"time":4,"i_lat":-6.329547,"line":0,"i_long":106.617853}]]}