{"data":[[{"time":0,"i_long":106.836569,"station_name":"Rajawali","station_id":"RJW","transit":false,"distance":0,"line":11,"i_lat":-6.14505,"is_transit":false},{"distance":1901,"station_id":"KMO","i_lat":-6.161728,"is_transit":false,"transit":false,"time":5,"station_name":"Kemayoran","i_long":106.839204,"line":11},{"is_transit":false,"transit":false,"line":11,"time":4,"i_lat":-6.174784,"station_id":"PSE","i_long":106.84368,"distance":1436,"station_name":"Pasar Senen"},{"i_long":106.850107,"distance":1567,"transit":false,"station_id":"GST","line":11,"time":8,"i_lat":-6.185975,"station_name":"Gang Sentiong","is_transit":false},{"is_transit":false,"line":11,"transit":false,"station_name":"Kramat","station_id":"KMT","i_long":106.855437,"distance":973,"time":1,"i_lat":-6.193792},{"i_long":106.861737,"i_lat":-6.209188,"transit":false,"time":2,"is_transit":false,"distance":1829,"line":11,"station_name":"Pondok Jati","station_id":"POK"},{"station_name":"Jatinegara","line":1,"i_lat":-6.215091,"i_long":106.86807400000001,"station_id":"JNG","is_transit":true,"time":9,"distance":1236,"transit":true},{"transit":false,"is_transit":false,"i_lat":-6.212485,"i_long":106.858896,"distance":1377,"station_name":"Matraman","station_id":"MTR","line":1,"time":2},{"i_long":106.84912,"station_id":"MRI","line":2,"time":2,"distance":1275,"station_name":"Manggarai","transit":true,"i_lat":-6.209883,"is_transit":true},{"transit":false,"time":4,"i_long":106.857948,"distance":2610,"station_name":"Tebet","line":2,"station_id":"TEB","is_transit":false,"i_lat":-6.226659},{"i_lat":-6.242512,"is_transit":false,"transit":false,"station_id":"CW","distance":1230,"line":2,"station_name":"Cawang","i_long":106.856607,"time":2},{"time":3,"transit":false,"station_name":"Duren Kalibata","i_lat":-6.255332,"i_long":106.85449,"distance":1546,"station_id":"DRN","is_transit":false,"line":2},{"transit":false,"station_id":"PSMB","is_transit":false,"i_long":106.851577,"station_name":"Pasar Minggu Baru","line":2,"time":2,"i_lat":-6.263214,"distance":824}],[{"i_lat":-6.14505,"station_id":"RJW","distance":0,"transit":false,"line":11,"is_transit":false,"i_long":106.836569,"time":0,"station_name":"Rajawali"},{"line":4,"time":3,"is_transit":true,"i_long":106.826365,"station_name":"Kampung Bandan","distance":1444,"station_id":"KPB","transit":true,"i_lat":-6.132549},{"line":1,"i_long":106.79867,"transit":false,"is_transit":false,"time":9,"distance":4102,"station_name":"Angke","i_lat":-6.144674,"station_id":"AK"},{"distance":1230,"i_lat":-6.155215,"time":4,"i_long":106.800832,"line":1,"transit":false,"is_transit":false,"station_id":"DU","station_name":"Duri"},{"time":8,"station_name":"Tanah Abang","is_transit":false,"transit":false,"station_id":"THB","i_lat":-6.185545,"i_long":106.811091,"line":1,"distance":3632},{"station_name":"Karet","time":5,"i_lat":-6.20132,"distance":2029,"line":1,"transit":false,"is_transit":false,"station_id":"KAT","i_long":106.816351},{"time":1,"station_name":"Sudirman Baru","is_transit":false,"line":1,"transit":false,"i_lat":-6.201433,"station_id":"SUDB","i_long":106.819881,"distance":471},{"i_long":106.822649,"station_name":"Sudirman","station_id":"SUD","distance":280,"i_lat":-6.202263,"time":1,"line":1,"is_transit":false,"transit":false},{"i_long":106.84912,"time":4,"distance":3186,"station_name":"Manggarai","transit":true,"line":2,"station_id":"MRI","i_lat":-6.209883,"is_transit":true},{"line":2,"time":4,"transit":false,"is_transit":false,"i_long":106.857948,"station_id":"TEB","distance":2610,"i_lat":-6.226659,"station_name":"Tebet"},{"line":2,"station_name":"Cawang","time":2,"station_id":"CW","is_transit":false,"distance":1230,"i_lat":-6.242512,"i_long":106.856607,"transit":false},{"distance":1546,"i_long":106.85449,"line":2,"station_name":"Duren Kalibata","is_transit":false,"i_lat":-6.255332,"time":3,"station_id":"DRN","transit":false},{"time":2,"distance":824,"transit":false,"i_lat":-6.263214,"station_id":"PSMB","station_name":"Pasar Minggu Baru","line":2,"i_long":106.851577,"is_transit":false}],[{"i_long":106.836569,"station_id":"RJW","line":11,"station_name":"Rajawali","distance":0,"is_transit":false,"time":0,"transit":false,"i_lat":-6.14505},{"time":3,"transit":true,"i_long":106.826365,"distance":1444,"station_name":"Kampung Bandan","station_id":"KPB","line":4,"is_transit":true,"i_lat":-6.132549},{"station_id":"JAKK","time":3,"transit":true,"is_transit":true,"distance":1364,"i_lat":-6.137569,"station_name":"Jakarta Kota","i_long":106.812439,"line":2},{"i_long":106.820901,"station_name":"Jayakarta","is_transit":false,"transit":false,"i_lat":-6.141205,"line":2,"time":4,"distance":1264,"station_id":"JAY"},{"is_transit":false,"transit":false,"station_id":"MGB","distance":1080,"i_long":106.82482,"line":2,"i_lat":-6.149769,"station_name":"Manggabesar","time":2},{"station_name":"Sawah Besar","time":2,"is_transit":false,"station_id":"SW","distance":906,"i_long":106.827103,"i_lat":-6.160725,"transit":false,"line":2},{"line":2,"i_long":106.828284,"transit":false,"distance":1149,"is_transit":false,"i_lat":-6.166716,"station_id":"JUA","time":2,"station_name":"Juanda"},{"time":4,"i_long":106.832183,"distance":2015,"station_name":"Gondangdia","transit":false,"i_lat":-6.186295,"station_id":"GDD","is_transit":false,"line":2},{"is_transit":false,"station_id":"CKI","i_long":106.840169,"line":2,"distance":1750,"i_lat":-6.198556,"transit":false,"time":3,"station_name":"Cikini"},{"station_name":"Manggarai","time":4,"i_lat":-6.209883,"station_id":"MRI","distance":1590,"is_transit":false,"line":2,"transit":false,"i_long":106.84912},{"time":4,"i_lat":-6.226659,"transit":false,"station_name":"Tebet","is_transit":false,"station_id":"TEB","i_long":106.857948,"line":2,"distance":2610},{"time":2,"line":2,"transit":false,"i_long":106.856607,"station_name":"Cawang","distance":1230,"station_id":"CW","is_transit":false,"i_lat":-6.242512},{"station_id":"DRN","is_transit":false,"i_lat":-6.255332,"transit":false,"distance":1546,"station_name":"Duren Kalibata","line":2,"time":3,"i_long":106.85449},{"line":2,"is_transit":false,"station_id":"PSMB","station_name":"Pasar Minggu Baru","i_lat":-6.263214,"distance":824,"time":2,"transit":false,"i_long":106.851577}]]}