{"data":[[{"time":0,"line":3,"station_id":"RK","station_name":"Rangkasbitung","distance":0,"is_transit":false,"transit":false,"i_lat":-6.352675,"i_long":106.250396},{"is_transit":false,"i_long":106.332092,"station_name":"Citeras","distance":9847,"transit":false,"i_lat":-6.334892,"time":13,"line":3,"station_id":"CTR"},{"station_id":"MJ","transit":false,"i_long":106.394373,"is_transit":false,"station_name":"Maja","i_lat":-6.332307,"line":6,"distance":7293,"time":10},{"line":3,"station_name":"Cikoya","is_transit":false,"station_id":"CKY","distance":1853,"i_long":106.411216,"time":4,"transit":false,"i_lat":-6.33561},{"i_lat":-6.328533,"station_name":"Tigaraksa","distance":2651,"is_transit":false,"transit":false,"i_long":106.425991,"line":6,"time":3,"station_id":"TGS"},{"transit":false,"station_name":"Tenjo","time":5,"distance":2974,"i_lat":-6.327251,"station_id":"TEJ","i_long":106.460812,"line":6,"is_transit":false},{"distance":3902,"time":5,"i_long":106.491338,"i_lat":-6.338021,"is_transit":false,"transit":false,"line":0,"station_id":"DAR","station_name":"Daru"},{"i_lat":-6.354349,"is_transit":false,"distance":2675,"station_name":"Cilejit","transit":false,"station_id":"CJT","i_long":106.508482,"time":6,"line":3},{"transit":false,"i_lat":-6.3441410000000005,"i_long":106.568863,"station_id":"PRP","time":9,"is_transit":false,"line":6,"distance":7025,"station_name":"Parung Panjang"},{"distance":5968,"station_name":"Cicayur","transit":false,"station_id":"CC","is_transit":false,"i_long":106.617853,"line":3,"time":8,"i_lat":-6.329547},{"transit":false,"i_lat":-6.32484,"i_long":106.640411,"line":3,"distance":2519,"station_id":"CSK","station_name":"Cisauk","is_transit":false,"time":4},{"is_transit":false,"i_lat":-6.319871,"transit":false,"time":4,"i_long":106.66566,"line":6,"station_id":"SRP","distance":1784,"station_name":"Serpong"},{"i_lat":-6.314823,"line":6,"i_long":106.675475,"is_transit":false,"station_id":"RU","transit":false,"time":4,"distance":2413,"station_name":"Rawa Buntu"},{"station_id":"SDM","transit":false,"i_long":106.712277,"time":6,"is_transit":false,"line":6,"i_lat":-6.296963,"distance":4566,"station_name":"Sudimara"},{"is_transit":false,"i_long":106.728916,"time":4,"distance":1994,"station_id":"JMU","transit":false,"line":6,"station_name":"Jurangmangu","i_lat":-6.288927},{"time":3,"line":6,"i_lat":-6.276362,"transit":false,"i_long":106.74273,"station_id":"PDJ","distance":2179,"is_transit":false,"station_name":"Pondokranji"},{"i_lat":-6.237242,"transit":false,"time":8,"is_transit":false,"line":6,"station_name":"Kebayoran","i_long":106.780334,"station_id":"KBY","distance":6218},{"transit":false,"i_long":106.79689,"time":7,"station_id":"PLM","line":6,"distance":3737,"is_transit":false,"i_lat":-6.207404,"station_name":"Palmerah"},{"transit":true,"i_long":106.811091,"distance":3191,"time":6,"station_name":"Tanah Abang","line":1,"is_transit":true,"station_id":"THB","i_lat":-6.185545},{"is_transit":true,"distance":3632,"line":1,"time":8,"i_long":106.800832,"transit":true,"station_id":"DU","i_lat":-6.155215,"station_name":"Duri"},{"is_transit":false,"distance":1700,"station_id":"GRG","time":3,"i_lat":-6.162021,"station_name":"Grogol","i_long":106.788277,"line":5,"transit":false},{"i_long":106.771379,"line":5,"station_name":"Pesing","distance":2036,"is_transit":false,"station_id":"PSG","time":2,"i_lat":-6.161433,"transit":false},{"transit":false,"time":2,"i_lat":-6.1587309999999995,"station_name":"Taman Kota","i_long":106.756522,"line":5,"distance":1614,"is_transit":false,"station_id":"TKO"},{"is_transit":false,"station_name":"Bojongindah","station_id":"BOI","time":2,"transit":false,"i_lat":-6.159876,"i_long":106.737035,"distance":2334,"line":5},{"time":4,"i_lat":-6.162758,"is_transit":false,"i_long":106.723064,"transit":false,"distance":1152,"station_name":"Rawa Buaya","line":5,"station_id":"RW"},{"station_name":"Kalideres","is_transit":false,"i_lat":-6.166068,"time":3,"line":5,"i_long":106.701612,"distance":2504,"station_id":"KDS","transit":false},{"transit":false,"is_transit":false,"line":5,"i_lat":-6.169933,"time":3,"station_name":"Poris","station_id":"PI","i_long":106.679458,"distance":2548},{"i_lat":-6.171811,"line":5,"distance":1834,"transit":false,"station_id":"BPR","time":3,"is_transit":false,"station_name":"Batuceper","i_long":106.665036}],[{"time":0,"transit":false,"station_id":"RK","i_lat":-6.352675,"station_name":"Rangkasbitung","i_long":106.250396,"line":3,"is_transit":false,"distance":0},{"i_lat":-6.334892,"i_long":106.332092,"is_transit":false,"line":3,"time":13,"station_id":"CTR","distance":9847,"transit":false,"station_name":"Citeras"},{"is_transit":false,"station_id":"MJ","time":10,"i_lat":-6.332307,"station_name":"Maja","i_long":106.394373,"line":6,"distance":7293,"transit":false},{"station_name":"Cikoya","line":3,"is_transit":false,"i_long":106.411216,"station_id":"CKY","time":4,"transit":false,"distance":1853,"i_lat":-6.33561},{"distance":2651,"is_transit":false,"time":3,"station_id":"TGS","line":6,"i_long":106.425991,"transit":false,"station_name":"Tigaraksa","i_lat":-6.328533},{"i_long":106.460812,"distance":2974,"line":6,"i_lat":-6.327251,"station_id":"TEJ","time":5,"is_transit":false,"transit":false,"station_name":"Tenjo"},{"station_id":"DAR","time":5,"line":0,"distance":3902,"i_lat":-6.338021,"transit":false,"station_name":"Daru","i_long":106.491338,"is_transit":false},{"station_id":"CJT","distance":2675,"station_name":"Cilejit","time":6,"i_lat":-6.354349,"is_transit":false,"transit":false,"i_long":106.508482,"line":3},{"distance":7025,"transit":false,"is_transit":false,"station_id":"PRP","i_long":106.568863,"station_name":"Parung Panjang","i_lat":-6.3441410000000005,"time":9,"line":6},{"time":8,"i_long":106.617853,"transit":false,"station_name":"Cicayur","is_transit":false,"i_lat":-6.329547,"distance":5968,"station_id":"CC","line":3},{"i_long":106.640411,"line":3,"distance":2519,"is_transit":false,"i_lat":-6.32484,"station_name":"Cisauk","time":4,"transit":false,"station_id":"CSK"},{"transit":false,"line":6,"station_name":"Serpong","time":4,"is_transit":false,"distance":1784,"station_id":"SRP","i_lat":-6.319871,"i_long":106.66566},{"transit":false,"station_name":"Rawa Buntu","station_id":"RU","is_transit":false,"i_lat":-6.314823,"line":6,"distance":2413,"i_long":106.675475,"time":4},{"i_lat":-6.296963,"distance":4566,"station_id":"SDM","time":6,"line":6,"transit":false,"station_name":"Sudimara","i_long":106.712277,"is_transit":false},{"distance":1994,"i_lat":-6.288927,"is_transit":false,"line":6,"transit":false,"station_name":"Jurangmangu","time":4,"station_id":"JMU","i_long":106.728916},{"time":3,"distance":2179,"transit":false,"i_lat":-6.276362,"is_transit":false,"station_name":"Pondokranji","i_long":106.74273,"station_id":"PDJ","line":6},{"transit":false,"time":8,"is_transit":false,"station_name":"Kebayoran","station_id":"KBY","i_lat":-6.237242,"distance":6218,"i_long":106.780334,"line":6},{"i_lat":-6.207404,"is_transit":false,"transit":false,"distance":3737,"line":6,"station_id":"PLM","station_name":"Palmerah","time":7,"i_long":106.79689},{"is_transit":true,"i_long":106.811091,"station_name":"Tanah Abang","time":6,"distance":3191,"station_id":"THB","transit":true,"i_lat":-6.185545,"line":1},{"i_lat":-6.20132,"distance":2029,"i_long":106.816351,"station_id":"KAT","time":5,"line":1,"station_name":"Karet","is_transit":false,"transit":false},{"i_lat":-6.201433,"is_transit":false,"station_name":"Sudirman Baru","transit":false,"i_long":106.819881,"line":1,"time":1,"station_id":"SUDB","distance":471},{"transit":false,"is_transit":false,"station_id":"SUD","station_name":"Sudirman","i_long":106.822649,"time":1,"distance":280,"line":1,"i_lat":-6.202263},{"time":4,"is_transit":true,"i_long":106.84912,"transit":true,"station_name":"Manggarai","distance":3186,"station_id":"MRI","line":2,"i_lat":-6.209883},{"is_transit":false,"transit":false,"time":4,"station_id":"CKI","station_name":"Cikini","distance":1590,"i_lat":-6.198556,"i_long":106.840169,"line":2},{"transit":false,"station_name":"Gondangdia","line":2,"i_lat":-6.186295,"time":3,"is_transit":false,"distance":1750,"station_id":"GDD","i_long":106.832183},{"distance":2015,"i_lat":-6.166716,"i_long":106.828284,"is_transit":false,"station_id":"JUA","station_name":"Juanda","time":4,"line":2,"transit":false},{"transit":false,"station_name":"Sawah Besar","distance":1149,"station_id":"SW","time":2,"i_lat":-6.160725,"line":2,"i_long":106.827103,"is_transit":false},{"time":2,"line":2,"station_name":"Manggabesar","i_lat":-6.149769,"is_transit":false,"distance":906,"station_id":"MGB","transit":false,"i_long":106.82482},{"station_name":"Jayakarta","station_id":"JAY","time":2,"i_long":106.820901,"transit":false,"is_transit":false,"line":2,"i_lat":-6.141205,"distance":1080},{"i_lat":-6.137569,"line":2,"transit":true,"is_transit":true,"station_id":"JAKK","station_name":"Jakarta Kota","i_long":106.812439,"time":4,"distance":1264},{"i_lat":-6.132549,"is_transit":true,"distance":1364,"i_long":106.826365,"station_id":"KPB","station_name":"Kampung Bandan","transit":true,"line":4,"time":3},{"station_name":"Angke","time":9,"is_transit":false,"line":1,"transit":false,"distance":4102,"i_long":106.79867,"station_id":"AK","i_lat":-6.144674},{"transit":true,"line":1,"is_transit":true,"distance":1230,"i_long":106.800832,"station_id":"DU","station_name":"Duri","time":4,"i_lat":-6.155215},{"station_id":"GRG","distance":1700,"is_transit":false,"station_name":"Grogol","transit":false,"line":5,"time":3,"i_lat":-6.162021,"i_long":106.788277},{"station_id":"PSG","i_lat":-6.161433,"time":2,"distance":2036,"station_name":"Pesing","is_transit":false,"line":5,"transit":false,"i_long":106.771379},{"time":2,"station_id":"TKO","is_transit":false,"line":5,"transit":false,"station_name":"Taman Kota","i_lat":-6.1587309999999995,"i_long":106.756522,"distance":1614},{"i_long":106.737035,"line":5,"is_transit":false,"time":2,"distance":2334,"transit":false,"i_lat":-6.159876,"station_id":"BOI","station_name":"Bojongindah"},{"i_lat":-6.162758,"station_name":"Rawa Buaya","i_long":106.723064,"line":5,"is_transit":false,"station_id":"RW","time":4,"transit":false,"distance":1152},{"i_long":106.701612,"transit":false,"station_id":"KDS","distance":2504,"station_name":"Kalideres","i_lat":-6.166068,"line":5,"time":3,"is_transit":false},{"is_transit":false,"distance":2548,"transit":false,"station_name":"Poris","i_long":106.679458,"i_lat":-6.169933,"line":5,"station_id":"PI","time":3},{"transit":false,"distance":1834,"time":3,"station_id":"BPR","station_name":"Batuceper","i_lat":-6.171811,"i_long":106.665036,"line":5,"is_transit":false}],[{"time":0,"distance":0,"i_long":106.250396,"i_lat":-6.352675,"line":3,"transit":false,"station_id":"RK","station_name":"Rangkasbitung","is_transit":false},{"is_transit":false,"i_lat":-6.334892,"time":13,"line":3,"transit":false,"station_id":"CTR","station_name":"Citeras","i_long":106.332092,"distance":9847},{"station_id":"MJ","transit":false,"time":10,"line":6,"is_transit":false,"station_name":"Maja","distance":7293,"i_lat":-6.332307,"i_long":106.394373},{"station_id":"CKY","distance":1853,"is_transit":false,"station_name":"Cikoya","time":4,"i_lat":-6.33561,"i_long":106.411216,"transit":false,"line":3},{"station_id":"TGS","distance":2651,"is_transit":false,"time":3,"transit":false,"i_long":106.425991,"line":6,"station_name":"Tigaraksa","i_lat":-6.328533},{"i_long":106.460812,"is_transit":false,"transit":false,"i_lat":-6.327251,"station_id":"TEJ","station_name":"Tenjo","time":5,"distance":2974,"line":6},{"transit":false,"station_id":"DAR","is_transit":false,"station_name":"Daru","time":5,"i_lat":-6.338021,"i_long":106.491338,"line":0,"distance":3902},{"time":6,"is_transit":false,"station_name":"Cilejit","i_long":106.508482,"i_lat":-6.354349,"distance":2675,"station_id":"CJT","transit":false,"line":3},{"time":9,"is_transit":false,"i_lat":-6.3441410000000005,"line":6,"i_long":106.568863,"transit":false,"distance":7025,"station_name":"Parung Panjang","station_id":"PRP"},{"i_lat":-6.329547,"station_id":"CC","time":8,"transit":false,"line":3,"i_long":106.617853,"is_transit":false,"station_name":"Cicayur","distance":5968},{"transit":false,"time":4,"distance":2519,"i_long":106.640411,"line":3,"is_transit":false,"i_lat":-6.32484,"station_id":"CSK","station_name":"Cisauk"},{"time":4,"i_lat":-6.319871,"station_id":"SRP","distance":1784,"is_transit":false,"station_name":"Serpong","i_long":106.66566,"line":6,"transit":false},{"station_id":"RU","distance":2413,"i_lat":-6.314823,"station_name":"Rawa Buntu","time":4,"i_long":106.675475,"transit":false,"line":6,"is_transit":false},{"time":6,"i_lat":-6.296963,"is_transit":false,"station_name":"Sudimara","distance":4566,"i_long":106.712277,"transit":false,"station_id":"SDM","line":6},{"station_name":"Jurangmangu","i_lat":-6.288927,"time":4,"station_id":"JMU","i_long":106.728916,"is_transit":false,"distance":1994,"transit":false,"line":6},{"line":6,"station_id":"PDJ","station_name":"Pondokranji","i_long":106.74273,"transit":false,"time":3,"is_transit":false,"i_lat":-6.276362,"distance":2179},{"distance":6218,"station_name":"Kebayoran","line":6,"is_transit":false,"time":8,"station_id":"KBY","transit":false,"i_long":106.780334,"i_lat":-6.237242},{"time":7,"is_transit":false,"station_id":"PLM","i_long":106.79689,"line":6,"station_name":"Palmerah","distance":3737,"i_lat":-6.207404,"transit":false},{"transit":true,"time":6,"i_lat":-6.185545,"is_transit":true,"i_long":106.811091,"line":1,"station_name":"Tanah Abang","distance":3191,"station_id":"THB"},{"transit":false,"time":5,"is_transit":false,"station_id":"KAT","station_name":"Karet","i_lat":-6.20132,"distance":2029,"i_long":106.816351,"line":1},{"i_long":106.819881,"i_lat":-6.201433,"time":1,"is_transit":false,"distance":471,"station_id":"SUDB","station_name":"Sudirman Baru","line":1,"transit":false},{"time":1,"station_id":"SUD","transit":false,"i_long":106.822649,"is_transit":false,"i_lat":-6.202263,"line":1,"station_name":"Sudirman","distance":280},{"time":4,"station_name":"Manggarai","distance":3186,"transit":false,"i_lat":-6.209883,"is_transit":false,"station_id":"MRI","i_long":106.84912,"line":2},{"i_long":106.858896,"station_id":"MTR","distance":1275,"time":2,"i_lat":-6.212485,"line":1,"is_transit":false,"transit":false,"station_name":"Matraman"},{"transit":true,"is_transit":true,"time":8,"line":1,"station_id":"JNG","i_lat":-6.215091,"station_name":"Jatinegara","i_long":106.86807400000001,"distance":1377},{"i_lat":-6.209188,"station_name":"Pondok Jati","i_long":106.861737,"station_id":"POK","transit":false,"is_transit":false,"distance":1236,"time":2,"line":11},{"time":2,"station_name":"Kramat","distance":1829,"line":11,"transit":false,"i_long":106.855437,"is_transit":false,"station_id":"KMT","i_lat":-6.193792},{"line":11,"distance":973,"time":1,"transit":false,"station_name":"Gang Sentiong","i_long":106.850107,"station_id":"GST","i_lat":-6.185975,"is_transit":false},{"is_transit":false,"station_id":"PSE","time":8,"line":11,"transit":false,"distance":1567,"i_lat":-6.174784,"station_name":"Pasar Senen","i_long":106.84368},{"i_lat":-6.161728,"distance":1436,"time":4,"is_transit":false,"i_long":106.839204,"station_id":"KMO","line":11,"transit":false,"station_name":"Kemayoran"},{"transit":false,"station_id":"RJW","i_lat":-6.14505,"is_transit":false,"time":5,"i_long":106.836569,"station_name":"Rajawali","line":11,"distance":1901},{"i_lat":-6.132549,"transit":true,"time":3,"is_transit":true,"station_id":"KPB","line":4,"i_long":106.826365,"station_name":"Kampung Bandan","distance":1444},{"station_id":"AK","line":1,"i_long":106.79867,"i_lat":-6.144674,"transit":false,"station_name":"Angke","time":9,"distance":4102,"is_transit":false},{"time":4,"i_long":106.800832,"distance":1230,"line":1,"station_name":"Duri","transit":true,"is_transit":true,"station_id":"DU","i_lat":-6.155215},{"is_transit":false,"i_lat":-6.162021,"transit":false,"i_long":106.788277,"distance":1700,"station_name":"Grogol","line":5,"station_id":"GRG","time":3},{"is_transit":false,"distance":2036,"i_long":106.771379,"line":5,"transit":false,"station_id":"PSG","time":2,"station_name":"Pesing","i_lat":-6.161433},{"time":2,"line":5,"transit":false,"station_name":"Taman Kota","distance":1614,"is_transit":false,"station_id":"TKO","i_lat":-6.1587309999999995,"i_long":106.756522},{"i_lat":-6.159876,"distance":2334,"time":2,"station_name":"Bojongindah","station_id":"BOI","transit":false,"line":5,"is_transit":false,"i_long":106.737035},{"station_id":"RW","i_long":106.723064,"line":5,"is_transit":false,"station_name":"Rawa Buaya","transit":false,"distance":1152,"time":4,"i_lat":-6.162758},{"i_lat":-6.166068,"is_transit":false,"station_name":"Kalideres","transit":false,"distance":2504,"station_id":"KDS","line":5,"i_long":106.701612,"time":3},{"i_lat":-6.169933,"time":3,"is_transit":false,"station_id":"PI","station_name":"Poris","i_long":106.679458,"line":5,"distance":2548,"transit":false},{"transit":false,"station_name":"Batuceper","i_long":106.665036,"is_transit":false,"time":3,"i_lat":-6.171811,"line":5,"distance":1834,"station_id":"BPR"}]]}