{"data":[[{"time":0,"line":0,"station_name":"Rangkasbitung","i_long":106.250396,"distance":0,"is_transit":true,"i_lat":-6.352675,"transit":false,"station_id":"RK"},{"i_lat":-6.334892,"station_id":"CTR","distance":9847,"line":0,"station_name":"Citeras","time":13,"transit":false,"is_transit":false,"i_long":106.332092},{"transit":false,"distance":7293,"i_lat":-6.332307,"i_long":106.394373,"is_transit":false,"time":10,"station_name":"Maja","line":6,"station_id":"MJ"},{"station_name":"Cikoya","distance":1853,"time":4,"i_lat":-6.33561,"is_transit":false,"line":0,"i_long":106.411216,"transit":false,"station_id":"CKY"},{"i_lat":-6.328533,"is_transit":false,"station_name":"Tigaraksa","distance":2651,"line":6,"time":3,"i_long":106.425991,"transit":false,"station_id":"TGS"},{"line":6,"is_transit":false,"station_name":"Tenjo","station_id":"TEJ","transit":false,"time":5,"i_lat":-6.327251,"distance":2974,"i_long":106.460812},{"i_lat":-6.338021,"line":0,"distance":3902,"station_name":"Daru","time":5,"transit":false,"i_long":106.491338,"is_transit":false,"station_id":"DAR"},{"i_long":106.508482,"station_id":"CJT","is_transit":false,"line":0,"station_name":"Cilejit","i_lat":-6.354349,"distance":2675,"transit":false,"time":6},{"distance":7025,"line":6,"time":9,"transit":false,"i_lat":-6.3441410000000005,"is_transit":false,"station_id":"PRP","i_long":106.568863,"station_name":"Parung Panjang"},{"station_name":"Cicayur","i_lat":-6.329547,"station_id":"CC","is_transit":false,"time":8,"line":0,"distance":5968,"transit":false,"i_long":106.617853},{"station_name":"Cisauk","is_transit":false,"line":0,"i_long":106.640411,"i_lat":-6.32484,"distance":2519,"station_id":"CSK","transit":false,"time":4},{"station_name":"Serpong","i_lat":-6.319871,"is_transit":false,"station_id":"SRP","line":6,"transit":false,"distance":1784,"i_long":106.66566,"time":4},{"distance":2413,"station_name":"Rawa Buntu","transit":false,"time":4,"line":6,"is_transit":false,"station_id":"RU","i_lat":-6.314823,"i_long":106.675475},{"station_id":"SDM","time":6,"i_lat":-6.296963,"is_transit":false,"transit":false,"station_name":"Sudimara","i_long":106.712277,"distance":4566,"line":6},{"station_name":"Jurangmangu","is_transit":false,"i_long":106.728916,"transit":false,"station_id":"JMU","time":4,"i_lat":-6.288927,"line":6,"distance":1994},{"i_lat":-6.276362,"i_long":106.74273,"transit":false,"is_transit":false,"station_id":"PDJ","time":3,"distance":2179,"line":6,"station_name":"Pondokranji"},{"station_id":"KBY","time":8,"i_lat":-6.237242,"line":6,"station_name":"Kebayoran","is_transit":false,"distance":6218,"transit":false,"i_long":106.780334},{"distance":3737,"transit":false,"i_lat":-6.207404,"time":7,"station_id":"PLM","line":6,"station_name":"Palmerah","i_long":106.79689,"is_transit":false},{"station_name":"Tanah Abang","i_lat":-6.185545,"distance":3191,"is_transit":true,"station_id":"THB","transit":true,"time":6,"line":1,"i_long":106.811091},{"station_id":"DU","transit":true,"is_transit":true,"line":1,"station_name":"Duri","time":8,"i_long":106.800832,"i_lat":-6.155215,"distance":3632},{"i_lat":-6.162021,"i_long":106.788277,"is_transit":false,"distance":1700,"station_name":"Grogol","station_id":"GGL","line":5,"transit":false,"time":3},{"i_lat":-6.161433,"i_long":106.771379,"station_id":"PSG","distance":2036,"line":5,"time":2,"is_transit":false,"station_name":"Pesing","transit":false},{"station_name":"Taman Kota","transit":false,"line":5,"time":2,"is_transit":false,"station_id":"TKO","i_lat":-6.1587309999999995,"distance":1614,"i_long":106.756522},{"i_long":106.737035,"distance":2334,"transit":false,"time":2,"i_lat":-6.159876,"line":0,"station_name":"Bojongindah","station_id":"BOI","is_transit":false},{"station_name":"Rawa Buaya","time":4,"i_lat":-6.162758,"is_transit":false,"i_long":106.723064,"line":5,"distance":1152,"transit":false,"station_id":"RW"},{"distance":2504,"i_lat":-6.166068,"line":5,"is_transit":false,"station_name":"Kalideres","station_id":"KDS","time":3,"transit":false,"i_long":106.701612},{"station_name":"Poris","distance":2548,"transit":false,"time":3,"is_transit":false,"i_long":106.679458,"station_id":"PI","i_lat":-6.169933,"line":5},{"distance":1834,"station_id":"BPR","station_name":"Batuceper","time":3,"i_long":106.665036,"transit":false,"line":0,"is_transit":false,"i_lat":-6.171811}],[{"station_id":"RK","i_lat":-6.352675,"station_name":"Rangkasbitung","distance":0,"transit":false,"i_long":106.250396,"time":0,"line":0,"is_transit":true},{"time":13,"i_long":106.332092,"station_id":"CTR","station_name":"Citeras","is_transit":false,"line":0,"distance":9847,"i_lat":-6.334892,"transit":false},{"time":10,"station_id":"MJ","line":6,"transit":false,"i_lat":-6.332307,"distance":7293,"is_transit":false,"station_name":"Maja","i_long":106.394373},{"i_long":106.411216,"distance":1853,"is_transit":false,"time":4,"line":0,"transit":false,"station_name":"Cikoya","station_id":"CKY","i_lat":-6.33561},{"i_lat":-6.328533,"is_transit":false,"line":6,"i_long":106.425991,"station_id":"TGS","time":3,"station_name":"Tigaraksa","transit":false,"distance":2651},{"distance":2974,"time":5,"is_transit":false,"station_name":"Tenjo","transit":false,"station_id":"TEJ","i_lat":-6.327251,"i_long":106.460812,"line":6},{"line":0,"distance":3902,"station_id":"DAR","transit":false,"is_transit":false,"station_name":"Daru","time":5,"i_lat":-6.338021,"i_long":106.491338},{"station_name":"Cilejit","i_long":106.508482,"transit":false,"station_id":"CJT","line":0,"is_transit":false,"distance":2675,"i_lat":-6.354349,"time":6},{"is_transit":false,"station_id":"PRP","station_name":"Parung Panjang","line":6,"i_lat":-6.3441410000000005,"i_long":106.568863,"transit":false,"distance":7025,"time":9},{"line":0,"time":8,"is_transit":false,"station_id":"CC","i_long":106.617853,"distance":5968,"transit":false,"station_name":"Cicayur","i_lat":-6.329547},{"is_transit":false,"transit":false,"station_name":"Cisauk","distance":2519,"i_lat":-6.32484,"station_id":"CSK","line":0,"i_long":106.640411,"time":4},{"distance":1784,"line":6,"is_transit":false,"i_lat":-6.319871,"time":4,"station_name":"Serpong","station_id":"SRP","i_long":106.66566,"transit":false},{"station_name":"Rawa Buntu","i_lat":-6.314823,"line":6,"time":4,"i_long":106.675475,"station_id":"RU","distance":2413,"is_transit":false,"transit":false},{"i_lat":-6.296963,"is_transit":false,"time":6,"station_id":"SDM","station_name":"Sudimara","transit":false,"distance":4566,"i_long":106.712277,"line":6},{"station_name":"Jurangmangu","station_id":"JMU","transit":false,"is_transit":false,"distance":1994,"time":4,"i_lat":-6.288927,"i_long":106.728916,"line":6},{"station_name":"Pondokranji","i_lat":-6.276362,"transit":false,"is_transit":false,"i_long":106.74273,"time":3,"line":6,"distance":2179,"station_id":"PDJ"},{"line":6,"distance":6218,"transit":false,"time":8,"i_lat":-6.237242,"i_long":106.780334,"is_transit":false,"station_id":"KBY","station_name":"Kebayoran"},{"station_id":"PLM","is_transit":false,"station_name":"Palmerah","i_lat":-6.207404,"line":6,"distance":3737,"time":7,"i_long":106.79689,"transit":false},{"distance":3191,"time":6,"transit":true,"station_name":"Tanah Abang","i_long":106.811091,"station_id":"THB","line":1,"is_transit":true,"i_lat":-6.185545},{"i_lat":-6.20132,"station_id":"KAT","line":1,"time":5,"station_name":"Karet","is_transit":false,"distance":2029,"transit":false,"i_long":106.816351},{"station_name":"Sudirman Baru","i_lat":-6.201433,"i_long":106.819881,"is_transit":false,"distance":471,"time":1,"transit":false,"line":1,"station_id":"SUDB"},{"i_long":106.822649,"line":1,"distance":280,"station_id":"SUD","transit":false,"i_lat":-6.202263,"time":1,"is_transit":false,"station_name":"Sudirman"},{"station_name":"Manggarai","i_lat":-6.209883,"distance":3186,"is_transit":true,"station_id":"MRI","time":4,"transit":true,"i_long":106.84912,"line":0},{"i_lat":-6.198556,"station_id":"CKI","station_name":"Cikini","is_transit":false,"transit":false,"i_long":106.840169,"time":4,"line":0,"distance":1590},{"transit":false,"time":3,"line":2,"distance":1750,"is_transit":false,"station_name":"Gondangdia","i_lat":-6.186295,"i_long":106.832183,"station_id":"GDD"},{"i_long":106.828284,"station_id":"JUA","is_transit":false,"time":4,"station_name":"Juanda","transit":false,"i_lat":-6.166716,"distance":2015,"line":2},{"station_id":"SW","time":2,"i_lat":-6.160725,"i_long":106.827103,"is_transit":false,"station_name":"Sawah Besar","transit":false,"distance":1149,"line":2},{"station_id":"MGB","station_name":"Manggabesar","i_long":106.82482,"i_lat":-6.149769,"line":2,"distance":906,"is_transit":false,"transit":false,"time":2},{"distance":1080,"transit":false,"station_id":"JAY","station_name":"Jayakarta","time":2,"i_long":106.820901,"line":7,"i_lat":-6.141205,"is_transit":false},{"distance":1264,"time":4,"station_name":"Jakarta Kota","i_long":106.812439,"transit":true,"station_id":"JAKK","i_lat":-6.137569,"line":0,"is_transit":true},{"i_lat":-6.132549,"transit":false,"i_long":106.826365,"line":0,"distance":1364,"is_transit":true,"time":3,"station_name":"Kampung Bandan","station_id":"KPB"},{"distance":4102,"station_id":"AK","line":0,"station_name":"Angke","i_lat":-6.144674,"is_transit":false,"transit":false,"i_long":106.79867,"time":9},{"distance":1230,"line":1,"is_transit":true,"station_id":"DU","station_name":"Duri","i_lat":-6.155215,"transit":true,"i_long":106.800832,"time":4},{"i_lat":-6.162021,"time":3,"line":5,"station_name":"Grogol","is_transit":false,"transit":false,"distance":1700,"i_long":106.788277,"station_id":"GGL"},{"station_name":"Pesing","i_long":106.771379,"is_transit":false,"station_id":"PSG","transit":false,"time":2,"line":5,"i_lat":-6.161433,"distance":2036},{"distance":1614,"transit":false,"line":5,"i_long":106.756522,"is_transit":false,"station_id":"TKO","i_lat":-6.1587309999999995,"time":2,"station_name":"Taman Kota"},{"is_transit":false,"i_long":106.737035,"i_lat":-6.159876,"transit":false,"station_name":"Bojongindah","line":0,"station_id":"BOI","time":2,"distance":2334},{"i_lat":-6.162758,"i_long":106.723064,"time":4,"distance":1152,"is_transit":false,"station_name":"Rawa Buaya","transit":false,"station_id":"RW","line":5},{"transit":false,"station_name":"Kalideres","distance":2504,"is_transit":false,"line":5,"time":3,"station_id":"KDS","i_lat":-6.166068,"i_long":106.701612},{"time":3,"distance":2548,"i_lat":-6.169933,"line":5,"station_id":"PI","station_name":"Poris","i_long":106.679458,"is_transit":false,"transit":false},{"i_lat":-6.171811,"i_long":106.665036,"time":3,"station_id":"BPR","distance":1834,"station_name":"Batuceper","transit":false,"line":0,"is_transit":false}],[{"is_transit":true,"station_name":"Rangkasbitung","transit":false,"time":0,"i_lat":-6.352675,"line":0,"i_long":106.250396,"station_id":"RK","distance":0},{"station_name":"Citeras","transit":false,"i_long":106.332092,"distance":9847,"station_id":"CTR","i_lat":-6.334892,"time":13,"line":0,"is_transit":false},{"i_lat":-6.332307,"station_id":"MJ","time":10,"distance":7293,"station_name":"Maja","i_long":106.394373,"is_transit":false,"line":6,"transit":false},{"station_id":"CKY","distance":1853,"line":0,"i_long":106.411216,"i_lat":-6.33561,"is_transit":false,"station_name":"Cikoya","transit":false,"time":4},{"transit":false,"time":3,"line":6,"i_lat":-6.328533,"i_long":106.425991,"station_id":"TGS","is_transit":false,"station_name":"Tigaraksa","distance":2651},{"distance":2974,"line":6,"station_name":"Tenjo","transit":false,"i_lat":-6.327251,"station_id":"TEJ","i_long":106.460812,"is_transit":false,"time":5},{"station_name":"Daru","line":0,"transit":false,"station_id":"DAR","is_transit":false,"time":5,"distance":3902,"i_lat":-6.338021,"i_long":106.491338},{"station_id":"CJT","is_transit":false,"time":6,"transit":false,"i_lat":-6.354349,"line":0,"i_long":106.508482,"distance":2675,"station_name":"Cilejit"},{"distance":7025,"i_long":106.568863,"station_name":"Parung Panjang","station_id":"PRP","transit":false,"time":9,"is_transit":false,"line":6,"i_lat":-6.3441410000000005},{"transit":false,"distance":5968,"station_name":"Cicayur","i_lat":-6.329547,"line":0,"is_transit":false,"station_id":"CC","i_long":106.617853,"time":8},{"time":4,"line":0,"transit":false,"station_id":"CSK","distance":2519,"station_name":"Cisauk","is_transit":false,"i_lat":-6.32484,"i_long":106.640411},{"i_long":106.66566,"is_transit":false,"distance":1784,"transit":false,"i_lat":-6.319871,"line":6,"station_name":"Serpong","time":4,"station_id":"SRP"},{"is_transit":false,"time":4,"i_lat":-6.314823,"line":6,"station_name":"Rawa Buntu","distance":2413,"transit":false,"station_id":"RU","i_long":106.675475},{"station_id":"SDM","distance":4566,"i_long":106.712277,"is_transit":false,"time":6,"i_lat":-6.296963,"transit":false,"station_name":"Sudimara","line":6},{"distance":1994,"line":6,"transit":false,"i_long":106.728916,"is_transit":false,"station_id":"JMU","time":4,"i_lat":-6.288927,"station_name":"Jurangmangu"},{"i_lat":-6.276362,"station_id":"PDJ","transit":false,"time":3,"station_name":"Pondokranji","line":6,"distance":2179,"is_transit":false,"i_long":106.74273},{"distance":6218,"time":8,"is_transit":false,"i_lat":-6.237242,"station_name":"Kebayoran","line":6,"i_long":106.780334,"station_id":"KBY","transit":false},{"station_id":"PLM","station_name":"Palmerah","line":6,"transit":false,"time":7,"i_lat":-6.207404,"distance":3737,"i_long":106.79689,"is_transit":false},{"time":6,"i_long":106.811091,"station_id":"THB","station_name":"Tanah Abang","i_lat":-6.185545,"is_transit":true,"distance":3191,"transit":true,"line":1},{"station_id":"KAT","station_name":"Karet","time":5,"distance":2029,"i_lat":-6.20132,"is_transit":false,"i_long":106.816351,"line":1,"transit":false},{"is_transit":false,"station_id":"SUDB","station_name":"Sudirman Baru","line":1,"i_long":106.819881,"transit":false,"i_lat":-6.201433,"distance":471,"time":1},{"transit":false,"line":1,"is_transit":false,"i_lat":-6.202263,"station_name":"Sudirman","i_long":106.822649,"time":1,"distance":280,"station_id":"SUD"},{"distance":3186,"is_transit":true,"transit":false,"time":4,"station_name":"Manggarai","i_lat":-6.209883,"i_long":106.84912,"line":0,"station_id":"MRI"},{"time":2,"line":1,"is_transit":false,"station_id":"MTR","i_lat":-6.212485,"transit":false,"i_long":106.858896,"distance":1275,"station_name":"Matraman"},{"i_lat":-6.215091,"station_id":"JNG","line":0,"distance":1377,"is_transit":true,"station_name":"Jatinegara","transit":true,"time":8,"i_long":106.86807400000001},{"i_lat":-6.209188,"station_name":"Pondok Jati","i_long":106.861737,"line":11,"distance":1236,"transit":false,"is_transit":false,"station_id":"POK","time":2},{"time":2,"i_lat":-6.193792,"station_id":"KMT","line":11,"is_transit":false,"station_name":"Kramat","transit":false,"i_long":106.855437,"distance":1829},{"i_long":106.850107,"station_name":"Gang Sentiong","line":11,"distance":973,"is_transit":false,"transit":false,"station_id":"GST","time":1,"i_lat":-6.185975},{"is_transit":false,"i_long":106.84368,"station_name":"Pasar Senen","transit":false,"line":11,"time":8,"i_lat":-6.174784,"distance":1567,"station_id":"PSE"},{"time":4,"i_lat":-6.161728,"station_name":"Kemayoran","distance":1436,"is_transit":false,"station_id":"KMO","transit":false,"i_long":106.839204,"line":11},{"is_transit":false,"transit":false,"i_lat":-6.14505,"station_name":"Rajawali","i_long":106.836569,"line":11,"station_id":"RJW","time":5,"distance":1901},{"i_lat":-6.132549,"is_transit":true,"line":0,"time":3,"station_name":"Kampung Bandan","i_long":106.826365,"transit":true,"distance":1444,"station_id":"KPB"},{"is_transit":false,"station_name":"Angke","i_lat":-6.144674,"transit":false,"distance":4102,"line":0,"station_id":"AK","time":9,"i_long":106.79867},{"transit":true,"time":4,"distance":1230,"i_lat":-6.155215,"is_transit":true,"station_name":"Duri","i_long":106.800832,"line":1,"station_id":"DU"},{"is_transit":false,"i_lat":-6.162021,"i_long":106.788277,"distance":1700,"station_id":"GGL","line":5,"station_name":"Grogol","transit":false,"time":3},{"line":5,"i_lat":-6.161433,"distance":2036,"is_transit":false,"transit":false,"time":2,"i_long":106.771379,"station_name":"Pesing","station_id":"PSG"},{"time":2,"line":5,"i_lat":-6.1587309999999995,"station_name":"Taman Kota","is_transit":false,"distance":1614,"i_long":106.756522,"station_id":"TKO","transit":false},{"line":0,"i_long":106.737035,"distance":2334,"is_transit":false,"time":2,"transit":false,"i_lat":-6.159876,"station_name":"Bojongindah","station_id":"BOI"},{"station_name":"Rawa Buaya","transit":false,"i_lat":-6.162758,"i_long":106.723064,"is_transit":false,"line":5,"distance":1152,"time":4,"station_id":"RW"},{"transit":false,"station_name":"Kalideres","is_transit":false,"station_id":"KDS","distance":2504,"time":3,"i_lat":-6.166068,"i_long":106.701612,"line":5},{"station_name":"Poris","time":3,"i_lat":-6.169933,"distance":2548,"station_id":"PI","is_transit":false,"transit":false,"i_long":106.679458,"line":5},{"i_lat":-6.171811,"distance":1834,"is_transit":false,"station_name":"Batuceper","i_long":106.665036,"line":0,"transit":false,"station_id":"BPR","time":3}]]}