{"data":[[{"i_lat":-6.352675,"transit":false,"time":0,"station_id":"RK","distance":0,"i_long":106.250396,"is_transit":false,"station_name":"Rangkasbitung","line":3},{"i_lat":-6.334892,"line":3,"i_long":106.332092,"is_transit":false,"time":13,"station_id":"CTR","transit":false,"station_name":"Citeras","distance":9847},{"transit":false,"station_name":"Maja","time":10,"i_lat":-6.332307,"line":6,"station_id":"MJ","distance":7293,"i_long":106.394373,"is_transit":false},{"transit":false,"is_transit":false,"station_id":"CKY","distance":1853,"line":3,"i_long":106.411216,"i_lat":-6.33561,"station_name":"Cikoya","time":4},{"time":3,"station_name":"Tigaraksa","transit":false,"station_id":"TGS","i_lat":-6.328533,"i_long":106.425991,"line":6,"is_transit":false,"distance":2651},{"i_long":106.460812,"distance":2974,"transit":false,"line":6,"time":5,"station_name":"Tenjo","is_transit":false,"station_id":"TEJ","i_lat":-6.327251},{"time":5,"distance":3902,"station_name":"Daru","transit":false,"is_transit":false,"station_id":"DAR","i_long":106.491338,"i_lat":-6.338021,"line":0},{"station_id":"CJT","distance":2675,"line":3,"time":6,"i_lat":-6.354349,"i_long":106.508482,"is_transit":false,"station_name":"Cilejit","transit":false},{"transit":false,"time":9,"i_lat":-6.3441410000000005,"station_name":"Parung Panjang","line":6,"station_id":"PRP","is_transit":false,"distance":7025,"i_long":106.568863},{"i_lat":-6.329547,"time":8,"transit":false,"distance":5968,"i_long":106.617853,"line":3,"station_name":"Cicayur","is_transit":false,"station_id":"CC"},{"is_transit":false,"distance":2519,"time":4,"i_lat":-6.32484,"station_name":"Cisauk","line":3,"station_id":"CSK","transit":false,"i_long":106.640411},{"line":6,"station_id":"SRP","i_lat":-6.319871,"time":4,"is_transit":false,"distance":1784,"i_long":106.66566,"station_name":"Serpong","transit":false},{"station_id":"RU","line":6,"time":4,"transit":false,"distance":2413,"i_lat":-6.314823,"station_name":"Rawa Buntu","is_transit":false,"i_long":106.675475},{"time":6,"i_lat":-6.296963,"i_long":106.712277,"is_transit":false,"distance":4566,"line":6,"transit":false,"station_id":"SDM","station_name":"Sudimara"},{"distance":1994,"station_name":"Jurangmangu","time":4,"line":6,"i_lat":-6.288927,"is_transit":false,"transit":false,"i_long":106.728916,"station_id":"JMU"},{"transit":false,"distance":2179,"is_transit":false,"station_id":"PDJ","i_lat":-6.276362,"line":6,"station_name":"Pondokranji","time":3,"i_long":106.74273},{"station_name":"Kebayoran","line":6,"i_lat":-6.237242,"is_transit":false,"i_long":106.780334,"transit":false,"time":8,"distance":6218,"station_id":"KBY"},{"transit":false,"station_id":"PLM","distance":3737,"line":6,"station_name":"Palmerah","is_transit":false,"time":7,"i_lat":-6.207404,"i_long":106.79689},{"station_id":"THB","station_name":"Tanah Abang","time":6,"transit":true,"is_transit":true,"i_lat":-6.185545,"distance":3191,"line":1,"i_long":106.811091},{"station_id":"DU","i_long":106.800832,"time":8,"i_lat":-6.155215,"transit":true,"line":1,"station_name":"Duri","is_transit":true,"distance":3632},{"transit":false,"i_lat":-6.162021,"time":3,"station_name":"Grogol","distance":1700,"line":5,"station_id":"GGL","is_transit":false,"i_long":106.788277},{"transit":false,"station_name":"Pesing","is_transit":false,"distance":2036,"line":5,"time":2,"i_long":106.771379,"station_id":"PSG","i_lat":-6.161433},{"line":5,"i_lat":-6.1587309999999995,"station_id":"TKO","station_name":"Taman Kota","transit":false,"is_transit":false,"i_long":106.756522,"time":2,"distance":1614},{"transit":false,"i_long":106.737035,"line":5,"station_id":"BOI","is_transit":false,"i_lat":-6.159876,"station_name":"Bojongindah","time":2,"distance":2334}],[{"station_id":"RK","station_name":"Rangkasbitung","time":0,"distance":0,"i_lat":-6.352675,"transit":false,"i_long":106.250396,"is_transit":false,"line":3},{"station_name":"Citeras","i_long":106.332092,"i_lat":-6.334892,"transit":false,"station_id":"CTR","is_transit":false,"time":13,"line":3,"distance":9847},{"is_transit":false,"station_id":"MJ","distance":7293,"station_name":"Maja","i_lat":-6.332307,"line":6,"i_long":106.394373,"transit":false,"time":10},{"is_transit":false,"transit":false,"time":4,"i_lat":-6.33561,"station_name":"Cikoya","station_id":"CKY","line":3,"distance":1853,"i_long":106.411216},{"transit":false,"line":6,"station_id":"TGS","is_transit":false,"i_lat":-6.328533,"i_long":106.425991,"time":3,"distance":2651,"station_name":"Tigaraksa"},{"station_id":"TEJ","i_lat":-6.327251,"is_transit":false,"station_name":"Tenjo","time":5,"distance":2974,"i_long":106.460812,"line":6,"transit":false},{"station_name":"Daru","i_lat":-6.338021,"is_transit":false,"time":5,"transit":false,"station_id":"DAR","i_long":106.491338,"line":0,"distance":3902},{"time":6,"station_name":"Cilejit","distance":2675,"transit":false,"station_id":"CJT","is_transit":false,"i_lat":-6.354349,"line":3,"i_long":106.508482},{"i_long":106.568863,"distance":7025,"station_id":"PRP","transit":false,"i_lat":-6.3441410000000005,"line":6,"is_transit":false,"time":9,"station_name":"Parung Panjang"},{"station_id":"CC","line":3,"transit":false,"distance":5968,"i_lat":-6.329547,"is_transit":false,"time":8,"station_name":"Cicayur","i_long":106.617853},{"i_long":106.640411,"line":3,"is_transit":false,"time":4,"distance":2519,"transit":false,"station_name":"Cisauk","i_lat":-6.32484,"station_id":"CSK"},{"distance":1784,"transit":false,"is_transit":false,"station_id":"SRP","line":6,"i_long":106.66566,"station_name":"Serpong","i_lat":-6.319871,"time":4},{"i_long":106.675475,"station_name":"Rawa Buntu","time":4,"distance":2413,"line":6,"station_id":"RU","transit":false,"is_transit":false,"i_lat":-6.314823},{"station_id":"SDM","transit":false,"is_transit":false,"distance":4566,"i_long":106.712277,"station_name":"Sudimara","time":6,"i_lat":-6.296963,"line":6},{"station_name":"Jurangmangu","transit":false,"i_lat":-6.288927,"station_id":"JMU","line":6,"is_transit":false,"distance":1994,"i_long":106.728916,"time":4},{"is_transit":false,"i_long":106.74273,"transit":false,"station_id":"PDJ","i_lat":-6.276362,"station_name":"Pondokranji","line":6,"distance":2179,"time":3},{"transit":false,"station_id":"KBY","line":6,"is_transit":false,"station_name":"Kebayoran","time":8,"distance":6218,"i_lat":-6.237242,"i_long":106.780334},{"transit":false,"station_id":"PLM","is_transit":false,"station_name":"Palmerah","i_lat":-6.207404,"time":7,"i_long":106.79689,"distance":3737,"line":6},{"i_lat":-6.185545,"i_long":106.811091,"station_name":"Tanah Abang","line":1,"station_id":"THB","is_transit":true,"time":6,"transit":true,"distance":3191},{"station_id":"KAT","is_transit":false,"transit":false,"station_name":"Karet","time":5,"distance":2029,"line":1,"i_lat":-6.20132,"i_long":106.816351},{"is_transit":false,"line":1,"distance":471,"i_long":106.819881,"transit":false,"time":1,"station_name":"Sudirman Baru","station_id":"SUDB","i_lat":-6.201433},{"transit":false,"i_lat":-6.202263,"station_name":"Sudirman","is_transit":false,"station_id":"SUD","time":1,"line":1,"distance":280,"i_long":106.822649},{"transit":true,"i_long":106.84912,"station_id":"MRI","distance":3186,"is_transit":true,"line":2,"time":4,"i_lat":-6.209883,"station_name":"Manggarai"},{"transit":false,"distance":1590,"line":2,"station_id":"CKI","station_name":"Cikini","time":4,"i_lat":-6.198556,"i_long":106.840169,"is_transit":false},{"station_name":"Gondangdia","station_id":"GDD","is_transit":false,"line":2,"transit":false,"distance":1750,"i_lat":-6.186295,"i_long":106.832183,"time":3},{"distance":2015,"i_lat":-6.166716,"is_transit":false,"station_name":"Juanda","time":4,"line":2,"i_long":106.828284,"transit":false,"station_id":"JUA"},{"distance":1149,"i_lat":-6.160725,"transit":false,"station_name":"Sawah Besar","is_transit":false,"station_id":"SW","line":2,"i_long":106.827103,"time":2},{"i_long":106.82482,"station_id":"MGB","time":2,"distance":906,"line":2,"transit":false,"station_name":"Manggabesar","i_lat":-6.149769,"is_transit":false},{"i_lat":-6.141205,"distance":1080,"station_name":"Jayakarta","time":2,"i_long":106.820901,"station_id":"JAY","transit":false,"line":2,"is_transit":false},{"transit":true,"is_transit":true,"i_lat":-6.137569,"i_long":106.812439,"station_id":"JAKK","line":2,"station_name":"Jakarta Kota","distance":1264,"time":4},{"is_transit":true,"transit":true,"station_id":"KPB","distance":1364,"i_lat":-6.132549,"i_long":106.826365,"time":3,"line":4,"station_name":"Kampung Bandan"},{"distance":4102,"transit":false,"i_lat":-6.144674,"station_id":"AK","station_name":"Angke","is_transit":false,"time":9,"i_long":106.79867,"line":1},{"i_lat":-6.155215,"is_transit":true,"line":1,"i_long":106.800832,"station_name":"Duri","station_id":"DU","time":4,"transit":true,"distance":1230},{"station_name":"Grogol","station_id":"GGL","distance":1700,"i_long":106.788277,"is_transit":false,"i_lat":-6.162021,"time":3,"line":5,"transit":false},{"time":2,"i_lat":-6.161433,"i_long":106.771379,"station_name":"Pesing","transit":false,"is_transit":false,"distance":2036,"line":5,"station_id":"PSG"},{"transit":false,"is_transit":false,"station_id":"TKO","distance":1614,"time":2,"line":5,"station_name":"Taman Kota","i_lat":-6.1587309999999995,"i_long":106.756522},{"station_id":"BOI","transit":false,"is_transit":false,"station_name":"Bojongindah","i_lat":-6.159876,"time":2,"distance":2334,"i_long":106.737035,"line":5}],[{"station_name":"Rangkasbitung","station_id":"RK","is_transit":false,"distance":0,"transit":false,"line":3,"i_lat":-6.352675,"time":0,"i_long":106.250396},{"time":13,"station_name":"Citeras","i_lat":-6.334892,"station_id":"CTR","transit":false,"distance":9847,"line":3,"i_long":106.332092,"is_transit":false},{"line":6,"is_transit":false,"i_long":106.394373,"station_name":"Maja","transit":false,"time":10,"distance":7293,"i_lat":-6.332307,"station_id":"MJ"},{"line":3,"i_lat":-6.33561,"transit":false,"station_name":"Cikoya","is_transit":false,"time":4,"i_long":106.411216,"station_id":"CKY","distance":1853},{"line":6,"transit":false,"is_transit":false,"i_long":106.425991,"time":3,"distance":2651,"station_id":"TGS","station_name":"Tigaraksa","i_lat":-6.328533},{"station_id":"TEJ","i_long":106.460812,"station_name":"Tenjo","time":5,"line":6,"is_transit":false,"transit":false,"distance":2974,"i_lat":-6.327251},{"time":5,"station_name":"Daru","transit":false,"distance":3902,"station_id":"DAR","line":0,"is_transit":false,"i_lat":-6.338021,"i_long":106.491338},{"distance":2675,"i_lat":-6.354349,"station_id":"CJT","station_name":"Cilejit","transit":false,"is_transit":false,"time":6,"i_long":106.508482,"line":3},{"transit":false,"station_id":"PRP","is_transit":false,"line":6,"station_name":"Parung Panjang","i_lat":-6.3441410000000005,"time":9,"distance":7025,"i_long":106.568863},{"station_id":"CC","i_lat":-6.329547,"transit":false,"station_name":"Cicayur","is_transit":false,"distance":5968,"line":3,"i_long":106.617853,"time":8},{"time":4,"i_long":106.640411,"line":3,"i_lat":-6.32484,"station_name":"Cisauk","station_id":"CSK","distance":2519,"is_transit":false,"transit":false},{"line":6,"is_transit":false,"station_name":"Serpong","distance":1784,"i_lat":-6.319871,"i_long":106.66566,"station_id":"SRP","time":4,"transit":false},{"station_name":"Rawa Buntu","station_id":"RU","line":6,"time":4,"transit":false,"distance":2413,"is_transit":false,"i_lat":-6.314823,"i_long":106.675475},{"station_name":"Sudimara","i_long":106.712277,"i_lat":-6.296963,"transit":false,"time":6,"line":6,"is_transit":false,"distance":4566,"station_id":"SDM"},{"i_lat":-6.288927,"station_name":"Jurangmangu","transit":false,"line":6,"is_transit":false,"station_id":"JMU","i_long":106.728916,"time":4,"distance":1994},{"time":3,"station_name":"Pondokranji","i_lat":-6.276362,"i_long":106.74273,"line":6,"is_transit":false,"distance":2179,"station_id":"PDJ","transit":false},{"line":6,"transit":false,"is_transit":false,"station_id":"KBY","station_name":"Kebayoran","time":8,"distance":6218,"i_lat":-6.237242,"i_long":106.780334},{"i_long":106.79689,"station_name":"Palmerah","line":6,"i_lat":-6.207404,"time":7,"is_transit":false,"station_id":"PLM","transit":false,"distance":3737},{"i_long":106.811091,"distance":3191,"transit":true,"is_transit":true,"time":6,"line":1,"station_id":"THB","station_name":"Tanah Abang","i_lat":-6.185545},{"distance":2029,"is_transit":false,"station_name":"Karet","station_id":"KAT","i_long":106.816351,"line":1,"transit":false,"i_lat":-6.20132,"time":5},{"time":1,"transit":false,"distance":471,"i_long":106.819881,"line":1,"station_name":"Sudirman Baru","i_lat":-6.201433,"is_transit":false,"station_id":"SUDB"},{"i_long":106.822649,"distance":280,"station_name":"Sudirman","station_id":"SUD","line":1,"is_transit":false,"time":1,"transit":false,"i_lat":-6.202263},{"is_transit":false,"station_id":"MRI","line":2,"station_name":"Manggarai","i_long":106.84912,"transit":false,"distance":3186,"i_lat":-6.209883,"time":4},{"i_lat":-6.212485,"i_long":106.858896,"transit":false,"station_name":"Matraman","line":1,"distance":1275,"station_id":"MTR","time":2,"is_transit":false},{"station_id":"JNG","station_name":"Jatinegara","line":1,"transit":true,"is_transit":true,"time":8,"i_lat":-6.215091,"distance":1377,"i_long":106.86807400000001},{"i_lat":-6.209188,"time":2,"is_transit":false,"station_id":"POK","distance":1236,"i_long":106.861737,"line":11,"transit":false,"station_name":"Pondok Jati"},{"station_name":"Kramat","station_id":"KMT","time":2,"i_lat":-6.193792,"line":11,"transit":false,"distance":1829,"is_transit":false,"i_long":106.855437},{"station_id":"GST","is_transit":false,"i_long":106.850107,"line":11,"distance":973,"i_lat":-6.185975,"time":1,"transit":false,"station_name":"Gang Sentiong"},{"line":11,"is_transit":false,"station_id":"PSE","transit":false,"distance":1567,"i_lat":-6.174784,"i_long":106.84368,"time":8,"station_name":"Pasar Senen"},{"is_transit":false,"station_id":"KMO","time":4,"station_name":"Kemayoran","i_long":106.839204,"line":11,"i_lat":-6.161728,"distance":1436,"transit":false},{"station_id":"RJW","distance":1901,"i_lat":-6.14505,"is_transit":false,"i_long":106.836569,"station_name":"Rajawali","line":11,"transit":false,"time":5},{"time":3,"transit":true,"distance":1444,"i_long":106.826365,"i_lat":-6.132549,"station_name":"Kampung Bandan","line":4,"is_transit":true,"station_id":"KPB"},{"station_id":"AK","i_long":106.79867,"distance":4102,"line":1,"i_lat":-6.144674,"station_name":"Angke","is_transit":false,"time":9,"transit":false},{"i_lat":-6.155215,"is_transit":true,"time":4,"distance":1230,"i_long":106.800832,"station_name":"Duri","line":1,"transit":true,"station_id":"DU"},{"distance":1700,"i_long":106.788277,"transit":false,"line":5,"time":3,"station_name":"Grogol","station_id":"GGL","is_transit":false,"i_lat":-6.162021},{"time":2,"i_long":106.771379,"distance":2036,"i_lat":-6.161433,"station_name":"Pesing","is_transit":false,"line":5,"transit":false,"station_id":"PSG"},{"time":2,"is_transit":false,"station_name":"Taman Kota","distance":1614,"i_lat":-6.1587309999999995,"line":5,"transit":false,"i_long":106.756522,"station_id":"TKO"},{"i_lat":-6.159876,"time":2,"distance":2334,"line":5,"i_long":106.737035,"is_transit":false,"station_name":"Bojongindah","station_id":"BOI","transit":false}]]}