{"data":[[{"i_long":106.250396,"station_id":"RK","time":0,"distance":0,"transit":false,"is_transit":false,"i_lat":-6.352675,"station_name":"Rangkasbitung","line":3},{"is_transit":false,"i_lat":-6.334892,"line":3,"transit":false,"time":13,"station_id":"CTR","distance":9847,"station_name":"Citeras","i_long":106.332092},{"station_name":"Maja","distance":7293,"time":10,"transit":false,"i_long":106.394373,"is_transit":false,"i_lat":-6.332307,"line":6,"station_id":"MJ"},{"i_long":106.411216,"line":3,"station_id":"CKY","time":4,"i_lat":-6.33561,"distance":1853,"is_transit":false,"station_name":"Cikoya","transit":false},{"is_transit":false,"time":3,"line":6,"distance":2651,"station_id":"TGS","station_name":"Tigaraksa","i_long":106.425991,"i_lat":-6.328533,"transit":false},{"time":5,"station_name":"Tenjo","line":6,"distance":2974,"transit":false,"is_transit":false,"i_lat":-6.327251,"i_long":106.460812,"station_id":"TEJ"},{"i_long":106.491338,"distance":3902,"transit":false,"is_transit":false,"station_id":"DAR","station_name":"Daru","i_lat":-6.338021,"time":5,"line":0},{"i_long":106.508482,"transit":false,"station_name":"Cilejit","i_lat":-6.354349,"is_transit":false,"line":3,"distance":2675,"time":6,"station_id":"CJT"},{"is_transit":false,"station_name":"Parung Panjang","i_long":106.568863,"i_lat":-6.3441410000000005,"station_id":"PRP","line":6,"distance":7025,"time":9,"transit":false},{"station_name":"Cicayur","i_lat":-6.329547,"i_long":106.617853,"is_transit":false,"distance":5968,"time":8,"station_id":"CC","transit":false,"line":3},{"is_transit":false,"i_lat":-6.32484,"transit":false,"line":3,"distance":2519,"time":4,"station_id":"CSK","station_name":"Cisauk","i_long":106.640411},{"transit":false,"i_lat":-6.319871,"i_long":106.66566,"line":6,"distance":1784,"station_id":"SRP","is_transit":false,"time":4,"station_name":"Serpong"},{"station_name":"Rawa Buntu","is_transit":false,"distance":2413,"transit":false,"line":6,"time":4,"i_long":106.675475,"i_lat":-6.314823,"station_id":"RU"},{"is_transit":false,"i_lat":-6.296963,"station_name":"Sudimara","line":6,"transit":false,"distance":4566,"time":6,"i_long":106.712277,"station_id":"SDM"},{"transit":false,"is_transit":false,"line":6,"station_name":"Jurangmangu","time":4,"i_long":106.728916,"distance":1994,"station_id":"JMU","i_lat":-6.288927},{"distance":2179,"time":3,"station_id":"PDJ","transit":false,"line":6,"is_transit":false,"station_name":"Pondokranji","i_long":106.74273,"i_lat":-6.276362},{"station_id":"KBY","station_name":"Kebayoran","line":6,"i_long":106.780334,"distance":6218,"time":8,"is_transit":false,"transit":false,"i_lat":-6.237242},{"transit":false,"i_long":106.79689,"station_name":"Palmerah","station_id":"PLM","time":7,"distance":3737,"is_transit":false,"line":6,"i_lat":-6.207404},{"i_long":106.811091,"is_transit":true,"station_name":"Tanah Abang","i_lat":-6.185545,"station_id":"THB","distance":3191,"line":1,"time":6,"transit":true},{"station_name":"Duri","line":1,"is_transit":true,"i_long":106.800832,"distance":3632,"i_lat":-6.155215,"time":8,"transit":true,"station_id":"DU"},{"i_lat":-6.162021,"station_id":"GGL","time":3,"station_name":"Grogol","distance":1700,"i_long":106.788277,"line":5,"is_transit":false,"transit":false},{"is_transit":false,"station_name":"Pesing","time":2,"station_id":"PSG","transit":false,"i_lat":-6.161433,"distance":2036,"i_long":106.771379,"line":5},{"station_id":"TKO","i_lat":-6.1587309999999995,"transit":false,"i_long":106.756522,"time":2,"distance":1614,"line":5,"station_name":"Taman Kota","is_transit":false},{"station_id":"BOI","is_transit":false,"line":5,"i_long":106.737035,"station_name":"Bojongindah","i_lat":-6.159876,"transit":false,"time":2,"distance":2334},{"time":4,"i_lat":-6.162758,"station_id":"RW","station_name":"Rawa Buaya","distance":1152,"is_transit":false,"i_long":106.723064,"line":5,"transit":false},{"i_long":106.701612,"is_transit":false,"transit":false,"i_lat":-6.166068,"time":3,"station_id":"KDS","distance":2504,"line":5,"station_name":"Kalideres"},{"i_lat":-6.169933,"transit":false,"time":3,"line":5,"station_id":"PI","i_long":106.679458,"station_name":"Poris","distance":2548,"is_transit":false},{"station_name":"Batuceper","transit":false,"time":3,"is_transit":false,"i_lat":-6.171811,"distance":1834,"line":5,"i_long":106.665036,"station_id":"BPR"}],[{"line":3,"station_id":"RK","i_lat":-6.352675,"time":0,"distance":0,"i_long":106.250396,"transit":false,"station_name":"Rangkasbitung","is_transit":false},{"is_transit":false,"transit":false,"station_id":"CTR","i_lat":-6.334892,"i_long":106.332092,"distance":9847,"time":13,"station_name":"Citeras","line":3},{"i_lat":-6.332307,"time":10,"station_id":"MJ","station_name":"Maja","transit":false,"distance":7293,"is_transit":false,"i_long":106.394373,"line":6},{"station_name":"Cikoya","station_id":"CKY","time":4,"line":3,"transit":false,"i_lat":-6.33561,"distance":1853,"is_transit":false,"i_long":106.411216},{"i_lat":-6.328533,"transit":false,"is_transit":false,"station_id":"TGS","station_name":"Tigaraksa","line":6,"i_long":106.425991,"time":3,"distance":2651},{"i_long":106.460812,"i_lat":-6.327251,"distance":2974,"station_id":"TEJ","transit":false,"time":5,"station_name":"Tenjo","is_transit":false,"line":6},{"distance":3902,"station_id":"DAR","time":5,"is_transit":false,"i_long":106.491338,"transit":false,"i_lat":-6.338021,"line":0,"station_name":"Daru"},{"time":6,"is_transit":false,"line":3,"station_name":"Cilejit","transit":false,"i_long":106.508482,"station_id":"CJT","distance":2675,"i_lat":-6.354349},{"is_transit":false,"line":6,"distance":7025,"i_long":106.568863,"station_name":"Parung Panjang","i_lat":-6.3441410000000005,"transit":false,"time":9,"station_id":"PRP"},{"station_name":"Cicayur","transit":false,"distance":5968,"i_lat":-6.329547,"i_long":106.617853,"line":3,"station_id":"CC","is_transit":false,"time":8},{"station_name":"Cisauk","transit":false,"time":4,"is_transit":false,"i_long":106.640411,"station_id":"CSK","line":3,"distance":2519,"i_lat":-6.32484},{"transit":false,"line":6,"station_name":"Serpong","i_long":106.66566,"station_id":"SRP","i_lat":-6.319871,"time":4,"distance":1784,"is_transit":false},{"time":4,"is_transit":false,"station_id":"RU","transit":false,"distance":2413,"station_name":"Rawa Buntu","i_lat":-6.314823,"i_long":106.675475,"line":6},{"station_name":"Sudimara","station_id":"SDM","transit":false,"is_transit":false,"distance":4566,"time":6,"i_long":106.712277,"i_lat":-6.296963,"line":6},{"i_lat":-6.288927,"time":4,"distance":1994,"transit":false,"station_id":"JMU","is_transit":false,"i_long":106.728916,"line":6,"station_name":"Jurangmangu"},{"distance":2179,"is_transit":false,"station_id":"PDJ","i_long":106.74273,"transit":false,"line":6,"station_name":"Pondokranji","i_lat":-6.276362,"time":3},{"time":8,"distance":6218,"i_long":106.780334,"i_lat":-6.237242,"line":6,"station_name":"Kebayoran","station_id":"KBY","transit":false,"is_transit":false},{"time":7,"i_lat":-6.207404,"transit":false,"is_transit":false,"i_long":106.79689,"line":6,"station_id":"PLM","station_name":"Palmerah","distance":3737},{"time":6,"station_name":"Tanah Abang","station_id":"THB","distance":3191,"i_lat":-6.185545,"i_long":106.811091,"line":1,"is_transit":true,"transit":true},{"i_long":106.816351,"time":5,"transit":false,"distance":2029,"station_id":"KAT","line":1,"station_name":"Karet","is_transit":false,"i_lat":-6.20132},{"distance":471,"line":1,"time":1,"i_long":106.819881,"station_name":"Sudirman Baru","is_transit":false,"station_id":"SUDB","transit":false,"i_lat":-6.201433},{"i_long":106.822649,"station_name":"Sudirman","line":1,"is_transit":false,"station_id":"SUD","time":1,"distance":280,"transit":false,"i_lat":-6.202263},{"transit":true,"station_name":"Manggarai","time":4,"distance":3186,"station_id":"MRI","is_transit":true,"i_long":106.84912,"line":2,"i_lat":-6.209883},{"transit":false,"time":4,"is_transit":false,"line":2,"distance":1590,"i_lat":-6.198556,"station_name":"Cikini","station_id":"CKI","i_long":106.840169},{"i_long":106.832183,"station_name":"Gondangdia","distance":1750,"i_lat":-6.186295,"line":2,"station_id":"GDD","time":3,"is_transit":false,"transit":false},{"distance":2015,"line":2,"is_transit":false,"time":4,"i_long":106.828284,"station_name":"Juanda","station_id":"JUA","i_lat":-6.166716,"transit":false},{"distance":1149,"line":2,"station_id":"SW","station_name":"Sawah Besar","is_transit":false,"transit":false,"i_lat":-6.160725,"time":2,"i_long":106.827103},{"time":2,"station_id":"MGB","station_name":"Manggabesar","distance":906,"i_long":106.82482,"i_lat":-6.149769,"is_transit":false,"line":2,"transit":false},{"station_id":"JAY","transit":false,"time":2,"is_transit":false,"i_lat":-6.141205,"i_long":106.820901,"line":2,"distance":1080,"station_name":"Jayakarta"},{"distance":1264,"line":2,"station_name":"Jakarta Kota","station_id":"JAKK","transit":true,"i_lat":-6.137569,"i_long":106.812439,"time":4,"is_transit":true},{"distance":1364,"i_long":106.826365,"transit":true,"time":3,"i_lat":-6.132549,"station_id":"KPB","is_transit":true,"line":4,"station_name":"Kampung Bandan"},{"transit":false,"station_id":"AK","i_long":106.79867,"station_name":"Angke","time":9,"is_transit":false,"i_lat":-6.144674,"line":1,"distance":4102},{"is_transit":true,"station_name":"Duri","i_lat":-6.155215,"line":1,"i_long":106.800832,"transit":true,"time":4,"distance":1230,"station_id":"DU"},{"transit":false,"is_transit":false,"time":3,"station_id":"GGL","line":5,"distance":1700,"station_name":"Grogol","i_lat":-6.162021,"i_long":106.788277},{"time":2,"transit":false,"distance":2036,"is_transit":false,"line":5,"station_name":"Pesing","i_lat":-6.161433,"i_long":106.771379,"station_id":"PSG"},{"distance":1614,"i_lat":-6.1587309999999995,"i_long":106.756522,"line":5,"time":2,"is_transit":false,"station_name":"Taman Kota","station_id":"TKO","transit":false},{"time":2,"i_lat":-6.159876,"transit":false,"line":5,"is_transit":false,"station_name":"Bojongindah","station_id":"BOI","i_long":106.737035,"distance":2334},{"is_transit":false,"distance":1152,"i_lat":-6.162758,"line":5,"i_long":106.723064,"station_id":"RW","time":4,"station_name":"Rawa Buaya","transit":false},{"station_name":"Kalideres","is_transit":false,"transit":false,"time":3,"line":5,"station_id":"KDS","i_long":106.701612,"distance":2504,"i_lat":-6.166068},{"station_id":"PI","transit":false,"i_lat":-6.169933,"i_long":106.679458,"is_transit":false,"line":5,"distance":2548,"station_name":"Poris","time":3},{"station_id":"BPR","i_lat":-6.171811,"time":3,"transit":false,"i_long":106.665036,"line":5,"station_name":"Batuceper","distance":1834,"is_transit":false}],[{"line":3,"i_lat":-6.352675,"transit":false,"time":0,"station_name":"Rangkasbitung","is_transit":false,"i_long":106.250396,"station_id":"RK","distance":0},{"transit":false,"distance":9847,"station_id":"CTR","i_long":106.332092,"line":3,"time":13,"is_transit":false,"station_name":"Citeras","i_lat":-6.334892},{"station_name":"Maja","distance":7293,"station_id":"MJ","is_transit":false,"line":6,"i_lat":-6.332307,"time":10,"transit":false,"i_long":106.394373},{"i_lat":-6.33561,"line":3,"transit":false,"distance":1853,"station_id":"CKY","is_transit":false,"time":4,"station_name":"Cikoya","i_long":106.411216},{"i_long":106.425991,"line":6,"is_transit":false,"transit":false,"distance":2651,"station_id":"TGS","i_lat":-6.328533,"time":3,"station_name":"Tigaraksa"},{"is_transit":false,"transit":false,"i_lat":-6.327251,"line":6,"distance":2974,"i_long":106.460812,"station_name":"Tenjo","station_id":"TEJ","time":5},{"station_id":"DAR","station_name":"Daru","line":0,"is_transit":false,"time":5,"i_lat":-6.338021,"distance":3902,"i_long":106.491338,"transit":false},{"distance":2675,"is_transit":false,"i_lat":-6.354349,"line":3,"station_name":"Cilejit","station_id":"CJT","transit":false,"time":6,"i_long":106.508482},{"transit":false,"time":9,"i_lat":-6.3441410000000005,"station_name":"Parung Panjang","distance":7025,"is_transit":false,"line":6,"station_id":"PRP","i_long":106.568863},{"station_name":"Cicayur","time":8,"distance":5968,"i_lat":-6.329547,"is_transit":false,"i_long":106.617853,"transit":false,"line":3,"station_id":"CC"},{"time":4,"transit":false,"distance":2519,"station_name":"Cisauk","i_lat":-6.32484,"i_long":106.640411,"line":3,"station_id":"CSK","is_transit":false},{"station_name":"Serpong","i_long":106.66566,"line":6,"station_id":"SRP","i_lat":-6.319871,"transit":false,"distance":1784,"is_transit":false,"time":4},{"is_transit":false,"distance":2413,"station_id":"RU","time":4,"station_name":"Rawa Buntu","i_lat":-6.314823,"i_long":106.675475,"transit":false,"line":6},{"i_lat":-6.296963,"is_transit":false,"line":6,"station_id":"SDM","time":6,"transit":false,"i_long":106.712277,"distance":4566,"station_name":"Sudimara"},{"transit":false,"i_long":106.728916,"station_id":"JMU","line":6,"station_name":"Jurangmangu","time":4,"distance":1994,"is_transit":false,"i_lat":-6.288927},{"station_name":"Pondokranji","transit":false,"distance":2179,"line":6,"i_long":106.74273,"time":3,"is_transit":false,"i_lat":-6.276362,"station_id":"PDJ"},{"i_long":106.780334,"transit":false,"station_name":"Kebayoran","line":6,"time":8,"i_lat":-6.237242,"station_id":"KBY","is_transit":false,"distance":6218},{"is_transit":false,"i_long":106.79689,"time":7,"station_name":"Palmerah","transit":false,"distance":3737,"i_lat":-6.207404,"station_id":"PLM","line":6},{"station_id":"THB","is_transit":true,"i_lat":-6.185545,"time":6,"transit":true,"distance":3191,"line":1,"i_long":106.811091,"station_name":"Tanah Abang"},{"time":5,"station_id":"KAT","transit":false,"distance":2029,"is_transit":false,"i_lat":-6.20132,"i_long":106.816351,"line":1,"station_name":"Karet"},{"i_lat":-6.201433,"i_long":106.819881,"station_name":"Sudirman Baru","transit":false,"line":1,"station_id":"SUDB","time":1,"distance":471,"is_transit":false},{"i_long":106.822649,"transit":false,"station_id":"SUD","station_name":"Sudirman","distance":280,"is_transit":false,"i_lat":-6.202263,"line":1,"time":1},{"line":2,"transit":false,"station_id":"MRI","time":4,"i_lat":-6.209883,"distance":3186,"station_name":"Manggarai","is_transit":false,"i_long":106.84912},{"is_transit":false,"line":1,"i_long":106.858896,"station_name":"Matraman","i_lat":-6.212485,"time":2,"station_id":"MTR","distance":1275,"transit":false},{"time":8,"is_transit":true,"i_lat":-6.215091,"line":1,"distance":1377,"transit":true,"station_id":"JNG","station_name":"Jatinegara","i_long":106.86807400000001},{"station_name":"Pondok Jati","transit":false,"i_lat":-6.209188,"is_transit":false,"i_long":106.861737,"distance":1236,"time":2,"line":11,"station_id":"POK"},{"line":11,"distance":1829,"is_transit":false,"transit":false,"station_name":"Kramat","station_id":"KMT","i_lat":-6.193792,"i_long":106.855437,"time":2},{"distance":973,"is_transit":false,"station_id":"GST","line":11,"station_name":"Gang Sentiong","time":1,"i_lat":-6.185975,"i_long":106.850107,"transit":false},{"station_name":"Pasar Senen","station_id":"PSE","is_transit":false,"i_long":106.84368,"distance":1567,"i_lat":-6.174784,"transit":false,"time":8,"line":11},{"line":11,"station_name":"Kemayoran","station_id":"KMO","i_lat":-6.161728,"time":4,"i_long":106.839204,"is_transit":false,"transit":false,"distance":1436},{"station_id":"RJW","time":5,"i_lat":-6.14505,"transit":false,"station_name":"Rajawali","is_transit":false,"line":11,"distance":1901,"i_long":106.836569},{"i_long":106.826365,"transit":true,"distance":1444,"is_transit":true,"i_lat":-6.132549,"line":4,"station_name":"Kampung Bandan","station_id":"KPB","time":3},{"station_id":"AK","station_name":"Angke","i_long":106.79867,"transit":false,"i_lat":-6.144674,"time":9,"distance":4102,"is_transit":false,"line":1},{"distance":1230,"transit":true,"station_name":"Duri","i_lat":-6.155215,"time":4,"station_id":"DU","is_transit":true,"i_long":106.800832,"line":1},{"distance":1700,"station_id":"GGL","time":3,"transit":false,"station_name":"Grogol","is_transit":false,"i_long":106.788277,"line":5,"i_lat":-6.162021},{"line":5,"time":2,"station_name":"Pesing","station_id":"PSG","transit":false,"distance":2036,"is_transit":false,"i_lat":-6.161433,"i_long":106.771379},{"i_long":106.756522,"transit":false,"time":2,"distance":1614,"i_lat":-6.1587309999999995,"station_name":"Taman Kota","line":5,"station_id":"TKO","is_transit":false},{"is_transit":false,"station_id":"BOI","i_lat":-6.159876,"station_name":"Bojongindah","line":5,"transit":false,"time":2,"distance":2334,"i_long":106.737035},{"station_name":"Rawa Buaya","is_transit":false,"distance":1152,"station_id":"RW","time":4,"line":5,"i_lat":-6.162758,"transit":false,"i_long":106.723064},{"time":3,"is_transit":false,"station_name":"Kalideres","transit":false,"distance":2504,"station_id":"KDS","i_lat":-6.166068,"i_long":106.701612,"line":5},{"station_id":"PI","i_lat":-6.169933,"station_name":"Poris","time":3,"distance":2548,"is_transit":false,"line":5,"transit":false,"i_long":106.679458},{"station_name":"Batuceper","station_id":"BPR","line":5,"is_transit":false,"distance":1834,"i_lat":-6.171811,"transit":false,"time":3,"i_long":106.665036}]]}