{"data":[[{"distance":0,"station_name":"Rangkasbitung","i_lat":-6.352675,"transit":false,"station_id":"RK","i_long":106.250396,"time":0,"line":0,"is_transit":true},{"distance":9847,"station_id":"CTR","time":13,"line":0,"i_long":106.332092,"station_name":"Citeras","i_lat":-6.334892,"is_transit":false,"transit":false},{"station_name":"Maja","transit":false,"i_lat":-6.332307,"time":10,"is_transit":false,"distance":7293,"line":6,"station_id":"MJ","i_long":106.394373},{"time":4,"i_long":106.411216,"station_id":"CKY","line":0,"station_name":"Cikoya","i_lat":-6.33561,"transit":false,"distance":1853,"is_transit":false},{"i_lat":-6.328533,"is_transit":false,"line":6,"i_long":106.425991,"station_id":"TGS","time":3,"distance":2651,"station_name":"Tigaraksa","transit":false},{"distance":2974,"station_id":"TEJ","station_name":"Tenjo","i_long":106.460812,"is_transit":false,"time":5,"i_lat":-6.327251,"transit":false,"line":6},{"time":5,"line":0,"i_lat":-6.338021,"station_id":"DAR","is_transit":false,"station_name":"Daru","transit":false,"distance":3902,"i_long":106.491338},{"line":0,"i_long":106.508482,"transit":false,"distance":2675,"station_id":"CJT","station_name":"Cilejit","time":6,"i_lat":-6.354349,"is_transit":false},{"i_lat":-6.3441410000000005,"station_id":"PRP","line":6,"station_name":"Parung Panjang","i_long":106.568863,"is_transit":false,"transit":false,"time":9,"distance":7025},{"line":0,"i_long":106.617853,"station_id":"CC","time":8,"transit":false,"station_name":"Cicayur","distance":5968,"is_transit":false,"i_lat":-6.329547},{"distance":2519,"station_id":"CSK","i_lat":-6.32484,"i_long":106.640411,"time":4,"transit":false,"is_transit":false,"station_name":"Cisauk","line":0},{"i_lat":-6.319871,"distance":1784,"line":6,"transit":false,"i_long":106.66566,"time":4,"station_name":"Serpong","is_transit":false,"station_id":"SRP"},{"is_transit":false,"station_name":"Rawa Buntu","time":4,"line":6,"transit":false,"i_long":106.675475,"station_id":"RU","i_lat":-6.314823,"distance":2413},{"station_id":"SDM","distance":4566,"i_long":106.712277,"i_lat":-6.296963,"station_name":"Sudimara","line":6,"time":6,"transit":false,"is_transit":false},{"i_long":106.728916,"station_name":"Jurangmangu","station_id":"JMU","line":6,"i_lat":-6.288927,"is_transit":false,"distance":1994,"transit":false,"time":4},{"is_transit":false,"time":3,"i_long":106.74273,"distance":2179,"transit":false,"i_lat":-6.276362,"line":6,"station_name":"Pondokranji","station_id":"PDJ"},{"transit":false,"is_transit":false,"station_id":"KBY","station_name":"Kebayoran","i_lat":-6.237242,"i_long":106.780334,"line":6,"time":8,"distance":6218},{"distance":3737,"i_long":106.79689,"is_transit":false,"station_name":"Palmerah","line":6,"transit":false,"i_lat":-6.207404,"station_id":"PLM","time":7},{"station_name":"Tanah Abang","time":6,"station_id":"THB","i_long":106.811091,"distance":3191,"line":1,"i_lat":-6.185545,"transit":true,"is_transit":true},{"distance":3632,"transit":true,"i_long":106.800832,"line":1,"is_transit":true,"i_lat":-6.155215,"time":8,"station_id":"DU","station_name":"Duri"},{"transit":false,"line":5,"station_id":"GGL","time":3,"station_name":"Grogol","is_transit":false,"distance":1700,"i_long":106.788277,"i_lat":-6.162021},{"transit":false,"station_id":"PSG","station_name":"Pesing","is_transit":false,"distance":2036,"i_long":106.771379,"line":5,"time":2,"i_lat":-6.161433},{"time":2,"station_name":"Taman Kota","is_transit":false,"transit":false,"station_id":"TKO","i_long":106.756522,"i_lat":-6.1587309999999995,"distance":1614,"line":5},{"distance":2334,"transit":false,"time":2,"line":0,"station_id":"BOI","i_lat":-6.159876,"i_long":106.737035,"station_name":"Bojongindah","is_transit":false}],[{"line":0,"is_transit":true,"transit":false,"time":0,"distance":0,"station_name":"Rangkasbitung","i_lat":-6.352675,"i_long":106.250396,"station_id":"RK"},{"i_lat":-6.334892,"station_id":"CTR","is_transit":false,"transit":false,"line":0,"distance":9847,"time":13,"station_name":"Citeras","i_long":106.332092},{"line":6,"distance":7293,"time":10,"station_name":"Maja","i_long":106.394373,"i_lat":-6.332307,"station_id":"MJ","is_transit":false,"transit":false},{"station_id":"CKY","distance":1853,"i_lat":-6.33561,"transit":false,"i_long":106.411216,"is_transit":false,"station_name":"Cikoya","time":4,"line":0},{"is_transit":false,"transit":false,"station_name":"Tigaraksa","i_long":106.425991,"line":6,"station_id":"TGS","time":3,"i_lat":-6.328533,"distance":2651},{"i_long":106.460812,"station_name":"Tenjo","i_lat":-6.327251,"distance":2974,"is_transit":false,"transit":false,"station_id":"TEJ","time":5,"line":6},{"line":0,"station_id":"DAR","i_long":106.491338,"distance":3902,"i_lat":-6.338021,"station_name":"Daru","is_transit":false,"transit":false,"time":5},{"i_long":106.508482,"line":0,"station_name":"Cilejit","distance":2675,"i_lat":-6.354349,"station_id":"CJT","is_transit":false,"time":6,"transit":false},{"time":9,"is_transit":false,"distance":7025,"i_lat":-6.3441410000000005,"i_long":106.568863,"line":6,"station_name":"Parung Panjang","station_id":"PRP","transit":false},{"time":8,"is_transit":false,"transit":false,"distance":5968,"station_id":"CC","i_lat":-6.329547,"i_long":106.617853,"line":0,"station_name":"Cicayur"},{"transit":false,"distance":2519,"station_name":"Cisauk","time":4,"is_transit":false,"line":0,"i_lat":-6.32484,"station_id":"CSK","i_long":106.640411},{"time":4,"transit":false,"i_lat":-6.319871,"line":6,"station_name":"Serpong","i_long":106.66566,"station_id":"SRP","is_transit":false,"distance":1784},{"transit":false,"is_transit":false,"station_id":"RU","time":4,"i_long":106.675475,"distance":2413,"i_lat":-6.314823,"station_name":"Rawa Buntu","line":6},{"distance":4566,"line":6,"i_lat":-6.296963,"station_id":"SDM","is_transit":false,"station_name":"Sudimara","i_long":106.712277,"time":6,"transit":false},{"station_name":"Jurangmangu","is_transit":false,"distance":1994,"transit":false,"time":4,"i_long":106.728916,"i_lat":-6.288927,"station_id":"JMU","line":6},{"line":6,"distance":2179,"is_transit":false,"i_lat":-6.276362,"i_long":106.74273,"station_id":"PDJ","time":3,"station_name":"Pondokranji","transit":false},{"station_id":"KBY","is_transit":false,"line":6,"station_name":"Kebayoran","distance":6218,"i_lat":-6.237242,"transit":false,"i_long":106.780334,"time":8},{"station_id":"PLM","transit":false,"i_long":106.79689,"line":6,"station_name":"Palmerah","time":7,"distance":3737,"is_transit":false,"i_lat":-6.207404},{"transit":true,"station_name":"Tanah Abang","i_long":106.811091,"distance":3191,"i_lat":-6.185545,"station_id":"THB","time":6,"line":1,"is_transit":true},{"station_name":"Karet","station_id":"KAT","i_lat":-6.20132,"time":5,"distance":2029,"transit":false,"i_long":106.816351,"line":1,"is_transit":false},{"station_id":"SUDB","line":1,"station_name":"Sudirman Baru","time":1,"i_lat":-6.201433,"i_long":106.819881,"transit":false,"distance":471,"is_transit":false},{"station_name":"Sudirman","i_lat":-6.202263,"time":1,"line":1,"distance":280,"station_id":"SUD","i_long":106.822649,"transit":false,"is_transit":false},{"transit":true,"time":4,"distance":3186,"is_transit":true,"station_name":"Manggarai","station_id":"MRI","i_lat":-6.209883,"i_long":106.84912,"line":0},{"station_id":"CKI","i_long":106.840169,"is_transit":false,"station_name":"Cikini","line":0,"i_lat":-6.198556,"time":4,"transit":false,"distance":1590},{"time":3,"station_name":"Gondangdia","i_lat":-6.186295,"i_long":106.832183,"line":2,"distance":1750,"transit":false,"station_id":"GDD","is_transit":false},{"i_long":106.828284,"is_transit":false,"distance":2015,"i_lat":-6.166716,"line":2,"time":4,"station_id":"JUA","transit":false,"station_name":"Juanda"},{"station_name":"Sawah Besar","i_lat":-6.160725,"i_long":106.827103,"transit":false,"is_transit":false,"station_id":"SW","line":2,"time":2,"distance":1149},{"distance":906,"time":2,"transit":false,"i_lat":-6.149769,"line":2,"is_transit":false,"station_name":"Manggabesar","station_id":"MGB","i_long":106.82482},{"i_long":106.820901,"distance":1080,"is_transit":false,"station_id":"JAY","station_name":"Jayakarta","time":2,"i_lat":-6.141205,"line":7,"transit":false},{"i_long":106.812439,"i_lat":-6.137569,"line":0,"station_id":"JAKK","station_name":"Jakarta Kota","distance":1264,"time":4,"transit":true,"is_transit":true},{"transit":false,"station_id":"KPB","i_long":106.826365,"i_lat":-6.132549,"distance":1364,"time":3,"is_transit":true,"line":0,"station_name":"Kampung Bandan"},{"line":0,"station_id":"AK","station_name":"Angke","transit":false,"distance":4102,"time":9,"i_long":106.79867,"is_transit":false,"i_lat":-6.144674},{"time":4,"i_lat":-6.155215,"distance":1230,"line":1,"station_name":"Duri","i_long":106.800832,"is_transit":true,"transit":true,"station_id":"DU"},{"line":5,"time":3,"i_lat":-6.162021,"station_name":"Grogol","transit":false,"is_transit":false,"i_long":106.788277,"distance":1700,"station_id":"GGL"},{"i_long":106.771379,"i_lat":-6.161433,"distance":2036,"is_transit":false,"station_name":"Pesing","time":2,"station_id":"PSG","line":5,"transit":false},{"station_id":"TKO","line":5,"distance":1614,"i_long":106.756522,"transit":false,"i_lat":-6.1587309999999995,"is_transit":false,"station_name":"Taman Kota","time":2},{"i_lat":-6.159876,"i_long":106.737035,"station_name":"Bojongindah","transit":false,"time":2,"station_id":"BOI","distance":2334,"line":0,"is_transit":false}],[{"is_transit":true,"station_id":"RK","station_name":"Rangkasbitung","distance":0,"time":0,"i_long":106.250396,"line":0,"transit":false,"i_lat":-6.352675},{"line":0,"is_transit":false,"distance":9847,"time":13,"i_lat":-6.334892,"i_long":106.332092,"station_id":"CTR","station_name":"Citeras","transit":false},{"distance":7293,"transit":false,"i_long":106.394373,"station_name":"Maja","station_id":"MJ","time":10,"i_lat":-6.332307,"is_transit":false,"line":6},{"i_lat":-6.33561,"time":4,"is_transit":false,"station_id":"CKY","i_long":106.411216,"station_name":"Cikoya","distance":1853,"transit":false,"line":0},{"station_name":"Tigaraksa","transit":false,"time":3,"i_long":106.425991,"line":6,"distance":2651,"station_id":"TGS","is_transit":false,"i_lat":-6.328533},{"i_lat":-6.327251,"station_name":"Tenjo","time":5,"distance":2974,"is_transit":false,"station_id":"TEJ","transit":false,"i_long":106.460812,"line":6},{"time":5,"distance":3902,"is_transit":false,"station_id":"DAR","i_lat":-6.338021,"i_long":106.491338,"line":0,"station_name":"Daru","transit":false},{"line":0,"station_name":"Cilejit","is_transit":false,"i_long":106.508482,"transit":false,"i_lat":-6.354349,"distance":2675,"station_id":"CJT","time":6},{"distance":7025,"is_transit":false,"line":6,"i_long":106.568863,"station_name":"Parung Panjang","station_id":"PRP","transit":false,"i_lat":-6.3441410000000005,"time":9},{"transit":false,"line":0,"is_transit":false,"time":8,"station_id":"CC","i_lat":-6.329547,"distance":5968,"i_long":106.617853,"station_name":"Cicayur"},{"i_lat":-6.32484,"station_name":"Cisauk","distance":2519,"i_long":106.640411,"is_transit":false,"line":0,"station_id":"CSK","time":4,"transit":false},{"is_transit":false,"distance":1784,"i_lat":-6.319871,"station_name":"Serpong","transit":false,"station_id":"SRP","i_long":106.66566,"time":4,"line":6},{"line":6,"is_transit":false,"i_long":106.675475,"distance":2413,"transit":false,"time":4,"station_name":"Rawa Buntu","i_lat":-6.314823,"station_id":"RU"},{"i_lat":-6.296963,"station_id":"SDM","transit":false,"is_transit":false,"i_long":106.712277,"line":6,"time":6,"station_name":"Sudimara","distance":4566},{"transit":false,"time":4,"station_id":"JMU","distance":1994,"is_transit":false,"line":6,"i_lat":-6.288927,"station_name":"Jurangmangu","i_long":106.728916},{"distance":2179,"line":6,"station_id":"PDJ","transit":false,"station_name":"Pondokranji","time":3,"i_lat":-6.276362,"i_long":106.74273,"is_transit":false},{"i_lat":-6.237242,"station_id":"KBY","station_name":"Kebayoran","line":6,"time":8,"transit":false,"is_transit":false,"i_long":106.780334,"distance":6218},{"station_name":"Palmerah","line":6,"i_long":106.79689,"distance":3737,"station_id":"PLM","transit":false,"i_lat":-6.207404,"time":7,"is_transit":false},{"i_long":106.811091,"is_transit":true,"station_id":"THB","time":6,"i_lat":-6.185545,"line":1,"distance":3191,"transit":true,"station_name":"Tanah Abang"},{"station_name":"Karet","i_lat":-6.20132,"i_long":106.816351,"is_transit":false,"station_id":"KAT","time":5,"transit":false,"line":1,"distance":2029},{"is_transit":false,"time":1,"line":1,"distance":471,"station_id":"SUDB","i_long":106.819881,"station_name":"Sudirman Baru","transit":false,"i_lat":-6.201433},{"station_name":"Sudirman","time":1,"is_transit":false,"line":1,"i_lat":-6.202263,"transit":false,"distance":280,"station_id":"SUD","i_long":106.822649},{"line":0,"i_lat":-6.209883,"i_long":106.84912,"station_id":"MRI","station_name":"Manggarai","time":4,"distance":3186,"is_transit":true,"transit":false},{"distance":1275,"line":1,"station_id":"MTR","transit":false,"i_long":106.858896,"is_transit":false,"station_name":"Matraman","time":2,"i_lat":-6.212485},{"distance":1377,"is_transit":true,"station_id":"JNG","station_name":"Jatinegara","time":8,"i_lat":-6.215091,"i_long":106.86807400000001,"line":0,"transit":true},{"line":11,"i_lat":-6.209188,"distance":1236,"station_id":"POK","time":2,"i_long":106.861737,"is_transit":false,"station_name":"Pondok Jati","transit":false},{"line":11,"i_lat":-6.193792,"time":2,"station_name":"Kramat","i_long":106.855437,"distance":1829,"is_transit":false,"transit":false,"station_id":"KMT"},{"time":1,"is_transit":false,"i_lat":-6.185975,"distance":973,"i_long":106.850107,"line":11,"transit":false,"station_id":"GST","station_name":"Gang Sentiong"},{"i_lat":-6.174784,"i_long":106.84368,"line":11,"transit":false,"distance":1567,"is_transit":false,"station_id":"PSE","station_name":"Pasar Senen","time":8},{"distance":1436,"station_id":"KMO","time":4,"is_transit":false,"i_lat":-6.161728,"i_long":106.839204,"line":11,"station_name":"Kemayoran","transit":false},{"is_transit":false,"transit":false,"line":11,"time":5,"station_id":"RJW","distance":1901,"station_name":"Rajawali","i_lat":-6.14505,"i_long":106.836569},{"i_long":106.826365,"transit":true,"time":3,"i_lat":-6.132549,"is_transit":true,"station_name":"Kampung Bandan","line":0,"station_id":"KPB","distance":1444},{"time":9,"station_id":"AK","is_transit":false,"distance":4102,"station_name":"Angke","i_long":106.79867,"i_lat":-6.144674,"transit":false,"line":0},{"time":4,"transit":true,"line":1,"i_long":106.800832,"i_lat":-6.155215,"is_transit":true,"distance":1230,"station_name":"Duri","station_id":"DU"},{"time":3,"is_transit":false,"station_name":"Grogol","station_id":"GGL","transit":false,"i_lat":-6.162021,"i_long":106.788277,"line":5,"distance":1700},{"i_long":106.771379,"distance":2036,"is_transit":false,"station_id":"PSG","station_name":"Pesing","time":2,"transit":false,"i_lat":-6.161433,"line":5},{"i_long":106.756522,"i_lat":-6.1587309999999995,"transit":false,"station_id":"TKO","time":2,"line":5,"station_name":"Taman Kota","distance":1614,"is_transit":false},{"i_lat":-6.159876,"transit":false,"station_name":"Bojongindah","distance":2334,"line":0,"station_id":"BOI","is_transit":false,"i_long":106.737035,"time":2}]]}