{"data":[[{"transit":false,"station_name":"Rangkasbitung","i_long":106.250396,"is_transit":false,"i_lat":-6.352675,"station_id":"RK","distance":0,"line":3,"time":0},{"distance":9847,"i_lat":-6.334892,"is_transit":false,"station_name":"Citeras","i_long":106.332092,"station_id":"CTR","transit":false,"time":13,"line":3},{"transit":false,"time":10,"i_lat":-6.332307,"i_long":106.394373,"line":6,"distance":7293,"is_transit":false,"station_name":"Maja","station_id":"MJ"},{"distance":1853,"time":4,"station_name":"Cikoya","is_transit":false,"i_long":106.411216,"i_lat":-6.33561,"line":3,"station_id":"CKY","transit":false},{"time":3,"station_id":"TGS","transit":false,"station_name":"Tigaraksa","distance":2651,"is_transit":false,"i_lat":-6.328533,"i_long":106.425991,"line":6},{"line":6,"station_name":"Tenjo","is_transit":false,"transit":false,"distance":2974,"time":5,"i_long":106.460812,"station_id":"TEJ","i_lat":-6.327251},{"transit":false,"station_name":"Daru","i_long":106.491338,"station_id":"DAR","distance":3902,"is_transit":false,"time":5,"i_lat":-6.338021,"line":0},{"time":6,"distance":2675,"station_name":"Cilejit","i_long":106.508482,"i_lat":-6.354349,"transit":false,"station_id":"CJT","is_transit":false,"line":3},{"i_long":106.568863,"i_lat":-6.3441410000000005,"station_id":"PRP","distance":7025,"is_transit":false,"transit":false,"station_name":"Parung Panjang","line":6,"time":9},{"is_transit":false,"i_long":106.617853,"time":8,"distance":5968,"transit":false,"station_id":"CC","station_name":"Cicayur","line":3,"i_lat":-6.329547},{"distance":2519,"station_id":"CSK","is_transit":false,"time":4,"transit":false,"i_lat":-6.32484,"line":3,"i_long":106.640411,"station_name":"Cisauk"},{"line":6,"station_name":"Serpong","is_transit":false,"station_id":"SRP","transit":false,"i_lat":-6.319871,"time":4,"i_long":106.66566,"distance":1784},{"distance":2413,"line":6,"is_transit":false,"time":4,"transit":false,"station_name":"Rawa Buntu","i_lat":-6.314823,"i_long":106.675475,"station_id":"RU"},{"transit":false,"station_name":"Sudimara","time":6,"i_lat":-6.296963,"i_long":106.712277,"distance":4566,"station_id":"SDM","is_transit":false,"line":6},{"station_id":"JMU","transit":false,"line":6,"i_long":106.728916,"is_transit":false,"i_lat":-6.288927,"distance":1994,"station_name":"Jurangmangu","time":4},{"time":3,"is_transit":false,"station_name":"Pondokranji","i_long":106.74273,"station_id":"PDJ","line":6,"distance":2179,"transit":false,"i_lat":-6.276362},{"is_transit":false,"i_long":106.780334,"transit":false,"distance":6218,"station_id":"KBY","station_name":"Kebayoran","line":6,"time":8,"i_lat":-6.237242},{"is_transit":false,"distance":3737,"i_long":106.79689,"line":6,"i_lat":-6.207404,"station_id":"PLM","station_name":"Palmerah","time":7,"transit":false},{"time":6,"is_transit":true,"station_id":"THB","i_lat":-6.185545,"transit":true,"line":1,"distance":3191,"station_name":"Tanah Abang","i_long":106.811091},{"is_transit":true,"i_lat":-6.155215,"station_id":"DU","distance":3632,"time":8,"line":1,"i_long":106.800832,"station_name":"Duri","transit":true},{"transit":false,"distance":1700,"station_id":"GGL","line":5,"is_transit":false,"i_lat":-6.162021,"station_name":"Grogol","time":3,"i_long":106.788277},{"i_long":106.771379,"station_id":"PSG","distance":2036,"time":2,"is_transit":false,"line":5,"transit":false,"station_name":"Pesing","i_lat":-6.161433},{"station_id":"TKO","transit":false,"is_transit":false,"distance":1614,"station_name":"Taman Kota","i_lat":-6.1587309999999995,"i_long":106.756522,"line":5,"time":2},{"is_transit":false,"station_id":"BOI","station_name":"Bojongindah","i_lat":-6.159876,"line":5,"transit":false,"distance":2334,"i_long":106.737035,"time":2}],[{"i_lat":-6.352675,"i_long":106.250396,"transit":false,"station_id":"RK","station_name":"Rangkasbitung","is_transit":false,"distance":0,"line":3,"time":0},{"is_transit":false,"i_lat":-6.334892,"station_id":"CTR","transit":false,"station_name":"Citeras","time":13,"distance":9847,"i_long":106.332092,"line":3},{"station_id":"MJ","time":10,"is_transit":false,"station_name":"Maja","distance":7293,"i_lat":-6.332307,"transit":false,"i_long":106.394373,"line":6},{"distance":1853,"i_lat":-6.33561,"i_long":106.411216,"is_transit":false,"station_id":"CKY","time":4,"line":3,"transit":false,"station_name":"Cikoya"},{"i_long":106.425991,"i_lat":-6.328533,"station_name":"Tigaraksa","line":6,"is_transit":false,"distance":2651,"time":3,"transit":false,"station_id":"TGS"},{"distance":2974,"station_name":"Tenjo","i_lat":-6.327251,"i_long":106.460812,"line":6,"time":5,"station_id":"TEJ","transit":false,"is_transit":false},{"i_long":106.491338,"line":0,"distance":3902,"i_lat":-6.338021,"transit":false,"time":5,"station_id":"DAR","station_name":"Daru","is_transit":false},{"distance":2675,"i_long":106.508482,"transit":false,"time":6,"station_id":"CJT","is_transit":false,"station_name":"Cilejit","line":3,"i_lat":-6.354349},{"station_name":"Parung Panjang","distance":7025,"is_transit":false,"station_id":"PRP","line":6,"i_lat":-6.3441410000000005,"transit":false,"i_long":106.568863,"time":9},{"transit":false,"time":8,"station_name":"Cicayur","is_transit":false,"distance":5968,"i_lat":-6.329547,"line":3,"station_id":"CC","i_long":106.617853},{"transit":false,"station_name":"Cisauk","station_id":"CSK","is_transit":false,"i_long":106.640411,"line":3,"time":4,"distance":2519,"i_lat":-6.32484},{"distance":1784,"is_transit":false,"i_lat":-6.319871,"i_long":106.66566,"time":4,"line":6,"transit":false,"station_name":"Serpong","station_id":"SRP"},{"station_id":"RU","station_name":"Rawa Buntu","distance":2413,"i_lat":-6.314823,"is_transit":false,"i_long":106.675475,"time":4,"transit":false,"line":6},{"station_name":"Sudimara","is_transit":false,"line":6,"distance":4566,"time":6,"i_lat":-6.296963,"i_long":106.712277,"transit":false,"station_id":"SDM"},{"station_name":"Jurangmangu","station_id":"JMU","i_lat":-6.288927,"time":4,"is_transit":false,"transit":false,"distance":1994,"i_long":106.728916,"line":6},{"i_lat":-6.276362,"line":6,"time":3,"station_name":"Pondokranji","station_id":"PDJ","distance":2179,"i_long":106.74273,"transit":false,"is_transit":false},{"time":8,"i_lat":-6.237242,"i_long":106.780334,"distance":6218,"transit":false,"station_id":"KBY","is_transit":false,"line":6,"station_name":"Kebayoran"},{"is_transit":false,"line":6,"station_id":"PLM","transit":false,"i_long":106.79689,"station_name":"Palmerah","distance":3737,"i_lat":-6.207404,"time":7},{"i_long":106.811091,"line":1,"time":6,"transit":true,"is_transit":true,"station_id":"THB","station_name":"Tanah Abang","distance":3191,"i_lat":-6.185545},{"i_lat":-6.20132,"distance":2029,"station_name":"Karet","transit":false,"line":1,"i_long":106.816351,"time":5,"station_id":"KAT","is_transit":false},{"is_transit":false,"i_lat":-6.201433,"time":1,"transit":false,"i_long":106.819881,"line":1,"station_name":"Sudirman Baru","distance":471,"station_id":"SUDB"},{"is_transit":false,"line":1,"transit":false,"station_name":"Sudirman","distance":280,"i_lat":-6.202263,"station_id":"SUD","i_long":106.822649,"time":1},{"line":2,"i_long":106.84912,"time":4,"station_id":"MRI","i_lat":-6.209883,"distance":3186,"is_transit":true,"transit":true,"station_name":"Manggarai"},{"station_id":"CKI","transit":false,"line":2,"i_lat":-6.198556,"is_transit":false,"i_long":106.840169,"time":4,"station_name":"Cikini","distance":1590},{"i_lat":-6.186295,"line":2,"transit":false,"is_transit":false,"i_long":106.832183,"time":3,"station_id":"GDD","distance":1750,"station_name":"Gondangdia"},{"distance":2015,"i_lat":-6.166716,"line":2,"time":4,"station_id":"JUA","transit":false,"station_name":"Juanda","is_transit":false,"i_long":106.828284},{"i_lat":-6.160725,"time":2,"distance":1149,"line":2,"station_id":"SW","i_long":106.827103,"transit":false,"is_transit":false,"station_name":"Sawah Besar"},{"station_id":"MGB","i_long":106.82482,"station_name":"Manggabesar","distance":906,"is_transit":false,"line":2,"i_lat":-6.149769,"transit":false,"time":2},{"transit":false,"station_name":"Jayakarta","i_long":106.820901,"time":2,"line":2,"distance":1080,"station_id":"JAY","is_transit":false,"i_lat":-6.141205},{"station_name":"Jakarta Kota","i_lat":-6.137569,"time":4,"distance":1264,"i_long":106.812439,"transit":true,"line":2,"station_id":"JAKK","is_transit":true},{"time":3,"distance":1364,"line":4,"station_name":"Kampung Bandan","i_long":106.826365,"station_id":"KPB","transit":true,"is_transit":true,"i_lat":-6.132549},{"line":1,"station_id":"AK","transit":false,"distance":4102,"i_long":106.79867,"is_transit":false,"station_name":"Angke","time":9,"i_lat":-6.144674},{"time":4,"station_name":"Duri","i_long":106.800832,"transit":true,"i_lat":-6.155215,"station_id":"DU","line":1,"is_transit":true,"distance":1230},{"i_lat":-6.162021,"distance":1700,"station_id":"GGL","station_name":"Grogol","is_transit":false,"time":3,"transit":false,"i_long":106.788277,"line":5},{"i_long":106.771379,"station_id":"PSG","i_lat":-6.161433,"line":5,"station_name":"Pesing","is_transit":false,"time":2,"transit":false,"distance":2036},{"station_name":"Taman Kota","line":5,"time":2,"station_id":"TKO","transit":false,"is_transit":false,"distance":1614,"i_long":106.756522,"i_lat":-6.1587309999999995},{"station_id":"BOI","is_transit":false,"i_lat":-6.159876,"station_name":"Bojongindah","transit":false,"i_long":106.737035,"distance":2334,"line":5,"time":2}],[{"i_lat":-6.352675,"is_transit":false,"transit":false,"i_long":106.250396,"station_id":"RK","time":0,"station_name":"Rangkasbitung","distance":0,"line":3},{"station_name":"Citeras","i_long":106.332092,"i_lat":-6.334892,"line":3,"is_transit":false,"station_id":"CTR","distance":9847,"transit":false,"time":13},{"i_long":106.394373,"distance":7293,"time":10,"is_transit":false,"line":6,"transit":false,"station_id":"MJ","i_lat":-6.332307,"station_name":"Maja"},{"station_name":"Cikoya","is_transit":false,"distance":1853,"i_long":106.411216,"transit":false,"i_lat":-6.33561,"time":4,"station_id":"CKY","line":3},{"i_lat":-6.328533,"distance":2651,"station_name":"Tigaraksa","is_transit":false,"time":3,"station_id":"TGS","i_long":106.425991,"line":6,"transit":false},{"i_lat":-6.327251,"line":6,"time":5,"is_transit":false,"transit":false,"distance":2974,"station_name":"Tenjo","i_long":106.460812,"station_id":"TEJ"},{"station_name":"Daru","station_id":"DAR","transit":false,"line":0,"i_long":106.491338,"i_lat":-6.338021,"is_transit":false,"distance":3902,"time":5},{"time":6,"distance":2675,"i_long":106.508482,"station_name":"Cilejit","is_transit":false,"i_lat":-6.354349,"transit":false,"station_id":"CJT","line":3},{"station_name":"Parung Panjang","is_transit":false,"distance":7025,"station_id":"PRP","transit":false,"time":9,"i_lat":-6.3441410000000005,"i_long":106.568863,"line":6},{"station_name":"Cicayur","is_transit":false,"i_lat":-6.329547,"distance":5968,"i_long":106.617853,"station_id":"CC","line":3,"transit":false,"time":8},{"i_lat":-6.32484,"time":4,"distance":2519,"station_name":"Cisauk","is_transit":false,"transit":false,"i_long":106.640411,"line":3,"station_id":"CSK"},{"station_id":"SRP","i_lat":-6.319871,"is_transit":false,"time":4,"line":6,"transit":false,"station_name":"Serpong","distance":1784,"i_long":106.66566},{"transit":false,"i_lat":-6.314823,"i_long":106.675475,"station_id":"RU","station_name":"Rawa Buntu","line":6,"distance":2413,"time":4,"is_transit":false},{"is_transit":false,"station_id":"SDM","distance":4566,"station_name":"Sudimara","i_lat":-6.296963,"line":6,"time":6,"transit":false,"i_long":106.712277},{"is_transit":false,"station_name":"Jurangmangu","distance":1994,"transit":false,"i_lat":-6.288927,"station_id":"JMU","i_long":106.728916,"line":6,"time":4},{"i_lat":-6.276362,"is_transit":false,"distance":2179,"i_long":106.74273,"station_name":"Pondokranji","line":6,"time":3,"station_id":"PDJ","transit":false},{"is_transit":false,"distance":6218,"i_long":106.780334,"station_name":"Kebayoran","station_id":"KBY","transit":false,"line":6,"time":8,"i_lat":-6.237242},{"station_id":"PLM","distance":3737,"i_lat":-6.207404,"station_name":"Palmerah","i_long":106.79689,"line":6,"is_transit":false,"time":7,"transit":false},{"i_lat":-6.185545,"station_name":"Tanah Abang","i_long":106.811091,"line":1,"distance":3191,"is_transit":true,"station_id":"THB","transit":true,"time":6},{"station_name":"Karet","i_long":106.816351,"station_id":"KAT","is_transit":false,"i_lat":-6.20132,"distance":2029,"line":1,"time":5,"transit":false},{"i_long":106.819881,"line":1,"station_name":"Sudirman Baru","is_transit":false,"i_lat":-6.201433,"station_id":"SUDB","transit":false,"time":1,"distance":471},{"distance":280,"is_transit":false,"time":1,"station_name":"Sudirman","i_lat":-6.202263,"i_long":106.822649,"station_id":"SUD","transit":false,"line":1},{"time":4,"station_id":"MRI","i_long":106.84912,"is_transit":false,"station_name":"Manggarai","i_lat":-6.209883,"distance":3186,"transit":false,"line":2},{"line":1,"transit":false,"station_id":"MTR","i_lat":-6.212485,"i_long":106.858896,"time":2,"is_transit":false,"distance":1275,"station_name":"Matraman"},{"time":8,"i_long":106.86807400000001,"station_name":"Jatinegara","distance":1377,"i_lat":-6.215091,"line":1,"station_id":"JNG","transit":true,"is_transit":true},{"distance":1236,"i_lat":-6.209188,"i_long":106.861737,"station_name":"Pondok Jati","transit":false,"line":11,"time":2,"station_id":"POK","is_transit":false},{"distance":1829,"is_transit":false,"i_lat":-6.193792,"line":11,"station_id":"KMT","i_long":106.855437,"transit":false,"station_name":"Kramat","time":2},{"i_long":106.850107,"station_id":"GST","is_transit":false,"distance":973,"line":11,"i_lat":-6.185975,"transit":false,"time":1,"station_name":"Gang Sentiong"},{"station_name":"Pasar Senen","time":8,"i_lat":-6.174784,"distance":1567,"line":11,"transit":false,"is_transit":false,"i_long":106.84368,"station_id":"PSE"},{"transit":false,"station_id":"KMO","line":11,"station_name":"Kemayoran","i_lat":-6.161728,"is_transit":false,"i_long":106.839204,"distance":1436,"time":4},{"transit":false,"station_name":"Rajawali","is_transit":false,"time":5,"i_lat":-6.14505,"station_id":"RJW","distance":1901,"i_long":106.836569,"line":11},{"is_transit":true,"i_long":106.826365,"line":4,"transit":true,"station_name":"Kampung Bandan","time":3,"station_id":"KPB","distance":1444,"i_lat":-6.132549},{"station_name":"Angke","is_transit":false,"distance":4102,"station_id":"AK","transit":false,"i_lat":-6.144674,"i_long":106.79867,"line":1,"time":9},{"is_transit":true,"transit":true,"i_long":106.800832,"line":1,"distance":1230,"i_lat":-6.155215,"station_id":"DU","time":4,"station_name":"Duri"},{"station_id":"GGL","distance":1700,"transit":false,"i_lat":-6.162021,"time":3,"station_name":"Grogol","is_transit":false,"line":5,"i_long":106.788277},{"station_name":"Pesing","is_transit":false,"i_long":106.771379,"station_id":"PSG","time":2,"i_lat":-6.161433,"line":5,"distance":2036,"transit":false},{"distance":1614,"transit":false,"station_name":"Taman Kota","line":5,"station_id":"TKO","is_transit":false,"i_lat":-6.1587309999999995,"i_long":106.756522,"time":2},{"time":2,"distance":2334,"station_id":"BOI","station_name":"Bojongindah","i_lat":-6.159876,"transit":false,"i_long":106.737035,"is_transit":false,"line":5}]]}