{"data":[[{"distance":0,"station_name":"Rangkasbitung","station_id":"RK","i_lat":-6.352675,"i_long":106.250396,"transit":false,"is_transit":false,"line":3,"time":0},{"station_id":"CTR","distance":9847,"i_long":106.332092,"is_transit":false,"i_lat":-6.334892,"time":13,"line":3,"station_name":"Citeras","transit":false},{"i_long":106.394373,"station_id":"MJ","station_name":"Maja","transit":false,"is_transit":false,"i_lat":-6.332307,"line":6,"time":10,"distance":7293},{"i_long":106.411216,"time":4,"transit":false,"is_transit":false,"i_lat":-6.33561,"line":3,"station_id":"CKY","distance":1853,"station_name":"Cikoya"},{"distance":2651,"time":3,"is_transit":false,"transit":false,"line":6,"i_long":106.425991,"station_name":"Tigaraksa","i_lat":-6.328533,"station_id":"TGS"},{"station_name":"Tenjo","i_lat":-6.327251,"transit":false,"station_id":"TEJ","i_long":106.460812,"line":6,"time":5,"is_transit":false,"distance":2974},{"station_name":"Daru","time":5,"distance":3902,"transit":false,"i_long":106.491338,"is_transit":false,"line":0,"i_lat":-6.338021,"station_id":"DAR"},{"time":6,"station_name":"Cilejit","is_transit":false,"transit":false,"i_lat":-6.354349,"line":3,"distance":2675,"i_long":106.508482,"station_id":"CJT"},{"station_id":"PRP","i_lat":-6.3441410000000005,"station_name":"Parung Panjang","time":9,"i_long":106.568863,"line":6,"is_transit":false,"distance":7025,"transit":false},{"is_transit":false,"station_id":"CC","i_lat":-6.329547,"transit":false,"line":3,"distance":5968,"station_name":"Cicayur","time":8,"i_long":106.617853},{"station_name":"Cisauk","is_transit":false,"time":4,"distance":2519,"transit":false,"i_long":106.640411,"station_id":"CSK","line":3,"i_lat":-6.32484},{"distance":1784,"i_lat":-6.319871,"i_long":106.66566,"station_name":"Serpong","transit":false,"line":6,"is_transit":false,"station_id":"SRP","time":4},{"station_id":"RU","i_lat":-6.314823,"i_long":106.675475,"time":4,"is_transit":false,"transit":false,"line":6,"distance":2413,"station_name":"Rawa Buntu"},{"transit":false,"station_id":"SDM","i_long":106.712277,"line":6,"i_lat":-6.296963,"is_transit":false,"time":6,"distance":4566,"station_name":"Sudimara"},{"is_transit":false,"line":6,"time":4,"station_id":"JMU","transit":false,"i_lat":-6.288927,"distance":1994,"i_long":106.728916,"station_name":"Jurangmangu"},{"station_name":"Pondokranji","i_long":106.74273,"line":6,"station_id":"PDJ","time":3,"is_transit":false,"distance":2179,"transit":false,"i_lat":-6.276362},{"station_id":"KBY","is_transit":false,"line":6,"time":8,"i_lat":-6.237242,"transit":false,"distance":6218,"i_long":106.780334,"station_name":"Kebayoran"},{"distance":3737,"transit":false,"station_id":"PLM","time":7,"line":6,"i_long":106.79689,"is_transit":false,"station_name":"Palmerah","i_lat":-6.207404},{"station_id":"THB","line":1,"distance":3191,"time":6,"i_long":106.811091,"transit":true,"i_lat":-6.185545,"station_name":"Tanah Abang","is_transit":true},{"i_lat":-6.155215,"distance":3632,"transit":true,"station_id":"DU","line":1,"time":8,"is_transit":true,"station_name":"Duri","i_long":106.800832},{"distance":1700,"station_id":"GGL","transit":false,"i_lat":-6.162021,"line":5,"time":3,"i_long":106.788277,"station_name":"Grogol","is_transit":false},{"distance":2036,"is_transit":false,"station_id":"PSG","transit":false,"i_lat":-6.161433,"i_long":106.771379,"station_name":"Pesing","line":5,"time":2},{"line":5,"is_transit":false,"time":2,"transit":false,"distance":1614,"station_name":"Taman Kota","station_id":"TKO","i_lat":-6.1587309999999995,"i_long":106.756522},{"distance":2334,"station_id":"BOI","i_long":106.737035,"transit":false,"i_lat":-6.159876,"is_transit":false,"station_name":"Bojongindah","line":5,"time":2}],[{"distance":0,"time":0,"station_name":"Rangkasbitung","station_id":"RK","is_transit":false,"line":3,"i_lat":-6.352675,"transit":false,"i_long":106.250396},{"distance":9847,"transit":false,"i_lat":-6.334892,"station_name":"Citeras","station_id":"CTR","i_long":106.332092,"line":3,"time":13,"is_transit":false},{"line":6,"station_name":"Maja","i_long":106.394373,"is_transit":false,"transit":false,"distance":7293,"i_lat":-6.332307,"station_id":"MJ","time":10},{"transit":false,"line":3,"time":4,"distance":1853,"station_id":"CKY","i_lat":-6.33561,"i_long":106.411216,"is_transit":false,"station_name":"Cikoya"},{"is_transit":false,"time":3,"distance":2651,"station_name":"Tigaraksa","station_id":"TGS","i_lat":-6.328533,"i_long":106.425991,"line":6,"transit":false},{"time":5,"distance":2974,"is_transit":false,"station_name":"Tenjo","station_id":"TEJ","transit":false,"i_lat":-6.327251,"line":6,"i_long":106.460812},{"transit":false,"i_long":106.491338,"station_name":"Daru","station_id":"DAR","is_transit":false,"i_lat":-6.338021,"time":5,"distance":3902,"line":0},{"line":3,"i_long":106.508482,"time":6,"station_name":"Cilejit","station_id":"CJT","transit":false,"distance":2675,"is_transit":false,"i_lat":-6.354349},{"line":6,"station_id":"PRP","transit":false,"station_name":"Parung Panjang","time":9,"distance":7025,"is_transit":false,"i_lat":-6.3441410000000005,"i_long":106.568863},{"time":8,"is_transit":false,"station_name":"Cicayur","i_long":106.617853,"transit":false,"i_lat":-6.329547,"line":3,"distance":5968,"station_id":"CC"},{"line":3,"distance":2519,"i_long":106.640411,"station_id":"CSK","transit":false,"time":4,"i_lat":-6.32484,"station_name":"Cisauk","is_transit":false},{"line":6,"distance":1784,"station_name":"Serpong","i_lat":-6.319871,"transit":false,"station_id":"SRP","is_transit":false,"i_long":106.66566,"time":4},{"time":4,"station_name":"Rawa Buntu","station_id":"RU","i_lat":-6.314823,"i_long":106.675475,"is_transit":false,"distance":2413,"line":6,"transit":false},{"i_lat":-6.296963,"time":6,"is_transit":false,"station_name":"Sudimara","station_id":"SDM","transit":false,"line":6,"i_long":106.712277,"distance":4566},{"station_id":"JMU","i_lat":-6.288927,"time":4,"distance":1994,"is_transit":false,"transit":false,"station_name":"Jurangmangu","i_long":106.728916,"line":6},{"distance":2179,"transit":false,"station_id":"PDJ","i_lat":-6.276362,"time":3,"station_name":"Pondokranji","i_long":106.74273,"is_transit":false,"line":6},{"i_lat":-6.237242,"time":8,"station_id":"KBY","i_long":106.780334,"transit":false,"station_name":"Kebayoran","line":6,"distance":6218,"is_transit":false},{"is_transit":false,"transit":false,"line":6,"distance":3737,"station_id":"PLM","station_name":"Palmerah","i_long":106.79689,"i_lat":-6.207404,"time":7},{"station_name":"Tanah Abang","i_lat":-6.185545,"line":1,"transit":true,"station_id":"THB","is_transit":true,"distance":3191,"time":6,"i_long":106.811091},{"station_name":"Karet","i_lat":-6.20132,"station_id":"KAT","transit":false,"distance":2029,"time":5,"is_transit":false,"line":1,"i_long":106.816351},{"station_id":"SUDB","station_name":"Sudirman Baru","transit":false,"i_lat":-6.201433,"is_transit":false,"time":1,"i_long":106.819881,"line":1,"distance":471},{"station_name":"Sudirman","is_transit":false,"i_lat":-6.202263,"i_long":106.822649,"time":1,"transit":false,"line":1,"distance":280,"station_id":"SUD"},{"station_name":"Manggarai","station_id":"MRI","is_transit":true,"time":4,"i_long":106.84912,"line":2,"transit":true,"distance":3186,"i_lat":-6.209883},{"station_id":"CKI","station_name":"Cikini","i_long":106.840169,"time":4,"i_lat":-6.198556,"is_transit":false,"line":2,"transit":false,"distance":1590},{"i_long":106.832183,"i_lat":-6.186295,"station_name":"Gondangdia","time":3,"is_transit":false,"distance":1750,"transit":false,"station_id":"GDD","line":2},{"is_transit":false,"i_lat":-6.166716,"line":2,"distance":2015,"station_id":"JUA","i_long":106.828284,"station_name":"Juanda","time":4,"transit":false},{"station_name":"Sawah Besar","i_long":106.827103,"distance":1149,"transit":false,"i_lat":-6.160725,"station_id":"SW","time":2,"is_transit":false,"line":2},{"station_name":"Manggabesar","i_long":106.82482,"is_transit":false,"station_id":"MGB","transit":false,"distance":906,"line":2,"time":2,"i_lat":-6.149769},{"transit":false,"station_name":"Jayakarta","i_long":106.820901,"i_lat":-6.141205,"station_id":"JAY","time":2,"line":2,"is_transit":false,"distance":1080},{"time":4,"distance":1264,"station_id":"JAKK","i_long":106.812439,"line":2,"i_lat":-6.137569,"is_transit":true,"station_name":"Jakarta Kota","transit":true},{"station_id":"KPB","i_lat":-6.132549,"transit":true,"i_long":106.826365,"distance":1364,"line":4,"station_name":"Kampung Bandan","time":3,"is_transit":true},{"transit":false,"line":1,"is_transit":false,"i_lat":-6.144674,"station_name":"Angke","station_id":"AK","distance":4102,"time":9,"i_long":106.79867},{"station_id":"DU","is_transit":true,"station_name":"Duri","time":4,"line":1,"distance":1230,"i_lat":-6.155215,"i_long":106.800832,"transit":true},{"i_long":106.788277,"distance":1700,"transit":false,"i_lat":-6.162021,"station_id":"GGL","line":5,"time":3,"station_name":"Grogol","is_transit":false},{"line":5,"i_lat":-6.161433,"time":2,"station_name":"Pesing","station_id":"PSG","is_transit":false,"distance":2036,"transit":false,"i_long":106.771379},{"line":5,"station_name":"Taman Kota","distance":1614,"i_lat":-6.1587309999999995,"i_long":106.756522,"is_transit":false,"transit":false,"station_id":"TKO","time":2},{"i_lat":-6.159876,"time":2,"transit":false,"i_long":106.737035,"is_transit":false,"station_id":"BOI","line":5,"station_name":"Bojongindah","distance":2334}],[{"transit":false,"i_long":106.250396,"line":3,"distance":0,"i_lat":-6.352675,"time":0,"station_id":"RK","is_transit":false,"station_name":"Rangkasbitung"},{"station_name":"Citeras","time":13,"line":3,"distance":9847,"is_transit":false,"i_lat":-6.334892,"i_long":106.332092,"transit":false,"station_id":"CTR"},{"time":10,"i_long":106.394373,"i_lat":-6.332307,"is_transit":false,"station_name":"Maja","transit":false,"distance":7293,"station_id":"MJ","line":6},{"i_lat":-6.33561,"is_transit":false,"line":3,"station_id":"CKY","distance":1853,"time":4,"station_name":"Cikoya","i_long":106.411216,"transit":false},{"station_id":"TGS","distance":2651,"station_name":"Tigaraksa","is_transit":false,"transit":false,"i_lat":-6.328533,"time":3,"i_long":106.425991,"line":6},{"station_id":"TEJ","i_lat":-6.327251,"station_name":"Tenjo","is_transit":false,"i_long":106.460812,"distance":2974,"transit":false,"time":5,"line":6},{"station_name":"Daru","time":5,"i_lat":-6.338021,"is_transit":false,"i_long":106.491338,"line":0,"distance":3902,"transit":false,"station_id":"DAR"},{"time":6,"is_transit":false,"i_lat":-6.354349,"line":3,"station_name":"Cilejit","i_long":106.508482,"transit":false,"distance":2675,"station_id":"CJT"},{"is_transit":false,"time":9,"distance":7025,"transit":false,"i_lat":-6.3441410000000005,"station_id":"PRP","line":6,"i_long":106.568863,"station_name":"Parung Panjang"},{"i_long":106.617853,"time":8,"transit":false,"station_id":"CC","i_lat":-6.329547,"distance":5968,"line":3,"is_transit":false,"station_name":"Cicayur"},{"transit":false,"is_transit":false,"station_id":"CSK","i_lat":-6.32484,"time":4,"station_name":"Cisauk","i_long":106.640411,"distance":2519,"line":3},{"i_long":106.66566,"time":4,"transit":false,"distance":1784,"station_id":"SRP","is_transit":false,"station_name":"Serpong","i_lat":-6.319871,"line":6},{"i_lat":-6.314823,"i_long":106.675475,"distance":2413,"transit":false,"is_transit":false,"line":6,"station_id":"RU","time":4,"station_name":"Rawa Buntu"},{"time":6,"i_long":106.712277,"is_transit":false,"station_name":"Sudimara","transit":false,"i_lat":-6.296963,"distance":4566,"line":6,"station_id":"SDM"},{"time":4,"transit":false,"station_id":"JMU","is_transit":false,"station_name":"Jurangmangu","i_lat":-6.288927,"line":6,"i_long":106.728916,"distance":1994},{"is_transit":false,"station_id":"PDJ","station_name":"Pondokranji","time":3,"transit":false,"distance":2179,"i_lat":-6.276362,"line":6,"i_long":106.74273},{"i_long":106.780334,"is_transit":false,"station_id":"KBY","distance":6218,"transit":false,"time":8,"i_lat":-6.237242,"line":6,"station_name":"Kebayoran"},{"is_transit":false,"station_name":"Palmerah","station_id":"PLM","transit":false,"line":6,"distance":3737,"i_lat":-6.207404,"i_long":106.79689,"time":7},{"distance":3191,"is_transit":true,"time":6,"station_id":"THB","station_name":"Tanah Abang","transit":true,"i_lat":-6.185545,"i_long":106.811091,"line":1},{"transit":false,"i_lat":-6.20132,"distance":2029,"time":5,"i_long":106.816351,"line":1,"station_name":"Karet","is_transit":false,"station_id":"KAT"},{"i_lat":-6.201433,"i_long":106.819881,"transit":false,"distance":471,"station_id":"SUDB","is_transit":false,"time":1,"line":1,"station_name":"Sudirman Baru"},{"i_long":106.822649,"line":1,"is_transit":false,"distance":280,"i_lat":-6.202263,"transit":false,"station_name":"Sudirman","time":1,"station_id":"SUD"},{"line":2,"station_id":"MRI","time":4,"distance":3186,"i_lat":-6.209883,"i_long":106.84912,"station_name":"Manggarai","is_transit":false,"transit":false},{"i_lat":-6.212485,"is_transit":false,"i_long":106.858896,"station_id":"MTR","transit":false,"line":1,"distance":1275,"station_name":"Matraman","time":2},{"is_transit":true,"transit":true,"time":8,"station_id":"JNG","distance":1377,"line":1,"i_long":106.86807400000001,"station_name":"Jatinegara","i_lat":-6.215091},{"station_id":"POK","transit":false,"station_name":"Pondok Jati","line":11,"i_lat":-6.209188,"time":2,"i_long":106.861737,"is_transit":false,"distance":1236},{"time":2,"transit":false,"is_transit":false,"station_id":"KMT","i_lat":-6.193792,"distance":1829,"i_long":106.855437,"line":11,"station_name":"Kramat"},{"i_lat":-6.185975,"transit":false,"time":1,"station_id":"GST","station_name":"Gang Sentiong","i_long":106.850107,"distance":973,"is_transit":false,"line":11},{"line":11,"station_id":"PSE","transit":false,"distance":1567,"i_lat":-6.174784,"time":8,"station_name":"Pasar Senen","i_long":106.84368,"is_transit":false},{"distance":1436,"time":4,"station_id":"KMO","transit":false,"i_long":106.839204,"i_lat":-6.161728,"station_name":"Kemayoran","line":11,"is_transit":false},{"station_id":"RJW","is_transit":false,"distance":1901,"line":11,"i_lat":-6.14505,"transit":false,"time":5,"i_long":106.836569,"station_name":"Rajawali"},{"is_transit":true,"i_long":106.826365,"i_lat":-6.132549,"transit":true,"station_name":"Kampung Bandan","time":3,"line":4,"distance":1444,"station_id":"KPB"},{"line":1,"station_name":"Angke","is_transit":false,"distance":4102,"i_lat":-6.144674,"time":9,"station_id":"AK","transit":false,"i_long":106.79867},{"time":4,"i_long":106.800832,"line":1,"station_name":"Duri","is_transit":true,"transit":true,"station_id":"DU","i_lat":-6.155215,"distance":1230},{"station_name":"Grogol","i_lat":-6.162021,"line":5,"transit":false,"is_transit":false,"distance":1700,"i_long":106.788277,"station_id":"GGL","time":3},{"is_transit":false,"i_lat":-6.161433,"line":5,"i_long":106.771379,"distance":2036,"station_name":"Pesing","time":2,"transit":false,"station_id":"PSG"},{"i_long":106.756522,"transit":false,"station_id":"TKO","line":5,"distance":1614,"i_lat":-6.1587309999999995,"time":2,"station_name":"Taman Kota","is_transit":false},{"line":5,"station_id":"BOI","is_transit":false,"i_long":106.737035,"station_name":"Bojongindah","transit":false,"distance":2334,"time":2,"i_lat":-6.159876}]]}