{"data":[[{"station_id":"RK","transit":false,"i_long":106.250396,"line":3,"is_transit":false,"station_name":"Rangkasbitung","i_lat":-6.352675,"distance":0,"time":0},{"is_transit":false,"i_lat":-6.334892,"i_long":106.332092,"line":3,"station_id":"CTR","time":13,"station_name":"Citeras","transit":false,"distance":9847},{"distance":7293,"station_name":"Maja","i_lat":-6.332307,"is_transit":false,"transit":false,"time":10,"i_long":106.394373,"line":6,"station_id":"MJ"},{"i_long":106.411216,"distance":1853,"i_lat":-6.33561,"station_name":"Cikoya","time":4,"transit":false,"station_id":"CKY","line":3,"is_transit":false},{"distance":2651,"is_transit":false,"i_lat":-6.328533,"station_id":"TGS","i_long":106.425991,"line":6,"transit":false,"station_name":"Tigaraksa","time":3},{"line":6,"time":5,"distance":2974,"is_transit":false,"transit":false,"station_name":"Tenjo","station_id":"TEJ","i_long":106.460812,"i_lat":-6.327251},{"i_lat":-6.338021,"i_long":106.491338,"time":5,"line":0,"transit":false,"is_transit":false,"station_name":"Daru","station_id":"DAR","distance":3902},{"station_name":"Cilejit","transit":false,"station_id":"CJT","is_transit":false,"time":6,"distance":2675,"i_lat":-6.354349,"i_long":106.508482,"line":3},{"i_lat":-6.3441410000000005,"transit":false,"i_long":106.568863,"line":6,"station_name":"Parung Panjang","is_transit":false,"distance":7025,"time":9,"station_id":"PRP"},{"station_id":"CC","is_transit":false,"time":8,"transit":false,"line":3,"station_name":"Cicayur","i_long":106.617853,"i_lat":-6.329547,"distance":5968},{"transit":false,"i_long":106.640411,"line":3,"station_name":"Cisauk","station_id":"CSK","time":4,"distance":2519,"i_lat":-6.32484,"is_transit":false},{"time":4,"i_long":106.66566,"line":6,"station_name":"Serpong","is_transit":false,"transit":false,"station_id":"SRP","distance":1784,"i_lat":-6.319871},{"station_name":"Rawa Buntu","is_transit":false,"i_long":106.675475,"station_id":"RU","i_lat":-6.314823,"transit":false,"distance":2413,"time":4,"line":6},{"station_id":"SDM","time":6,"distance":4566,"i_lat":-6.296963,"station_name":"Sudimara","transit":false,"is_transit":false,"i_long":106.712277,"line":6},{"distance":1994,"transit":false,"time":4,"station_name":"Jurangmangu","station_id":"JMU","line":6,"i_long":106.728916,"is_transit":false,"i_lat":-6.288927},{"station_id":"PDJ","distance":2179,"i_lat":-6.276362,"line":6,"i_long":106.74273,"station_name":"Pondokranji","time":3,"transit":false,"is_transit":false},{"distance":6218,"i_long":106.780334,"is_transit":false,"transit":false,"station_name":"Kebayoran","time":8,"i_lat":-6.237242,"station_id":"KBY","line":6},{"time":7,"line":6,"station_id":"PLM","i_long":106.79689,"transit":false,"distance":3737,"i_lat":-6.207404,"station_name":"Palmerah","is_transit":false},{"distance":3191,"station_id":"THB","station_name":"Tanah Abang","line":1,"transit":true,"is_transit":true,"time":6,"i_lat":-6.185545,"i_long":106.811091},{"distance":3632,"i_lat":-6.155215,"i_long":106.800832,"line":1,"time":8,"station_name":"Duri","station_id":"DU","transit":true,"is_transit":true},{"time":3,"line":5,"transit":false,"distance":1700,"station_id":"GGL","i_long":106.788277,"station_name":"Grogol","is_transit":false,"i_lat":-6.162021},{"station_name":"Pesing","time":2,"transit":false,"station_id":"PSG","is_transit":false,"i_long":106.771379,"distance":2036,"line":5,"i_lat":-6.161433},{"time":2,"i_lat":-6.1587309999999995,"is_transit":false,"transit":false,"station_id":"TKO","i_long":106.756522,"station_name":"Taman Kota","distance":1614,"line":5},{"transit":false,"station_name":"Bojongindah","distance":2334,"i_lat":-6.159876,"station_id":"BOI","line":5,"is_transit":false,"time":2,"i_long":106.737035},{"is_transit":false,"station_id":"RW","transit":false,"station_name":"Rawa Buaya","i_long":106.723064,"line":5,"distance":1152,"i_lat":-6.162758,"time":4},{"station_name":"Kalideres","station_id":"KDS","i_lat":-6.166068,"distance":2504,"transit":false,"is_transit":false,"i_long":106.701612,"line":5,"time":3},{"station_name":"Poris","time":3,"i_lat":-6.169933,"is_transit":false,"distance":2548,"i_long":106.679458,"line":5,"transit":false,"station_id":"PI"},{"station_id":"BPR","time":3,"station_name":"Batuceper","distance":1834,"line":5,"transit":false,"i_lat":-6.171811,"is_transit":false,"i_long":106.665036}],[{"time":0,"line":3,"is_transit":false,"i_long":106.250396,"distance":0,"transit":false,"i_lat":-6.352675,"station_id":"RK","station_name":"Rangkasbitung"},{"i_lat":-6.334892,"i_long":106.332092,"station_id":"CTR","distance":9847,"line":3,"time":13,"transit":false,"is_transit":false,"station_name":"Citeras"},{"is_transit":false,"station_id":"MJ","distance":7293,"i_long":106.394373,"i_lat":-6.332307,"station_name":"Maja","time":10,"line":6,"transit":false},{"i_lat":-6.33561,"i_long":106.411216,"station_name":"Cikoya","distance":1853,"time":4,"station_id":"CKY","transit":false,"is_transit":false,"line":3},{"is_transit":false,"transit":false,"time":3,"station_name":"Tigaraksa","station_id":"TGS","i_lat":-6.328533,"i_long":106.425991,"line":6,"distance":2651},{"line":6,"is_transit":false,"time":5,"distance":2974,"station_name":"Tenjo","i_long":106.460812,"station_id":"TEJ","i_lat":-6.327251,"transit":false},{"station_name":"Daru","distance":3902,"transit":false,"is_transit":false,"i_lat":-6.338021,"i_long":106.491338,"time":5,"station_id":"DAR","line":0},{"time":6,"i_lat":-6.354349,"is_transit":false,"station_name":"Cilejit","station_id":"CJT","transit":false,"distance":2675,"i_long":106.508482,"line":3},{"distance":7025,"station_id":"PRP","is_transit":false,"transit":false,"line":6,"i_long":106.568863,"i_lat":-6.3441410000000005,"station_name":"Parung Panjang","time":9},{"station_name":"Cicayur","i_lat":-6.329547,"is_transit":false,"line":3,"time":8,"distance":5968,"transit":false,"i_long":106.617853,"station_id":"CC"},{"is_transit":false,"line":3,"station_name":"Cisauk","station_id":"CSK","time":4,"distance":2519,"i_lat":-6.32484,"i_long":106.640411,"transit":false},{"line":6,"station_id":"SRP","station_name":"Serpong","time":4,"distance":1784,"i_lat":-6.319871,"is_transit":false,"transit":false,"i_long":106.66566},{"station_id":"RU","line":6,"is_transit":false,"station_name":"Rawa Buntu","time":4,"distance":2413,"i_lat":-6.314823,"i_long":106.675475,"transit":false},{"time":6,"distance":4566,"station_name":"Sudimara","i_lat":-6.296963,"i_long":106.712277,"transit":false,"station_id":"SDM","is_transit":false,"line":6},{"is_transit":false,"time":4,"i_lat":-6.288927,"line":6,"station_name":"Jurangmangu","station_id":"JMU","transit":false,"i_long":106.728916,"distance":1994},{"i_long":106.74273,"station_id":"PDJ","transit":false,"station_name":"Pondokranji","i_lat":-6.276362,"distance":2179,"time":3,"is_transit":false,"line":6},{"station_id":"KBY","station_name":"Kebayoran","time":8,"transit":false,"distance":6218,"i_long":106.780334,"line":6,"is_transit":false,"i_lat":-6.237242},{"transit":false,"i_lat":-6.207404,"line":6,"i_long":106.79689,"station_id":"PLM","time":7,"distance":3737,"station_name":"Palmerah","is_transit":false},{"distance":3191,"transit":true,"station_name":"Tanah Abang","i_lat":-6.185545,"time":6,"i_long":106.811091,"line":1,"station_id":"THB","is_transit":true},{"station_name":"Karet","distance":2029,"station_id":"KAT","is_transit":false,"time":5,"i_lat":-6.20132,"i_long":106.816351,"line":1,"transit":false},{"distance":471,"transit":false,"station_name":"Sudirman Baru","i_long":106.819881,"i_lat":-6.201433,"line":1,"is_transit":false,"time":1,"station_id":"SUDB"},{"i_lat":-6.202263,"time":1,"transit":false,"is_transit":false,"station_id":"SUD","station_name":"Sudirman","distance":280,"i_long":106.822649,"line":1},{"station_id":"MRI","is_transit":true,"time":4,"line":2,"station_name":"Manggarai","i_lat":-6.209883,"i_long":106.84912,"distance":3186,"transit":true},{"i_long":106.840169,"time":4,"station_id":"CKI","distance":1590,"i_lat":-6.198556,"station_name":"Cikini","transit":false,"is_transit":false,"line":2},{"i_long":106.832183,"station_name":"Gondangdia","distance":1750,"i_lat":-6.186295,"line":2,"station_id":"GDD","time":3,"is_transit":false,"transit":false},{"station_name":"Juanda","i_long":106.828284,"transit":false,"time":4,"is_transit":false,"distance":2015,"line":2,"i_lat":-6.166716,"station_id":"JUA"},{"line":2,"i_lat":-6.160725,"i_long":106.827103,"time":2,"station_id":"SW","transit":false,"is_transit":false,"distance":1149,"station_name":"Sawah Besar"},{"transit":false,"station_name":"Manggabesar","is_transit":false,"time":2,"distance":906,"i_lat":-6.149769,"i_long":106.82482,"line":2,"station_id":"MGB"},{"distance":1080,"i_long":106.820901,"station_id":"JAY","i_lat":-6.141205,"transit":false,"line":2,"is_transit":false,"station_name":"Jayakarta","time":2},{"station_id":"JAKK","distance":1264,"station_name":"Jakarta Kota","i_long":106.812439,"transit":true,"time":4,"line":2,"i_lat":-6.137569,"is_transit":true},{"line":4,"station_id":"KPB","time":3,"station_name":"Kampung Bandan","transit":true,"distance":1364,"i_lat":-6.132549,"is_transit":true,"i_long":106.826365},{"i_long":106.79867,"is_transit":false,"time":9,"i_lat":-6.144674,"transit":false,"distance":4102,"station_id":"AK","line":1,"station_name":"Angke"},{"i_long":106.800832,"station_id":"DU","line":1,"is_transit":true,"station_name":"Duri","time":4,"transit":true,"i_lat":-6.155215,"distance":1230},{"distance":1700,"i_long":106.788277,"line":5,"time":3,"station_name":"Grogol","station_id":"GGL","i_lat":-6.162021,"is_transit":false,"transit":false},{"i_lat":-6.161433,"station_id":"PSG","i_long":106.771379,"transit":false,"time":2,"is_transit":false,"station_name":"Pesing","distance":2036,"line":5},{"station_id":"TKO","line":5,"is_transit":false,"time":2,"i_lat":-6.1587309999999995,"transit":false,"station_name":"Taman Kota","i_long":106.756522,"distance":1614},{"i_long":106.737035,"transit":false,"is_transit":false,"i_lat":-6.159876,"line":5,"time":2,"station_id":"BOI","station_name":"Bojongindah","distance":2334},{"line":5,"transit":false,"station_id":"RW","station_name":"Rawa Buaya","i_lat":-6.162758,"time":4,"distance":1152,"i_long":106.723064,"is_transit":false},{"i_lat":-6.166068,"line":5,"transit":false,"station_name":"Kalideres","station_id":"KDS","time":3,"distance":2504,"i_long":106.701612,"is_transit":false},{"distance":2548,"is_transit":false,"transit":false,"station_name":"Poris","station_id":"PI","i_lat":-6.169933,"i_long":106.679458,"time":3,"line":5},{"station_id":"BPR","distance":1834,"line":5,"transit":false,"station_name":"Batuceper","time":3,"i_long":106.665036,"i_lat":-6.171811,"is_transit":false}],[{"transit":false,"station_name":"Rangkasbitung","i_lat":-6.352675,"distance":0,"station_id":"RK","time":0,"is_transit":false,"i_long":106.250396,"line":3},{"transit":false,"time":13,"i_long":106.332092,"line":3,"i_lat":-6.334892,"station_id":"CTR","station_name":"Citeras","distance":9847,"is_transit":false},{"is_transit":false,"i_lat":-6.332307,"station_name":"Maja","i_long":106.394373,"time":10,"line":6,"transit":false,"station_id":"MJ","distance":7293},{"is_transit":false,"time":4,"i_lat":-6.33561,"line":3,"distance":1853,"station_id":"CKY","station_name":"Cikoya","transit":false,"i_long":106.411216},{"time":3,"i_lat":-6.328533,"station_id":"TGS","line":6,"transit":false,"distance":2651,"i_long":106.425991,"station_name":"Tigaraksa","is_transit":false},{"station_id":"TEJ","transit":false,"station_name":"Tenjo","line":6,"distance":2974,"is_transit":false,"i_long":106.460812,"time":5,"i_lat":-6.327251},{"is_transit":false,"distance":3902,"line":0,"station_id":"DAR","i_lat":-6.338021,"time":5,"i_long":106.491338,"station_name":"Daru","transit":false},{"station_name":"Cilejit","distance":2675,"time":6,"transit":false,"i_lat":-6.354349,"station_id":"CJT","i_long":106.508482,"line":3,"is_transit":false},{"transit":false,"i_long":106.568863,"i_lat":-6.3441410000000005,"line":6,"time":9,"distance":7025,"station_name":"Parung Panjang","station_id":"PRP","is_transit":false},{"time":8,"is_transit":false,"distance":5968,"station_name":"Cicayur","transit":false,"i_long":106.617853,"station_id":"CC","line":3,"i_lat":-6.329547},{"i_long":106.640411,"distance":2519,"time":4,"station_id":"CSK","station_name":"Cisauk","line":3,"transit":false,"is_transit":false,"i_lat":-6.32484},{"station_id":"SRP","time":4,"is_transit":false,"line":6,"station_name":"Serpong","distance":1784,"i_lat":-6.319871,"i_long":106.66566,"transit":false},{"is_transit":false,"line":6,"transit":false,"time":4,"distance":2413,"i_long":106.675475,"station_name":"Rawa Buntu","i_lat":-6.314823,"station_id":"RU"},{"i_long":106.712277,"distance":4566,"is_transit":false,"transit":false,"i_lat":-6.296963,"station_name":"Sudimara","line":6,"time":6,"station_id":"SDM"},{"time":4,"station_name":"Jurangmangu","i_lat":-6.288927,"distance":1994,"i_long":106.728916,"transit":false,"station_id":"JMU","is_transit":false,"line":6},{"station_id":"PDJ","i_long":106.74273,"transit":false,"station_name":"Pondokranji","time":3,"distance":2179,"i_lat":-6.276362,"line":6,"is_transit":false},{"is_transit":false,"distance":6218,"i_lat":-6.237242,"line":6,"time":8,"i_long":106.780334,"station_id":"KBY","station_name":"Kebayoran","transit":false},{"i_long":106.79689,"transit":false,"is_transit":false,"station_id":"PLM","i_lat":-6.207404,"line":6,"station_name":"Palmerah","distance":3737,"time":7},{"i_long":106.811091,"distance":3191,"transit":true,"station_name":"Tanah Abang","station_id":"THB","line":1,"time":6,"is_transit":true,"i_lat":-6.185545},{"transit":false,"i_long":106.816351,"is_transit":false,"station_id":"KAT","distance":2029,"i_lat":-6.20132,"station_name":"Karet","line":1,"time":5},{"distance":471,"i_lat":-6.201433,"is_transit":false,"line":1,"transit":false,"station_name":"Sudirman Baru","station_id":"SUDB","time":1,"i_long":106.819881},{"station_name":"Sudirman","i_lat":-6.202263,"transit":false,"distance":280,"station_id":"SUD","line":1,"i_long":106.822649,"is_transit":false,"time":1},{"station_id":"MRI","i_long":106.84912,"line":2,"time":4,"i_lat":-6.209883,"transit":false,"is_transit":false,"distance":3186,"station_name":"Manggarai"},{"time":2,"line":1,"is_transit":false,"i_long":106.858896,"station_name":"Matraman","i_lat":-6.212485,"distance":1275,"station_id":"MTR","transit":false},{"transit":true,"i_lat":-6.215091,"i_long":106.86807400000001,"time":8,"station_name":"Jatinegara","station_id":"JNG","distance":1377,"is_transit":true,"line":1},{"station_name":"Pondok Jati","i_long":106.861737,"distance":1236,"line":11,"transit":false,"is_transit":false,"time":2,"station_id":"POK","i_lat":-6.209188},{"time":2,"i_long":106.855437,"station_name":"Kramat","line":11,"station_id":"KMT","is_transit":false,"transit":false,"i_lat":-6.193792,"distance":1829},{"station_name":"Gang Sentiong","time":1,"i_long":106.850107,"station_id":"GST","distance":973,"line":11,"transit":false,"is_transit":false,"i_lat":-6.185975},{"transit":false,"time":8,"is_transit":false,"i_long":106.84368,"line":11,"station_id":"PSE","station_name":"Pasar Senen","distance":1567,"i_lat":-6.174784},{"time":4,"station_name":"Kemayoran","i_lat":-6.161728,"distance":1436,"transit":false,"line":11,"station_id":"KMO","is_transit":false,"i_long":106.839204},{"station_id":"RJW","is_transit":false,"line":11,"i_long":106.836569,"distance":1901,"i_lat":-6.14505,"time":5,"transit":false,"station_name":"Rajawali"},{"distance":1444,"time":3,"station_id":"KPB","is_transit":true,"line":4,"i_lat":-6.132549,"i_long":106.826365,"transit":true,"station_name":"Kampung Bandan"},{"i_lat":-6.144674,"station_id":"AK","is_transit":false,"transit":false,"time":9,"distance":4102,"line":1,"station_name":"Angke","i_long":106.79867},{"transit":true,"time":4,"i_lat":-6.155215,"station_name":"Duri","is_transit":true,"line":1,"station_id":"DU","distance":1230,"i_long":106.800832},{"transit":false,"station_name":"Grogol","station_id":"GGL","time":3,"distance":1700,"i_lat":-6.162021,"is_transit":false,"i_long":106.788277,"line":5},{"i_long":106.771379,"station_name":"Pesing","station_id":"PSG","i_lat":-6.161433,"distance":2036,"line":5,"transit":false,"is_transit":false,"time":2},{"station_id":"TKO","is_transit":false,"distance":1614,"transit":false,"station_name":"Taman Kota","i_lat":-6.1587309999999995,"line":5,"time":2,"i_long":106.756522},{"i_lat":-6.159876,"is_transit":false,"station_name":"Bojongindah","time":2,"transit":false,"i_long":106.737035,"line":5,"station_id":"BOI","distance":2334},{"is_transit":false,"line":5,"i_long":106.723064,"station_name":"Rawa Buaya","time":4,"station_id":"RW","transit":false,"distance":1152,"i_lat":-6.162758},{"line":5,"station_name":"Kalideres","station_id":"KDS","time":3,"transit":false,"i_lat":-6.166068,"is_transit":false,"distance":2504,"i_long":106.701612},{"station_id":"PI","i_lat":-6.169933,"transit":false,"is_transit":false,"station_name":"Poris","time":3,"line":5,"distance":2548,"i_long":106.679458},{"line":5,"station_id":"BPR","transit":false,"station_name":"Batuceper","distance":1834,"is_transit":false,"time":3,"i_lat":-6.171811,"i_long":106.665036}]]}