{"data":[[{"station_id":"RK","station_name":"Rangkasbitung","time":0,"transit":false,"is_transit":false,"i_lat":-6.352675,"distance":0,"line":3,"i_long":106.250396},{"station_id":"CTR","i_long":106.332092,"time":13,"i_lat":-6.334892,"transit":false,"line":3,"station_name":"Citeras","is_transit":false,"distance":9847},{"transit":false,"i_lat":-6.332307,"time":10,"station_name":"Maja","distance":7293,"line":6,"station_id":"MJ","is_transit":false,"i_long":106.394373},{"transit":false,"station_name":"Cikoya","is_transit":false,"distance":1853,"line":3,"time":4,"i_long":106.411216,"station_id":"CKY","i_lat":-6.33561},{"line":6,"i_lat":-6.328533,"station_id":"TGS","station_name":"Tigaraksa","transit":false,"is_transit":false,"i_long":106.425991,"time":3,"distance":2651},{"transit":false,"i_long":106.460812,"line":6,"station_id":"TEJ","is_transit":false,"i_lat":-6.327251,"station_name":"Tenjo","time":5,"distance":2974},{"station_id":"DAR","station_name":"Daru","time":5,"distance":3902,"i_lat":-6.338021,"transit":false,"i_long":106.491338,"is_transit":false,"line":0},{"station_name":"Cilejit","i_long":106.508482,"i_lat":-6.354349,"transit":false,"station_id":"CJT","is_transit":false,"time":6,"line":3,"distance":2675},{"is_transit":false,"station_id":"PRP","distance":7025,"station_name":"Parung Panjang","i_lat":-6.3441410000000005,"line":6,"i_long":106.568863,"transit":false,"time":9},{"is_transit":false,"transit":false,"time":8,"i_lat":-6.329547,"station_name":"Cicayur","station_id":"CC","line":3,"distance":5968,"i_long":106.617853},{"transit":false,"line":3,"station_id":"CSK","is_transit":false,"i_lat":-6.32484,"i_long":106.640411,"time":4,"distance":2519,"station_name":"Cisauk"},{"station_id":"SRP","i_lat":-6.319871,"is_transit":false,"station_name":"Serpong","time":4,"distance":1784,"i_long":106.66566,"line":6,"transit":false},{"station_name":"Rawa Buntu","i_lat":-6.314823,"is_transit":false,"time":4,"transit":false,"station_id":"RU","i_long":106.675475,"line":6,"distance":2413},{"time":6,"station_name":"Sudimara","distance":4566,"transit":false,"station_id":"SDM","is_transit":false,"i_lat":-6.296963,"line":6,"i_long":106.712277},{"i_long":106.728916,"distance":1994,"station_id":"JMU","transit":false,"i_lat":-6.288927,"line":6,"is_transit":false,"time":4,"station_name":"Jurangmangu"},{"station_id":"PDJ","line":6,"transit":false,"distance":2179,"i_lat":-6.276362,"is_transit":false,"time":3,"station_name":"Pondokranji","i_long":106.74273},{"i_long":106.780334,"line":6,"is_transit":false,"time":8,"distance":6218,"transit":false,"station_name":"Kebayoran","i_lat":-6.237242,"station_id":"KBY"},{"station_id":"PLM","time":7,"is_transit":false,"i_lat":-6.207404,"transit":false,"station_name":"Palmerah","i_long":106.79689,"line":6,"distance":3737},{"i_long":106.811091,"station_name":"Tanah Abang","is_transit":true,"distance":3191,"time":6,"i_lat":-6.185545,"station_id":"THB","transit":true,"line":1},{"time":5,"is_transit":false,"i_lat":-6.20132,"station_name":"Karet","station_id":"KAT","i_long":106.816351,"line":1,"transit":false,"distance":2029},{"is_transit":false,"i_lat":-6.201433,"i_long":106.819881,"station_name":"Sudirman Baru","time":1,"distance":471,"line":1,"transit":false,"station_id":"SUDB"},{"transit":false,"station_name":"Sudirman","station_id":"SUD","i_long":106.822649,"i_lat":-6.202263,"line":1,"is_transit":false,"distance":280,"time":1},{"station_id":"MRI","line":2,"transit":true,"station_name":"Manggarai","i_lat":-6.209883,"i_long":106.84912,"distance":3186,"is_transit":true,"time":4},{"transit":false,"station_id":"TEB","is_transit":false,"station_name":"Tebet","i_lat":-6.226659,"time":4,"i_long":106.857948,"distance":2610,"line":2},{"i_lat":-6.242512,"i_long":106.856607,"station_name":"Cawang","line":2,"station_id":"CW","is_transit":false,"time":2,"transit":false,"distance":1230}],[{"station_id":"RK","is_transit":false,"transit":false,"station_name":"Rangkasbitung","time":0,"distance":0,"line":3,"i_lat":-6.352675,"i_long":106.250396},{"is_transit":false,"line":3,"distance":9847,"i_long":106.332092,"transit":false,"time":13,"station_name":"Citeras","station_id":"CTR","i_lat":-6.334892},{"transit":false,"i_lat":-6.332307,"station_name":"Maja","is_transit":false,"station_id":"MJ","time":10,"line":6,"distance":7293,"i_long":106.394373},{"transit":false,"i_long":106.411216,"station_id":"CKY","distance":1853,"is_transit":false,"line":3,"time":4,"i_lat":-6.33561,"station_name":"Cikoya"},{"transit":false,"distance":2651,"line":6,"station_id":"TGS","station_name":"Tigaraksa","time":3,"i_lat":-6.328533,"i_long":106.425991,"is_transit":false},{"station_name":"Tenjo","station_id":"TEJ","is_transit":false,"line":6,"transit":false,"distance":2974,"i_lat":-6.327251,"i_long":106.460812,"time":5},{"distance":3902,"i_lat":-6.338021,"is_transit":false,"station_name":"Daru","time":5,"line":0,"i_long":106.491338,"transit":false,"station_id":"DAR"},{"distance":2675,"i_lat":-6.354349,"transit":false,"station_name":"Cilejit","is_transit":false,"station_id":"CJT","line":3,"i_long":106.508482,"time":6},{"i_long":106.568863,"station_id":"PRP","time":9,"distance":7025,"line":6,"transit":false,"station_name":"Parung Panjang","i_lat":-6.3441410000000005,"is_transit":false},{"i_lat":-6.329547,"distance":5968,"station_name":"Cicayur","time":8,"i_long":106.617853,"station_id":"CC","transit":false,"line":3,"is_transit":false},{"transit":false,"is_transit":false,"i_lat":-6.32484,"i_long":106.640411,"station_id":"CSK","line":3,"station_name":"Cisauk","distance":2519,"time":4},{"is_transit":false,"transit":false,"station_id":"SRP","distance":1784,"i_lat":-6.319871,"i_long":106.66566,"time":4,"line":6,"station_name":"Serpong"},{"distance":2413,"transit":false,"i_lat":-6.314823,"station_id":"RU","station_name":"Rawa Buntu","is_transit":false,"time":4,"i_long":106.675475,"line":6},{"i_lat":-6.296963,"is_transit":false,"line":6,"i_long":106.712277,"station_name":"Sudimara","station_id":"SDM","time":6,"transit":false,"distance":4566},{"station_id":"JMU","is_transit":false,"line":6,"station_name":"Jurangmangu","time":4,"distance":1994,"i_long":106.728916,"transit":false,"i_lat":-6.288927},{"station_id":"PDJ","line":6,"transit":false,"is_transit":false,"time":3,"station_name":"Pondokranji","i_lat":-6.276362,"i_long":106.74273,"distance":2179},{"is_transit":false,"time":8,"distance":6218,"line":6,"station_id":"KBY","transit":false,"station_name":"Kebayoran","i_lat":-6.237242,"i_long":106.780334},{"i_lat":-6.207404,"time":7,"line":6,"station_name":"Palmerah","station_id":"PLM","transit":false,"i_long":106.79689,"distance":3737,"is_transit":false},{"transit":true,"distance":3191,"time":6,"station_id":"THB","station_name":"Tanah Abang","line":1,"is_transit":true,"i_long":106.811091,"i_lat":-6.185545},{"line":1,"distance":3632,"station_name":"Duri","station_id":"DU","transit":false,"is_transit":false,"time":8,"i_long":106.800832,"i_lat":-6.155215},{"line":1,"time":4,"station_id":"AK","i_lat":-6.144674,"i_long":106.79867,"is_transit":false,"station_name":"Angke","transit":false,"distance":1230},{"i_long":106.826365,"is_transit":true,"line":4,"distance":4102,"station_name":"Kampung Bandan","transit":true,"station_id":"KPB","time":9,"i_lat":-6.132549},{"distance":1364,"i_long":106.812439,"station_id":"JAKK","line":2,"time":3,"station_name":"Jakarta Kota","i_lat":-6.137569,"transit":true,"is_transit":true},{"i_long":106.820901,"is_transit":false,"station_name":"Jayakarta","transit":false,"station_id":"JAY","i_lat":-6.141205,"line":2,"time":4,"distance":1264},{"line":2,"time":2,"station_name":"Manggabesar","i_lat":-6.149769,"i_long":106.82482,"distance":1080,"is_transit":false,"station_id":"MGB","transit":false},{"transit":false,"i_long":106.827103,"station_name":"Sawah Besar","line":2,"time":2,"i_lat":-6.160725,"station_id":"SW","is_transit":false,"distance":906},{"distance":1149,"i_lat":-6.166716,"transit":false,"i_long":106.828284,"station_id":"JUA","line":2,"time":2,"station_name":"Juanda","is_transit":false},{"transit":false,"i_long":106.832183,"line":2,"distance":2015,"i_lat":-6.186295,"station_name":"Gondangdia","is_transit":false,"time":4,"station_id":"GDD"},{"distance":1750,"time":3,"i_lat":-6.198556,"i_long":106.840169,"line":2,"transit":false,"station_name":"Cikini","station_id":"CKI","is_transit":false},{"line":2,"transit":false,"time":4,"is_transit":false,"distance":1590,"i_lat":-6.209883,"i_long":106.84912,"station_name":"Manggarai","station_id":"MRI"},{"line":2,"i_lat":-6.226659,"i_long":106.857948,"station_id":"TEB","transit":false,"station_name":"Tebet","is_transit":false,"time":4,"distance":2610},{"i_lat":-6.242512,"is_transit":false,"station_id":"CW","distance":1230,"i_long":106.856607,"transit":false,"time":2,"line":2,"station_name":"Cawang"}],[{"line":3,"station_id":"RK","distance":0,"time":0,"station_name":"Rangkasbitung","transit":false,"is_transit":false,"i_long":106.250396,"i_lat":-6.352675},{"i_long":106.332092,"distance":9847,"i_lat":-6.334892,"time":13,"transit":false,"station_name":"Citeras","is_transit":false,"line":3,"station_id":"CTR"},{"station_name":"Maja","i_lat":-6.332307,"i_long":106.394373,"distance":7293,"time":10,"is_transit":false,"line":6,"station_id":"MJ","transit":false},{"line":3,"station_id":"CKY","station_name":"Cikoya","transit":false,"i_long":106.411216,"is_transit":false,"i_lat":-6.33561,"time":4,"distance":1853},{"station_id":"TGS","transit":false,"is_transit":false,"distance":2651,"time":3,"i_lat":-6.328533,"line":6,"station_name":"Tigaraksa","i_long":106.425991},{"distance":2974,"i_long":106.460812,"station_name":"Tenjo","line":6,"is_transit":false,"station_id":"TEJ","time":5,"transit":false,"i_lat":-6.327251},{"time":5,"station_name":"Daru","transit":false,"i_lat":-6.338021,"i_long":106.491338,"station_id":"DAR","line":0,"is_transit":false,"distance":3902},{"station_id":"CJT","station_name":"Cilejit","is_transit":false,"time":6,"i_lat":-6.354349,"i_long":106.508482,"transit":false,"distance":2675,"line":3},{"station_id":"PRP","line":6,"time":9,"i_long":106.568863,"is_transit":false,"distance":7025,"i_lat":-6.3441410000000005,"station_name":"Parung Panjang","transit":false},{"station_id":"CC","distance":5968,"time":8,"transit":false,"i_lat":-6.329547,"station_name":"Cicayur","i_long":106.617853,"line":3,"is_transit":false},{"station_id":"CSK","distance":2519,"transit":false,"i_lat":-6.32484,"i_long":106.640411,"is_transit":false,"line":3,"station_name":"Cisauk","time":4},{"station_id":"SRP","station_name":"Serpong","i_lat":-6.319871,"time":4,"line":6,"is_transit":false,"transit":false,"i_long":106.66566,"distance":1784},{"i_long":106.675475,"i_lat":-6.314823,"transit":false,"station_id":"RU","is_transit":false,"time":4,"station_name":"Rawa Buntu","line":6,"distance":2413},{"station_id":"SDM","distance":4566,"i_lat":-6.296963,"transit":false,"time":6,"station_name":"Sudimara","i_long":106.712277,"is_transit":false,"line":6},{"i_lat":-6.288927,"time":4,"i_long":106.728916,"station_id":"JMU","distance":1994,"transit":false,"line":6,"station_name":"Jurangmangu","is_transit":false},{"station_name":"Pondokranji","line":6,"distance":2179,"is_transit":false,"station_id":"PDJ","time":3,"transit":false,"i_long":106.74273,"i_lat":-6.276362},{"station_id":"KBY","is_transit":false,"i_lat":-6.237242,"transit":false,"distance":6218,"line":6,"station_name":"Kebayoran","time":8,"i_long":106.780334},{"time":7,"distance":3737,"line":6,"is_transit":false,"i_lat":-6.207404,"station_id":"PLM","transit":false,"i_long":106.79689,"station_name":"Palmerah"},{"time":6,"distance":3191,"station_name":"Tanah Abang","station_id":"THB","i_lat":-6.185545,"transit":true,"line":1,"is_transit":true,"i_long":106.811091},{"is_transit":false,"station_name":"Duri","distance":3632,"line":1,"time":8,"i_lat":-6.155215,"i_long":106.800832,"station_id":"DU","transit":false},{"time":4,"station_id":"AK","station_name":"Angke","is_transit":false,"distance":1230,"i_lat":-6.144674,"i_long":106.79867,"line":1,"transit":false},{"transit":true,"i_lat":-6.132549,"station_name":"Kampung Bandan","i_long":106.826365,"is_transit":true,"line":4,"station_id":"KPB","time":9,"distance":4102},{"i_lat":-6.14505,"line":11,"distance":1444,"station_name":"Rajawali","i_long":106.836569,"time":3,"transit":false,"is_transit":false,"station_id":"RJW"},{"distance":1901,"i_long":106.839204,"transit":false,"time":5,"station_id":"KMO","line":11,"station_name":"Kemayoran","is_transit":false,"i_lat":-6.161728},{"i_long":106.84368,"station_name":"Pasar Senen","transit":false,"time":4,"i_lat":-6.174784,"station_id":"PSE","distance":1436,"line":11,"is_transit":false},{"time":8,"transit":false,"station_name":"Gang Sentiong","is_transit":false,"line":11,"i_long":106.850107,"distance":1567,"i_lat":-6.185975,"station_id":"GST"},{"i_lat":-6.193792,"station_name":"Kramat","is_transit":false,"distance":973,"station_id":"KMT","transit":false,"line":11,"i_long":106.855437,"time":1},{"transit":false,"distance":1829,"time":2,"line":11,"i_lat":-6.209188,"station_id":"POK","is_transit":false,"i_long":106.861737,"station_name":"Pondok Jati"},{"transit":true,"line":1,"distance":1236,"time":9,"station_name":"Jatinegara","is_transit":true,"station_id":"JNG","i_lat":-6.215091,"i_long":106.86807400000001},{"i_lat":-6.212485,"i_long":106.858896,"is_transit":false,"time":2,"distance":1377,"line":1,"transit":false,"station_name":"Matraman","station_id":"MTR"},{"time":2,"station_id":"MRI","line":2,"is_transit":true,"i_lat":-6.209883,"station_name":"Manggarai","distance":1275,"i_long":106.84912,"transit":true},{"line":2,"transit":false,"distance":2610,"station_id":"TEB","station_name":"Tebet","is_transit":false,"i_long":106.857948,"time":4,"i_lat":-6.226659},{"i_long":106.856607,"i_lat":-6.242512,"line":2,"transit":false,"distance":1230,"station_id":"CW","time":2,"station_name":"Cawang","is_transit":false}]]}