{"data":[[{"transit":false,"i_lat":-6.352675,"station_id":"RK","distance":0,"i_long":106.250396,"time":0,"is_transit":true,"station_name":"Rangkasbitung","line":0},{"station_id":"CTR","distance":9847,"station_name":"Citeras","is_transit":false,"time":13,"i_lat":-6.334892,"line":0,"transit":false,"i_long":106.332092},{"is_transit":false,"station_name":"Maja","transit":false,"station_id":"MJ","i_lat":-6.332307,"time":10,"line":6,"i_long":106.394373,"distance":7293},{"i_lat":-6.33561,"transit":false,"i_long":106.411216,"station_id":"CKY","distance":1853,"station_name":"Cikoya","line":0,"is_transit":false,"time":4},{"is_transit":false,"time":3,"station_name":"Tigaraksa","i_lat":-6.328533,"distance":2651,"station_id":"TGS","i_long":106.425991,"line":6,"transit":false},{"station_id":"TEJ","distance":2974,"station_name":"Tenjo","i_long":106.460812,"i_lat":-6.327251,"line":6,"time":5,"is_transit":false,"transit":false},{"is_transit":false,"station_name":"Daru","transit":false,"i_lat":-6.338021,"line":0,"distance":3902,"station_id":"DAR","time":5,"i_long":106.491338},{"is_transit":false,"station_id":"CJT","i_long":106.508482,"distance":2675,"transit":false,"i_lat":-6.354349,"time":6,"line":0,"station_name":"Cilejit"},{"distance":7025,"time":9,"line":6,"is_transit":false,"i_lat":-6.3441410000000005,"station_id":"PRP","station_name":"Parung Panjang","transit":false,"i_long":106.568863},{"transit":false,"i_lat":-6.329547,"station_id":"CC","is_transit":false,"i_long":106.617853,"time":8,"distance":5968,"line":0,"station_name":"Cicayur"}]]}