{"data":[[{"i_lat":-6.352675,"transit":false,"station_id":"RK","is_transit":false,"time":0,"i_long":106.250396,"line":3,"distance":0,"station_name":"Rangkasbitung"},{"station_name":"Citeras","i_lat":-6.334892,"is_transit":false,"i_long":106.332092,"line":3,"distance":9847,"station_id":"CTR","time":13,"transit":false},{"i_lat":-6.332307,"is_transit":false,"i_long":106.394373,"line":6,"station_name":"Maja","station_id":"MJ","distance":7293,"transit":false,"time":10},{"station_name":"Cikoya","station_id":"CKY","line":3,"time":4,"transit":false,"i_long":106.411216,"distance":1853,"is_transit":false,"i_lat":-6.33561},{"distance":2651,"i_long":106.425991,"station_id":"TGS","is_transit":false,"station_name":"Tigaraksa","time":3,"i_lat":-6.328533,"transit":false,"line":6},{"distance":2974,"station_name":"Tenjo","i_lat":-6.327251,"time":5,"line":6,"i_long":106.460812,"station_id":"TEJ","is_transit":false,"transit":false},{"station_id":"DAR","is_transit":false,"transit":false,"i_lat":-6.338021,"i_long":106.491338,"time":5,"station_name":"Daru","distance":3902,"line":0},{"station_id":"CJT","transit":false,"is_transit":false,"time":6,"station_name":"Cilejit","i_lat":-6.354349,"distance":2675,"i_long":106.508482,"line":3},{"transit":false,"i_lat":-6.3441410000000005,"i_long":106.568863,"time":9,"line":6,"distance":7025,"is_transit":false,"station_id":"PRP","station_name":"Parung Panjang"},{"station_id":"CC","time":8,"station_name":"Cicayur","transit":false,"is_transit":false,"i_lat":-6.329547,"i_long":106.617853,"distance":5968,"line":3},{"transit":false,"station_name":"Cisauk","time":4,"distance":2519,"i_lat":-6.32484,"station_id":"CSK","is_transit":false,"line":3,"i_long":106.640411},{"transit":false,"distance":1784,"i_long":106.66566,"station_id":"SRP","line":6,"is_transit":false,"station_name":"Serpong","time":4,"i_lat":-6.319871},{"is_transit":false,"distance":2413,"line":6,"i_long":106.675475,"i_lat":-6.314823,"station_id":"RU","station_name":"Rawa Buntu","transit":false,"time":4},{"distance":4566,"station_name":"Sudimara","time":6,"transit":false,"is_transit":false,"line":6,"i_long":106.712277,"station_id":"SDM","i_lat":-6.296963},{"i_lat":-6.288927,"distance":1994,"i_long":106.728916,"station_id":"JMU","is_transit":false,"transit":false,"line":6,"station_name":"Jurangmangu","time":4},{"i_long":106.74273,"line":6,"station_name":"Pondokranji","i_lat":-6.276362,"time":3,"station_id":"PDJ","distance":2179,"is_transit":false,"transit":false},{"time":8,"station_name":"Kebayoran","is_transit":false,"line":6,"i_lat":-6.237242,"i_long":106.780334,"station_id":"KBY","transit":false,"distance":6218},{"transit":false,"is_transit":false,"distance":3737,"station_name":"Palmerah","line":6,"i_lat":-6.207404,"station_id":"PLM","i_long":106.79689,"time":7},{"is_transit":true,"station_id":"THB","time":6,"distance":3191,"station_name":"Tanah Abang","transit":true,"i_lat":-6.185545,"i_long":106.811091,"line":1},{"time":5,"is_transit":false,"distance":2029,"i_lat":-6.20132,"line":1,"station_id":"KAT","i_long":106.816351,"transit":false,"station_name":"Karet"},{"line":1,"transit":false,"i_lat":-6.201433,"station_name":"Sudirman Baru","station_id":"SUDB","is_transit":false,"distance":471,"time":1,"i_long":106.819881},{"line":1,"station_name":"Sudirman","distance":280,"station_id":"SUD","transit":false,"i_lat":-6.202263,"time":1,"i_long":106.822649,"is_transit":false},{"i_lat":-6.209883,"distance":3186,"station_id":"MRI","time":4,"is_transit":true,"station_name":"Manggarai","i_long":106.84912,"transit":true,"line":2},{"i_lat":-6.226659,"distance":2610,"transit":false,"line":2,"station_id":"TEB","is_transit":false,"i_long":106.857948,"station_name":"Tebet","time":4},{"line":2,"i_lat":-6.242512,"station_id":"CW","i_long":106.856607,"time":2,"distance":1230,"station_name":"Cawang","is_transit":false,"transit":false}],[{"transit":false,"station_name":"Rangkasbitung","time":0,"i_long":106.250396,"line":3,"station_id":"RK","distance":0,"is_transit":false,"i_lat":-6.352675},{"i_lat":-6.334892,"distance":9847,"time":13,"transit":false,"i_long":106.332092,"station_id":"CTR","line":3,"is_transit":false,"station_name":"Citeras"},{"time":10,"line":6,"distance":7293,"i_long":106.394373,"i_lat":-6.332307,"station_id":"MJ","station_name":"Maja","transit":false,"is_transit":false},{"station_name":"Cikoya","line":3,"time":4,"is_transit":false,"i_long":106.411216,"transit":false,"station_id":"CKY","distance":1853,"i_lat":-6.33561},{"station_name":"Tigaraksa","line":6,"station_id":"TGS","time":3,"transit":false,"is_transit":false,"i_lat":-6.328533,"i_long":106.425991,"distance":2651},{"distance":2974,"transit":false,"i_long":106.460812,"i_lat":-6.327251,"station_id":"TEJ","time":5,"line":6,"station_name":"Tenjo","is_transit":false},{"i_long":106.491338,"station_id":"DAR","line":0,"is_transit":false,"i_lat":-6.338021,"transit":false,"station_name":"Daru","distance":3902,"time":5},{"distance":2675,"i_long":106.508482,"time":6,"transit":false,"i_lat":-6.354349,"station_name":"Cilejit","station_id":"CJT","is_transit":false,"line":3},{"line":6,"station_name":"Parung Panjang","transit":false,"distance":7025,"station_id":"PRP","i_lat":-6.3441410000000005,"time":9,"i_long":106.568863,"is_transit":false},{"station_id":"CC","distance":5968,"i_long":106.617853,"is_transit":false,"line":3,"i_lat":-6.329547,"transit":false,"station_name":"Cicayur","time":8},{"i_long":106.640411,"station_name":"Cisauk","distance":2519,"is_transit":false,"i_lat":-6.32484,"line":3,"transit":false,"station_id":"CSK","time":4},{"i_long":106.66566,"transit":false,"is_transit":false,"line":6,"time":4,"i_lat":-6.319871,"station_id":"SRP","station_name":"Serpong","distance":1784},{"station_name":"Rawa Buntu","i_long":106.675475,"is_transit":false,"line":6,"distance":2413,"station_id":"RU","transit":false,"i_lat":-6.314823,"time":4},{"time":6,"station_name":"Sudimara","i_lat":-6.296963,"line":6,"station_id":"SDM","distance":4566,"transit":false,"is_transit":false,"i_long":106.712277},{"distance":1994,"line":6,"time":4,"is_transit":false,"station_name":"Jurangmangu","i_lat":-6.288927,"i_long":106.728916,"station_id":"JMU","transit":false},{"time":3,"transit":false,"station_name":"Pondokranji","i_long":106.74273,"i_lat":-6.276362,"line":6,"is_transit":false,"distance":2179,"station_id":"PDJ"},{"i_long":106.780334,"station_name":"Kebayoran","station_id":"KBY","time":8,"transit":false,"is_transit":false,"i_lat":-6.237242,"line":6,"distance":6218},{"time":7,"i_long":106.79689,"line":6,"transit":false,"is_transit":false,"i_lat":-6.207404,"station_id":"PLM","distance":3737,"station_name":"Palmerah"},{"is_transit":true,"distance":3191,"station_id":"THB","time":6,"line":1,"station_name":"Tanah Abang","transit":true,"i_long":106.811091,"i_lat":-6.185545},{"i_long":106.800832,"distance":3632,"is_transit":false,"station_name":"Duri","station_id":"DU","time":8,"transit":false,"line":1,"i_lat":-6.155215},{"is_transit":false,"station_name":"Angke","station_id":"AK","distance":1230,"transit":false,"i_long":106.79867,"line":1,"time":4,"i_lat":-6.144674},{"line":4,"station_id":"KPB","is_transit":true,"transit":true,"time":9,"distance":4102,"station_name":"Kampung Bandan","i_long":106.826365,"i_lat":-6.132549},{"i_lat":-6.137569,"station_id":"JAKK","is_transit":true,"station_name":"Jakarta Kota","time":3,"i_long":106.812439,"distance":1364,"line":2,"transit":true},{"station_name":"Jayakarta","i_long":106.820901,"i_lat":-6.141205,"time":4,"distance":1264,"station_id":"JAY","is_transit":false,"line":2,"transit":false},{"time":2,"is_transit":false,"transit":false,"distance":1080,"station_name":"Manggabesar","line":2,"i_lat":-6.149769,"i_long":106.82482,"station_id":"MGB"},{"distance":906,"transit":false,"is_transit":false,"i_lat":-6.160725,"line":2,"i_long":106.827103,"station_name":"Sawah Besar","time":2,"station_id":"SW"},{"i_lat":-6.166716,"line":2,"is_transit":false,"distance":1149,"transit":false,"i_long":106.828284,"time":2,"station_id":"JUA","station_name":"Juanda"},{"line":2,"time":4,"station_id":"GDD","is_transit":false,"station_name":"Gondangdia","i_long":106.832183,"i_lat":-6.186295,"distance":2015,"transit":false},{"station_name":"Cikini","i_long":106.840169,"station_id":"CKI","is_transit":false,"line":2,"distance":1750,"time":3,"i_lat":-6.198556,"transit":false},{"line":2,"transit":false,"station_name":"Manggarai","i_long":106.84912,"station_id":"MRI","is_transit":false,"i_lat":-6.209883,"time":4,"distance":1590},{"station_id":"TEB","station_name":"Tebet","i_lat":-6.226659,"is_transit":false,"time":4,"i_long":106.857948,"distance":2610,"line":2,"transit":false},{"station_id":"CW","station_name":"Cawang","i_long":106.856607,"time":2,"i_lat":-6.242512,"line":2,"is_transit":false,"transit":false,"distance":1230}],[{"station_name":"Rangkasbitung","i_lat":-6.352675,"distance":0,"transit":false,"is_transit":false,"i_long":106.250396,"line":3,"time":0,"station_id":"RK"},{"distance":9847,"is_transit":false,"station_id":"CTR","station_name":"Citeras","i_long":106.332092,"i_lat":-6.334892,"time":13,"line":3,"transit":false},{"time":10,"distance":7293,"transit":false,"station_name":"Maja","i_long":106.394373,"i_lat":-6.332307,"station_id":"MJ","is_transit":false,"line":6},{"station_id":"CKY","station_name":"Cikoya","time":4,"i_long":106.411216,"i_lat":-6.33561,"distance":1853,"is_transit":false,"line":3,"transit":false},{"station_id":"TGS","station_name":"Tigaraksa","is_transit":false,"time":3,"i_long":106.425991,"distance":2651,"line":6,"i_lat":-6.328533,"transit":false},{"station_id":"TEJ","time":5,"transit":false,"station_name":"Tenjo","i_long":106.460812,"i_lat":-6.327251,"line":6,"distance":2974,"is_transit":false},{"i_lat":-6.338021,"station_name":"Daru","station_id":"DAR","is_transit":false,"line":0,"i_long":106.491338,"time":5,"distance":3902,"transit":false},{"station_id":"CJT","transit":false,"time":6,"station_name":"Cilejit","is_transit":false,"i_long":106.508482,"distance":2675,"i_lat":-6.354349,"line":3},{"i_long":106.568863,"station_name":"Parung Panjang","i_lat":-6.3441410000000005,"line":6,"is_transit":false,"station_id":"PRP","time":9,"distance":7025,"transit":false},{"time":8,"station_id":"CC","i_lat":-6.329547,"i_long":106.617853,"distance":5968,"transit":false,"is_transit":false,"station_name":"Cicayur","line":3},{"transit":false,"time":4,"station_id":"CSK","distance":2519,"i_long":106.640411,"is_transit":false,"i_lat":-6.32484,"line":3,"station_name":"Cisauk"},{"is_transit":false,"i_long":106.66566,"distance":1784,"line":6,"time":4,"i_lat":-6.319871,"transit":false,"station_name":"Serpong","station_id":"SRP"},{"distance":2413,"i_lat":-6.314823,"is_transit":false,"i_long":106.675475,"station_id":"RU","station_name":"Rawa Buntu","line":6,"time":4,"transit":false},{"station_id":"SDM","is_transit":false,"i_lat":-6.296963,"line":6,"i_long":106.712277,"distance":4566,"station_name":"Sudimara","time":6,"transit":false},{"distance":1994,"station_name":"Jurangmangu","is_transit":false,"station_id":"JMU","time":4,"i_long":106.728916,"i_lat":-6.288927,"line":6,"transit":false},{"i_lat":-6.276362,"station_name":"Pondokranji","i_long":106.74273,"transit":false,"time":3,"station_id":"PDJ","distance":2179,"line":6,"is_transit":false},{"i_lat":-6.237242,"line":6,"transit":false,"i_long":106.780334,"distance":6218,"station_name":"Kebayoran","station_id":"KBY","time":8,"is_transit":false},{"distance":3737,"transit":false,"is_transit":false,"line":6,"station_name":"Palmerah","station_id":"PLM","i_lat":-6.207404,"time":7,"i_long":106.79689},{"line":1,"distance":3191,"transit":true,"time":6,"station_id":"THB","i_lat":-6.185545,"is_transit":true,"station_name":"Tanah Abang","i_long":106.811091},{"i_lat":-6.155215,"station_id":"DU","time":8,"transit":false,"is_transit":false,"i_long":106.800832,"station_name":"Duri","line":1,"distance":3632},{"i_long":106.79867,"transit":false,"station_id":"AK","is_transit":false,"line":1,"time":4,"distance":1230,"station_name":"Angke","i_lat":-6.144674},{"transit":true,"station_name":"Kampung Bandan","line":4,"i_lat":-6.132549,"station_id":"KPB","i_long":106.826365,"time":9,"is_transit":true,"distance":4102},{"i_long":106.836569,"station_name":"Rajawali","station_id":"RJW","line":11,"distance":1444,"i_lat":-6.14505,"transit":false,"is_transit":false,"time":3},{"transit":false,"distance":1901,"line":11,"station_id":"KMO","time":5,"is_transit":false,"i_long":106.839204,"station_name":"Kemayoran","i_lat":-6.161728},{"line":11,"i_long":106.84368,"station_id":"PSE","transit":false,"station_name":"Pasar Senen","time":4,"is_transit":false,"i_lat":-6.174784,"distance":1436},{"transit":false,"station_id":"GST","line":11,"i_lat":-6.185975,"distance":1567,"is_transit":false,"time":8,"station_name":"Gang Sentiong","i_long":106.850107},{"line":11,"station_name":"Kramat","transit":false,"i_lat":-6.193792,"i_long":106.855437,"time":1,"distance":973,"is_transit":false,"station_id":"KMT"},{"transit":false,"is_transit":false,"line":11,"station_id":"POK","i_lat":-6.209188,"time":2,"station_name":"Pondok Jati","i_long":106.861737,"distance":1829},{"station_id":"JNG","distance":1236,"i_long":106.86807400000001,"line":1,"time":9,"is_transit":true,"station_name":"Jatinegara","i_lat":-6.215091,"transit":true},{"station_id":"MTR","transit":false,"line":1,"i_lat":-6.212485,"i_long":106.858896,"is_transit":false,"station_name":"Matraman","distance":1377,"time":2},{"station_id":"MRI","distance":1275,"line":2,"time":2,"transit":true,"station_name":"Manggarai","i_lat":-6.209883,"i_long":106.84912,"is_transit":true},{"station_name":"Tebet","i_lat":-6.226659,"distance":2610,"transit":false,"i_long":106.857948,"is_transit":false,"line":2,"station_id":"TEB","time":4},{"distance":1230,"transit":false,"i_long":106.856607,"time":2,"i_lat":-6.242512,"station_id":"CW","is_transit":false,"station_name":"Cawang","line":2}]]}