{"data":[[{"line":0,"i_lat":-6.352675,"transit":false,"time":0,"station_name":"Rangkasbitung","distance":0,"i_long":106.250396,"station_id":"RK","is_transit":true},{"station_id":"CTR","station_name":"Citeras","time":13,"i_lat":-6.334892,"distance":9847,"line":0,"i_long":106.332092,"transit":false,"is_transit":false},{"transit":false,"distance":7293,"time":10,"i_lat":-6.332307,"is_transit":false,"line":6,"station_id":"MJ","station_name":"Maja","i_long":106.394373},{"time":4,"is_transit":false,"station_name":"Cikoya","distance":1853,"transit":false,"i_lat":-6.33561,"line":0,"station_id":"CKY","i_long":106.411216},{"line":6,"station_id":"TGS","time":3,"i_long":106.425991,"station_name":"Tigaraksa","transit":false,"is_transit":false,"distance":2651,"i_lat":-6.328533},{"line":6,"is_transit":false,"station_id":"TEJ","distance":2974,"station_name":"Tenjo","time":5,"i_lat":-6.327251,"i_long":106.460812,"transit":false},{"station_id":"DAR","i_lat":-6.338021,"station_name":"Daru","distance":3902,"i_long":106.491338,"transit":false,"line":0,"is_transit":false,"time":5},{"time":6,"i_lat":-6.354349,"distance":2675,"station_id":"CJT","transit":false,"station_name":"Cilejit","is_transit":false,"i_long":106.508482,"line":0},{"line":6,"station_id":"PRP","i_long":106.568863,"station_name":"Parung Panjang","distance":7025,"is_transit":false,"i_lat":-6.3441410000000005,"transit":false,"time":9},{"line":0,"time":8,"transit":false,"station_id":"CC","station_name":"Cicayur","is_transit":false,"i_lat":-6.329547,"i_long":106.617853,"distance":5968},{"transit":false,"line":0,"station_id":"CSK","i_lat":-6.32484,"station_name":"Cisauk","is_transit":false,"distance":2519,"time":4,"i_long":106.640411},{"i_lat":-6.319871,"station_name":"Serpong","is_transit":false,"station_id":"SRP","transit":false,"distance":1784,"i_long":106.66566,"time":4,"line":6},{"distance":2413,"station_name":"Rawa Buntu","station_id":"RU","i_long":106.675475,"i_lat":-6.314823,"line":6,"transit":false,"is_transit":false,"time":4},{"time":6,"i_long":106.712277,"line":6,"distance":4566,"is_transit":false,"station_name":"Sudimara","station_id":"SDM","transit":false,"i_lat":-6.296963},{"station_id":"JMU","i_lat":-6.288927,"time":4,"is_transit":false,"transit":false,"i_long":106.728916,"station_name":"Jurangmangu","line":6,"distance":1994},{"distance":2179,"transit":false,"station_id":"PDJ","time":3,"station_name":"Pondokranji","i_long":106.74273,"is_transit":false,"line":6,"i_lat":-6.276362},{"station_name":"Kebayoran","i_long":106.780334,"time":8,"is_transit":false,"distance":6218,"line":6,"station_id":"KBY","transit":false,"i_lat":-6.237242},{"distance":3737,"station_name":"Palmerah","is_transit":false,"time":7,"i_lat":-6.207404,"station_id":"PLM","transit":false,"i_long":106.79689,"line":6},{"station_id":"THB","i_long":106.811091,"transit":true,"distance":3191,"station_name":"Tanah Abang","i_lat":-6.185545,"time":6,"line":1,"is_transit":true},{"distance":2029,"time":5,"i_long":106.816351,"is_transit":false,"transit":false,"station_name":"Karet","station_id":"KAT","i_lat":-6.20132,"line":1},{"station_id":"SUDB","is_transit":false,"time":1,"transit":false,"station_name":"Sudirman Baru","i_long":106.819881,"distance":471,"i_lat":-6.201433,"line":1},{"is_transit":false,"distance":280,"station_id":"SUD","transit":false,"time":1,"i_lat":-6.202263,"station_name":"Sudirman","i_long":106.822649,"line":1},{"line":0,"transit":false,"station_name":"Manggarai","i_lat":-6.209883,"is_transit":true,"station_id":"MRI","distance":3186,"time":4,"i_long":106.84912},{"is_transit":false,"station_id":"MTR","line":1,"i_long":106.858896,"i_lat":-6.212485,"transit":false,"distance":1275,"time":2,"station_name":"Matraman"},{"transit":false,"is_transit":true,"time":8,"line":0,"station_id":"JNG","station_name":"Jatinegara","i_long":106.86807400000001,"i_lat":-6.215091,"distance":1377},{"line":1,"station_name":"Klender","distance":3395,"transit":false,"i_long":106.899548,"time":3,"station_id":"KLD","is_transit":false,"i_lat":-6.2135},{"is_transit":false,"i_lat":-6.215568,"station_id":"BUA","line":0,"transit":false,"station_name":"Buaran","i_long":106.922662,"time":2,"distance":3100},{"transit":false,"station_name":"Klenderbaru","time":1,"i_lat":-6.217455,"i_long":106.939679,"line":1,"station_id":"KLDB","distance":1305,"is_transit":false},{"station_id":"CUK","distance":1385,"i_long":106.951283,"transit":false,"time":8,"is_transit":false,"i_lat":-6.219053,"station_name":"Cakung","line":0},{"i_lat":-6.224515,"i_long":106.977657,"line":1,"station_id":"KRI","is_transit":false,"station_name":"Kranji","time":3,"distance":3097,"transit":false},{"time":4,"is_transit":false,"transit":false,"i_lat":-6.236616,"station_name":"Bekasi","station_id":"BKS","distance":2520,"i_long":106.997013,"line":0},{"i_lat":-6.248029,"station_id":"BKST","time":2,"line":0,"transit":false,"i_long":107.016735,"station_name":"Bekasi Timur","is_transit":false,"distance":2368},{"station_id":"TB","i_lat":-6.258864,"transit":false,"station_name":"Tambun","i_long":107.055722,"distance":4460,"time":7,"is_transit":false,"line":1},{"time":3,"i_long":107.083084,"distance":3420,"station_id":"CIT","transit":false,"station_name":"Cibitung","i_lat":-6.261877,"line":0,"is_transit":false},{"station_id":"TLM","time":2,"distance":2800,"line":1,"transit":false,"is_transit":false,"i_long":107.093313,"station_name":"Metland Telaga Murni","i_lat":-6.262938},{"distance":3689,"station_id":"CKR","i_lat":-6.2553149999999995,"transit":false,"line":0,"is_transit":false,"station_name":"Cikarang","time":4,"i_long":107.144613}],[{"i_lat":-6.352675,"line":0,"is_transit":true,"time":0,"station_name":"Rangkasbitung","transit":false,"distance":0,"station_id":"RK","i_long":106.250396},{"time":13,"i_long":106.332092,"station_name":"Citeras","i_lat":-6.334892,"station_id":"CTR","distance":9847,"transit":false,"line":0,"is_transit":false},{"station_name":"Maja","is_transit":false,"station_id":"MJ","transit":false,"distance":7293,"time":10,"i_lat":-6.332307,"i_long":106.394373,"line":6},{"i_long":106.411216,"distance":1853,"time":4,"transit":false,"i_lat":-6.33561,"station_name":"Cikoya","is_transit":false,"station_id":"CKY","line":0},{"i_lat":-6.328533,"distance":2651,"transit":false,"station_id":"TGS","time":3,"is_transit":false,"station_name":"Tigaraksa","line":6,"i_long":106.425991},{"time":5,"i_long":106.460812,"line":6,"distance":2974,"station_name":"Tenjo","is_transit":false,"station_id":"TEJ","transit":false,"i_lat":-6.327251},{"transit":false,"i_lat":-6.338021,"line":0,"distance":3902,"i_long":106.491338,"time":5,"is_transit":false,"station_id":"DAR","station_name":"Daru"},{"transit":false,"i_long":106.508482,"is_transit":false,"line":0,"distance":2675,"i_lat":-6.354349,"station_id":"CJT","time":6,"station_name":"Cilejit"},{"i_long":106.568863,"is_transit":false,"station_id":"PRP","line":6,"i_lat":-6.3441410000000005,"distance":7025,"station_name":"Parung Panjang","transit":false,"time":9},{"is_transit":false,"transit":false,"i_lat":-6.329547,"time":8,"i_long":106.617853,"distance":5968,"line":0,"station_id":"CC","station_name":"Cicayur"},{"is_transit":false,"time":4,"line":0,"transit":false,"station_name":"Cisauk","station_id":"CSK","i_long":106.640411,"i_lat":-6.32484,"distance":2519},{"station_id":"SRP","i_lat":-6.319871,"i_long":106.66566,"transit":false,"station_name":"Serpong","line":6,"is_transit":false,"time":4,"distance":1784},{"is_transit":false,"i_lat":-6.314823,"line":6,"station_id":"RU","time":4,"distance":2413,"transit":false,"i_long":106.675475,"station_name":"Rawa Buntu"},{"distance":4566,"i_long":106.712277,"station_name":"Sudimara","station_id":"SDM","is_transit":false,"i_lat":-6.296963,"transit":false,"time":6,"line":6},{"time":4,"line":6,"is_transit":false,"station_name":"Jurangmangu","transit":false,"distance":1994,"i_long":106.728916,"station_id":"JMU","i_lat":-6.288927},{"line":6,"station_id":"PDJ","i_lat":-6.276362,"distance":2179,"time":3,"i_long":106.74273,"is_transit":false,"transit":false,"station_name":"Pondokranji"},{"station_name":"Kebayoran","time":8,"distance":6218,"transit":false,"i_long":106.780334,"is_transit":false,"line":6,"i_lat":-6.237242,"station_id":"KBY"},{"station_id":"PLM","transit":false,"distance":3737,"i_lat":-6.207404,"i_long":106.79689,"station_name":"Palmerah","time":7,"line":6,"is_transit":false},{"time":6,"distance":3191,"station_name":"Tanah Abang","i_long":106.811091,"station_id":"THB","is_transit":true,"transit":true,"line":1,"i_lat":-6.185545},{"distance":3632,"is_transit":true,"transit":true,"time":8,"station_id":"DU","station_name":"Duri","i_lat":-6.155215,"line":1,"i_long":106.800832},{"transit":false,"distance":1230,"i_lat":-6.144674,"station_name":"Angke","is_transit":false,"station_id":"AK","time":4,"i_long":106.79867,"line":0},{"transit":true,"i_long":106.826365,"is_transit":true,"distance":4102,"station_id":"KPB","i_lat":-6.132549,"station_name":"Kampung Bandan","line":0,"time":9},{"is_transit":false,"transit":false,"distance":1444,"i_lat":-6.14505,"station_id":"RJW","i_long":106.836569,"line":11,"time":3,"station_name":"Rajawali"},{"distance":1901,"transit":false,"is_transit":false,"i_lat":-6.161728,"line":11,"station_id":"KMO","time":5,"i_long":106.839204,"station_name":"Kemayoran"},{"station_id":"PSE","is_transit":false,"station_name":"Pasar Senen","time":4,"i_long":106.84368,"line":11,"transit":false,"i_lat":-6.174784,"distance":1436},{"time":8,"is_transit":false,"station_id":"GST","i_lat":-6.185975,"transit":false,"distance":1567,"station_name":"Gang Sentiong","i_long":106.850107,"line":11},{"station_id":"KMT","distance":973,"is_transit":false,"i_lat":-6.193792,"time":1,"station_name":"Kramat","i_long":106.855437,"line":11,"transit":false},{"i_long":106.861737,"station_id":"POK","line":11,"is_transit":false,"time":2,"i_lat":-6.209188,"transit":false,"distance":1829,"station_name":"Pondok Jati"},{"line":0,"distance":1236,"is_transit":true,"station_id":"JNG","time":9,"station_name":"Jatinegara","transit":true,"i_lat":-6.215091,"i_long":106.86807400000001},{"station_name":"Klender","time":3,"transit":false,"is_transit":false,"i_lat":-6.2135,"distance":3395,"i_long":106.899548,"line":1,"station_id":"KLD"},{"time":2,"station_name":"Buaran","is_transit":false,"line":0,"transit":false,"station_id":"BUA","i_lat":-6.215568,"distance":3100,"i_long":106.922662},{"time":1,"i_lat":-6.217455,"is_transit":false,"transit":false,"station_id":"KLDB","i_long":106.939679,"line":1,"station_name":"Klenderbaru","distance":1305},{"time":8,"is_transit":false,"i_lat":-6.219053,"station_name":"Cakung","station_id":"CUK","i_long":106.951283,"distance":1385,"transit":false,"line":0},{"i_lat":-6.224515,"transit":false,"i_long":106.977657,"line":1,"station_id":"KRI","distance":3097,"is_transit":false,"station_name":"Kranji","time":3},{"line":0,"distance":2520,"i_long":106.997013,"time":4,"i_lat":-6.236616,"station_name":"Bekasi","station_id":"BKS","is_transit":false,"transit":false},{"station_name":"Bekasi Timur","line":0,"distance":2368,"is_transit":false,"transit":false,"station_id":"BKST","i_long":107.016735,"time":2,"i_lat":-6.248029},{"line":1,"is_transit":false,"i_lat":-6.258864,"station_name":"Tambun","time":7,"transit":false,"i_long":107.055722,"station_id":"TB","distance":4460},{"distance":3420,"station_name":"Cibitung","transit":false,"time":3,"i_lat":-6.261877,"i_long":107.083084,"line":0,"station_id":"CIT","is_transit":false},{"distance":2800,"line":1,"is_transit":false,"station_id":"TLM","station_name":"Metland Telaga Murni","transit":false,"time":2,"i_lat":-6.262938,"i_long":107.093313},{"station_name":"Cikarang","is_transit":false,"time":4,"i_lat":-6.2553149999999995,"i_long":107.144613,"station_id":"CKR","distance":3689,"transit":false,"line":0}],[{"is_transit":true,"i_long":106.250396,"i_lat":-6.352675,"transit":false,"time":0,"distance":0,"line":0,"station_name":"Rangkasbitung","station_id":"RK"},{"is_transit":false,"i_lat":-6.334892,"station_id":"CTR","time":13,"line":0,"station_name":"Citeras","transit":false,"distance":9847,"i_long":106.332092},{"transit":false,"line":6,"station_name":"Maja","time":10,"is_transit":false,"i_lat":-6.332307,"i_long":106.394373,"station_id":"MJ","distance":7293},{"distance":1853,"station_name":"Cikoya","time":4,"i_long":106.411216,"line":0,"is_transit":false,"station_id":"CKY","i_lat":-6.33561,"transit":false},{"station_id":"TGS","is_transit":false,"i_lat":-6.328533,"line":6,"time":3,"distance":2651,"station_name":"Tigaraksa","transit":false,"i_long":106.425991},{"i_lat":-6.327251,"station_id":"TEJ","station_name":"Tenjo","line":6,"i_long":106.460812,"distance":2974,"transit":false,"time":5,"is_transit":false},{"is_transit":false,"station_id":"DAR","transit":false,"distance":3902,"time":5,"i_long":106.491338,"line":0,"station_name":"Daru","i_lat":-6.338021},{"distance":2675,"i_long":106.508482,"station_name":"Cilejit","station_id":"CJT","i_lat":-6.354349,"line":0,"time":6,"is_transit":false,"transit":false},{"i_lat":-6.3441410000000005,"is_transit":false,"i_long":106.568863,"station_name":"Parung Panjang","distance":7025,"transit":false,"time":9,"line":6,"station_id":"PRP"},{"transit":false,"i_lat":-6.329547,"i_long":106.617853,"time":8,"line":0,"is_transit":false,"distance":5968,"station_id":"CC","station_name":"Cicayur"},{"i_lat":-6.32484,"station_id":"CSK","distance":2519,"station_name":"Cisauk","i_long":106.640411,"line":0,"transit":false,"is_transit":false,"time":4},{"time":4,"i_long":106.66566,"distance":1784,"is_transit":false,"transit":false,"i_lat":-6.319871,"station_id":"SRP","station_name":"Serpong","line":6},{"distance":2413,"station_name":"Rawa Buntu","transit":false,"time":4,"i_long":106.675475,"line":6,"i_lat":-6.314823,"station_id":"RU","is_transit":false},{"station_name":"Sudimara","is_transit":false,"transit":false,"i_long":106.712277,"distance":4566,"time":6,"i_lat":-6.296963,"station_id":"SDM","line":6},{"distance":1994,"i_lat":-6.288927,"time":4,"i_long":106.728916,"line":6,"station_id":"JMU","transit":false,"is_transit":false,"station_name":"Jurangmangu"},{"line":6,"distance":2179,"i_lat":-6.276362,"time":3,"is_transit":false,"i_long":106.74273,"station_id":"PDJ","station_name":"Pondokranji","transit":false},{"transit":false,"time":8,"distance":6218,"line":6,"station_id":"KBY","station_name":"Kebayoran","is_transit":false,"i_lat":-6.237242,"i_long":106.780334},{"i_lat":-6.207404,"line":6,"station_id":"PLM","transit":false,"is_transit":false,"station_name":"Palmerah","distance":3737,"time":7,"i_long":106.79689},{"distance":3191,"time":6,"i_long":106.811091,"is_transit":true,"transit":true,"i_lat":-6.185545,"station_name":"Tanah Abang","line":1,"station_id":"THB"},{"distance":3632,"is_transit":true,"station_name":"Duri","time":8,"i_lat":-6.155215,"transit":true,"i_long":106.800832,"line":1,"station_id":"DU"},{"time":4,"line":0,"transit":false,"station_id":"AK","distance":1230,"station_name":"Angke","is_transit":false,"i_long":106.79867,"i_lat":-6.144674},{"i_lat":-6.132549,"distance":4102,"transit":false,"line":0,"time":9,"i_long":106.826365,"is_transit":true,"station_id":"KPB","station_name":"Kampung Bandan"},{"time":3,"station_id":"JAKK","i_lat":-6.137569,"station_name":"Jakarta Kota","line":0,"transit":true,"is_transit":true,"i_long":106.812439,"distance":1364},{"distance":1264,"transit":false,"time":4,"line":7,"station_name":"Jayakarta","is_transit":false,"station_id":"JAY","i_lat":-6.141205,"i_long":106.820901},{"i_long":106.82482,"time":2,"station_id":"MGB","transit":false,"station_name":"Manggabesar","distance":1080,"line":2,"i_lat":-6.149769,"is_transit":false},{"station_id":"SW","transit":false,"is_transit":false,"distance":906,"time":2,"i_long":106.827103,"line":2,"i_lat":-6.160725,"station_name":"Sawah Besar"},{"station_id":"JUA","transit":false,"i_long":106.828284,"distance":1149,"time":2,"station_name":"Juanda","i_lat":-6.166716,"is_transit":false,"line":2},{"line":2,"station_id":"GDD","i_lat":-6.186295,"i_long":106.832183,"distance":2015,"is_transit":false,"transit":false,"station_name":"Gondangdia","time":4},{"is_transit":false,"time":3,"line":0,"station_name":"Cikini","distance":1750,"i_lat":-6.198556,"i_long":106.840169,"transit":false,"station_id":"CKI"},{"i_long":106.84912,"station_id":"MRI","is_transit":true,"i_lat":-6.209883,"station_name":"Manggarai","transit":true,"line":0,"time":4,"distance":1590},{"station_name":"Matraman","transit":false,"time":2,"station_id":"MTR","i_long":106.858896,"line":1,"is_transit":false,"distance":1275,"i_lat":-6.212485},{"line":0,"distance":1377,"is_transit":true,"transit":false,"i_lat":-6.215091,"station_id":"JNG","time":8,"i_long":106.86807400000001,"station_name":"Jatinegara"},{"i_lat":-6.2135,"station_name":"Klender","line":1,"distance":3395,"is_transit":false,"station_id":"KLD","i_long":106.899548,"time":3,"transit":false},{"i_long":106.922662,"distance":3100,"is_transit":false,"station_id":"BUA","station_name":"Buaran","i_lat":-6.215568,"time":2,"transit":false,"line":0},{"transit":false,"time":1,"distance":1305,"i_lat":-6.217455,"station_name":"Klenderbaru","station_id":"KLDB","line":1,"is_transit":false,"i_long":106.939679},{"station_id":"CUK","is_transit":false,"transit":false,"line":0,"station_name":"Cakung","time":8,"distance":1385,"i_lat":-6.219053,"i_long":106.951283},{"time":3,"station_id":"KRI","distance":3097,"is_transit":false,"station_name":"Kranji","line":1,"transit":false,"i_lat":-6.224515,"i_long":106.977657},{"line":0,"station_name":"Bekasi","station_id":"BKS","distance":2520,"transit":false,"is_transit":false,"i_long":106.997013,"time":4,"i_lat":-6.236616},{"i_lat":-6.248029,"transit":false,"distance":2368,"time":2,"station_name":"Bekasi Timur","i_long":107.016735,"is_transit":false,"station_id":"BKST","line":0},{"station_id":"TB","station_name":"Tambun","i_lat":-6.258864,"is_transit":false,"line":1,"i_long":107.055722,"distance":4460,"transit":false,"time":7},{"station_name":"Cibitung","transit":false,"time":3,"i_lat":-6.261877,"line":0,"i_long":107.083084,"is_transit":false,"distance":3420,"station_id":"CIT"},{"distance":2800,"station_name":"Metland Telaga Murni","line":1,"is_transit":false,"transit":false,"i_lat":-6.262938,"time":2,"i_long":107.093313,"station_id":"TLM"},{"station_id":"CKR","transit":false,"i_long":107.144613,"time":4,"station_name":"Cikarang","i_lat":-6.2553149999999995,"distance":3689,"line":0,"is_transit":false}],[{"i_lat":-6.352675,"is_transit":true,"station_name":"Rangkasbitung","time":0,"line":0,"distance":0,"station_id":"RK","i_long":106.250396,"transit":false},{"distance":9847,"transit":false,"i_lat":-6.334892,"station_id":"CTR","station_name":"Citeras","is_transit":false,"i_long":106.332092,"time":13,"line":0},{"station_id":"MJ","distance":7293,"transit":false,"i_long":106.394373,"line":6,"time":10,"is_transit":false,"station_name":"Maja","i_lat":-6.332307},{"line":0,"station_name":"Cikoya","i_lat":-6.33561,"time":4,"distance":1853,"is_transit":false,"transit":false,"station_id":"CKY","i_long":106.411216},{"i_lat":-6.328533,"line":6,"transit":false,"distance":2651,"is_transit":false,"station_name":"Tigaraksa","time":3,"station_id":"TGS","i_long":106.425991},{"time":5,"distance":2974,"is_transit":false,"station_name":"Tenjo","i_lat":-6.327251,"station_id":"TEJ","transit":false,"line":6,"i_long":106.460812},{"i_lat":-6.338021,"station_name":"Daru","i_long":106.491338,"transit":false,"distance":3902,"station_id":"DAR","is_transit":false,"time":5,"line":0},{"time":6,"line":0,"distance":2675,"i_long":106.508482,"is_transit":false,"station_id":"CJT","station_name":"Cilejit","i_lat":-6.354349,"transit":false},{"time":9,"distance":7025,"station_id":"PRP","i_long":106.568863,"transit":false,"line":6,"station_name":"Parung Panjang","i_lat":-6.3441410000000005,"is_transit":false},{"station_id":"CC","distance":5968,"transit":false,"line":0,"time":8,"i_lat":-6.329547,"station_name":"Cicayur","is_transit":false,"i_long":106.617853},{"i_long":106.640411,"line":0,"i_lat":-6.32484,"is_transit":false,"station_name":"Cisauk","station_id":"CSK","distance":2519,"time":4,"transit":false},{"station_id":"SRP","transit":false,"is_transit":false,"time":4,"i_lat":-6.319871,"i_long":106.66566,"distance":1784,"line":6,"station_name":"Serpong"},{"is_transit":false,"station_id":"RU","transit":false,"station_name":"Rawa Buntu","i_lat":-6.314823,"line":6,"distance":2413,"time":4,"i_long":106.675475},{"is_transit":false,"i_lat":-6.296963,"i_long":106.712277,"transit":false,"line":6,"distance":4566,"station_id":"SDM","station_name":"Sudimara","time":6},{"transit":false,"i_long":106.728916,"line":6,"time":4,"station_name":"Jurangmangu","station_id":"JMU","is_transit":false,"distance":1994,"i_lat":-6.288927},{"time":3,"line":6,"station_name":"Pondokranji","transit":false,"station_id":"PDJ","i_lat":-6.276362,"distance":2179,"i_long":106.74273,"is_transit":false},{"is_transit":false,"transit":false,"line":6,"station_name":"Kebayoran","distance":6218,"station_id":"KBY","i_lat":-6.237242,"i_long":106.780334,"time":8},{"distance":3737,"is_transit":false,"line":6,"station_id":"PLM","time":7,"transit":false,"station_name":"Palmerah","i_lat":-6.207404,"i_long":106.79689},{"transit":true,"time":6,"line":1,"distance":3191,"i_lat":-6.185545,"station_name":"Tanah Abang","is_transit":true,"station_id":"THB","i_long":106.811091},{"i_lat":-6.20132,"transit":false,"station_name":"Karet","is_transit":false,"station_id":"KAT","i_long":106.816351,"time":5,"line":1,"distance":2029},{"station_name":"Sudirman Baru","time":1,"is_transit":false,"station_id":"SUDB","i_lat":-6.201433,"i_long":106.819881,"distance":471,"line":1,"transit":false},{"is_transit":false,"station_name":"Sudirman","transit":false,"i_long":106.822649,"i_lat":-6.202263,"distance":280,"station_id":"SUD","line":1,"time":1},{"i_long":106.84912,"i_lat":-6.209883,"line":0,"distance":3186,"station_name":"Manggarai","transit":true,"is_transit":true,"station_id":"MRI","time":4},{"is_transit":false,"i_long":106.840169,"transit":false,"time":4,"distance":1590,"station_id":"CKI","station_name":"Cikini","line":0,"i_lat":-6.198556},{"time":3,"distance":1750,"i_lat":-6.186295,"i_long":106.832183,"line":2,"transit":false,"station_name":"Gondangdia","station_id":"GDD","is_transit":false},{"i_long":106.828284,"i_lat":-6.166716,"line":2,"time":4,"distance":2015,"is_transit":false,"transit":false,"station_name":"Juanda","station_id":"JUA"},{"station_id":"SW","distance":1149,"i_long":106.827103,"time":2,"station_name":"Sawah Besar","i_lat":-6.160725,"transit":false,"line":2,"is_transit":false},{"station_id":"MGB","i_long":106.82482,"line":2,"transit":false,"station_name":"Manggabesar","is_transit":false,"time":2,"distance":906,"i_lat":-6.149769},{"transit":false,"line":7,"time":2,"i_long":106.820901,"distance":1080,"i_lat":-6.141205,"station_id":"JAY","station_name":"Jayakarta","is_transit":false},{"is_transit":true,"time":4,"i_long":106.812439,"distance":1264,"station_id":"JAKK","line":0,"transit":true,"i_lat":-6.137569,"station_name":"Jakarta Kota"},{"station_name":"Kampung Bandan","time":3,"line":0,"distance":1364,"i_long":106.826365,"transit":true,"station_id":"KPB","is_transit":true,"i_lat":-6.132549},{"time":3,"distance":1444,"transit":false,"station_id":"RJW","is_transit":false,"station_name":"Rajawali","i_lat":-6.14505,"i_long":106.836569,"line":11},{"i_lat":-6.161728,"station_name":"Kemayoran","line":11,"station_id":"KMO","is_transit":false,"time":5,"i_long":106.839204,"distance":1901,"transit":false},{"transit":false,"station_name":"Pasar Senen","line":11,"i_lat":-6.174784,"i_long":106.84368,"distance":1436,"time":4,"is_transit":false,"station_id":"PSE"},{"distance":1567,"station_id":"GST","time":8,"i_long":106.850107,"transit":false,"i_lat":-6.185975,"is_transit":false,"station_name":"Gang Sentiong","line":11},{"i_long":106.855437,"line":11,"station_name":"Kramat","distance":973,"is_transit":false,"station_id":"KMT","transit":false,"time":1,"i_lat":-6.193792},{"is_transit":false,"time":2,"station_name":"Pondok Jati","transit":false,"distance":1829,"i_lat":-6.209188,"line":11,"station_id":"POK","i_long":106.861737},{"distance":1236,"line":0,"is_transit":true,"transit":true,"time":9,"station_name":"Jatinegara","station_id":"JNG","i_long":106.86807400000001,"i_lat":-6.215091},{"line":1,"distance":3395,"time":3,"i_long":106.899548,"i_lat":-6.2135,"station_name":"Klender","is_transit":false,"station_id":"KLD","transit":false},{"station_id":"BUA","line":0,"is_transit":false,"station_name":"Buaran","transit":false,"i_lat":-6.215568,"distance":3100,"i_long":106.922662,"time":2},{"time":1,"i_lat":-6.217455,"station_id":"KLDB","is_transit":false,"transit":false,"distance":1305,"i_long":106.939679,"line":1,"station_name":"Klenderbaru"},{"distance":1385,"line":0,"time":8,"i_long":106.951283,"is_transit":false,"station_name":"Cakung","transit":false,"station_id":"CUK","i_lat":-6.219053},{"station_id":"KRI","station_name":"Kranji","transit":false,"is_transit":false,"time":3,"distance":3097,"i_long":106.977657,"line":1,"i_lat":-6.224515},{"i_long":106.997013,"is_transit":false,"transit":false,"station_name":"Bekasi","i_lat":-6.236616,"distance":2520,"line":0,"station_id":"BKS","time":4},{"transit":false,"line":0,"i_lat":-6.248029,"station_id":"BKST","i_long":107.016735,"is_transit":false,"station_name":"Bekasi Timur","time":2,"distance":2368},{"transit":false,"distance":4460,"time":7,"is_transit":false,"line":1,"i_lat":-6.258864,"station_id":"TB","station_name":"Tambun","i_long":107.055722},{"distance":3420,"i_lat":-6.261877,"is_transit":false,"transit":false,"time":3,"line":0,"station_id":"CIT","station_name":"Cibitung","i_long":107.083084},{"i_lat":-6.262938,"distance":2800,"transit":false,"time":2,"line":1,"station_id":"TLM","i_long":107.093313,"is_transit":false,"station_name":"Metland Telaga Murni"},{"distance":3689,"station_name":"Cikarang","transit":false,"time":4,"i_lat":-6.2553149999999995,"i_long":107.144613,"line":0,"is_transit":false,"station_id":"CKR"}]]}