{"data":[[{"i_long":106.250396,"station_id":"RK","line":3,"i_lat":-6.352675,"station_name":"Rangkasbitung","time":0,"distance":0,"is_transit":false,"transit":false},{"time":13,"transit":false,"line":3,"i_long":106.332092,"distance":9847,"station_id":"CTR","is_transit":false,"station_name":"Citeras","i_lat":-6.334892},{"distance":7293,"is_transit":false,"time":10,"station_name":"Maja","station_id":"MJ","transit":false,"i_lat":-6.332307,"i_long":106.394373,"line":6},{"is_transit":false,"distance":1853,"i_long":106.411216,"transit":false,"line":3,"i_lat":-6.33561,"time":4,"station_id":"CKY","station_name":"Cikoya"},{"distance":2651,"is_transit":false,"transit":false,"i_long":106.425991,"station_name":"Tigaraksa","line":6,"time":3,"i_lat":-6.328533,"station_id":"TGS"},{"i_long":106.460812,"i_lat":-6.327251,"distance":2974,"line":6,"transit":false,"time":5,"is_transit":false,"station_name":"Tenjo","station_id":"TEJ"},{"i_lat":-6.338021,"station_name":"Daru","line":0,"station_id":"DAR","distance":3902,"i_long":106.491338,"time":5,"is_transit":false,"transit":false},{"is_transit":false,"distance":2675,"station_id":"CJT","transit":false,"time":6,"i_lat":-6.354349,"station_name":"Cilejit","line":3,"i_long":106.508482},{"transit":false,"i_long":106.568863,"distance":7025,"station_id":"PRP","line":6,"time":9,"station_name":"Parung Panjang","is_transit":false,"i_lat":-6.3441410000000005},{"distance":5968,"station_name":"Cicayur","is_transit":false,"i_lat":-6.329547,"transit":false,"i_long":106.617853,"line":3,"station_id":"CC","time":8}]]}