{"data":[[{"time":0,"transit":false,"station_name":"Rangkasbitung","i_long":106.250396,"station_id":"RK","i_lat":-6.352675,"is_transit":false,"distance":0,"line":3},{"time":13,"transit":false,"station_id":"CTR","i_long":106.332092,"line":3,"station_name":"Citeras","is_transit":false,"distance":9847,"i_lat":-6.334892},{"distance":7293,"i_long":106.394373,"station_name":"Maja","line":6,"transit":false,"is_transit":false,"station_id":"MJ","time":10,"i_lat":-6.332307},{"transit":false,"time":4,"station_name":"Cikoya","station_id":"CKY","line":3,"is_transit":false,"distance":1853,"i_lat":-6.33561,"i_long":106.411216},{"time":3,"line":6,"distance":2651,"station_id":"TGS","station_name":"Tigaraksa","transit":false,"i_lat":-6.328533,"is_transit":false,"i_long":106.425991},{"station_id":"TEJ","line":6,"distance":2974,"i_lat":-6.327251,"station_name":"Tenjo","is_transit":false,"transit":false,"time":5,"i_long":106.460812},{"time":5,"station_id":"DAR","distance":3902,"i_lat":-6.338021,"line":0,"transit":false,"station_name":"Daru","is_transit":false,"i_long":106.491338},{"time":6,"i_long":106.508482,"station_id":"CJT","i_lat":-6.354349,"transit":false,"line":3,"is_transit":false,"station_name":"Cilejit","distance":2675}]]}