{"data":[[{"station_name":"Rangkasbitung","i_lat":-6.352675,"line":3,"is_transit":false,"distance":0,"station_id":"RK","transit":false,"time":0,"i_long":106.250396},{"station_id":"CTR","transit":false,"station_name":"Citeras","time":13,"i_lat":-6.334892,"distance":9847,"is_transit":false,"line":3,"i_long":106.332092},{"i_lat":-6.332307,"station_name":"Maja","i_long":106.394373,"line":6,"is_transit":false,"distance":7293,"transit":false,"station_id":"MJ","time":10},{"station_name":"Cikoya","is_transit":false,"i_long":106.411216,"station_id":"CKY","transit":false,"distance":1853,"line":3,"time":4,"i_lat":-6.33561},{"station_id":"TGS","line":6,"distance":2651,"is_transit":false,"i_long":106.425991,"time":3,"transit":false,"i_lat":-6.328533,"station_name":"Tigaraksa"},{"i_lat":-6.327251,"i_long":106.460812,"transit":false,"station_name":"Tenjo","is_transit":false,"line":6,"time":5,"station_id":"TEJ","distance":2974},{"station_name":"Daru","i_long":106.491338,"is_transit":false,"line":0,"transit":false,"distance":3902,"i_lat":-6.338021,"time":5,"station_id":"DAR"},{"station_id":"CJT","transit":false,"time":6,"is_transit":false,"i_lat":-6.354349,"line":3,"distance":2675,"station_name":"Cilejit","i_long":106.508482}]]}