{"data":[[{"line":3,"station_id":"RK","i_long":106.250396,"distance":0,"station_name":"Rangkasbitung","is_transit":false,"time":0,"transit":false,"i_lat":-6.352675},{"station_name":"Citeras","is_transit":false,"time":13,"station_id":"CTR","i_lat":-6.334892,"i_long":106.332092,"transit":false,"distance":9847,"line":3},{"line":6,"i_lat":-6.332307,"station_name":"Maja","station_id":"MJ","time":10,"transit":false,"is_transit":false,"distance":7293,"i_long":106.394373},{"station_name":"Cikoya","line":3,"distance":1853,"station_id":"CKY","i_long":106.411216,"is_transit":false,"transit":false,"i_lat":-6.33561,"time":4},{"transit":false,"i_lat":-6.328533,"is_transit":false,"i_long":106.425991,"line":6,"station_name":"Tigaraksa","time":3,"distance":2651,"station_id":"TGS"},{"station_id":"TEJ","time":5,"station_name":"Tenjo","is_transit":false,"line":6,"distance":2974,"i_long":106.460812,"transit":false,"i_lat":-6.327251},{"station_name":"Daru","is_transit":false,"i_lat":-6.338021,"i_long":106.491338,"station_id":"DAR","time":5,"transit":false,"distance":3902,"line":0},{"line":3,"i_long":106.508482,"time":6,"station_name":"Cilejit","is_transit":false,"distance":2675,"station_id":"CJT","i_lat":-6.354349,"transit":false}]]}