{"data":[[{"station_name":"Rangkasbitung","i_long":106.250396,"time":0,"is_transit":false,"line":3,"i_lat":-6.352675,"transit":false,"distance":0,"station_id":"RK"},{"station_name":"Citeras","time":13,"station_id":"CTR","is_transit":false,"line":3,"i_lat":-6.334892,"i_long":106.332092,"transit":false,"distance":9847},{"i_long":106.394373,"station_name":"Maja","station_id":"MJ","distance":7293,"is_transit":false,"time":10,"i_lat":-6.332307,"transit":false,"line":6},{"i_lat":-6.33561,"distance":1853,"i_long":106.411216,"line":3,"time":4,"station_id":"CKY","transit":false,"is_transit":false,"station_name":"Cikoya"},{"i_long":106.425991,"is_transit":false,"transit":false,"station_name":"Tigaraksa","i_lat":-6.328533,"distance":2651,"time":3,"line":6,"station_id":"TGS"},{"time":5,"is_transit":false,"station_name":"Tenjo","line":6,"station_id":"TEJ","i_lat":-6.327251,"transit":false,"i_long":106.460812,"distance":2974},{"distance":3902,"time":5,"station_id":"DAR","transit":false,"i_lat":-6.338021,"i_long":106.491338,"is_transit":false,"line":0,"station_name":"Daru"},{"i_lat":-6.354349,"time":6,"distance":2675,"is_transit":false,"transit":false,"station_name":"Cilejit","line":3,"station_id":"CJT","i_long":106.508482},{"time":9,"i_long":106.568863,"station_id":"PRP","station_name":"Parung Panjang","distance":7025,"is_transit":false,"i_lat":-6.3441410000000005,"line":6,"transit":false},{"i_lat":-6.329547,"time":8,"transit":false,"i_long":106.617853,"is_transit":false,"station_name":"Cicayur","line":3,"distance":5968,"station_id":"CC"},{"station_name":"Cisauk","i_lat":-6.32484,"time":4,"line":3,"is_transit":false,"distance":2519,"i_long":106.640411,"transit":false,"station_id":"CSK"},{"distance":1784,"station_name":"Serpong","line":6,"station_id":"SRP","i_lat":-6.319871,"i_long":106.66566,"time":4,"transit":false,"is_transit":false},{"transit":false,"station_id":"RU","station_name":"Rawa Buntu","i_lat":-6.314823,"is_transit":false,"line":6,"distance":2413,"i_long":106.675475,"time":4},{"time":6,"station_id":"SDM","is_transit":false,"station_name":"Sudimara","i_lat":-6.296963,"i_long":106.712277,"distance":4566,"transit":false,"line":6},{"time":4,"transit":false,"line":6,"i_lat":-6.288927,"distance":1994,"station_id":"JMU","station_name":"Jurangmangu","is_transit":false,"i_long":106.728916},{"station_id":"PDJ","station_name":"Pondokranji","line":6,"is_transit":false,"i_lat":-6.276362,"transit":false,"distance":2179,"i_long":106.74273,"time":3},{"is_transit":false,"station_name":"Kebayoran","distance":6218,"i_long":106.780334,"station_id":"KBY","time":8,"i_lat":-6.237242,"line":6,"transit":false},{"station_id":"PLM","transit":false,"distance":3737,"i_lat":-6.207404,"line":6,"is_transit":false,"i_long":106.79689,"station_name":"Palmerah","time":7},{"distance":3191,"station_id":"THB","station_name":"Tanah Abang","i_long":106.811091,"time":6,"i_lat":-6.185545,"is_transit":true,"line":1,"transit":true},{"i_long":106.816351,"transit":false,"station_name":"Karet","distance":2029,"time":5,"i_lat":-6.20132,"is_transit":false,"station_id":"KAT","line":1},{"time":1,"transit":false,"distance":471,"i_lat":-6.201433,"i_long":106.819881,"station_name":"Sudirman Baru","is_transit":false,"station_id":"SUDB","line":1},{"distance":280,"transit":false,"i_lat":-6.202263,"is_transit":false,"i_long":106.822649,"time":1,"station_name":"Sudirman","station_id":"SUD","line":1},{"station_id":"MRI","time":4,"line":2,"is_transit":false,"i_long":106.84912,"i_lat":-6.209883,"distance":3186,"station_name":"Manggarai","transit":false},{"station_name":"Matraman","distance":1275,"station_id":"MTR","line":1,"i_lat":-6.212485,"time":2,"transit":false,"i_long":106.858896,"is_transit":false},{"line":1,"station_id":"JNG","transit":false,"i_lat":-6.215091,"i_long":106.86807400000001,"station_name":"Jatinegara","is_transit":false,"distance":1377,"time":8},{"station_id":"KLD","line":1,"i_long":106.899548,"is_transit":false,"transit":false,"distance":3395,"time":3,"station_name":"Klender","i_lat":-6.2135},{"i_long":106.922662,"transit":false,"i_lat":-6.215568,"line":1,"distance":3100,"is_transit":false,"time":2,"station_name":"Buaran","station_id":"BUA"},{"distance":1305,"is_transit":false,"station_id":"KLDB","i_long":106.939679,"time":1,"line":1,"transit":false,"station_name":"Klenderbaru","i_lat":-6.217455},{"i_long":106.951283,"transit":false,"line":1,"is_transit":false,"time":8,"distance":1385,"station_name":"Cakung","station_id":"CUK","i_lat":-6.219053}],[{"distance":0,"is_transit":false,"time":0,"station_name":"Rangkasbitung","station_id":"RK","transit":false,"i_lat":-6.352675,"line":3,"i_long":106.250396},{"station_name":"Citeras","station_id":"CTR","distance":9847,"time":13,"line":3,"i_lat":-6.334892,"i_long":106.332092,"transit":false,"is_transit":false},{"station_name":"Maja","time":10,"i_lat":-6.332307,"distance":7293,"station_id":"MJ","is_transit":false,"transit":false,"i_long":106.394373,"line":6},{"station_name":"Cikoya","station_id":"CKY","i_lat":-6.33561,"is_transit":false,"time":4,"distance":1853,"i_long":106.411216,"line":3,"transit":false},{"distance":2651,"station_id":"TGS","line":6,"time":3,"i_lat":-6.328533,"i_long":106.425991,"station_name":"Tigaraksa","is_transit":false,"transit":false},{"is_transit":false,"station_name":"Tenjo","transit":false,"distance":2974,"i_lat":-6.327251,"time":5,"line":6,"station_id":"TEJ","i_long":106.460812},{"time":5,"is_transit":false,"station_id":"DAR","i_long":106.491338,"station_name":"Daru","line":0,"transit":false,"i_lat":-6.338021,"distance":3902},{"i_long":106.508482,"is_transit":false,"station_id":"CJT","transit":false,"line":3,"station_name":"Cilejit","distance":2675,"i_lat":-6.354349,"time":6},{"station_id":"PRP","distance":7025,"i_long":106.568863,"transit":false,"time":9,"is_transit":false,"line":6,"i_lat":-6.3441410000000005,"station_name":"Parung Panjang"},{"is_transit":false,"line":3,"station_name":"Cicayur","distance":5968,"station_id":"CC","i_long":106.617853,"transit":false,"time":8,"i_lat":-6.329547},{"station_name":"Cisauk","i_lat":-6.32484,"time":4,"distance":2519,"transit":false,"line":3,"is_transit":false,"station_id":"CSK","i_long":106.640411},{"is_transit":false,"distance":1784,"line":6,"station_name":"Serpong","station_id":"SRP","transit":false,"time":4,"i_lat":-6.319871,"i_long":106.66566},{"is_transit":false,"i_lat":-6.314823,"station_name":"Rawa Buntu","transit":false,"time":4,"station_id":"RU","distance":2413,"i_long":106.675475,"line":6},{"station_id":"SDM","station_name":"Sudimara","distance":4566,"i_long":106.712277,"time":6,"is_transit":false,"transit":false,"i_lat":-6.296963,"line":6},{"transit":false,"station_id":"JMU","time":4,"station_name":"Jurangmangu","line":6,"i_long":106.728916,"distance":1994,"i_lat":-6.288927,"is_transit":false},{"time":3,"transit":false,"station_name":"Pondokranji","i_long":106.74273,"distance":2179,"is_transit":false,"line":6,"i_lat":-6.276362,"station_id":"PDJ"},{"station_id":"KBY","line":6,"i_long":106.780334,"station_name":"Kebayoran","transit":false,"time":8,"distance":6218,"i_lat":-6.237242,"is_transit":false},{"station_name":"Palmerah","line":6,"station_id":"PLM","is_transit":false,"distance":3737,"transit":false,"i_long":106.79689,"i_lat":-6.207404,"time":7},{"station_name":"Tanah Abang","distance":3191,"is_transit":true,"line":1,"station_id":"THB","time":6,"i_lat":-6.185545,"transit":true,"i_long":106.811091},{"station_name":"Duri","distance":3632,"is_transit":false,"i_lat":-6.155215,"transit":false,"i_long":106.800832,"time":8,"station_id":"DU","line":1},{"station_id":"AK","transit":false,"station_name":"Angke","line":1,"i_long":106.79867,"is_transit":false,"time":4,"distance":1230,"i_lat":-6.144674},{"station_name":"Kampung Bandan","i_long":106.826365,"is_transit":true,"distance":4102,"station_id":"KPB","time":9,"transit":true,"i_lat":-6.132549,"line":4},{"time":3,"transit":false,"station_name":"Rajawali","distance":1444,"line":11,"i_lat":-6.14505,"i_long":106.836569,"is_transit":false,"station_id":"RJW"},{"station_id":"KMO","i_long":106.839204,"distance":1901,"station_name":"Kemayoran","transit":false,"line":11,"i_lat":-6.161728,"time":5,"is_transit":false},{"i_lat":-6.174784,"station_id":"PSE","is_transit":false,"line":11,"transit":false,"distance":1436,"station_name":"Pasar Senen","i_long":106.84368,"time":4},{"time":8,"i_long":106.850107,"i_lat":-6.185975,"transit":false,"station_id":"GST","line":11,"distance":1567,"is_transit":false,"station_name":"Gang Sentiong"},{"distance":973,"is_transit":false,"station_name":"Kramat","line":11,"time":1,"i_lat":-6.193792,"transit":false,"i_long":106.855437,"station_id":"KMT"},{"distance":1829,"line":11,"station_id":"POK","time":2,"transit":false,"is_transit":false,"i_lat":-6.209188,"station_name":"Pondok Jati","i_long":106.861737},{"i_lat":-6.215091,"i_long":106.86807400000001,"line":1,"time":9,"distance":1236,"is_transit":true,"transit":true,"station_name":"Jatinegara","station_id":"JNG"},{"time":3,"line":1,"i_long":106.899548,"distance":3395,"is_transit":false,"station_id":"KLD","station_name":"Klender","transit":false,"i_lat":-6.2135},{"i_long":106.922662,"i_lat":-6.215568,"line":1,"is_transit":false,"transit":false,"distance":3100,"station_name":"Buaran","station_id":"BUA","time":2},{"transit":false,"station_name":"Klenderbaru","distance":1305,"i_lat":-6.217455,"i_long":106.939679,"line":1,"time":1,"is_transit":false,"station_id":"KLDB"},{"i_long":106.951283,"line":1,"distance":1385,"time":8,"transit":false,"is_transit":false,"station_id":"CUK","station_name":"Cakung","i_lat":-6.219053}],[{"station_id":"RK","distance":0,"transit":false,"i_lat":-6.352675,"time":0,"i_long":106.250396,"line":3,"is_transit":false,"station_name":"Rangkasbitung"},{"station_id":"CTR","distance":9847,"time":13,"transit":false,"i_lat":-6.334892,"i_long":106.332092,"is_transit":false,"line":3,"station_name":"Citeras"},{"i_lat":-6.332307,"station_name":"Maja","station_id":"MJ","distance":7293,"time":10,"transit":false,"i_long":106.394373,"is_transit":false,"line":6},{"station_name":"Cikoya","distance":1853,"is_transit":false,"i_long":106.411216,"time":4,"station_id":"CKY","i_lat":-6.33561,"line":3,"transit":false},{"i_long":106.425991,"station_name":"Tigaraksa","station_id":"TGS","time":3,"distance":2651,"transit":false,"is_transit":false,"line":6,"i_lat":-6.328533},{"station_id":"TEJ","transit":false,"time":5,"distance":2974,"is_transit":false,"i_lat":-6.327251,"station_name":"Tenjo","i_long":106.460812,"line":6},{"station_id":"DAR","transit":false,"time":5,"distance":3902,"i_long":106.491338,"line":0,"is_transit":false,"station_name":"Daru","i_lat":-6.338021},{"distance":2675,"station_name":"Cilejit","transit":false,"is_transit":false,"i_long":106.508482,"line":3,"i_lat":-6.354349,"time":6,"station_id":"CJT"},{"is_transit":false,"time":9,"i_lat":-6.3441410000000005,"line":6,"distance":7025,"transit":false,"station_name":"Parung Panjang","i_long":106.568863,"station_id":"PRP"},{"line":3,"distance":5968,"transit":false,"station_id":"CC","is_transit":false,"i_long":106.617853,"i_lat":-6.329547,"station_name":"Cicayur","time":8},{"distance":2519,"i_lat":-6.32484,"station_name":"Cisauk","time":4,"is_transit":false,"station_id":"CSK","transit":false,"i_long":106.640411,"line":3},{"transit":false,"station_id":"SRP","is_transit":false,"station_name":"Serpong","time":4,"line":6,"distance":1784,"i_long":106.66566,"i_lat":-6.319871},{"distance":2413,"i_lat":-6.314823,"i_long":106.675475,"line":6,"station_name":"Rawa Buntu","transit":false,"station_id":"RU","is_transit":false,"time":4},{"station_name":"Sudimara","transit":false,"is_transit":false,"line":6,"time":6,"i_lat":-6.296963,"station_id":"SDM","distance":4566,"i_long":106.712277},{"i_lat":-6.288927,"i_long":106.728916,"transit":false,"is_transit":false,"station_name":"Jurangmangu","time":4,"distance":1994,"station_id":"JMU","line":6},{"station_id":"PDJ","line":6,"transit":false,"is_transit":false,"distance":2179,"station_name":"Pondokranji","time":3,"i_long":106.74273,"i_lat":-6.276362},{"is_transit":false,"station_name":"Kebayoran","station_id":"KBY","time":8,"transit":false,"line":6,"distance":6218,"i_lat":-6.237242,"i_long":106.780334},{"station_id":"PLM","time":7,"i_long":106.79689,"line":6,"transit":false,"is_transit":false,"station_name":"Palmerah","distance":3737,"i_lat":-6.207404},{"station_name":"Tanah Abang","time":6,"distance":3191,"is_transit":true,"transit":true,"i_lat":-6.185545,"station_id":"THB","i_long":106.811091,"line":1},{"station_name":"Duri","is_transit":false,"station_id":"DU","time":8,"transit":false,"i_lat":-6.155215,"line":1,"distance":3632,"i_long":106.800832},{"distance":1230,"line":1,"station_name":"Angke","station_id":"AK","transit":false,"is_transit":false,"i_long":106.79867,"i_lat":-6.144674,"time":4},{"is_transit":true,"distance":4102,"line":4,"time":9,"station_id":"KPB","transit":true,"i_lat":-6.132549,"i_long":106.826365,"station_name":"Kampung Bandan"},{"i_long":106.812439,"line":2,"is_transit":true,"station_id":"JAKK","distance":1364,"time":3,"station_name":"Jakarta Kota","transit":true,"i_lat":-6.137569},{"line":2,"is_transit":false,"time":4,"station_name":"Jayakarta","distance":1264,"transit":false,"i_lat":-6.141205,"i_long":106.820901,"station_id":"JAY"},{"line":2,"is_transit":false,"station_name":"Manggabesar","station_id":"MGB","time":2,"distance":1080,"transit":false,"i_lat":-6.149769,"i_long":106.82482},{"station_name":"Sawah Besar","is_transit":false,"distance":906,"time":2,"i_long":106.827103,"transit":false,"station_id":"SW","i_lat":-6.160725,"line":2},{"i_long":106.828284,"line":2,"is_transit":false,"station_id":"JUA","transit":false,"time":2,"station_name":"Juanda","distance":1149,"i_lat":-6.166716},{"i_lat":-6.186295,"line":2,"distance":2015,"station_id":"GDD","time":4,"station_name":"Gondangdia","i_long":106.832183,"is_transit":false,"transit":false},{"i_lat":-6.198556,"distance":1750,"transit":false,"line":2,"time":3,"is_transit":false,"station_name":"Cikini","station_id":"CKI","i_long":106.840169},{"time":4,"station_id":"MRI","distance":1590,"line":2,"is_transit":true,"i_long":106.84912,"transit":true,"i_lat":-6.209883,"station_name":"Manggarai"},{"i_long":106.858896,"line":1,"station_id":"MTR","station_name":"Matraman","time":2,"is_transit":false,"distance":1275,"transit":false,"i_lat":-6.212485},{"station_id":"JNG","station_name":"Jatinegara","time":8,"transit":false,"distance":1377,"is_transit":false,"i_long":106.86807400000001,"line":1,"i_lat":-6.215091},{"i_lat":-6.2135,"station_name":"Klender","distance":3395,"is_transit":false,"line":1,"i_long":106.899548,"time":3,"station_id":"KLD","transit":false},{"i_lat":-6.215568,"line":1,"is_transit":false,"time":2,"station_name":"Buaran","station_id":"BUA","transit":false,"i_long":106.922662,"distance":3100},{"station_id":"KLDB","time":1,"station_name":"Klenderbaru","transit":false,"i_long":106.939679,"line":1,"distance":1305,"is_transit":false,"i_lat":-6.217455},{"time":8,"station_name":"Cakung","line":1,"i_long":106.951283,"station_id":"CUK","is_transit":false,"transit":false,"distance":1385,"i_lat":-6.219053}],[{"is_transit":false,"station_id":"RK","time":0,"station_name":"Rangkasbitung","line":3,"transit":false,"i_lat":-6.352675,"distance":0,"i_long":106.250396},{"line":3,"station_name":"Citeras","distance":9847,"station_id":"CTR","transit":false,"i_lat":-6.334892,"is_transit":false,"time":13,"i_long":106.332092},{"is_transit":false,"station_name":"Maja","transit":false,"line":6,"distance":7293,"i_lat":-6.332307,"station_id":"MJ","time":10,"i_long":106.394373},{"line":3,"is_transit":false,"station_id":"CKY","station_name":"Cikoya","time":4,"distance":1853,"transit":false,"i_lat":-6.33561,"i_long":106.411216},{"i_long":106.425991,"line":6,"station_id":"TGS","distance":2651,"i_lat":-6.328533,"station_name":"Tigaraksa","transit":false,"is_transit":false,"time":3},{"distance":2974,"line":6,"time":5,"station_name":"Tenjo","is_transit":false,"i_lat":-6.327251,"transit":false,"station_id":"TEJ","i_long":106.460812},{"station_id":"DAR","transit":false,"station_name":"Daru","line":0,"time":5,"is_transit":false,"i_long":106.491338,"distance":3902,"i_lat":-6.338021},{"i_long":106.508482,"is_transit":false,"station_id":"CJT","line":3,"distance":2675,"transit":false,"station_name":"Cilejit","time":6,"i_lat":-6.354349},{"station_id":"PRP","transit":false,"station_name":"Parung Panjang","i_lat":-6.3441410000000005,"is_transit":false,"i_long":106.568863,"distance":7025,"time":9,"line":6},{"i_lat":-6.329547,"line":3,"i_long":106.617853,"distance":5968,"time":8,"station_name":"Cicayur","is_transit":false,"transit":false,"station_id":"CC"},{"is_transit":false,"i_long":106.640411,"station_id":"CSK","station_name":"Cisauk","time":4,"distance":2519,"i_lat":-6.32484,"line":3,"transit":false},{"line":6,"station_id":"SRP","distance":1784,"is_transit":false,"station_name":"Serpong","i_lat":-6.319871,"transit":false,"i_long":106.66566,"time":4},{"station_id":"RU","station_name":"Rawa Buntu","i_lat":-6.314823,"is_transit":false,"time":4,"distance":2413,"transit":false,"i_long":106.675475,"line":6},{"i_lat":-6.296963,"distance":4566,"station_id":"SDM","transit":false,"line":6,"station_name":"Sudimara","i_long":106.712277,"time":6,"is_transit":false},{"i_lat":-6.288927,"i_long":106.728916,"is_transit":false,"station_id":"JMU","station_name":"Jurangmangu","distance":1994,"transit":false,"line":6,"time":4},{"is_transit":false,"i_lat":-6.276362,"station_id":"PDJ","i_long":106.74273,"time":3,"distance":2179,"line":6,"transit":false,"station_name":"Pondokranji"},{"is_transit":false,"distance":6218,"station_id":"KBY","time":8,"station_name":"Kebayoran","transit":false,"i_long":106.780334,"line":6,"i_lat":-6.237242},{"station_name":"Palmerah","time":7,"is_transit":false,"station_id":"PLM","transit":false,"line":6,"i_long":106.79689,"distance":3737,"i_lat":-6.207404},{"line":1,"is_transit":true,"station_name":"Tanah Abang","i_lat":-6.185545,"transit":true,"time":6,"distance":3191,"station_id":"THB","i_long":106.811091},{"i_lat":-6.20132,"is_transit":false,"line":1,"distance":2029,"time":5,"station_id":"KAT","transit":false,"station_name":"Karet","i_long":106.816351},{"station_id":"SUDB","line":1,"is_transit":false,"distance":471,"transit":false,"i_lat":-6.201433,"i_long":106.819881,"station_name":"Sudirman Baru","time":1},{"station_id":"SUD","i_long":106.822649,"distance":280,"transit":false,"i_lat":-6.202263,"line":1,"station_name":"Sudirman","time":1,"is_transit":false},{"time":4,"distance":3186,"i_lat":-6.209883,"i_long":106.84912,"line":2,"station_name":"Manggarai","is_transit":true,"station_id":"MRI","transit":true},{"distance":1590,"is_transit":false,"time":4,"station_id":"CKI","i_long":106.840169,"i_lat":-6.198556,"station_name":"Cikini","transit":false,"line":2},{"station_name":"Gondangdia","is_transit":false,"distance":1750,"time":3,"i_long":106.832183,"i_lat":-6.186295,"station_id":"GDD","line":2,"transit":false},{"time":4,"transit":false,"station_id":"JUA","is_transit":false,"i_lat":-6.166716,"line":2,"distance":2015,"i_long":106.828284,"station_name":"Juanda"},{"i_lat":-6.160725,"station_name":"Sawah Besar","station_id":"SW","time":2,"is_transit":false,"distance":1149,"transit":false,"i_long":106.827103,"line":2},{"station_name":"Manggabesar","is_transit":false,"station_id":"MGB","distance":906,"i_long":106.82482,"transit":false,"line":2,"i_lat":-6.149769,"time":2},{"time":2,"station_id":"JAY","is_transit":false,"transit":false,"i_lat":-6.141205,"i_long":106.820901,"station_name":"Jayakarta","line":2,"distance":1080},{"transit":true,"i_lat":-6.137569,"time":4,"station_id":"JAKK","line":2,"distance":1264,"is_transit":true,"i_long":106.812439,"station_name":"Jakarta Kota"},{"time":3,"distance":1364,"i_long":106.826365,"transit":true,"station_id":"KPB","i_lat":-6.132549,"is_transit":true,"line":4,"station_name":"Kampung Bandan"},{"i_lat":-6.14505,"station_name":"Rajawali","station_id":"RJW","line":11,"is_transit":false,"distance":1444,"i_long":106.836569,"time":3,"transit":false},{"distance":1901,"line":11,"transit":false,"time":5,"station_id":"KMO","is_transit":false,"i_long":106.839204,"i_lat":-6.161728,"station_name":"Kemayoran"},{"transit":false,"distance":1436,"station_id":"PSE","i_long":106.84368,"i_lat":-6.174784,"line":11,"is_transit":false,"station_name":"Pasar Senen","time":4},{"is_transit":false,"i_long":106.850107,"distance":1567,"i_lat":-6.185975,"station_name":"Gang Sentiong","station_id":"GST","line":11,"transit":false,"time":8},{"line":11,"is_transit":false,"distance":973,"transit":false,"i_long":106.855437,"station_name":"Kramat","time":1,"i_lat":-6.193792,"station_id":"KMT"},{"station_id":"POK","time":2,"i_lat":-6.209188,"is_transit":false,"station_name":"Pondok Jati","distance":1829,"transit":false,"i_long":106.861737,"line":11},{"line":1,"is_transit":true,"station_name":"Jatinegara","time":9,"transit":true,"i_lat":-6.215091,"station_id":"JNG","distance":1236,"i_long":106.86807400000001},{"station_id":"KLD","time":3,"transit":false,"line":1,"distance":3395,"i_lat":-6.2135,"is_transit":false,"station_name":"Klender","i_long":106.899548},{"distance":3100,"station_id":"BUA","time":2,"transit":false,"i_lat":-6.215568,"line":1,"station_name":"Buaran","i_long":106.922662,"is_transit":false},{"i_lat":-6.217455,"i_long":106.939679,"line":1,"time":1,"is_transit":false,"station_id":"KLDB","transit":false,"distance":1305,"station_name":"Klenderbaru"},{"time":8,"i_lat":-6.219053,"is_transit":false,"i_long":106.951283,"station_name":"Cakung","line":1,"distance":1385,"station_id":"CUK","transit":false}]]}