{"data":[[{"station_id":"RK","line":0,"station_name":"Rangkasbitung","time":0,"is_transit":true,"i_lat":-6.352675,"i_long":106.250396,"distance":0,"transit":false},{"i_lat":-6.334892,"station_name":"Citeras","time":13,"station_id":"CTR","distance":9847,"transit":false,"i_long":106.332092,"is_transit":false,"line":0},{"station_id":"MJ","station_name":"Maja","transit":false,"i_long":106.394373,"distance":7293,"is_transit":false,"line":6,"i_lat":-6.332307,"time":10},{"station_id":"CKY","time":4,"distance":1853,"transit":false,"line":0,"i_lat":-6.33561,"i_long":106.411216,"is_transit":false,"station_name":"Cikoya"},{"i_lat":-6.328533,"line":6,"distance":2651,"station_name":"Tigaraksa","transit":false,"time":3,"i_long":106.425991,"is_transit":false,"station_id":"TGS"},{"station_id":"TEJ","is_transit":false,"station_name":"Tenjo","transit":false,"time":5,"i_lat":-6.327251,"i_long":106.460812,"line":6,"distance":2974},{"i_lat":-6.338021,"station_name":"Daru","line":0,"station_id":"DAR","i_long":106.491338,"is_transit":false,"distance":3902,"time":5,"transit":false},{"line":0,"transit":false,"i_lat":-6.354349,"station_id":"CJT","i_long":106.508482,"distance":2675,"is_transit":false,"station_name":"Cilejit","time":6},{"transit":false,"line":6,"is_transit":false,"i_long":106.568863,"distance":7025,"station_name":"Parung Panjang","time":9,"i_lat":-6.3441410000000005,"station_id":"PRP"},{"transit":false,"station_name":"Cicayur","distance":5968,"station_id":"CC","time":8,"i_lat":-6.329547,"i_long":106.617853,"line":0,"is_transit":false},{"line":0,"transit":false,"station_name":"Cisauk","distance":2519,"station_id":"CSK","i_lat":-6.32484,"is_transit":false,"time":4,"i_long":106.640411},{"is_transit":false,"station_id":"SRP","i_lat":-6.319871,"transit":false,"i_long":106.66566,"station_name":"Serpong","distance":1784,"line":6,"time":4},{"is_transit":false,"station_name":"Rawa Buntu","transit":false,"station_id":"RU","time":4,"line":6,"i_long":106.675475,"distance":2413,"i_lat":-6.314823},{"station_id":"SDM","i_lat":-6.296963,"line":6,"i_long":106.712277,"time":6,"station_name":"Sudimara","is_transit":false,"distance":4566,"transit":false},{"station_id":"JMU","station_name":"Jurangmangu","distance":1994,"is_transit":false,"transit":false,"time":4,"i_lat":-6.288927,"i_long":106.728916,"line":6},{"is_transit":false,"transit":false,"time":3,"station_id":"PDJ","i_long":106.74273,"line":6,"i_lat":-6.276362,"distance":2179,"station_name":"Pondokranji"},{"distance":6218,"station_id":"KBY","time":8,"line":6,"transit":false,"is_transit":false,"i_lat":-6.237242,"i_long":106.780334,"station_name":"Kebayoran"},{"time":7,"distance":3737,"is_transit":false,"i_long":106.79689,"station_id":"PLM","station_name":"Palmerah","transit":false,"line":6,"i_lat":-6.207404},{"is_transit":true,"transit":true,"station_id":"THB","i_long":106.811091,"station_name":"Tanah Abang","time":6,"line":1,"distance":3191,"i_lat":-6.185545},{"line":1,"station_name":"Karet","distance":2029,"i_lat":-6.20132,"transit":false,"i_long":106.816351,"is_transit":false,"station_id":"KAT","time":5},{"distance":471,"line":1,"transit":false,"is_transit":false,"i_lat":-6.201433,"time":1,"station_id":"SUDB","station_name":"Sudirman Baru","i_long":106.819881},{"distance":280,"line":1,"station_id":"SUD","time":1,"i_long":106.822649,"station_name":"Sudirman","i_lat":-6.202263,"is_transit":false,"transit":false},{"i_long":106.84912,"distance":3186,"is_transit":true,"station_id":"MRI","i_lat":-6.209883,"transit":false,"time":4,"station_name":"Manggarai","line":0},{"distance":1275,"is_transit":false,"i_lat":-6.212485,"time":2,"station_name":"Matraman","station_id":"MTR","transit":false,"i_long":106.858896,"line":1},{"transit":false,"station_id":"JNG","i_lat":-6.215091,"time":8,"distance":1377,"line":0,"is_transit":true,"station_name":"Jatinegara","i_long":106.86807400000001},{"is_transit":false,"i_lat":-6.2135,"time":3,"station_name":"Klender","transit":false,"distance":3395,"i_long":106.899548,"line":1,"station_id":"KLD"},{"i_lat":-6.215568,"is_transit":false,"distance":3100,"station_name":"Buaran","station_id":"BUA","time":2,"i_long":106.922662,"line":0,"transit":false},{"station_id":"KLDB","transit":false,"line":1,"station_name":"Klenderbaru","distance":1305,"i_long":106.939679,"time":1,"i_lat":-6.217455,"is_transit":false},{"line":0,"transit":false,"i_long":106.951283,"distance":1385,"i_lat":-6.219053,"station_id":"CUK","is_transit":false,"time":8,"station_name":"Cakung"}],[{"time":0,"station_name":"Rangkasbitung","line":0,"i_lat":-6.352675,"is_transit":true,"i_long":106.250396,"station_id":"RK","distance":0,"transit":false},{"station_id":"CTR","i_lat":-6.334892,"i_long":106.332092,"distance":9847,"time":13,"is_transit":false,"station_name":"Citeras","transit":false,"line":0},{"station_id":"MJ","is_transit":false,"i_lat":-6.332307,"line":6,"transit":false,"time":10,"i_long":106.394373,"distance":7293,"station_name":"Maja"},{"i_lat":-6.33561,"line":0,"distance":1853,"transit":false,"station_id":"CKY","is_transit":false,"i_long":106.411216,"time":4,"station_name":"Cikoya"},{"distance":2651,"station_name":"Tigaraksa","is_transit":false,"time":3,"i_long":106.425991,"station_id":"TGS","transit":false,"i_lat":-6.328533,"line":6},{"time":5,"i_lat":-6.327251,"line":6,"distance":2974,"station_name":"Tenjo","i_long":106.460812,"transit":false,"is_transit":false,"station_id":"TEJ"},{"i_long":106.491338,"distance":3902,"i_lat":-6.338021,"is_transit":false,"station_name":"Daru","transit":false,"station_id":"DAR","time":5,"line":0},{"is_transit":false,"station_id":"CJT","i_lat":-6.354349,"station_name":"Cilejit","time":6,"i_long":106.508482,"transit":false,"line":0,"distance":2675},{"station_name":"Parung Panjang","time":9,"station_id":"PRP","distance":7025,"transit":false,"i_lat":-6.3441410000000005,"i_long":106.568863,"line":6,"is_transit":false},{"time":8,"i_lat":-6.329547,"distance":5968,"line":0,"is_transit":false,"i_long":106.617853,"transit":false,"station_id":"CC","station_name":"Cicayur"},{"distance":2519,"line":0,"station_name":"Cisauk","station_id":"CSK","time":4,"i_lat":-6.32484,"i_long":106.640411,"is_transit":false,"transit":false},{"time":4,"i_lat":-6.319871,"station_id":"SRP","i_long":106.66566,"line":6,"is_transit":false,"transit":false,"station_name":"Serpong","distance":1784},{"i_long":106.675475,"distance":2413,"is_transit":false,"time":4,"station_name":"Rawa Buntu","i_lat":-6.314823,"line":6,"station_id":"RU","transit":false},{"distance":4566,"i_lat":-6.296963,"time":6,"transit":false,"i_long":106.712277,"station_id":"SDM","is_transit":false,"line":6,"station_name":"Sudimara"},{"station_name":"Jurangmangu","i_lat":-6.288927,"transit":false,"i_long":106.728916,"distance":1994,"is_transit":false,"line":6,"time":4,"station_id":"JMU"},{"is_transit":false,"line":6,"transit":false,"distance":2179,"i_lat":-6.276362,"i_long":106.74273,"station_name":"Pondokranji","time":3,"station_id":"PDJ"},{"distance":6218,"station_name":"Kebayoran","i_long":106.780334,"line":6,"time":8,"station_id":"KBY","transit":false,"i_lat":-6.237242,"is_transit":false},{"station_name":"Palmerah","transit":false,"time":7,"i_long":106.79689,"line":6,"distance":3737,"station_id":"PLM","is_transit":false,"i_lat":-6.207404},{"i_lat":-6.185545,"station_name":"Tanah Abang","time":6,"distance":3191,"is_transit":true,"station_id":"THB","transit":true,"i_long":106.811091,"line":1},{"time":8,"distance":3632,"is_transit":true,"station_id":"DU","i_lat":-6.155215,"i_long":106.800832,"line":1,"station_name":"Duri","transit":true},{"line":0,"station_name":"Angke","is_transit":false,"i_long":106.79867,"transit":false,"i_lat":-6.144674,"distance":1230,"station_id":"AK","time":4},{"distance":4102,"is_transit":true,"line":0,"i_long":106.826365,"station_name":"Kampung Bandan","station_id":"KPB","transit":true,"i_lat":-6.132549,"time":9},{"transit":false,"line":11,"is_transit":false,"time":3,"station_id":"RJW","i_lat":-6.14505,"distance":1444,"i_long":106.836569,"station_name":"Rajawali"},{"i_lat":-6.161728,"station_name":"Kemayoran","distance":1901,"i_long":106.839204,"is_transit":false,"line":11,"station_id":"KMO","time":5,"transit":false},{"is_transit":false,"distance":1436,"i_lat":-6.174784,"station_name":"Pasar Senen","transit":false,"station_id":"PSE","i_long":106.84368,"time":4,"line":11},{"line":11,"is_transit":false,"i_long":106.850107,"distance":1567,"transit":false,"time":8,"station_name":"Gang Sentiong","i_lat":-6.185975,"station_id":"GST"},{"i_lat":-6.193792,"station_id":"KMT","transit":false,"is_transit":false,"i_long":106.855437,"line":11,"time":1,"station_name":"Kramat","distance":973},{"transit":false,"time":2,"station_id":"POK","distance":1829,"is_transit":false,"line":11,"i_lat":-6.209188,"station_name":"Pondok Jati","i_long":106.861737},{"distance":1236,"line":0,"station_id":"JNG","transit":true,"station_name":"Jatinegara","time":9,"i_lat":-6.215091,"i_long":106.86807400000001,"is_transit":true},{"i_lat":-6.2135,"station_id":"KLD","station_name":"Klender","line":1,"time":3,"transit":false,"is_transit":false,"i_long":106.899548,"distance":3395},{"station_name":"Buaran","line":0,"i_long":106.922662,"distance":3100,"station_id":"BUA","transit":false,"i_lat":-6.215568,"time":2,"is_transit":false},{"i_long":106.939679,"is_transit":false,"station_id":"KLDB","time":1,"i_lat":-6.217455,"line":1,"distance":1305,"transit":false,"station_name":"Klenderbaru"},{"station_name":"Cakung","i_lat":-6.219053,"i_long":106.951283,"is_transit":false,"station_id":"CUK","time":8,"transit":false,"line":0,"distance":1385}],[{"station_id":"RK","distance":0,"station_name":"Rangkasbitung","is_transit":true,"time":0,"i_lat":-6.352675,"i_long":106.250396,"line":0,"transit":false},{"i_lat":-6.334892,"station_name":"Citeras","is_transit":false,"distance":9847,"time":13,"station_id":"CTR","line":0,"transit":false,"i_long":106.332092},{"line":6,"distance":7293,"time":10,"is_transit":false,"station_name":"Maja","i_lat":-6.332307,"station_id":"MJ","i_long":106.394373,"transit":false},{"i_long":106.411216,"time":4,"transit":false,"station_name":"Cikoya","line":0,"i_lat":-6.33561,"is_transit":false,"distance":1853,"station_id":"CKY"},{"station_id":"TGS","station_name":"Tigaraksa","time":3,"transit":false,"i_long":106.425991,"distance":2651,"is_transit":false,"i_lat":-6.328533,"line":6},{"distance":2974,"line":6,"is_transit":false,"station_id":"TEJ","transit":false,"time":5,"i_lat":-6.327251,"i_long":106.460812,"station_name":"Tenjo"},{"time":5,"transit":false,"i_long":106.491338,"i_lat":-6.338021,"distance":3902,"line":0,"is_transit":false,"station_id":"DAR","station_name":"Daru"},{"distance":2675,"is_transit":false,"line":0,"time":6,"station_id":"CJT","transit":false,"i_lat":-6.354349,"station_name":"Cilejit","i_long":106.508482},{"i_lat":-6.3441410000000005,"line":6,"is_transit":false,"time":9,"distance":7025,"station_name":"Parung Panjang","transit":false,"station_id":"PRP","i_long":106.568863},{"station_name":"Cicayur","distance":5968,"is_transit":false,"i_lat":-6.329547,"transit":false,"station_id":"CC","i_long":106.617853,"line":0,"time":8},{"is_transit":false,"time":4,"distance":2519,"station_id":"CSK","i_long":106.640411,"line":0,"station_name":"Cisauk","transit":false,"i_lat":-6.32484},{"station_name":"Serpong","transit":false,"station_id":"SRP","i_lat":-6.319871,"line":6,"is_transit":false,"distance":1784,"time":4,"i_long":106.66566},{"time":4,"i_long":106.675475,"station_id":"RU","distance":2413,"is_transit":false,"station_name":"Rawa Buntu","transit":false,"line":6,"i_lat":-6.314823},{"time":6,"transit":false,"line":6,"i_long":106.712277,"i_lat":-6.296963,"is_transit":false,"distance":4566,"station_name":"Sudimara","station_id":"SDM"},{"time":4,"is_transit":false,"station_name":"Jurangmangu","station_id":"JMU","transit":false,"i_lat":-6.288927,"i_long":106.728916,"line":6,"distance":1994},{"i_long":106.74273,"distance":2179,"is_transit":false,"station_id":"PDJ","station_name":"Pondokranji","time":3,"transit":false,"i_lat":-6.276362,"line":6},{"i_long":106.780334,"i_lat":-6.237242,"transit":false,"station_id":"KBY","time":8,"line":6,"station_name":"Kebayoran","distance":6218,"is_transit":false},{"i_lat":-6.207404,"transit":false,"station_name":"Palmerah","distance":3737,"line":6,"station_id":"PLM","is_transit":false,"i_long":106.79689,"time":7},{"station_id":"THB","i_long":106.811091,"i_lat":-6.185545,"transit":true,"distance":3191,"line":1,"time":6,"is_transit":true,"station_name":"Tanah Abang"},{"line":1,"distance":3632,"time":8,"is_transit":true,"i_lat":-6.155215,"station_name":"Duri","station_id":"DU","transit":true,"i_long":106.800832},{"i_long":106.79867,"distance":1230,"is_transit":false,"station_id":"AK","station_name":"Angke","transit":false,"time":4,"line":0,"i_lat":-6.144674},{"distance":4102,"time":9,"station_id":"KPB","station_name":"Kampung Bandan","i_lat":-6.132549,"i_long":106.826365,"is_transit":true,"transit":false,"line":0},{"i_lat":-6.137569,"station_id":"JAKK","time":3,"line":0,"is_transit":true,"i_long":106.812439,"distance":1364,"station_name":"Jakarta Kota","transit":true},{"i_long":106.820901,"line":7,"transit":false,"is_transit":false,"station_id":"JAY","station_name":"Jayakarta","distance":1264,"time":4,"i_lat":-6.141205},{"station_name":"Manggabesar","transit":false,"is_transit":false,"distance":1080,"station_id":"MGB","i_lat":-6.149769,"i_long":106.82482,"line":2,"time":2},{"distance":906,"i_lat":-6.160725,"station_id":"SW","station_name":"Sawah Besar","transit":false,"i_long":106.827103,"line":2,"is_transit":false,"time":2},{"i_long":106.828284,"transit":false,"is_transit":false,"line":2,"station_name":"Juanda","distance":1149,"station_id":"JUA","time":2,"i_lat":-6.166716},{"station_name":"Gondangdia","i_long":106.832183,"is_transit":false,"distance":2015,"station_id":"GDD","time":4,"line":2,"transit":false,"i_lat":-6.186295},{"i_long":106.840169,"line":0,"station_name":"Cikini","is_transit":false,"transit":false,"time":3,"i_lat":-6.198556,"station_id":"CKI","distance":1750},{"i_long":106.84912,"distance":1590,"is_transit":true,"i_lat":-6.209883,"transit":true,"line":0,"station_id":"MRI","station_name":"Manggarai","time":4},{"line":1,"is_transit":false,"station_id":"MTR","station_name":"Matraman","transit":false,"time":2,"i_long":106.858896,"distance":1275,"i_lat":-6.212485},{"line":0,"is_transit":true,"transit":false,"time":8,"station_id":"JNG","i_lat":-6.215091,"distance":1377,"i_long":106.86807400000001,"station_name":"Jatinegara"},{"transit":false,"i_long":106.899548,"line":1,"distance":3395,"station_id":"KLD","is_transit":false,"station_name":"Klender","time":3,"i_lat":-6.2135},{"transit":false,"time":2,"station_name":"Buaran","i_long":106.922662,"distance":3100,"i_lat":-6.215568,"is_transit":false,"station_id":"BUA","line":0},{"station_name":"Klenderbaru","station_id":"KLDB","is_transit":false,"transit":false,"distance":1305,"i_lat":-6.217455,"time":1,"i_long":106.939679,"line":1},{"time":8,"transit":false,"distance":1385,"i_long":106.951283,"i_lat":-6.219053,"is_transit":false,"line":0,"station_name":"Cakung","station_id":"CUK"}],[{"station_id":"RK","transit":false,"station_name":"Rangkasbitung","i_lat":-6.352675,"is_transit":true,"distance":0,"line":0,"time":0,"i_long":106.250396},{"station_id":"CTR","is_transit":false,"time":13,"transit":false,"i_lat":-6.334892,"station_name":"Citeras","i_long":106.332092,"line":0,"distance":9847},{"distance":7293,"transit":false,"is_transit":false,"i_lat":-6.332307,"line":6,"time":10,"station_name":"Maja","i_long":106.394373,"station_id":"MJ"},{"transit":false,"line":0,"station_name":"Cikoya","distance":1853,"i_long":106.411216,"is_transit":false,"time":4,"i_lat":-6.33561,"station_id":"CKY"},{"distance":2651,"station_name":"Tigaraksa","transit":false,"i_long":106.425991,"i_lat":-6.328533,"is_transit":false,"time":3,"station_id":"TGS","line":6},{"is_transit":false,"distance":2974,"station_name":"Tenjo","i_long":106.460812,"line":6,"time":5,"station_id":"TEJ","transit":false,"i_lat":-6.327251},{"time":5,"i_lat":-6.338021,"transit":false,"is_transit":false,"station_id":"DAR","distance":3902,"station_name":"Daru","line":0,"i_long":106.491338},{"is_transit":false,"line":0,"time":6,"i_long":106.508482,"station_id":"CJT","station_name":"Cilejit","distance":2675,"transit":false,"i_lat":-6.354349},{"time":9,"station_name":"Parung Panjang","i_lat":-6.3441410000000005,"distance":7025,"i_long":106.568863,"line":6,"transit":false,"station_id":"PRP","is_transit":false},{"station_name":"Cicayur","transit":false,"i_lat":-6.329547,"line":0,"distance":5968,"is_transit":false,"station_id":"CC","time":8,"i_long":106.617853},{"i_lat":-6.32484,"station_id":"CSK","is_transit":false,"time":4,"i_long":106.640411,"distance":2519,"line":0,"station_name":"Cisauk","transit":false},{"distance":1784,"time":4,"station_name":"Serpong","station_id":"SRP","line":6,"transit":false,"is_transit":false,"i_lat":-6.319871,"i_long":106.66566},{"i_lat":-6.314823,"is_transit":false,"transit":false,"time":4,"station_id":"RU","i_long":106.675475,"distance":2413,"line":6,"station_name":"Rawa Buntu"},{"station_id":"SDM","transit":false,"line":6,"i_long":106.712277,"station_name":"Sudimara","time":6,"distance":4566,"i_lat":-6.296963,"is_transit":false},{"distance":1994,"transit":false,"line":6,"time":4,"station_name":"Jurangmangu","i_long":106.728916,"is_transit":false,"i_lat":-6.288927,"station_id":"JMU"},{"is_transit":false,"i_lat":-6.276362,"line":6,"station_name":"Pondokranji","distance":2179,"station_id":"PDJ","time":3,"i_long":106.74273,"transit":false},{"transit":false,"i_lat":-6.237242,"line":6,"time":8,"is_transit":false,"i_long":106.780334,"station_id":"KBY","station_name":"Kebayoran","distance":6218},{"station_id":"PLM","station_name":"Palmerah","is_transit":false,"i_lat":-6.207404,"transit":false,"distance":3737,"i_long":106.79689,"time":7,"line":6},{"is_transit":true,"station_id":"THB","i_lat":-6.185545,"i_long":106.811091,"station_name":"Tanah Abang","time":6,"line":1,"transit":true,"distance":3191},{"time":5,"i_lat":-6.20132,"transit":false,"distance":2029,"station_name":"Karet","station_id":"KAT","i_long":106.816351,"line":1,"is_transit":false},{"line":1,"transit":false,"i_long":106.819881,"time":1,"i_lat":-6.201433,"distance":471,"station_id":"SUDB","station_name":"Sudirman Baru","is_transit":false},{"station_name":"Sudirman","line":1,"station_id":"SUD","distance":280,"transit":false,"i_lat":-6.202263,"i_long":106.822649,"is_transit":false,"time":1},{"station_id":"MRI","is_transit":true,"distance":3186,"i_long":106.84912,"time":4,"transit":true,"station_name":"Manggarai","line":0,"i_lat":-6.209883},{"i_lat":-6.198556,"line":0,"distance":1590,"station_id":"CKI","is_transit":false,"station_name":"Cikini","time":4,"transit":false,"i_long":106.840169},{"station_name":"Gondangdia","i_lat":-6.186295,"time":3,"is_transit":false,"i_long":106.832183,"transit":false,"line":2,"distance":1750,"station_id":"GDD"},{"distance":2015,"line":2,"i_long":106.828284,"time":4,"i_lat":-6.166716,"station_name":"Juanda","is_transit":false,"station_id":"JUA","transit":false},{"line":2,"station_name":"Sawah Besar","transit":false,"distance":1149,"is_transit":false,"i_lat":-6.160725,"i_long":106.827103,"time":2,"station_id":"SW"},{"time":2,"i_lat":-6.149769,"is_transit":false,"station_id":"MGB","distance":906,"station_name":"Manggabesar","line":2,"i_long":106.82482,"transit":false},{"transit":false,"line":7,"station_name":"Jayakarta","time":2,"distance":1080,"is_transit":false,"station_id":"JAY","i_long":106.820901,"i_lat":-6.141205},{"transit":true,"distance":1264,"i_lat":-6.137569,"i_long":106.812439,"line":0,"station_id":"JAKK","station_name":"Jakarta Kota","time":4,"is_transit":true},{"line":0,"time":3,"station_name":"Kampung Bandan","i_long":106.826365,"is_transit":true,"i_lat":-6.132549,"transit":true,"station_id":"KPB","distance":1364},{"i_long":106.836569,"line":11,"i_lat":-6.14505,"time":3,"distance":1444,"station_name":"Rajawali","station_id":"RJW","transit":false,"is_transit":false},{"station_name":"Kemayoran","line":11,"station_id":"KMO","i_long":106.839204,"distance":1901,"is_transit":false,"transit":false,"i_lat":-6.161728,"time":5},{"transit":false,"time":4,"is_transit":false,"i_lat":-6.174784,"station_name":"Pasar Senen","distance":1436,"station_id":"PSE","i_long":106.84368,"line":11},{"line":11,"station_id":"GST","transit":false,"i_long":106.850107,"distance":1567,"i_lat":-6.185975,"time":8,"station_name":"Gang Sentiong","is_transit":false},{"distance":973,"is_transit":false,"time":1,"line":11,"station_id":"KMT","transit":false,"i_lat":-6.193792,"i_long":106.855437,"station_name":"Kramat"},{"line":11,"station_id":"POK","i_lat":-6.209188,"is_transit":false,"distance":1829,"station_name":"Pondok Jati","transit":false,"i_long":106.861737,"time":2},{"is_transit":true,"station_name":"Jatinegara","i_long":106.86807400000001,"station_id":"JNG","time":9,"line":0,"distance":1236,"transit":true,"i_lat":-6.215091},{"station_id":"KLD","transit":false,"time":3,"i_lat":-6.2135,"line":1,"is_transit":false,"distance":3395,"i_long":106.899548,"station_name":"Klender"},{"station_name":"Buaran","transit":false,"i_long":106.922662,"is_transit":false,"distance":3100,"time":2,"i_lat":-6.215568,"line":0,"station_id":"BUA"},{"distance":1305,"station_name":"Klenderbaru","time":1,"i_lat":-6.217455,"i_long":106.939679,"is_transit":false,"line":1,"transit":false,"station_id":"KLDB"},{"station_id":"CUK","line":0,"transit":false,"is_transit":false,"station_name":"Cakung","i_lat":-6.219053,"i_long":106.951283,"distance":1385,"time":8}]]}