{"data":[[{"transit":false,"station_name":"Rangkasbitung","line":3,"station_id":"RK","distance":0,"i_long":106.250396,"i_lat":-6.352675,"is_transit":false,"time":0},{"transit":false,"station_id":"CTR","is_transit":false,"i_long":106.332092,"distance":9847,"time":13,"i_lat":-6.334892,"station_name":"Citeras","line":3},{"is_transit":false,"station_name":"Maja","i_lat":-6.332307,"i_long":106.394373,"distance":7293,"line":6,"time":10,"station_id":"MJ","transit":false},{"i_long":106.411216,"transit":false,"distance":1853,"station_id":"CKY","station_name":"Cikoya","i_lat":-6.33561,"time":4,"is_transit":false,"line":3},{"time":3,"distance":2651,"station_id":"TGS","is_transit":false,"line":6,"i_long":106.425991,"transit":false,"station_name":"Tigaraksa","i_lat":-6.328533},{"distance":2974,"i_lat":-6.327251,"station_name":"Tenjo","is_transit":false,"time":5,"i_long":106.460812,"line":6,"transit":false,"station_id":"TEJ"},{"transit":false,"i_lat":-6.338021,"distance":3902,"line":0,"station_name":"Daru","time":5,"station_id":"DAR","is_transit":false,"i_long":106.491338},{"station_name":"Cilejit","is_transit":false,"station_id":"CJT","time":6,"distance":2675,"i_lat":-6.354349,"line":3,"transit":false,"i_long":106.508482},{"station_name":"Parung Panjang","transit":false,"time":9,"station_id":"PRP","i_lat":-6.3441410000000005,"i_long":106.568863,"distance":7025,"line":6,"is_transit":false},{"station_id":"CC","time":8,"station_name":"Cicayur","distance":5968,"is_transit":false,"transit":false,"line":3,"i_long":106.617853,"i_lat":-6.329547},{"transit":false,"line":3,"time":4,"i_lat":-6.32484,"station_id":"CSK","i_long":106.640411,"distance":2519,"station_name":"Cisauk","is_transit":false},{"i_lat":-6.319871,"i_long":106.66566,"station_id":"SRP","transit":false,"distance":1784,"station_name":"Serpong","time":4,"line":6,"is_transit":false},{"line":6,"station_name":"Rawa Buntu","distance":2413,"time":4,"i_lat":-6.314823,"i_long":106.675475,"station_id":"RU","is_transit":false,"transit":false},{"i_long":106.712277,"line":6,"is_transit":false,"transit":false,"distance":4566,"time":6,"i_lat":-6.296963,"station_name":"Sudimara","station_id":"SDM"},{"i_lat":-6.288927,"station_name":"Jurangmangu","time":4,"distance":1994,"i_long":106.728916,"line":6,"is_transit":false,"station_id":"JMU","transit":false},{"transit":false,"i_long":106.74273,"i_lat":-6.276362,"distance":2179,"is_transit":false,"station_name":"Pondokranji","time":3,"station_id":"PDJ","line":6},{"i_lat":-6.237242,"transit":false,"distance":6218,"time":8,"station_name":"Kebayoran","i_long":106.780334,"station_id":"KBY","line":6,"is_transit":false},{"time":7,"i_lat":-6.207404,"station_name":"Palmerah","line":6,"station_id":"PLM","is_transit":false,"transit":false,"distance":3737,"i_long":106.79689},{"is_transit":true,"transit":true,"line":1,"i_long":106.811091,"station_name":"Tanah Abang","time":6,"station_id":"THB","i_lat":-6.185545,"distance":3191},{"line":1,"i_lat":-6.20132,"transit":false,"distance":2029,"station_id":"KAT","time":5,"i_long":106.816351,"station_name":"Karet","is_transit":false},{"is_transit":false,"transit":false,"station_name":"Sudirman Baru","distance":471,"i_lat":-6.201433,"time":1,"station_id":"SUDB","line":1,"i_long":106.819881},{"is_transit":false,"i_long":106.822649,"line":1,"station_id":"SUD","i_lat":-6.202263,"time":1,"station_name":"Sudirman","transit":false,"distance":280},{"i_long":106.84912,"distance":3186,"transit":false,"station_id":"MRI","station_name":"Manggarai","is_transit":false,"time":4,"i_lat":-6.209883,"line":2},{"time":2,"line":1,"is_transit":false,"i_lat":-6.212485,"station_name":"Matraman","transit":false,"station_id":"MTR","i_long":106.858896,"distance":1275},{"transit":false,"station_name":"Jatinegara","distance":1377,"station_id":"JNG","is_transit":false,"i_lat":-6.215091,"time":8,"i_long":106.86807400000001,"line":1},{"i_long":106.899548,"station_name":"Klender","transit":false,"distance":3395,"i_lat":-6.2135,"station_id":"KLD","is_transit":false,"line":1,"time":3},{"transit":false,"station_name":"Buaran","time":2,"i_long":106.922662,"line":1,"i_lat":-6.215568,"is_transit":false,"distance":3100,"station_id":"BUA"},{"transit":false,"station_name":"Klenderbaru","line":1,"distance":1305,"i_lat":-6.217455,"is_transit":false,"station_id":"KLDB","i_long":106.939679,"time":1},{"i_long":106.951283,"station_name":"Cakung","line":1,"distance":1385,"station_id":"CUK","time":8,"is_transit":false,"transit":false,"i_lat":-6.219053}],[{"transit":false,"time":0,"is_transit":false,"station_name":"Rangkasbitung","line":3,"i_long":106.250396,"i_lat":-6.352675,"station_id":"RK","distance":0},{"i_lat":-6.334892,"time":13,"is_transit":false,"station_name":"Citeras","distance":9847,"station_id":"CTR","line":3,"transit":false,"i_long":106.332092},{"station_id":"MJ","transit":false,"i_lat":-6.332307,"is_transit":false,"distance":7293,"time":10,"i_long":106.394373,"station_name":"Maja","line":6},{"i_long":106.411216,"is_transit":false,"transit":false,"station_id":"CKY","station_name":"Cikoya","time":4,"i_lat":-6.33561,"line":3,"distance":1853},{"time":3,"distance":2651,"is_transit":false,"i_long":106.425991,"station_id":"TGS","transit":false,"i_lat":-6.328533,"line":6,"station_name":"Tigaraksa"},{"line":6,"i_long":106.460812,"i_lat":-6.327251,"transit":false,"is_transit":false,"distance":2974,"station_id":"TEJ","time":5,"station_name":"Tenjo"},{"distance":3902,"is_transit":false,"line":0,"transit":false,"station_name":"Daru","station_id":"DAR","time":5,"i_long":106.491338,"i_lat":-6.338021},{"station_name":"Cilejit","line":3,"station_id":"CJT","i_long":106.508482,"transit":false,"i_lat":-6.354349,"is_transit":false,"time":6,"distance":2675},{"station_name":"Parung Panjang","time":9,"i_long":106.568863,"i_lat":-6.3441410000000005,"transit":false,"distance":7025,"is_transit":false,"line":6,"station_id":"PRP"},{"line":3,"i_long":106.617853,"station_name":"Cicayur","i_lat":-6.329547,"is_transit":false,"distance":5968,"transit":false,"station_id":"CC","time":8},{"station_id":"CSK","distance":2519,"is_transit":false,"i_lat":-6.32484,"time":4,"station_name":"Cisauk","i_long":106.640411,"line":3,"transit":false},{"i_long":106.66566,"is_transit":false,"station_id":"SRP","time":4,"distance":1784,"transit":false,"station_name":"Serpong","i_lat":-6.319871,"line":6},{"time":4,"is_transit":false,"i_lat":-6.314823,"line":6,"i_long":106.675475,"station_id":"RU","station_name":"Rawa Buntu","distance":2413,"transit":false},{"distance":4566,"transit":false,"time":6,"i_lat":-6.296963,"i_long":106.712277,"line":6,"station_id":"SDM","station_name":"Sudimara","is_transit":false},{"is_transit":false,"i_lat":-6.288927,"station_id":"JMU","station_name":"Jurangmangu","time":4,"line":6,"distance":1994,"transit":false,"i_long":106.728916},{"i_lat":-6.276362,"is_transit":false,"distance":2179,"line":6,"transit":false,"i_long":106.74273,"station_id":"PDJ","station_name":"Pondokranji","time":3},{"i_long":106.780334,"line":6,"transit":false,"station_id":"KBY","time":8,"distance":6218,"station_name":"Kebayoran","is_transit":false,"i_lat":-6.237242},{"station_id":"PLM","is_transit":false,"distance":3737,"time":7,"transit":false,"station_name":"Palmerah","i_long":106.79689,"line":6,"i_lat":-6.207404},{"i_lat":-6.185545,"station_id":"THB","time":6,"transit":true,"station_name":"Tanah Abang","line":1,"i_long":106.811091,"distance":3191,"is_transit":true},{"station_id":"DU","i_long":106.800832,"transit":false,"distance":3632,"station_name":"Duri","is_transit":false,"i_lat":-6.155215,"time":8,"line":1},{"time":4,"line":1,"is_transit":false,"station_name":"Angke","i_long":106.79867,"distance":1230,"station_id":"AK","i_lat":-6.144674,"transit":false},{"is_transit":true,"station_name":"Kampung Bandan","i_lat":-6.132549,"transit":true,"i_long":106.826365,"time":9,"station_id":"KPB","line":4,"distance":4102},{"is_transit":false,"distance":1444,"transit":false,"line":11,"i_long":106.836569,"station_id":"RJW","station_name":"Rajawali","i_lat":-6.14505,"time":3},{"line":11,"station_id":"KMO","is_transit":false,"transit":false,"station_name":"Kemayoran","time":5,"i_long":106.839204,"distance":1901,"i_lat":-6.161728},{"i_lat":-6.174784,"station_id":"PSE","distance":1436,"i_long":106.84368,"station_name":"Pasar Senen","is_transit":false,"time":4,"transit":false,"line":11},{"line":11,"transit":false,"time":8,"i_long":106.850107,"station_name":"Gang Sentiong","distance":1567,"is_transit":false,"i_lat":-6.185975,"station_id":"GST"},{"is_transit":false,"i_lat":-6.193792,"transit":false,"station_name":"Kramat","time":1,"station_id":"KMT","distance":973,"i_long":106.855437,"line":11},{"distance":1829,"i_long":106.861737,"station_name":"Pondok Jati","i_lat":-6.209188,"time":2,"is_transit":false,"transit":false,"line":11,"station_id":"POK"},{"is_transit":true,"i_long":106.86807400000001,"i_lat":-6.215091,"station_id":"JNG","distance":1236,"transit":true,"time":9,"station_name":"Jatinegara","line":1},{"station_name":"Klender","transit":false,"station_id":"KLD","distance":3395,"is_transit":false,"time":3,"line":1,"i_long":106.899548,"i_lat":-6.2135},{"is_transit":false,"i_lat":-6.215568,"i_long":106.922662,"line":1,"time":2,"distance":3100,"station_id":"BUA","station_name":"Buaran","transit":false},{"is_transit":false,"line":1,"station_name":"Klenderbaru","distance":1305,"i_lat":-6.217455,"time":1,"i_long":106.939679,"transit":false,"station_id":"KLDB"},{"i_lat":-6.219053,"distance":1385,"station_id":"CUK","station_name":"Cakung","line":1,"transit":false,"is_transit":false,"time":8,"i_long":106.951283}],[{"line":3,"is_transit":false,"transit":false,"station_name":"Rangkasbitung","distance":0,"i_lat":-6.352675,"i_long":106.250396,"station_id":"RK","time":0},{"i_long":106.332092,"distance":9847,"time":13,"is_transit":false,"station_name":"Citeras","i_lat":-6.334892,"station_id":"CTR","transit":false,"line":3},{"station_name":"Maja","station_id":"MJ","is_transit":false,"i_long":106.394373,"line":6,"distance":7293,"time":10,"i_lat":-6.332307,"transit":false},{"i_lat":-6.33561,"station_id":"CKY","distance":1853,"transit":false,"station_name":"Cikoya","line":3,"i_long":106.411216,"time":4,"is_transit":false},{"i_long":106.425991,"line":6,"is_transit":false,"time":3,"i_lat":-6.328533,"distance":2651,"station_name":"Tigaraksa","station_id":"TGS","transit":false},{"i_lat":-6.327251,"distance":2974,"transit":false,"is_transit":false,"line":6,"time":5,"station_id":"TEJ","i_long":106.460812,"station_name":"Tenjo"},{"station_name":"Daru","is_transit":false,"time":5,"station_id":"DAR","line":0,"transit":false,"distance":3902,"i_long":106.491338,"i_lat":-6.338021},{"transit":false,"is_transit":false,"i_long":106.508482,"distance":2675,"station_id":"CJT","time":6,"i_lat":-6.354349,"line":3,"station_name":"Cilejit"},{"station_id":"PRP","i_lat":-6.3441410000000005,"transit":false,"station_name":"Parung Panjang","i_long":106.568863,"distance":7025,"line":6,"is_transit":false,"time":9},{"i_lat":-6.329547,"is_transit":false,"time":8,"station_id":"CC","distance":5968,"station_name":"Cicayur","transit":false,"line":3,"i_long":106.617853},{"time":4,"transit":false,"station_name":"Cisauk","line":3,"i_lat":-6.32484,"i_long":106.640411,"station_id":"CSK","is_transit":false,"distance":2519},{"is_transit":false,"transit":false,"i_lat":-6.319871,"station_id":"SRP","distance":1784,"station_name":"Serpong","i_long":106.66566,"line":6,"time":4},{"station_name":"Rawa Buntu","is_transit":false,"time":4,"line":6,"transit":false,"station_id":"RU","i_long":106.675475,"distance":2413,"i_lat":-6.314823},{"distance":4566,"transit":false,"is_transit":false,"line":6,"station_name":"Sudimara","station_id":"SDM","i_lat":-6.296963,"time":6,"i_long":106.712277},{"line":6,"distance":1994,"transit":false,"time":4,"station_id":"JMU","i_lat":-6.288927,"station_name":"Jurangmangu","is_transit":false,"i_long":106.728916},{"i_lat":-6.276362,"station_id":"PDJ","time":3,"transit":false,"is_transit":false,"i_long":106.74273,"station_name":"Pondokranji","line":6,"distance":2179},{"i_long":106.780334,"transit":false,"station_id":"KBY","is_transit":false,"line":6,"time":8,"distance":6218,"station_name":"Kebayoran","i_lat":-6.237242},{"transit":false,"station_name":"Palmerah","line":6,"i_lat":-6.207404,"station_id":"PLM","i_long":106.79689,"time":7,"is_transit":false,"distance":3737},{"i_long":106.811091,"station_name":"Tanah Abang","station_id":"THB","line":1,"distance":3191,"i_lat":-6.185545,"transit":true,"is_transit":true,"time":6},{"transit":false,"distance":3632,"line":1,"station_id":"DU","time":8,"is_transit":false,"i_long":106.800832,"station_name":"Duri","i_lat":-6.155215},{"line":1,"i_long":106.79867,"station_id":"AK","transit":false,"station_name":"Angke","time":4,"is_transit":false,"i_lat":-6.144674,"distance":1230},{"transit":true,"station_id":"KPB","line":4,"i_lat":-6.132549,"distance":4102,"is_transit":true,"station_name":"Kampung Bandan","time":9,"i_long":106.826365},{"line":2,"station_name":"Jakarta Kota","transit":true,"i_lat":-6.137569,"i_long":106.812439,"time":3,"distance":1364,"is_transit":true,"station_id":"JAKK"},{"transit":false,"is_transit":false,"line":2,"station_id":"JAY","i_lat":-6.141205,"time":4,"station_name":"Jayakarta","i_long":106.820901,"distance":1264},{"station_id":"MGB","distance":1080,"i_long":106.82482,"line":2,"station_name":"Manggabesar","is_transit":false,"time":2,"i_lat":-6.149769,"transit":false},{"transit":false,"station_id":"SW","line":2,"i_lat":-6.160725,"i_long":106.827103,"station_name":"Sawah Besar","is_transit":false,"distance":906,"time":2},{"station_id":"JUA","distance":1149,"line":2,"time":2,"transit":false,"station_name":"Juanda","i_lat":-6.166716,"i_long":106.828284,"is_transit":false},{"time":4,"i_lat":-6.186295,"distance":2015,"transit":false,"i_long":106.832183,"is_transit":false,"line":2,"station_id":"GDD","station_name":"Gondangdia"},{"distance":1750,"transit":false,"i_long":106.840169,"time":3,"i_lat":-6.198556,"station_id":"CKI","is_transit":false,"station_name":"Cikini","line":2},{"i_long":106.84912,"transit":true,"station_name":"Manggarai","distance":1590,"is_transit":true,"time":4,"station_id":"MRI","line":2,"i_lat":-6.209883},{"i_lat":-6.212485,"i_long":106.858896,"station_name":"Matraman","is_transit":false,"distance":1275,"time":2,"line":1,"station_id":"MTR","transit":false},{"station_name":"Jatinegara","i_lat":-6.215091,"station_id":"JNG","transit":false,"distance":1377,"time":8,"is_transit":false,"i_long":106.86807400000001,"line":1},{"time":3,"station_id":"KLD","station_name":"Klender","i_lat":-6.2135,"distance":3395,"i_long":106.899548,"line":1,"transit":false,"is_transit":false},{"station_name":"Buaran","line":1,"distance":3100,"i_lat":-6.215568,"station_id":"BUA","time":2,"i_long":106.922662,"transit":false,"is_transit":false},{"transit":false,"station_name":"Klenderbaru","i_lat":-6.217455,"station_id":"KLDB","i_long":106.939679,"is_transit":false,"line":1,"time":1,"distance":1305},{"i_long":106.951283,"station_name":"Cakung","station_id":"CUK","transit":false,"is_transit":false,"line":1,"distance":1385,"i_lat":-6.219053,"time":8}],[{"i_lat":-6.352675,"line":3,"i_long":106.250396,"distance":0,"station_name":"Rangkasbitung","station_id":"RK","is_transit":false,"transit":false,"time":0},{"is_transit":false,"i_lat":-6.334892,"i_long":106.332092,"line":3,"station_name":"Citeras","distance":9847,"transit":false,"station_id":"CTR","time":13},{"transit":false,"station_name":"Maja","station_id":"MJ","i_lat":-6.332307,"distance":7293,"time":10,"i_long":106.394373,"is_transit":false,"line":6},{"station_id":"CKY","transit":false,"line":3,"is_transit":false,"i_lat":-6.33561,"i_long":106.411216,"distance":1853,"time":4,"station_name":"Cikoya"},{"i_long":106.425991,"line":6,"transit":false,"distance":2651,"station_id":"TGS","station_name":"Tigaraksa","is_transit":false,"time":3,"i_lat":-6.328533},{"i_long":106.460812,"i_lat":-6.327251,"transit":false,"station_id":"TEJ","line":6,"distance":2974,"time":5,"station_name":"Tenjo","is_transit":false},{"station_name":"Daru","i_long":106.491338,"is_transit":false,"i_lat":-6.338021,"line":0,"transit":false,"station_id":"DAR","distance":3902,"time":5},{"i_long":106.508482,"transit":false,"time":6,"i_lat":-6.354349,"line":3,"station_id":"CJT","station_name":"Cilejit","is_transit":false,"distance":2675},{"i_long":106.568863,"is_transit":false,"distance":7025,"station_name":"Parung Panjang","time":9,"station_id":"PRP","i_lat":-6.3441410000000005,"line":6,"transit":false},{"line":3,"i_lat":-6.329547,"time":8,"is_transit":false,"distance":5968,"i_long":106.617853,"transit":false,"station_name":"Cicayur","station_id":"CC"},{"distance":2519,"transit":false,"is_transit":false,"time":4,"i_lat":-6.32484,"i_long":106.640411,"station_id":"CSK","line":3,"station_name":"Cisauk"},{"distance":1784,"time":4,"transit":false,"i_long":106.66566,"is_transit":false,"station_id":"SRP","line":6,"station_name":"Serpong","i_lat":-6.319871},{"time":4,"is_transit":false,"station_name":"Rawa Buntu","line":6,"station_id":"RU","i_lat":-6.314823,"i_long":106.675475,"distance":2413,"transit":false},{"i_lat":-6.296963,"line":6,"distance":4566,"station_name":"Sudimara","time":6,"transit":false,"station_id":"SDM","i_long":106.712277,"is_transit":false},{"distance":1994,"transit":false,"i_long":106.728916,"i_lat":-6.288927,"station_id":"JMU","line":6,"station_name":"Jurangmangu","is_transit":false,"time":4},{"is_transit":false,"i_long":106.74273,"transit":false,"time":3,"i_lat":-6.276362,"station_id":"PDJ","station_name":"Pondokranji","distance":2179,"line":6},{"transit":false,"station_id":"KBY","line":6,"time":8,"station_name":"Kebayoran","i_long":106.780334,"is_transit":false,"distance":6218,"i_lat":-6.237242},{"station_name":"Palmerah","i_lat":-6.207404,"station_id":"PLM","i_long":106.79689,"transit":false,"distance":3737,"line":6,"time":7,"is_transit":false},{"i_long":106.811091,"i_lat":-6.185545,"is_transit":true,"line":1,"transit":true,"station_name":"Tanah Abang","distance":3191,"station_id":"THB","time":6},{"distance":2029,"i_long":106.816351,"station_id":"KAT","i_lat":-6.20132,"station_name":"Karet","line":1,"transit":false,"time":5,"is_transit":false},{"station_id":"SUDB","time":1,"i_long":106.819881,"station_name":"Sudirman Baru","line":1,"is_transit":false,"transit":false,"i_lat":-6.201433,"distance":471},{"time":1,"station_id":"SUD","station_name":"Sudirman","is_transit":false,"line":1,"i_lat":-6.202263,"i_long":106.822649,"distance":280,"transit":false},{"distance":3186,"i_long":106.84912,"line":2,"is_transit":true,"transit":true,"time":4,"i_lat":-6.209883,"station_id":"MRI","station_name":"Manggarai"},{"i_long":106.840169,"is_transit":false,"i_lat":-6.198556,"distance":1590,"transit":false,"time":4,"station_id":"CKI","station_name":"Cikini","line":2},{"i_lat":-6.186295,"line":2,"is_transit":false,"station_name":"Gondangdia","transit":false,"station_id":"GDD","distance":1750,"time":3,"i_long":106.832183},{"distance":2015,"time":4,"i_lat":-6.166716,"line":2,"station_id":"JUA","is_transit":false,"transit":false,"station_name":"Juanda","i_long":106.828284},{"transit":false,"station_id":"SW","is_transit":false,"station_name":"Sawah Besar","i_lat":-6.160725,"time":2,"line":2,"i_long":106.827103,"distance":1149},{"i_lat":-6.149769,"time":2,"i_long":106.82482,"station_id":"MGB","transit":false,"line":2,"distance":906,"station_name":"Manggabesar","is_transit":false},{"station_name":"Jayakarta","i_lat":-6.141205,"station_id":"JAY","time":2,"distance":1080,"transit":false,"is_transit":false,"i_long":106.820901,"line":2},{"station_id":"JAKK","station_name":"Jakarta Kota","time":4,"i_lat":-6.137569,"transit":true,"is_transit":true,"distance":1264,"i_long":106.812439,"line":2},{"i_lat":-6.132549,"transit":true,"time":3,"i_long":106.826365,"is_transit":true,"station_name":"Kampung Bandan","line":4,"distance":1364,"station_id":"KPB"},{"station_id":"RJW","is_transit":false,"i_long":106.836569,"distance":1444,"transit":false,"station_name":"Rajawali","time":3,"line":11,"i_lat":-6.14505},{"time":5,"i_lat":-6.161728,"is_transit":false,"station_id":"KMO","distance":1901,"i_long":106.839204,"line":11,"station_name":"Kemayoran","transit":false},{"i_long":106.84368,"distance":1436,"is_transit":false,"time":4,"i_lat":-6.174784,"line":11,"station_name":"Pasar Senen","station_id":"PSE","transit":false},{"time":8,"transit":false,"station_name":"Gang Sentiong","i_lat":-6.185975,"line":11,"is_transit":false,"station_id":"GST","i_long":106.850107,"distance":1567},{"i_lat":-6.193792,"i_long":106.855437,"transit":false,"station_id":"KMT","is_transit":false,"distance":973,"station_name":"Kramat","time":1,"line":11},{"i_long":106.861737,"distance":1829,"transit":false,"station_id":"POK","is_transit":false,"time":2,"station_name":"Pondok Jati","i_lat":-6.209188,"line":11},{"i_lat":-6.215091,"line":1,"transit":true,"station_id":"JNG","i_long":106.86807400000001,"is_transit":true,"station_name":"Jatinegara","time":9,"distance":1236},{"station_name":"Klender","distance":3395,"transit":false,"i_lat":-6.2135,"line":1,"time":3,"is_transit":false,"i_long":106.899548,"station_id":"KLD"},{"station_name":"Buaran","distance":3100,"station_id":"BUA","time":2,"i_long":106.922662,"line":1,"is_transit":false,"i_lat":-6.215568,"transit":false},{"station_id":"KLDB","distance":1305,"time":1,"i_long":106.939679,"i_lat":-6.217455,"line":1,"is_transit":false,"transit":false,"station_name":"Klenderbaru"},{"distance":1385,"i_long":106.951283,"time":8,"line":1,"station_name":"Cakung","transit":false,"is_transit":false,"i_lat":-6.219053,"station_id":"CUK"}]]}