{"data":[[{"distance":0,"station_name":"Rangkasbitung","line":3,"station_id":"RK","is_transit":false,"i_long":106.250396,"i_lat":-6.352675,"transit":false,"time":0},{"station_name":"Citeras","is_transit":false,"line":3,"station_id":"CTR","distance":9847,"i_lat":-6.334892,"i_long":106.332092,"time":13,"transit":false},{"station_name":"Maja","line":6,"station_id":"MJ","transit":false,"is_transit":false,"time":10,"i_lat":-6.332307,"i_long":106.394373,"distance":7293},{"transit":false,"i_lat":-6.33561,"line":3,"distance":1853,"station_id":"CKY","time":4,"i_long":106.411216,"is_transit":false,"station_name":"Cikoya"},{"line":6,"i_lat":-6.328533,"is_transit":false,"station_id":"TGS","distance":2651,"station_name":"Tigaraksa","i_long":106.425991,"time":3,"transit":false},{"station_id":"TEJ","distance":2974,"i_long":106.460812,"line":6,"station_name":"Tenjo","i_lat":-6.327251,"transit":false,"time":5,"is_transit":false},{"transit":false,"distance":3902,"station_id":"DAR","line":0,"is_transit":false,"i_lat":-6.338021,"station_name":"Daru","i_long":106.491338,"time":5},{"distance":2675,"i_lat":-6.354349,"station_name":"Cilejit","is_transit":false,"i_long":106.508482,"time":6,"station_id":"CJT","line":3,"transit":false},{"station_name":"Parung Panjang","station_id":"PRP","i_lat":-6.3441410000000005,"distance":7025,"is_transit":false,"transit":false,"i_long":106.568863,"line":6,"time":9},{"i_lat":-6.329547,"i_long":106.617853,"station_name":"Cicayur","time":8,"distance":5968,"line":3,"transit":false,"station_id":"CC","is_transit":false}]]}