{"data":[[{"time":0,"distance":0,"is_transit":true,"station_name":"Rangkasbitung","transit":false,"station_id":"RK","line":0,"i_lat":-6.352675,"i_long":106.250396},{"station_id":"CTR","station_name":"Citeras","transit":false,"time":13,"distance":9847,"is_transit":false,"i_lat":-6.334892,"i_long":106.332092,"line":0},{"station_id":"MJ","distance":7293,"i_long":106.394373,"station_name":"Maja","i_lat":-6.332307,"is_transit":false,"time":10,"transit":false,"line":6},{"time":4,"station_id":"CKY","i_long":106.411216,"line":0,"i_lat":-6.33561,"transit":false,"station_name":"Cikoya","distance":1853,"is_transit":false},{"is_transit":false,"station_name":"Tigaraksa","time":3,"line":6,"distance":2651,"station_id":"TGS","transit":false,"i_lat":-6.328533,"i_long":106.425991},{"station_name":"Tenjo","time":5,"transit":false,"distance":2974,"is_transit":false,"i_long":106.460812,"i_lat":-6.327251,"line":6,"station_id":"TEJ"},{"i_long":106.491338,"is_transit":false,"time":5,"i_lat":-6.338021,"station_name":"Daru","distance":3902,"transit":false,"line":0,"station_id":"DAR"},{"is_transit":false,"station_name":"Cilejit","i_long":106.508482,"distance":2675,"i_lat":-6.354349,"transit":false,"station_id":"CJT","line":0,"time":6},{"station_id":"PRP","i_lat":-6.3441410000000005,"is_transit":false,"i_long":106.568863,"station_name":"Parung Panjang","line":6,"distance":7025,"transit":false,"time":9},{"is_transit":false,"distance":5968,"time":8,"station_id":"CC","i_lat":-6.329547,"station_name":"Cicayur","i_long":106.617853,"line":0,"transit":false},{"station_name":"Cisauk","is_transit":false,"i_long":106.640411,"line":0,"transit":false,"distance":2519,"i_lat":-6.32484,"time":4,"station_id":"CSK"},{"station_id":"SRP","distance":1784,"transit":false,"line":6,"time":4,"i_long":106.66566,"is_transit":false,"station_name":"Serpong","i_lat":-6.319871},{"time":4,"transit":false,"i_lat":-6.314823,"is_transit":false,"line":6,"station_name":"Rawa Buntu","station_id":"RU","distance":2413,"i_long":106.675475},{"time":6,"i_long":106.712277,"transit":false,"line":6,"is_transit":false,"i_lat":-6.296963,"distance":4566,"station_id":"SDM","station_name":"Sudimara"},{"distance":1994,"is_transit":false,"time":4,"i_long":106.728916,"line":6,"station_id":"JMU","transit":false,"station_name":"Jurangmangu","i_lat":-6.288927},{"i_lat":-6.276362,"station_name":"Pondokranji","i_long":106.74273,"is_transit":false,"line":6,"time":3,"distance":2179,"station_id":"PDJ","transit":false},{"line":6,"station_id":"KBY","i_lat":-6.237242,"station_name":"Kebayoran","distance":6218,"time":8,"is_transit":false,"transit":false,"i_long":106.780334},{"distance":3737,"i_long":106.79689,"i_lat":-6.207404,"transit":false,"time":7,"line":6,"is_transit":false,"station_name":"Palmerah","station_id":"PLM"},{"time":6,"distance":3191,"transit":true,"line":1,"i_lat":-6.185545,"station_name":"Tanah Abang","is_transit":true,"station_id":"THB","i_long":106.811091},{"station_name":"Karet","transit":false,"distance":2029,"time":5,"i_lat":-6.20132,"i_long":106.816351,"line":1,"is_transit":false,"station_id":"KAT"},{"line":1,"station_id":"SUDB","i_lat":-6.201433,"i_long":106.819881,"station_name":"Sudirman Baru","time":1,"distance":471,"is_transit":false,"transit":false},{"i_long":106.822649,"transit":false,"line":1,"time":1,"distance":280,"station_name":"Sudirman","station_id":"SUD","is_transit":false,"i_lat":-6.202263},{"time":4,"is_transit":true,"distance":3186,"line":0,"station_id":"MRI","i_lat":-6.209883,"i_long":106.84912,"station_name":"Manggarai","transit":true},{"station_id":"TEB","time":4,"distance":2610,"line":2,"station_name":"Tebet","transit":false,"i_lat":-6.226659,"is_transit":false,"i_long":106.857948},{"i_lat":-6.242512,"station_id":"CW","distance":1230,"i_long":106.856607,"transit":false,"time":2,"line":0,"is_transit":false,"station_name":"Cawang"}],[{"transit":false,"i_lat":-6.352675,"i_long":106.250396,"distance":0,"time":0,"is_transit":true,"station_name":"Rangkasbitung","station_id":"RK","line":0},{"i_long":106.332092,"transit":false,"i_lat":-6.334892,"line":0,"is_transit":false,"station_name":"Citeras","time":13,"distance":9847,"station_id":"CTR"},{"time":10,"is_transit":false,"line":6,"distance":7293,"station_id":"MJ","i_lat":-6.332307,"transit":false,"station_name":"Maja","i_long":106.394373},{"distance":1853,"transit":false,"time":4,"station_name":"Cikoya","is_transit":false,"i_lat":-6.33561,"line":0,"station_id":"CKY","i_long":106.411216},{"time":3,"i_long":106.425991,"station_name":"Tigaraksa","line":6,"station_id":"TGS","transit":false,"i_lat":-6.328533,"distance":2651,"is_transit":false},{"transit":false,"time":5,"line":6,"i_lat":-6.327251,"i_long":106.460812,"distance":2974,"station_name":"Tenjo","is_transit":false,"station_id":"TEJ"},{"station_id":"DAR","time":5,"distance":3902,"i_lat":-6.338021,"line":0,"i_long":106.491338,"station_name":"Daru","transit":false,"is_transit":false},{"is_transit":false,"i_lat":-6.354349,"distance":2675,"station_name":"Cilejit","i_long":106.508482,"transit":false,"line":0,"time":6,"station_id":"CJT"},{"line":6,"is_transit":false,"distance":7025,"transit":false,"time":9,"i_long":106.568863,"station_id":"PRP","i_lat":-6.3441410000000005,"station_name":"Parung Panjang"},{"time":8,"i_long":106.617853,"station_id":"CC","i_lat":-6.329547,"line":0,"transit":false,"station_name":"Cicayur","distance":5968,"is_transit":false},{"station_name":"Cisauk","i_lat":-6.32484,"distance":2519,"station_id":"CSK","time":4,"transit":false,"i_long":106.640411,"is_transit":false,"line":0},{"time":4,"station_name":"Serpong","is_transit":false,"i_lat":-6.319871,"station_id":"SRP","distance":1784,"i_long":106.66566,"transit":false,"line":6},{"i_lat":-6.314823,"i_long":106.675475,"transit":false,"line":6,"is_transit":false,"distance":2413,"station_name":"Rawa Buntu","station_id":"RU","time":4},{"i_lat":-6.296963,"station_id":"SDM","time":6,"i_long":106.712277,"distance":4566,"transit":false,"is_transit":false,"line":6,"station_name":"Sudimara"},{"is_transit":false,"i_long":106.728916,"station_id":"JMU","station_name":"Jurangmangu","i_lat":-6.288927,"line":6,"time":4,"distance":1994,"transit":false},{"transit":false,"i_lat":-6.276362,"station_id":"PDJ","distance":2179,"station_name":"Pondokranji","time":3,"i_long":106.74273,"line":6,"is_transit":false},{"line":6,"time":8,"station_name":"Kebayoran","i_long":106.780334,"distance":6218,"station_id":"KBY","is_transit":false,"transit":false,"i_lat":-6.237242},{"station_id":"PLM","is_transit":false,"time":7,"transit":false,"i_lat":-6.207404,"i_long":106.79689,"station_name":"Palmerah","distance":3737,"line":6},{"distance":3191,"station_id":"THB","is_transit":true,"i_long":106.811091,"line":1,"station_name":"Tanah Abang","time":6,"i_lat":-6.185545,"transit":true},{"transit":true,"line":1,"station_name":"Duri","is_transit":true,"station_id":"DU","i_lat":-6.155215,"time":8,"distance":3632,"i_long":106.800832},{"station_id":"AK","i_long":106.79867,"transit":false,"i_lat":-6.144674,"distance":1230,"line":0,"is_transit":false,"station_name":"Angke","time":4},{"time":9,"i_lat":-6.132549,"distance":4102,"is_transit":true,"station_name":"Kampung Bandan","i_long":106.826365,"transit":false,"station_id":"KPB","line":0},{"station_name":"Jakarta Kota","distance":1364,"time":3,"is_transit":true,"i_lat":-6.137569,"line":0,"station_id":"JAKK","i_long":106.812439,"transit":true},{"time":4,"is_transit":false,"i_long":106.820901,"line":7,"transit":false,"station_name":"Jayakarta","i_lat":-6.141205,"distance":1264,"station_id":"JAY"},{"i_long":106.82482,"i_lat":-6.149769,"station_id":"MGB","is_transit":false,"transit":false,"time":2,"line":2,"station_name":"Manggabesar","distance":1080},{"time":2,"distance":906,"i_long":106.827103,"is_transit":false,"station_name":"Sawah Besar","station_id":"SW","line":2,"transit":false,"i_lat":-6.160725},{"i_lat":-6.166716,"time":2,"station_name":"Juanda","distance":1149,"transit":false,"station_id":"JUA","line":2,"i_long":106.828284,"is_transit":false},{"station_name":"Gondangdia","is_transit":false,"time":4,"i_lat":-6.186295,"station_id":"GDD","transit":false,"distance":2015,"i_long":106.832183,"line":2},{"is_transit":false,"i_lat":-6.198556,"i_long":106.840169,"station_name":"Cikini","time":3,"line":0,"distance":1750,"transit":false,"station_id":"CKI"},{"station_id":"MRI","time":4,"transit":true,"i_lat":-6.209883,"distance":1590,"i_long":106.84912,"is_transit":true,"station_name":"Manggarai","line":0},{"i_long":106.857948,"i_lat":-6.226659,"is_transit":false,"distance":2610,"station_name":"Tebet","line":2,"station_id":"TEB","transit":false,"time":4},{"i_lat":-6.242512,"i_long":106.856607,"is_transit":false,"station_name":"Cawang","time":2,"transit":false,"station_id":"CW","distance":1230,"line":0}],[{"i_lat":-6.352675,"distance":0,"transit":false,"is_transit":true,"station_id":"RK","station_name":"Rangkasbitung","time":0,"line":0,"i_long":106.250396},{"is_transit":false,"station_name":"Citeras","station_id":"CTR","i_long":106.332092,"line":0,"i_lat":-6.334892,"time":13,"distance":9847,"transit":false},{"distance":7293,"transit":false,"time":10,"i_long":106.394373,"i_lat":-6.332307,"station_name":"Maja","line":6,"station_id":"MJ","is_transit":false},{"time":4,"i_long":106.411216,"transit":false,"line":0,"station_id":"CKY","distance":1853,"i_lat":-6.33561,"is_transit":false,"station_name":"Cikoya"},{"distance":2651,"transit":false,"station_id":"TGS","is_transit":false,"i_lat":-6.328533,"time":3,"station_name":"Tigaraksa","i_long":106.425991,"line":6},{"station_id":"TEJ","line":6,"station_name":"Tenjo","distance":2974,"time":5,"transit":false,"i_long":106.460812,"i_lat":-6.327251,"is_transit":false},{"distance":3902,"is_transit":false,"station_id":"DAR","time":5,"i_lat":-6.338021,"station_name":"Daru","i_long":106.491338,"line":0,"transit":false},{"line":0,"distance":2675,"time":6,"station_id":"CJT","transit":false,"i_lat":-6.354349,"is_transit":false,"i_long":106.508482,"station_name":"Cilejit"},{"i_lat":-6.3441410000000005,"transit":false,"i_long":106.568863,"line":6,"time":9,"station_id":"PRP","distance":7025,"is_transit":false,"station_name":"Parung Panjang"},{"i_lat":-6.329547,"line":0,"is_transit":false,"station_name":"Cicayur","station_id":"CC","i_long":106.617853,"transit":false,"distance":5968,"time":8},{"transit":false,"time":4,"distance":2519,"station_name":"Cisauk","station_id":"CSK","i_long":106.640411,"line":0,"i_lat":-6.32484,"is_transit":false},{"distance":1784,"time":4,"i_long":106.66566,"line":6,"is_transit":false,"station_id":"SRP","transit":false,"i_lat":-6.319871,"station_name":"Serpong"},{"is_transit":false,"station_id":"RU","i_lat":-6.314823,"line":6,"station_name":"Rawa Buntu","transit":false,"distance":2413,"time":4,"i_long":106.675475},{"time":6,"i_lat":-6.296963,"is_transit":false,"line":6,"i_long":106.712277,"station_id":"SDM","station_name":"Sudimara","distance":4566,"transit":false},{"line":6,"is_transit":false,"station_id":"JMU","i_long":106.728916,"station_name":"Jurangmangu","i_lat":-6.288927,"distance":1994,"transit":false,"time":4},{"station_name":"Pondokranji","station_id":"PDJ","i_long":106.74273,"line":6,"distance":2179,"transit":false,"time":3,"i_lat":-6.276362,"is_transit":false},{"line":6,"transit":false,"station_id":"KBY","station_name":"Kebayoran","time":8,"distance":6218,"is_transit":false,"i_lat":-6.237242,"i_long":106.780334},{"is_transit":false,"station_id":"PLM","i_lat":-6.207404,"transit":false,"station_name":"Palmerah","time":7,"i_long":106.79689,"distance":3737,"line":6},{"line":1,"station_name":"Tanah Abang","transit":true,"station_id":"THB","time":6,"i_lat":-6.185545,"i_long":106.811091,"distance":3191,"is_transit":true},{"station_name":"Duri","transit":true,"i_lat":-6.155215,"distance":3632,"i_long":106.800832,"is_transit":true,"station_id":"DU","line":1,"time":8},{"distance":1230,"transit":false,"station_id":"AK","i_long":106.79867,"time":4,"i_lat":-6.144674,"line":0,"is_transit":false,"station_name":"Angke"},{"is_transit":true,"distance":4102,"i_lat":-6.132549,"station_id":"KPB","line":0,"station_name":"Kampung Bandan","transit":true,"time":9,"i_long":106.826365},{"i_long":106.836569,"line":11,"distance":1444,"i_lat":-6.14505,"station_id":"RJW","transit":false,"time":3,"is_transit":false,"station_name":"Rajawali"},{"is_transit":false,"i_lat":-6.161728,"i_long":106.839204,"time":5,"station_id":"KMO","transit":false,"line":11,"station_name":"Kemayoran","distance":1901},{"i_long":106.84368,"line":11,"transit":false,"station_name":"Pasar Senen","time":4,"distance":1436,"i_lat":-6.174784,"station_id":"PSE","is_transit":false},{"transit":false,"time":8,"line":11,"distance":1567,"station_name":"Gang Sentiong","station_id":"GST","i_long":106.850107,"is_transit":false,"i_lat":-6.185975},{"i_lat":-6.193792,"station_name":"Kramat","time":1,"transit":false,"line":11,"distance":973,"station_id":"KMT","is_transit":false,"i_long":106.855437},{"distance":1829,"station_id":"POK","time":2,"is_transit":false,"i_long":106.861737,"i_lat":-6.209188,"transit":false,"line":11,"station_name":"Pondok Jati"},{"station_name":"Jatinegara","i_long":106.86807400000001,"distance":1236,"line":0,"i_lat":-6.215091,"transit":true,"time":9,"is_transit":true,"station_id":"JNG"},{"i_long":106.858896,"is_transit":false,"station_id":"MTR","line":1,"station_name":"Matraman","transit":false,"distance":1377,"time":2,"i_lat":-6.212485},{"distance":1275,"time":2,"i_lat":-6.209883,"line":0,"station_name":"Manggarai","is_transit":true,"i_long":106.84912,"station_id":"MRI","transit":true},{"time":4,"i_lat":-6.226659,"station_name":"Tebet","line":2,"station_id":"TEB","i_long":106.857948,"distance":2610,"is_transit":false,"transit":false},{"i_lat":-6.242512,"line":0,"station_name":"Cawang","station_id":"CW","is_transit":false,"distance":1230,"time":2,"i_long":106.856607,"transit":false}]]}