{"data":[[{"distance":0,"time":0,"station_id":"RK","transit":false,"i_lat":-6.352675,"is_transit":true,"station_name":"Rangkasbitung","i_long":106.250396,"line":0},{"distance":9847,"station_name":"Citeras","is_transit":false,"station_id":"CTR","line":0,"time":13,"i_long":106.332092,"transit":false,"i_lat":-6.334892},{"station_name":"Maja","transit":false,"i_lat":-6.332307,"station_id":"MJ","distance":7293,"time":10,"i_long":106.394373,"line":6,"is_transit":false},{"transit":false,"station_id":"CKY","station_name":"Cikoya","distance":1853,"time":4,"i_long":106.411216,"is_transit":false,"i_lat":-6.33561,"line":0},{"line":6,"distance":2651,"is_transit":false,"transit":false,"time":3,"i_lat":-6.328533,"station_id":"TGS","i_long":106.425991,"station_name":"Tigaraksa"},{"distance":2974,"is_transit":false,"time":5,"i_long":106.460812,"line":6,"transit":false,"station_id":"TEJ","i_lat":-6.327251,"station_name":"Tenjo"},{"station_id":"DAR","station_name":"Daru","i_lat":-6.338021,"line":0,"distance":3902,"i_long":106.491338,"is_transit":false,"transit":false,"time":5},{"time":6,"i_lat":-6.354349,"distance":2675,"station_name":"Cilejit","line":0,"i_long":106.508482,"station_id":"CJT","is_transit":false,"transit":false}]]}