{"data":[[{"time":0,"distance":0,"station_name":"Rangkasbitung","i_lat":-6.352675,"line":3,"station_id":"RK","is_transit":false,"transit":false,"i_long":106.250396},{"i_long":106.332092,"transit":false,"is_transit":false,"station_name":"Citeras","line":3,"distance":9847,"station_id":"CTR","time":13,"i_lat":-6.334892},{"time":10,"station_id":"MJ","station_name":"Maja","is_transit":false,"transit":false,"i_long":106.394373,"line":6,"distance":7293,"i_lat":-6.332307},{"transit":false,"line":3,"time":4,"station_id":"CKY","i_long":106.411216,"station_name":"Cikoya","i_lat":-6.33561,"distance":1853,"is_transit":false},{"station_id":"TGS","transit":false,"is_transit":false,"i_lat":-6.328533,"distance":2651,"line":6,"i_long":106.425991,"station_name":"Tigaraksa","time":3},{"time":5,"i_long":106.460812,"is_transit":false,"transit":false,"distance":2974,"station_name":"Tenjo","station_id":"TEJ","i_lat":-6.327251,"line":6},{"time":5,"station_id":"DAR","line":0,"transit":false,"distance":3902,"station_name":"Daru","is_transit":false,"i_lat":-6.338021,"i_long":106.491338},{"distance":2675,"transit":false,"i_long":106.508482,"i_lat":-6.354349,"line":3,"station_name":"Cilejit","station_id":"CJT","is_transit":false,"time":6},{"time":9,"transit":false,"is_transit":false,"i_lat":-6.3441410000000005,"i_long":106.568863,"station_id":"PRP","station_name":"Parung Panjang","distance":7025,"line":6},{"time":8,"transit":false,"line":3,"distance":5968,"station_name":"Cicayur","station_id":"CC","is_transit":false,"i_lat":-6.329547,"i_long":106.617853},{"distance":2519,"is_transit":false,"transit":false,"i_long":106.640411,"time":4,"station_id":"CSK","station_name":"Cisauk","i_lat":-6.32484,"line":3},{"station_id":"SRP","station_name":"Serpong","line":6,"i_long":106.66566,"is_transit":false,"time":4,"distance":1784,"transit":false,"i_lat":-6.319871},{"time":4,"station_id":"RU","distance":2413,"station_name":"Rawa Buntu","is_transit":false,"i_lat":-6.314823,"i_long":106.675475,"line":6,"transit":false},{"transit":false,"i_lat":-6.296963,"station_id":"SDM","distance":4566,"is_transit":false,"line":6,"station_name":"Sudimara","i_long":106.712277,"time":6},{"line":6,"i_lat":-6.288927,"i_long":106.728916,"distance":1994,"station_id":"JMU","transit":false,"station_name":"Jurangmangu","time":4,"is_transit":false},{"station_name":"Pondokranji","is_transit":false,"time":3,"i_long":106.74273,"transit":false,"i_lat":-6.276362,"distance":2179,"line":6,"station_id":"PDJ"},{"station_name":"Kebayoran","is_transit":false,"i_long":106.780334,"line":6,"time":8,"i_lat":-6.237242,"station_id":"KBY","transit":false,"distance":6218},{"distance":3737,"i_lat":-6.207404,"station_name":"Palmerah","i_long":106.79689,"time":7,"line":6,"station_id":"PLM","is_transit":false,"transit":false},{"is_transit":true,"i_lat":-6.185545,"line":1,"station_id":"THB","time":6,"i_long":106.811091,"transit":true,"distance":3191,"station_name":"Tanah Abang"},{"i_long":106.816351,"distance":2029,"is_transit":false,"line":1,"station_id":"KAT","i_lat":-6.20132,"time":5,"station_name":"Karet","transit":false},{"transit":false,"i_long":106.819881,"is_transit":false,"distance":471,"station_id":"SUDB","i_lat":-6.201433,"time":1,"station_name":"Sudirman Baru","line":1},{"time":1,"is_transit":false,"i_lat":-6.202263,"i_long":106.822649,"station_name":"Sudirman","transit":false,"station_id":"SUD","line":1,"distance":280},{"i_long":106.84912,"transit":false,"distance":3186,"is_transit":false,"time":4,"station_name":"Manggarai","i_lat":-6.209883,"line":2,"station_id":"MRI"},{"transit":false,"station_name":"Matraman","i_long":106.858896,"distance":1275,"station_id":"MTR","is_transit":false,"time":2,"i_lat":-6.212485,"line":1},{"transit":false,"i_lat":-6.215091,"station_id":"JNG","time":8,"station_name":"Jatinegara","i_long":106.86807400000001,"line":1,"distance":1377,"is_transit":false},{"line":1,"time":3,"station_id":"KLD","is_transit":false,"i_long":106.899548,"transit":false,"i_lat":-6.2135,"station_name":"Klender","distance":3395},{"distance":3100,"station_name":"Buaran","is_transit":false,"i_long":106.922662,"transit":false,"time":2,"i_lat":-6.215568,"line":1,"station_id":"BUA"},{"i_long":106.939679,"distance":1305,"transit":false,"is_transit":false,"time":1,"station_id":"KLDB","station_name":"Klenderbaru","i_lat":-6.217455,"line":1},{"time":8,"station_name":"Cakung","i_lat":-6.219053,"is_transit":false,"station_id":"CUK","line":1,"distance":1385,"i_long":106.951283,"transit":false},{"station_id":"KRI","i_lat":-6.224515,"station_name":"Kranji","distance":3097,"time":3,"i_long":106.977657,"transit":false,"is_transit":false,"line":1},{"i_lat":-6.236616,"is_transit":false,"station_name":"Bekasi","station_id":"BKS","line":1,"i_long":106.997013,"time":4,"distance":2520,"transit":false},{"distance":2368,"i_long":107.016735,"transit":false,"station_name":"Bekasi Timur","is_transit":false,"i_lat":-6.248029,"time":2,"station_id":"BKST","line":1},{"time":7,"is_transit":false,"transit":false,"station_name":"Tambun","i_long":107.055722,"line":1,"station_id":"TB","distance":4460,"i_lat":-6.258864},{"time":3,"i_lat":-6.261877,"station_id":"CIT","transit":false,"station_name":"Cibitung","distance":3420,"is_transit":false,"i_long":107.083084,"line":1},{"i_long":107.093313,"i_lat":-6.262938,"station_id":"TLM","transit":false,"line":1,"station_name":"Metland Telaga Murni","distance":2800,"time":2,"is_transit":false},{"time":4,"i_lat":-6.2553149999999995,"transit":false,"is_transit":false,"distance":3689,"station_name":"Cikarang","i_long":107.144613,"line":1,"station_id":"CKR"}],[{"station_name":"Rangkasbitung","is_transit":false,"distance":0,"transit":false,"i_long":106.250396,"i_lat":-6.352675,"station_id":"RK","line":3,"time":0},{"transit":false,"i_long":106.332092,"distance":9847,"time":13,"station_id":"CTR","station_name":"Citeras","is_transit":false,"i_lat":-6.334892,"line":3},{"distance":7293,"is_transit":false,"i_long":106.394373,"line":6,"station_id":"MJ","time":10,"transit":false,"i_lat":-6.332307,"station_name":"Maja"},{"is_transit":false,"i_lat":-6.33561,"distance":1853,"transit":false,"station_id":"CKY","i_long":106.411216,"line":3,"time":4,"station_name":"Cikoya"},{"time":3,"i_long":106.425991,"i_lat":-6.328533,"station_name":"Tigaraksa","transit":false,"distance":2651,"is_transit":false,"line":6,"station_id":"TGS"},{"is_transit":false,"transit":false,"station_id":"TEJ","i_lat":-6.327251,"time":5,"station_name":"Tenjo","distance":2974,"i_long":106.460812,"line":6},{"i_long":106.491338,"line":0,"distance":3902,"station_id":"DAR","transit":false,"time":5,"station_name":"Daru","is_transit":false,"i_lat":-6.338021},{"is_transit":false,"distance":2675,"line":3,"station_name":"Cilejit","i_lat":-6.354349,"transit":false,"station_id":"CJT","time":6,"i_long":106.508482},{"transit":false,"distance":7025,"is_transit":false,"i_long":106.568863,"i_lat":-6.3441410000000005,"line":6,"station_id":"PRP","time":9,"station_name":"Parung Panjang"},{"i_lat":-6.329547,"distance":5968,"i_long":106.617853,"line":3,"station_id":"CC","station_name":"Cicayur","transit":false,"time":8,"is_transit":false},{"distance":2519,"time":4,"transit":false,"line":3,"i_long":106.640411,"station_name":"Cisauk","i_lat":-6.32484,"station_id":"CSK","is_transit":false},{"time":4,"i_long":106.66566,"station_name":"Serpong","station_id":"SRP","transit":false,"i_lat":-6.319871,"line":6,"is_transit":false,"distance":1784},{"station_name":"Rawa Buntu","is_transit":false,"transit":false,"i_lat":-6.314823,"i_long":106.675475,"time":4,"distance":2413,"station_id":"RU","line":6},{"station_id":"SDM","station_name":"Sudimara","i_lat":-6.296963,"distance":4566,"time":6,"transit":false,"i_long":106.712277,"line":6,"is_transit":false},{"i_long":106.728916,"line":6,"transit":false,"time":4,"distance":1994,"station_name":"Jurangmangu","is_transit":false,"station_id":"JMU","i_lat":-6.288927},{"line":6,"i_lat":-6.276362,"distance":2179,"i_long":106.74273,"station_name":"Pondokranji","station_id":"PDJ","time":3,"is_transit":false,"transit":false},{"distance":6218,"transit":false,"i_lat":-6.237242,"station_name":"Kebayoran","station_id":"KBY","is_transit":false,"time":8,"line":6,"i_long":106.780334},{"is_transit":false,"i_lat":-6.207404,"time":7,"line":6,"distance":3737,"transit":false,"station_name":"Palmerah","i_long":106.79689,"station_id":"PLM"},{"station_name":"Tanah Abang","is_transit":true,"distance":3191,"i_long":106.811091,"i_lat":-6.185545,"time":6,"line":1,"transit":true,"station_id":"THB"},{"i_lat":-6.155215,"line":1,"i_long":106.800832,"transit":false,"is_transit":false,"time":8,"station_name":"Duri","station_id":"DU","distance":3632},{"line":1,"time":4,"station_name":"Angke","transit":false,"i_lat":-6.144674,"i_long":106.79867,"distance":1230,"is_transit":false,"station_id":"AK"},{"station_name":"Kampung Bandan","line":4,"time":9,"transit":true,"i_lat":-6.132549,"station_id":"KPB","distance":4102,"is_transit":true,"i_long":106.826365},{"station_name":"Rajawali","station_id":"RJW","line":11,"distance":1444,"is_transit":false,"i_long":106.836569,"time":3,"i_lat":-6.14505,"transit":false},{"transit":false,"station_id":"KMO","is_transit":false,"i_lat":-6.161728,"station_name":"Kemayoran","i_long":106.839204,"line":11,"time":5,"distance":1901},{"time":4,"station_name":"Pasar Senen","line":11,"transit":false,"i_lat":-6.174784,"distance":1436,"is_transit":false,"station_id":"PSE","i_long":106.84368},{"station_id":"GST","station_name":"Gang Sentiong","is_transit":false,"i_lat":-6.185975,"time":8,"line":11,"i_long":106.850107,"transit":false,"distance":1567},{"station_name":"Kramat","time":1,"i_lat":-6.193792,"transit":false,"station_id":"KMT","line":11,"i_long":106.855437,"distance":973,"is_transit":false},{"station_name":"Pondok Jati","distance":1829,"is_transit":false,"line":11,"i_lat":-6.209188,"i_long":106.861737,"station_id":"POK","time":2,"transit":false},{"transit":true,"i_lat":-6.215091,"i_long":106.86807400000001,"time":9,"distance":1236,"station_name":"Jatinegara","station_id":"JNG","is_transit":true,"line":1},{"distance":3395,"is_transit":false,"i_lat":-6.2135,"transit":false,"time":3,"station_name":"Klender","i_long":106.899548,"line":1,"station_id":"KLD"},{"distance":3100,"i_lat":-6.215568,"is_transit":false,"time":2,"station_name":"Buaran","transit":false,"i_long":106.922662,"station_id":"BUA","line":1},{"transit":false,"i_long":106.939679,"i_lat":-6.217455,"distance":1305,"time":1,"is_transit":false,"station_name":"Klenderbaru","station_id":"KLDB","line":1},{"i_long":106.951283,"transit":false,"station_id":"CUK","is_transit":false,"distance":1385,"station_name":"Cakung","time":8,"line":1,"i_lat":-6.219053},{"i_long":106.977657,"station_name":"Kranji","transit":false,"line":1,"distance":3097,"station_id":"KRI","is_transit":false,"i_lat":-6.224515,"time":3},{"station_id":"BKS","i_lat":-6.236616,"i_long":106.997013,"distance":2520,"time":4,"is_transit":false,"line":1,"station_name":"Bekasi","transit":false},{"distance":2368,"station_id":"BKST","time":2,"is_transit":false,"station_name":"Bekasi Timur","line":1,"transit":false,"i_long":107.016735,"i_lat":-6.248029},{"line":1,"distance":4460,"station_id":"TB","time":7,"station_name":"Tambun","i_lat":-6.258864,"is_transit":false,"i_long":107.055722,"transit":false},{"line":1,"distance":3420,"i_long":107.083084,"station_name":"Cibitung","is_transit":false,"transit":false,"station_id":"CIT","time":3,"i_lat":-6.261877},{"i_lat":-6.262938,"line":1,"time":2,"station_id":"TLM","is_transit":false,"i_long":107.093313,"transit":false,"distance":2800,"station_name":"Metland Telaga Murni"},{"i_lat":-6.2553149999999995,"time":4,"distance":3689,"station_id":"CKR","station_name":"Cikarang","i_long":107.144613,"transit":false,"line":1,"is_transit":false}],[{"line":3,"is_transit":false,"time":0,"station_name":"Rangkasbitung","transit":false,"distance":0,"station_id":"RK","i_lat":-6.352675,"i_long":106.250396},{"i_lat":-6.334892,"transit":false,"i_long":106.332092,"station_id":"CTR","distance":9847,"line":3,"is_transit":false,"time":13,"station_name":"Citeras"},{"i_long":106.394373,"is_transit":false,"distance":7293,"station_name":"Maja","time":10,"transit":false,"station_id":"MJ","line":6,"i_lat":-6.332307},{"distance":1853,"time":4,"line":3,"station_id":"CKY","transit":false,"is_transit":false,"station_name":"Cikoya","i_lat":-6.33561,"i_long":106.411216},{"distance":2651,"transit":false,"time":3,"line":6,"is_transit":false,"i_long":106.425991,"i_lat":-6.328533,"station_name":"Tigaraksa","station_id":"TGS"},{"station_id":"TEJ","is_transit":false,"station_name":"Tenjo","transit":false,"distance":2974,"i_lat":-6.327251,"line":6,"time":5,"i_long":106.460812},{"distance":3902,"is_transit":false,"i_long":106.491338,"transit":false,"time":5,"station_name":"Daru","line":0,"i_lat":-6.338021,"station_id":"DAR"},{"line":3,"is_transit":false,"distance":2675,"time":6,"i_lat":-6.354349,"station_id":"CJT","transit":false,"station_name":"Cilejit","i_long":106.508482},{"time":9,"distance":7025,"line":6,"station_id":"PRP","is_transit":false,"station_name":"Parung Panjang","transit":false,"i_long":106.568863,"i_lat":-6.3441410000000005},{"time":8,"station_name":"Cicayur","station_id":"CC","transit":false,"is_transit":false,"i_long":106.617853,"line":3,"distance":5968,"i_lat":-6.329547},{"line":3,"distance":2519,"i_lat":-6.32484,"time":4,"station_name":"Cisauk","is_transit":false,"i_long":106.640411,"transit":false,"station_id":"CSK"},{"station_id":"SRP","station_name":"Serpong","distance":1784,"transit":false,"is_transit":false,"i_long":106.66566,"line":6,"time":4,"i_lat":-6.319871},{"is_transit":false,"transit":false,"i_lat":-6.314823,"station_name":"Rawa Buntu","time":4,"i_long":106.675475,"line":6,"distance":2413,"station_id":"RU"},{"station_name":"Sudimara","i_long":106.712277,"distance":4566,"is_transit":false,"time":6,"transit":false,"station_id":"SDM","i_lat":-6.296963,"line":6},{"line":6,"station_name":"Jurangmangu","distance":1994,"transit":false,"i_long":106.728916,"i_lat":-6.288927,"time":4,"station_id":"JMU","is_transit":false},{"transit":false,"i_long":106.74273,"line":6,"is_transit":false,"distance":2179,"time":3,"station_id":"PDJ","station_name":"Pondokranji","i_lat":-6.276362},{"line":6,"distance":6218,"station_id":"KBY","i_long":106.780334,"is_transit":false,"station_name":"Kebayoran","time":8,"i_lat":-6.237242,"transit":false},{"i_long":106.79689,"transit":false,"time":7,"distance":3737,"station_name":"Palmerah","is_transit":false,"station_id":"PLM","line":6,"i_lat":-6.207404},{"time":6,"station_name":"Tanah Abang","station_id":"THB","i_long":106.811091,"is_transit":true,"distance":3191,"transit":true,"line":1,"i_lat":-6.185545},{"i_lat":-6.155215,"station_id":"DU","i_long":106.800832,"station_name":"Duri","is_transit":false,"time":8,"transit":false,"distance":3632,"line":1},{"station_name":"Angke","station_id":"AK","i_lat":-6.144674,"is_transit":false,"distance":1230,"time":4,"line":1,"i_long":106.79867,"transit":false},{"transit":true,"station_id":"KPB","time":9,"is_transit":true,"distance":4102,"station_name":"Kampung Bandan","line":4,"i_long":106.826365,"i_lat":-6.132549},{"is_transit":true,"distance":1364,"line":2,"i_lat":-6.137569,"station_id":"JAKK","station_name":"Jakarta Kota","i_long":106.812439,"time":3,"transit":true},{"i_lat":-6.141205,"distance":1264,"i_long":106.820901,"station_name":"Jayakarta","time":4,"is_transit":false,"station_id":"JAY","line":2,"transit":false},{"transit":false,"station_name":"Manggabesar","i_lat":-6.149769,"is_transit":false,"line":2,"station_id":"MGB","time":2,"distance":1080,"i_long":106.82482},{"i_lat":-6.160725,"i_long":106.827103,"line":2,"time":2,"distance":906,"station_name":"Sawah Besar","transit":false,"station_id":"SW","is_transit":false},{"i_lat":-6.166716,"station_name":"Juanda","transit":false,"i_long":106.828284,"line":2,"is_transit":false,"station_id":"JUA","distance":1149,"time":2},{"i_long":106.832183,"i_lat":-6.186295,"station_name":"Gondangdia","line":2,"time":4,"station_id":"GDD","transit":false,"distance":2015,"is_transit":false},{"i_long":106.840169,"is_transit":false,"time":3,"station_name":"Cikini","transit":false,"distance":1750,"station_id":"CKI","i_lat":-6.198556,"line":2},{"time":4,"is_transit":true,"transit":true,"station_name":"Manggarai","distance":1590,"station_id":"MRI","i_lat":-6.209883,"i_long":106.84912,"line":2},{"i_lat":-6.212485,"time":2,"station_name":"Matraman","station_id":"MTR","line":1,"transit":false,"is_transit":false,"distance":1275,"i_long":106.858896},{"i_long":106.86807400000001,"i_lat":-6.215091,"transit":false,"station_name":"Jatinegara","line":1,"distance":1377,"station_id":"JNG","time":8,"is_transit":false},{"i_lat":-6.2135,"transit":false,"distance":3395,"line":1,"is_transit":false,"station_name":"Klender","time":3,"i_long":106.899548,"station_id":"KLD"},{"i_long":106.922662,"station_name":"Buaran","transit":false,"line":1,"distance":3100,"i_lat":-6.215568,"time":2,"station_id":"BUA","is_transit":false},{"time":1,"is_transit":false,"station_id":"KLDB","station_name":"Klenderbaru","transit":false,"line":1,"i_lat":-6.217455,"distance":1305,"i_long":106.939679},{"i_long":106.951283,"is_transit":false,"line":1,"time":8,"station_name":"Cakung","distance":1385,"i_lat":-6.219053,"station_id":"CUK","transit":false},{"is_transit":false,"i_lat":-6.224515,"transit":false,"distance":3097,"i_long":106.977657,"time":3,"station_id":"KRI","line":1,"station_name":"Kranji"},{"time":4,"is_transit":false,"transit":false,"station_id":"BKS","line":1,"station_name":"Bekasi","i_lat":-6.236616,"distance":2520,"i_long":106.997013},{"is_transit":false,"i_long":107.016735,"i_lat":-6.248029,"line":1,"time":2,"distance":2368,"station_id":"BKST","transit":false,"station_name":"Bekasi Timur"},{"i_long":107.055722,"i_lat":-6.258864,"station_id":"TB","line":1,"transit":false,"distance":4460,"station_name":"Tambun","time":7,"is_transit":false},{"time":3,"transit":false,"i_lat":-6.261877,"station_name":"Cibitung","is_transit":false,"i_long":107.083084,"station_id":"CIT","distance":3420,"line":1},{"transit":false,"time":2,"station_name":"Metland Telaga Murni","distance":2800,"station_id":"TLM","is_transit":false,"i_long":107.093313,"i_lat":-6.262938,"line":1},{"time":4,"distance":3689,"is_transit":false,"i_lat":-6.2553149999999995,"station_id":"CKR","i_long":107.144613,"line":1,"transit":false,"station_name":"Cikarang"}],[{"distance":0,"station_id":"RK","station_name":"Rangkasbitung","is_transit":false,"i_long":106.250396,"line":3,"transit":false,"i_lat":-6.352675,"time":0},{"transit":false,"distance":9847,"i_long":106.332092,"station_id":"CTR","station_name":"Citeras","is_transit":false,"i_lat":-6.334892,"line":3,"time":13},{"station_name":"Maja","distance":7293,"i_lat":-6.332307,"transit":false,"station_id":"MJ","time":10,"is_transit":false,"i_long":106.394373,"line":6},{"distance":1853,"station_id":"CKY","transit":false,"i_lat":-6.33561,"line":3,"station_name":"Cikoya","time":4,"is_transit":false,"i_long":106.411216},{"distance":2651,"i_long":106.425991,"is_transit":false,"station_name":"Tigaraksa","line":6,"station_id":"TGS","transit":false,"i_lat":-6.328533,"time":3},{"i_long":106.460812,"time":5,"line":6,"is_transit":false,"distance":2974,"i_lat":-6.327251,"transit":false,"station_id":"TEJ","station_name":"Tenjo"},{"i_lat":-6.338021,"transit":false,"i_long":106.491338,"station_id":"DAR","time":5,"is_transit":false,"line":0,"station_name":"Daru","distance":3902},{"transit":false,"is_transit":false,"time":6,"i_lat":-6.354349,"i_long":106.508482,"station_id":"CJT","station_name":"Cilejit","line":3,"distance":2675},{"line":6,"transit":false,"distance":7025,"is_transit":false,"station_id":"PRP","i_lat":-6.3441410000000005,"time":9,"station_name":"Parung Panjang","i_long":106.568863},{"station_id":"CC","distance":5968,"station_name":"Cicayur","time":8,"transit":false,"is_transit":false,"line":3,"i_lat":-6.329547,"i_long":106.617853},{"is_transit":false,"station_id":"CSK","i_long":106.640411,"i_lat":-6.32484,"distance":2519,"transit":false,"line":3,"station_name":"Cisauk","time":4},{"station_id":"SRP","line":6,"i_lat":-6.319871,"is_transit":false,"i_long":106.66566,"time":4,"transit":false,"distance":1784,"station_name":"Serpong"},{"station_id":"RU","transit":false,"i_lat":-6.314823,"line":6,"distance":2413,"i_long":106.675475,"time":4,"station_name":"Rawa Buntu","is_transit":false},{"is_transit":false,"station_id":"SDM","transit":false,"i_lat":-6.296963,"distance":4566,"i_long":106.712277,"station_name":"Sudimara","time":6,"line":6},{"station_name":"Jurangmangu","i_lat":-6.288927,"i_long":106.728916,"transit":false,"line":6,"is_transit":false,"time":4,"station_id":"JMU","distance":1994},{"line":6,"time":3,"is_transit":false,"station_name":"Pondokranji","i_lat":-6.276362,"distance":2179,"station_id":"PDJ","transit":false,"i_long":106.74273},{"station_name":"Kebayoran","is_transit":false,"i_long":106.780334,"station_id":"KBY","time":8,"i_lat":-6.237242,"line":6,"transit":false,"distance":6218},{"i_long":106.79689,"line":6,"i_lat":-6.207404,"time":7,"station_name":"Palmerah","distance":3737,"station_id":"PLM","transit":false,"is_transit":false},{"i_lat":-6.185545,"i_long":106.811091,"line":1,"distance":3191,"transit":true,"is_transit":true,"station_name":"Tanah Abang","station_id":"THB","time":6},{"station_name":"Karet","i_long":106.816351,"i_lat":-6.20132,"station_id":"KAT","time":5,"distance":2029,"is_transit":false,"transit":false,"line":1},{"time":1,"i_long":106.819881,"line":1,"transit":false,"station_id":"SUDB","distance":471,"is_transit":false,"i_lat":-6.201433,"station_name":"Sudirman Baru"},{"is_transit":false,"line":1,"time":1,"station_id":"SUD","i_long":106.822649,"i_lat":-6.202263,"distance":280,"station_name":"Sudirman","transit":false},{"line":2,"transit":true,"station_id":"MRI","distance":3186,"is_transit":true,"station_name":"Manggarai","time":4,"i_lat":-6.209883,"i_long":106.84912},{"line":2,"time":4,"transit":false,"is_transit":false,"station_name":"Cikini","station_id":"CKI","distance":1590,"i_long":106.840169,"i_lat":-6.198556},{"station_id":"GDD","i_long":106.832183,"line":2,"is_transit":false,"distance":1750,"i_lat":-6.186295,"time":3,"transit":false,"station_name":"Gondangdia"},{"distance":2015,"i_long":106.828284,"time":4,"is_transit":false,"transit":false,"i_lat":-6.166716,"station_id":"JUA","line":2,"station_name":"Juanda"},{"i_lat":-6.160725,"i_long":106.827103,"station_id":"SW","station_name":"Sawah Besar","transit":false,"time":2,"is_transit":false,"distance":1149,"line":2},{"station_id":"MGB","time":2,"distance":906,"transit":false,"station_name":"Manggabesar","i_lat":-6.149769,"i_long":106.82482,"is_transit":false,"line":2},{"i_long":106.820901,"i_lat":-6.141205,"time":2,"transit":false,"is_transit":false,"station_name":"Jayakarta","line":2,"station_id":"JAY","distance":1080},{"station_name":"Jakarta Kota","i_long":106.812439,"i_lat":-6.137569,"transit":true,"is_transit":true,"station_id":"JAKK","distance":1264,"time":4,"line":2},{"i_long":106.826365,"distance":1364,"line":4,"time":3,"station_id":"KPB","transit":true,"is_transit":true,"station_name":"Kampung Bandan","i_lat":-6.132549},{"is_transit":false,"distance":1444,"transit":false,"station_name":"Rajawali","station_id":"RJW","i_lat":-6.14505,"line":11,"i_long":106.836569,"time":3},{"time":5,"transit":false,"line":11,"i_long":106.839204,"station_id":"KMO","is_transit":false,"distance":1901,"i_lat":-6.161728,"station_name":"Kemayoran"},{"station_name":"Pasar Senen","line":11,"i_long":106.84368,"distance":1436,"transit":false,"is_transit":false,"station_id":"PSE","i_lat":-6.174784,"time":4},{"i_lat":-6.185975,"station_name":"Gang Sentiong","line":11,"distance":1567,"station_id":"GST","time":8,"transit":false,"i_long":106.850107,"is_transit":false},{"is_transit":false,"i_long":106.855437,"time":1,"station_name":"Kramat","station_id":"KMT","transit":false,"distance":973,"line":11,"i_lat":-6.193792},{"line":11,"distance":1829,"station_id":"POK","transit":false,"station_name":"Pondok Jati","is_transit":false,"i_lat":-6.209188,"time":2,"i_long":106.861737},{"transit":true,"distance":1236,"line":1,"station_name":"Jatinegara","i_long":106.86807400000001,"time":9,"i_lat":-6.215091,"station_id":"JNG","is_transit":true},{"transit":false,"is_transit":false,"time":3,"distance":3395,"station_id":"KLD","station_name":"Klender","i_long":106.899548,"line":1,"i_lat":-6.2135},{"i_lat":-6.215568,"time":2,"station_name":"Buaran","distance":3100,"is_transit":false,"i_long":106.922662,"transit":false,"line":1,"station_id":"BUA"},{"station_name":"Klenderbaru","transit":false,"time":1,"i_long":106.939679,"i_lat":-6.217455,"is_transit":false,"distance":1305,"line":1,"station_id":"KLDB"},{"distance":1385,"station_name":"Cakung","i_lat":-6.219053,"station_id":"CUK","transit":false,"line":1,"i_long":106.951283,"time":8,"is_transit":false},{"i_lat":-6.224515,"station_name":"Kranji","time":3,"line":1,"i_long":106.977657,"is_transit":false,"distance":3097,"station_id":"KRI","transit":false},{"i_lat":-6.236616,"i_long":106.997013,"transit":false,"distance":2520,"time":4,"station_id":"BKS","is_transit":false,"station_name":"Bekasi","line":1},{"i_long":107.016735,"distance":2368,"time":2,"is_transit":false,"transit":false,"i_lat":-6.248029,"line":1,"station_id":"BKST","station_name":"Bekasi Timur"},{"station_name":"Tambun","is_transit":false,"transit":false,"i_lat":-6.258864,"station_id":"TB","distance":4460,"i_long":107.055722,"time":7,"line":1},{"distance":3420,"line":1,"station_name":"Cibitung","station_id":"CIT","transit":false,"is_transit":false,"i_lat":-6.261877,"time":3,"i_long":107.083084},{"distance":2800,"station_id":"TLM","i_lat":-6.262938,"line":1,"transit":false,"is_transit":false,"i_long":107.093313,"time":2,"station_name":"Metland Telaga Murni"},{"line":1,"distance":3689,"station_id":"CKR","i_lat":-6.2553149999999995,"time":4,"transit":false,"is_transit":false,"i_long":107.144613,"station_name":"Cikarang"}]]}