{"data":[[{"line":3,"i_long":106.250396,"station_name":"Rangkasbitung","i_lat":-6.352675,"transit":false,"time":0,"distance":0,"station_id":"RK","is_transit":false},{"station_name":"Citeras","is_transit":false,"time":13,"i_lat":-6.334892,"distance":9847,"station_id":"CTR","transit":false,"i_long":106.332092,"line":3},{"distance":7293,"i_lat":-6.332307,"station_id":"MJ","is_transit":false,"i_long":106.394373,"line":6,"time":10,"station_name":"Maja","transit":false},{"distance":1853,"station_name":"Cikoya","transit":false,"time":4,"is_transit":false,"i_lat":-6.33561,"i_long":106.411216,"station_id":"CKY","line":3},{"is_transit":false,"time":3,"i_long":106.425991,"distance":2651,"line":6,"station_id":"TGS","i_lat":-6.328533,"station_name":"Tigaraksa","transit":false},{"station_name":"Tenjo","station_id":"TEJ","distance":2974,"i_long":106.460812,"time":5,"is_transit":false,"line":6,"transit":false,"i_lat":-6.327251},{"transit":false,"is_transit":false,"station_name":"Daru","line":0,"station_id":"DAR","time":5,"i_lat":-6.338021,"distance":3902,"i_long":106.491338},{"transit":false,"i_lat":-6.354349,"distance":2675,"is_transit":false,"time":6,"i_long":106.508482,"line":3,"station_name":"Cilejit","station_id":"CJT"},{"station_id":"PRP","transit":false,"is_transit":false,"i_lat":-6.3441410000000005,"station_name":"Parung Panjang","time":9,"line":6,"i_long":106.568863,"distance":7025},{"station_id":"CC","transit":false,"station_name":"Cicayur","time":8,"i_lat":-6.329547,"is_transit":false,"distance":5968,"i_long":106.617853,"line":3}]]}