{"data":[[{"station_id":"RK","time":0,"distance":0,"i_long":106.250396,"i_lat":-6.352675,"transit":false,"line":3,"is_transit":false,"station_name":"Rangkasbitung"},{"time":13,"station_id":"CTR","i_long":106.332092,"transit":false,"station_name":"Citeras","is_transit":false,"i_lat":-6.334892,"distance":9847,"line":3},{"i_long":106.394373,"station_id":"MJ","i_lat":-6.332307,"line":6,"transit":false,"is_transit":false,"station_name":"Maja","distance":7293,"time":10},{"station_name":"Cikoya","line":3,"time":4,"distance":1853,"is_transit":false,"i_lat":-6.33561,"transit":false,"station_id":"CKY","i_long":106.411216},{"distance":2651,"i_long":106.425991,"station_id":"TGS","transit":false,"station_name":"Tigaraksa","is_transit":false,"line":6,"i_lat":-6.328533,"time":3},{"transit":false,"i_long":106.460812,"time":5,"is_transit":false,"line":6,"i_lat":-6.327251,"station_id":"TEJ","station_name":"Tenjo","distance":2974},{"station_name":"Daru","station_id":"DAR","time":5,"is_transit":false,"i_lat":-6.338021,"distance":3902,"line":0,"transit":false,"i_long":106.491338},{"station_name":"Cilejit","distance":2675,"transit":false,"i_lat":-6.354349,"station_id":"CJT","time":6,"i_long":106.508482,"line":3,"is_transit":false},{"time":9,"is_transit":false,"i_long":106.568863,"station_name":"Parung Panjang","i_lat":-6.3441410000000005,"station_id":"PRP","line":6,"transit":false,"distance":7025},{"station_id":"CC","line":3,"i_long":106.617853,"is_transit":false,"station_name":"Cicayur","time":8,"i_lat":-6.329547,"transit":false,"distance":5968},{"line":3,"distance":2519,"transit":false,"station_name":"Cisauk","time":4,"i_long":106.640411,"station_id":"CSK","i_lat":-6.32484,"is_transit":false},{"time":4,"distance":1784,"i_long":106.66566,"i_lat":-6.319871,"transit":false,"station_id":"SRP","line":6,"is_transit":false,"station_name":"Serpong"},{"is_transit":false,"transit":false,"time":4,"distance":2413,"station_name":"Rawa Buntu","station_id":"RU","i_lat":-6.314823,"line":6,"i_long":106.675475},{"station_name":"Sudimara","line":6,"distance":4566,"station_id":"SDM","i_lat":-6.296963,"transit":false,"is_transit":false,"time":6,"i_long":106.712277},{"transit":false,"station_name":"Jurangmangu","time":4,"station_id":"JMU","line":6,"is_transit":false,"i_lat":-6.288927,"i_long":106.728916,"distance":1994},{"distance":2179,"station_name":"Pondokranji","transit":false,"station_id":"PDJ","i_lat":-6.276362,"time":3,"i_long":106.74273,"line":6,"is_transit":false},{"station_name":"Kebayoran","transit":false,"station_id":"KBY","i_lat":-6.237242,"line":6,"i_long":106.780334,"is_transit":false,"time":8,"distance":6218},{"transit":false,"time":7,"i_lat":-6.207404,"i_long":106.79689,"station_id":"PLM","line":6,"distance":3737,"station_name":"Palmerah","is_transit":false},{"station_name":"Tanah Abang","i_lat":-6.185545,"distance":3191,"time":6,"transit":true,"is_transit":true,"i_long":106.811091,"station_id":"THB","line":1},{"transit":false,"station_name":"Karet","station_id":"KAT","is_transit":false,"time":5,"i_long":106.816351,"line":1,"distance":2029,"i_lat":-6.20132},{"time":1,"is_transit":false,"transit":false,"station_name":"Sudirman Baru","station_id":"SUDB","i_lat":-6.201433,"i_long":106.819881,"distance":471,"line":1},{"is_transit":false,"distance":280,"time":1,"i_long":106.822649,"station_id":"SUD","i_lat":-6.202263,"transit":false,"line":1,"station_name":"Sudirman"},{"station_id":"MRI","is_transit":true,"station_name":"Manggarai","distance":3186,"i_lat":-6.209883,"i_long":106.84912,"line":2,"time":4,"transit":true},{"time":4,"i_lat":-6.226659,"station_id":"TEB","i_long":106.857948,"line":2,"is_transit":false,"station_name":"Tebet","distance":2610,"transit":false},{"time":2,"is_transit":false,"distance":1230,"line":2,"i_lat":-6.242512,"station_id":"CW","transit":false,"station_name":"Cawang","i_long":106.856607},{"station_id":"DRN","station_name":"Duren Kalibata","is_transit":false,"i_lat":-6.255332,"time":3,"i_long":106.85449,"line":2,"transit":false,"distance":1546},{"is_transit":false,"line":2,"station_name":"Pasar Minggu Baru","distance":824,"transit":false,"i_lat":-6.263214,"i_long":106.851577,"station_id":"PSMB","time":2},{"i_lat":-6.2842400000000005,"line":2,"station_id":"PSM","station_name":"Pasar Minggu","time":2,"transit":false,"is_transit":false,"i_long":106.843999,"distance":2380},{"station_name":"Tanjung Barat","station_id":"TNT","transit":false,"distance":2820,"i_long":106.838896,"line":2,"is_transit":false,"time":4,"i_lat":-6.3080680000000005},{"station_name":"Lenteng Agung","distance":2671,"i_lat":-6.330363,"station_id":"LNA","i_long":106.832616,"transit":false,"is_transit":false,"time":3,"line":2},{"time":2,"i_long":106.834175,"station_name":"Univ. Pancasila","is_transit":false,"distance":1029,"transit":false,"line":2,"i_lat":-6.339291,"station_id":"UP"},{"time":3,"transit":false,"i_long":106.831474,"line":2,"station_id":"UI","distance":2264,"station_name":"Univ. Indonesia","i_lat":-6.360749,"is_transit":false},{"time":2,"station_name":"Pondok Cina","is_transit":false,"distance":1109,"i_lat":-6.369073,"i_long":106.831114,"station_id":"POC","transit":false,"line":2},{"transit":false,"station_id":"DPB","time":4,"i_long":106.819451,"station_name":"Depokbaru","i_lat":-6.391065,"is_transit":false,"distance":2727,"line":2}],[{"line":3,"station_name":"Rangkasbitung","station_id":"RK","is_transit":false,"distance":0,"time":0,"i_long":106.250396,"transit":false,"i_lat":-6.352675},{"is_transit":false,"i_lat":-6.334892,"line":3,"station_id":"CTR","station_name":"Citeras","i_long":106.332092,"time":13,"distance":9847,"transit":false},{"distance":7293,"station_id":"MJ","station_name":"Maja","time":10,"i_lat":-6.332307,"i_long":106.394373,"is_transit":false,"transit":false,"line":6},{"i_lat":-6.33561,"transit":false,"station_name":"Cikoya","is_transit":false,"time":4,"i_long":106.411216,"line":3,"distance":1853,"station_id":"CKY"},{"time":3,"transit":false,"station_id":"TGS","i_lat":-6.328533,"i_long":106.425991,"station_name":"Tigaraksa","line":6,"is_transit":false,"distance":2651},{"transit":false,"station_name":"Tenjo","station_id":"TEJ","distance":2974,"i_lat":-6.327251,"is_transit":false,"time":5,"i_long":106.460812,"line":6},{"distance":3902,"i_lat":-6.338021,"is_transit":false,"i_long":106.491338,"time":5,"line":0,"station_name":"Daru","transit":false,"station_id":"DAR"},{"time":6,"i_lat":-6.354349,"transit":false,"station_name":"Cilejit","is_transit":false,"distance":2675,"i_long":106.508482,"station_id":"CJT","line":3},{"transit":false,"line":6,"i_long":106.568863,"distance":7025,"station_id":"PRP","i_lat":-6.3441410000000005,"is_transit":false,"station_name":"Parung Panjang","time":9},{"transit":false,"i_long":106.617853,"station_id":"CC","i_lat":-6.329547,"station_name":"Cicayur","is_transit":false,"line":3,"time":8,"distance":5968},{"line":3,"station_id":"CSK","is_transit":false,"i_long":106.640411,"station_name":"Cisauk","transit":false,"time":4,"distance":2519,"i_lat":-6.32484},{"station_id":"SRP","time":4,"line":6,"is_transit":false,"transit":false,"i_long":106.66566,"station_name":"Serpong","distance":1784,"i_lat":-6.319871},{"station_name":"Rawa Buntu","i_long":106.675475,"time":4,"line":6,"transit":false,"is_transit":false,"distance":2413,"i_lat":-6.314823,"station_id":"RU"},{"station_name":"Sudimara","distance":4566,"i_long":106.712277,"is_transit":false,"line":6,"time":6,"transit":false,"i_lat":-6.296963,"station_id":"SDM"},{"i_long":106.728916,"is_transit":false,"transit":false,"time":4,"i_lat":-6.288927,"line":6,"station_name":"Jurangmangu","station_id":"JMU","distance":1994},{"time":3,"station_id":"PDJ","is_transit":false,"transit":false,"i_long":106.74273,"distance":2179,"i_lat":-6.276362,"station_name":"Pondokranji","line":6},{"station_name":"Kebayoran","time":8,"distance":6218,"i_lat":-6.237242,"i_long":106.780334,"is_transit":false,"line":6,"transit":false,"station_id":"KBY"},{"station_name":"Palmerah","distance":3737,"station_id":"PLM","is_transit":false,"time":7,"i_long":106.79689,"line":6,"i_lat":-6.207404,"transit":false},{"i_long":106.811091,"time":6,"transit":true,"line":1,"is_transit":true,"station_id":"THB","distance":3191,"i_lat":-6.185545,"station_name":"Tanah Abang"},{"i_lat":-6.155215,"distance":3632,"transit":false,"line":1,"time":8,"i_long":106.800832,"station_id":"DU","is_transit":false,"station_name":"Duri"},{"station_id":"AK","i_long":106.79867,"is_transit":false,"line":1,"time":4,"i_lat":-6.144674,"station_name":"Angke","distance":1230,"transit":false},{"time":9,"station_name":"Kampung Bandan","distance":4102,"line":4,"i_long":106.826365,"transit":true,"station_id":"KPB","is_transit":true,"i_lat":-6.132549},{"i_lat":-6.137569,"is_transit":true,"station_name":"Jakarta Kota","i_long":106.812439,"distance":1364,"line":2,"station_id":"JAKK","transit":true,"time":3},{"time":4,"transit":false,"is_transit":false,"i_lat":-6.141205,"i_long":106.820901,"distance":1264,"line":2,"station_name":"Jayakarta","station_id":"JAY"},{"station_name":"Manggabesar","is_transit":false,"time":2,"i_lat":-6.149769,"distance":1080,"station_id":"MGB","i_long":106.82482,"line":2,"transit":false},{"is_transit":false,"transit":false,"line":2,"i_long":106.827103,"distance":906,"station_id":"SW","station_name":"Sawah Besar","i_lat":-6.160725,"time":2},{"i_lat":-6.166716,"distance":1149,"station_id":"JUA","time":2,"transit":false,"line":2,"is_transit":false,"station_name":"Juanda","i_long":106.828284},{"station_name":"Gondangdia","is_transit":false,"transit":false,"station_id":"GDD","distance":2015,"line":2,"i_lat":-6.186295,"time":4,"i_long":106.832183},{"station_name":"Cikini","time":3,"i_lat":-6.198556,"distance":1750,"i_long":106.840169,"station_id":"CKI","is_transit":false,"transit":false,"line":2},{"station_id":"MRI","time":4,"distance":1590,"i_long":106.84912,"i_lat":-6.209883,"transit":false,"line":2,"station_name":"Manggarai","is_transit":false},{"transit":false,"station_name":"Tebet","i_lat":-6.226659,"time":4,"distance":2610,"is_transit":false,"i_long":106.857948,"line":2,"station_id":"TEB"},{"station_id":"CW","line":2,"distance":1230,"transit":false,"is_transit":false,"i_lat":-6.242512,"i_long":106.856607,"time":2,"station_name":"Cawang"},{"station_id":"DRN","i_lat":-6.255332,"line":2,"i_long":106.85449,"distance":1546,"time":3,"transit":false,"station_name":"Duren Kalibata","is_transit":false},{"transit":false,"station_id":"PSMB","i_lat":-6.263214,"line":2,"i_long":106.851577,"time":2,"station_name":"Pasar Minggu Baru","distance":824,"is_transit":false},{"line":2,"i_long":106.843999,"station_name":"Pasar Minggu","distance":2380,"i_lat":-6.2842400000000005,"station_id":"PSM","transit":false,"is_transit":false,"time":2},{"station_id":"TNT","transit":false,"line":2,"is_transit":false,"distance":2820,"i_lat":-6.3080680000000005,"i_long":106.838896,"station_name":"Tanjung Barat","time":4},{"distance":2671,"i_lat":-6.330363,"i_long":106.832616,"station_name":"Lenteng Agung","transit":false,"station_id":"LNA","time":3,"line":2,"is_transit":false},{"i_lat":-6.339291,"i_long":106.834175,"station_name":"Univ. Pancasila","station_id":"UP","distance":1029,"is_transit":false,"transit":false,"line":2,"time":2},{"line":2,"station_id":"UI","i_lat":-6.360749,"distance":2264,"transit":false,"station_name":"Univ. Indonesia","is_transit":false,"time":3,"i_long":106.831474},{"transit":false,"station_id":"POC","is_transit":false,"line":2,"i_lat":-6.369073,"station_name":"Pondok Cina","time":2,"i_long":106.831114,"distance":1109},{"time":4,"is_transit":false,"i_long":106.819451,"station_id":"DPB","station_name":"Depokbaru","i_lat":-6.391065,"line":2,"distance":2727,"transit":false}],[{"line":3,"station_id":"RK","i_lat":-6.352675,"station_name":"Rangkasbitung","i_long":106.250396,"distance":0,"time":0,"transit":false,"is_transit":false},{"line":3,"time":13,"station_name":"Citeras","station_id":"CTR","transit":false,"distance":9847,"i_lat":-6.334892,"is_transit":false,"i_long":106.332092},{"line":6,"station_name":"Maja","is_transit":false,"i_lat":-6.332307,"distance":7293,"i_long":106.394373,"transit":false,"station_id":"MJ","time":10},{"transit":false,"distance":1853,"time":4,"station_id":"CKY","is_transit":false,"i_lat":-6.33561,"i_long":106.411216,"line":3,"station_name":"Cikoya"},{"distance":2651,"line":6,"station_name":"Tigaraksa","time":3,"station_id":"TGS","transit":false,"is_transit":false,"i_long":106.425991,"i_lat":-6.328533},{"time":5,"i_lat":-6.327251,"i_long":106.460812,"distance":2974,"transit":false,"is_transit":false,"line":6,"station_name":"Tenjo","station_id":"TEJ"},{"time":5,"is_transit":false,"line":0,"station_id":"DAR","transit":false,"station_name":"Daru","i_long":106.491338,"distance":3902,"i_lat":-6.338021},{"station_name":"Cilejit","station_id":"CJT","transit":false,"time":6,"distance":2675,"i_lat":-6.354349,"is_transit":false,"i_long":106.508482,"line":3},{"i_long":106.568863,"i_lat":-6.3441410000000005,"line":6,"distance":7025,"time":9,"is_transit":false,"station_id":"PRP","transit":false,"station_name":"Parung Panjang"},{"i_lat":-6.329547,"line":3,"time":8,"station_id":"CC","is_transit":false,"distance":5968,"transit":false,"i_long":106.617853,"station_name":"Cicayur"},{"i_long":106.640411,"i_lat":-6.32484,"time":4,"line":3,"station_id":"CSK","is_transit":false,"distance":2519,"station_name":"Cisauk","transit":false},{"station_name":"Serpong","line":6,"is_transit":false,"time":4,"i_lat":-6.319871,"distance":1784,"transit":false,"station_id":"SRP","i_long":106.66566},{"transit":false,"i_lat":-6.314823,"station_id":"RU","time":4,"station_name":"Rawa Buntu","is_transit":false,"line":6,"i_long":106.675475,"distance":2413},{"i_long":106.712277,"station_name":"Sudimara","is_transit":false,"time":6,"i_lat":-6.296963,"transit":false,"line":6,"station_id":"SDM","distance":4566},{"station_name":"Jurangmangu","time":4,"is_transit":false,"line":6,"station_id":"JMU","distance":1994,"i_lat":-6.288927,"i_long":106.728916,"transit":false},{"station_name":"Pondokranji","i_long":106.74273,"line":6,"transit":false,"station_id":"PDJ","is_transit":false,"time":3,"i_lat":-6.276362,"distance":2179},{"station_name":"Kebayoran","i_long":106.780334,"line":6,"distance":6218,"is_transit":false,"transit":false,"time":8,"i_lat":-6.237242,"station_id":"KBY"},{"station_name":"Palmerah","transit":false,"distance":3737,"i_long":106.79689,"time":7,"is_transit":false,"line":6,"i_lat":-6.207404,"station_id":"PLM"},{"station_id":"THB","i_lat":-6.185545,"station_name":"Tanah Abang","transit":true,"line":1,"time":6,"i_long":106.811091,"is_transit":true,"distance":3191},{"i_long":106.800832,"transit":false,"distance":3632,"station_name":"Duri","station_id":"DU","time":8,"is_transit":false,"line":1,"i_lat":-6.155215},{"station_name":"Angke","transit":false,"time":4,"is_transit":false,"i_long":106.79867,"distance":1230,"station_id":"AK","i_lat":-6.144674,"line":1},{"transit":true,"station_id":"KPB","i_long":106.826365,"station_name":"Kampung Bandan","is_transit":true,"line":4,"i_lat":-6.132549,"time":9,"distance":4102},{"distance":1444,"transit":false,"i_long":106.836569,"line":11,"station_id":"RJW","time":3,"is_transit":false,"station_name":"Rajawali","i_lat":-6.14505},{"station_name":"Kemayoran","is_transit":false,"i_lat":-6.161728,"station_id":"KMO","time":5,"line":11,"transit":false,"distance":1901,"i_long":106.839204},{"i_lat":-6.174784,"time":4,"line":11,"station_name":"Pasar Senen","transit":false,"station_id":"PSE","distance":1436,"is_transit":false,"i_long":106.84368},{"time":8,"station_id":"GST","distance":1567,"i_lat":-6.185975,"i_long":106.850107,"line":11,"transit":false,"station_name":"Gang Sentiong","is_transit":false},{"station_name":"Kramat","i_long":106.855437,"time":1,"distance":973,"is_transit":false,"line":11,"transit":false,"station_id":"KMT","i_lat":-6.193792},{"station_name":"Pondok Jati","distance":1829,"line":11,"is_transit":false,"station_id":"POK","time":2,"i_lat":-6.209188,"i_long":106.861737,"transit":false},{"i_lat":-6.215091,"is_transit":true,"i_long":106.86807400000001,"station_id":"JNG","time":9,"station_name":"Jatinegara","distance":1236,"line":1,"transit":true},{"i_long":106.858896,"station_name":"Matraman","line":1,"station_id":"MTR","transit":false,"is_transit":false,"time":2,"distance":1377,"i_lat":-6.212485},{"line":2,"time":2,"station_id":"MRI","transit":true,"is_transit":true,"distance":1275,"i_lat":-6.209883,"station_name":"Manggarai","i_long":106.84912},{"transit":false,"station_id":"TEB","i_lat":-6.226659,"is_transit":false,"time":4,"line":2,"distance":2610,"station_name":"Tebet","i_long":106.857948},{"i_long":106.856607,"i_lat":-6.242512,"time":2,"transit":false,"station_id":"CW","is_transit":false,"station_name":"Cawang","line":2,"distance":1230},{"is_transit":false,"station_id":"DRN","distance":1546,"line":2,"time":3,"i_lat":-6.255332,"transit":false,"station_name":"Duren Kalibata","i_long":106.85449},{"i_lat":-6.263214,"transit":false,"is_transit":false,"i_long":106.851577,"station_id":"PSMB","distance":824,"time":2,"line":2,"station_name":"Pasar Minggu Baru"},{"distance":2380,"i_long":106.843999,"i_lat":-6.2842400000000005,"transit":false,"station_name":"Pasar Minggu","line":2,"is_transit":false,"station_id":"PSM","time":2},{"station_id":"TNT","transit":false,"station_name":"Tanjung Barat","i_lat":-6.3080680000000005,"distance":2820,"i_long":106.838896,"is_transit":false,"time":4,"line":2},{"i_long":106.832616,"transit":false,"i_lat":-6.330363,"station_id":"LNA","time":3,"distance":2671,"line":2,"station_name":"Lenteng Agung","is_transit":false},{"station_name":"Univ. Pancasila","station_id":"UP","is_transit":false,"i_long":106.834175,"transit":false,"i_lat":-6.339291,"distance":1029,"line":2,"time":2},{"i_lat":-6.360749,"transit":false,"line":2,"station_name":"Univ. Indonesia","time":3,"i_long":106.831474,"station_id":"UI","is_transit":false,"distance":2264},{"time":2,"station_name":"Pondok Cina","line":2,"i_lat":-6.369073,"is_transit":false,"distance":1109,"transit":false,"i_long":106.831114,"station_id":"POC"},{"line":2,"station_name":"Depokbaru","transit":false,"i_lat":-6.391065,"distance":2727,"i_long":106.819451,"station_id":"DPB","is_transit":false,"time":4}]]}