{"data":[[{"station_id":"RK","distance":0,"is_transit":false,"time":0,"i_lat":-6.352675,"i_long":106.250396,"transit":false,"station_name":"Rangkasbitung","line":3},{"station_id":"CTR","station_name":"Citeras","i_long":106.332092,"line":3,"distance":9847,"i_lat":-6.334892,"time":13,"is_transit":false,"transit":false},{"line":6,"is_transit":false,"distance":7293,"i_lat":-6.332307,"time":10,"station_id":"MJ","transit":false,"station_name":"Maja","i_long":106.394373},{"time":4,"transit":false,"station_id":"CKY","i_lat":-6.33561,"line":3,"is_transit":false,"distance":1853,"station_name":"Cikoya","i_long":106.411216},{"i_lat":-6.328533,"time":3,"i_long":106.425991,"is_transit":false,"line":6,"station_id":"TGS","station_name":"Tigaraksa","transit":false,"distance":2651},{"time":5,"station_name":"Tenjo","station_id":"TEJ","i_long":106.460812,"i_lat":-6.327251,"transit":false,"distance":2974,"is_transit":false,"line":6},{"distance":3902,"is_transit":false,"station_id":"DAR","time":5,"line":0,"transit":false,"station_name":"Daru","i_lat":-6.338021,"i_long":106.491338},{"station_id":"CJT","transit":false,"i_long":106.508482,"is_transit":false,"station_name":"Cilejit","i_lat":-6.354349,"line":3,"distance":2675,"time":6},{"station_id":"PRP","line":6,"i_long":106.568863,"i_lat":-6.3441410000000005,"distance":7025,"is_transit":false,"time":9,"transit":false,"station_name":"Parung Panjang"},{"station_name":"Cicayur","time":8,"line":3,"station_id":"CC","is_transit":false,"i_lat":-6.329547,"i_long":106.617853,"distance":5968,"transit":false},{"distance":2519,"transit":false,"station_name":"Cisauk","i_lat":-6.32484,"is_transit":false,"line":3,"time":4,"station_id":"CSK","i_long":106.640411},{"station_id":"SRP","transit":false,"i_long":106.66566,"distance":1784,"line":6,"is_transit":false,"station_name":"Serpong","time":4,"i_lat":-6.319871},{"i_lat":-6.314823,"transit":false,"is_transit":false,"line":6,"station_id":"RU","i_long":106.675475,"distance":2413,"time":4,"station_name":"Rawa Buntu"},{"time":6,"station_name":"Sudimara","i_lat":-6.296963,"distance":4566,"is_transit":false,"i_long":106.712277,"station_id":"SDM","line":6,"transit":false},{"time":4,"station_name":"Jurangmangu","distance":1994,"station_id":"JMU","is_transit":false,"transit":false,"i_lat":-6.288927,"i_long":106.728916,"line":6},{"i_long":106.74273,"line":6,"is_transit":false,"distance":2179,"i_lat":-6.276362,"transit":false,"station_id":"PDJ","time":3,"station_name":"Pondokranji"},{"is_transit":false,"distance":6218,"transit":false,"station_name":"Kebayoran","i_long":106.780334,"station_id":"KBY","time":8,"line":6,"i_lat":-6.237242},{"station_id":"PLM","distance":3737,"transit":false,"time":7,"line":6,"is_transit":false,"station_name":"Palmerah","i_lat":-6.207404,"i_long":106.79689},{"line":1,"time":6,"is_transit":true,"transit":true,"i_lat":-6.185545,"station_name":"Tanah Abang","i_long":106.811091,"station_id":"THB","distance":3191},{"distance":2029,"time":5,"is_transit":false,"i_long":106.816351,"station_name":"Karet","transit":false,"line":1,"station_id":"KAT","i_lat":-6.20132},{"time":1,"transit":false,"station_id":"SUDB","i_lat":-6.201433,"station_name":"Sudirman Baru","distance":471,"line":1,"i_long":106.819881,"is_transit":false},{"transit":false,"i_long":106.822649,"line":1,"i_lat":-6.202263,"time":1,"station_name":"Sudirman","station_id":"SUD","distance":280,"is_transit":false},{"i_lat":-6.209883,"time":4,"distance":3186,"station_name":"Manggarai","station_id":"MRI","is_transit":true,"line":2,"transit":true,"i_long":106.84912},{"transit":false,"time":4,"is_transit":false,"i_lat":-6.226659,"line":2,"station_id":"TEB","distance":2610,"i_long":106.857948,"station_name":"Tebet"},{"station_id":"CW","time":2,"is_transit":false,"i_lat":-6.242512,"i_long":106.856607,"line":2,"distance":1230,"station_name":"Cawang","transit":false},{"is_transit":false,"station_name":"Duren Kalibata","line":2,"station_id":"DRN","i_long":106.85449,"time":3,"i_lat":-6.255332,"distance":1546,"transit":false},{"line":2,"station_name":"Pasar Minggu Baru","time":2,"distance":824,"is_transit":false,"i_long":106.851577,"i_lat":-6.263214,"transit":false,"station_id":"PSMB"},{"station_name":"Pasar Minggu","i_long":106.843999,"station_id":"PSM","distance":2380,"i_lat":-6.2842400000000005,"time":2,"is_transit":false,"transit":false,"line":2},{"transit":false,"station_id":"TNT","i_lat":-6.3080680000000005,"distance":2820,"station_name":"Tanjung Barat","line":2,"time":4,"is_transit":false,"i_long":106.838896},{"time":3,"i_long":106.832616,"station_name":"Lenteng Agung","station_id":"LNA","i_lat":-6.330363,"is_transit":false,"transit":false,"line":2,"distance":2671},{"distance":1029,"transit":false,"station_id":"UP","i_long":106.834175,"line":2,"station_name":"Univ. Pancasila","time":2,"is_transit":false,"i_lat":-6.339291},{"i_long":106.831474,"time":3,"line":2,"distance":2264,"station_name":"Univ. Indonesia","is_transit":false,"station_id":"UI","i_lat":-6.360749,"transit":false},{"time":2,"station_name":"Pondok Cina","transit":false,"is_transit":false,"station_id":"POC","i_long":106.831114,"distance":1109,"line":2,"i_lat":-6.369073},{"i_long":106.819451,"time":4,"distance":2727,"transit":false,"station_id":"DPB","line":2,"station_name":"Depokbaru","is_transit":false,"i_lat":-6.391065}],[{"distance":0,"line":3,"time":0,"i_long":106.250396,"station_name":"Rangkasbitung","is_transit":false,"transit":false,"station_id":"RK","i_lat":-6.352675},{"i_long":106.332092,"station_name":"Citeras","line":3,"is_transit":false,"time":13,"distance":9847,"station_id":"CTR","transit":false,"i_lat":-6.334892},{"transit":false,"distance":7293,"time":10,"station_name":"Maja","is_transit":false,"station_id":"MJ","i_long":106.394373,"line":6,"i_lat":-6.332307},{"transit":false,"time":4,"is_transit":false,"line":3,"distance":1853,"i_lat":-6.33561,"station_name":"Cikoya","station_id":"CKY","i_long":106.411216},{"i_long":106.425991,"station_name":"Tigaraksa","distance":2651,"i_lat":-6.328533,"line":6,"is_transit":false,"time":3,"station_id":"TGS","transit":false},{"transit":false,"line":6,"is_transit":false,"time":5,"i_long":106.460812,"station_name":"Tenjo","station_id":"TEJ","i_lat":-6.327251,"distance":2974},{"distance":3902,"line":0,"is_transit":false,"station_name":"Daru","station_id":"DAR","transit":false,"i_lat":-6.338021,"time":5,"i_long":106.491338},{"time":6,"station_id":"CJT","distance":2675,"station_name":"Cilejit","i_long":106.508482,"i_lat":-6.354349,"is_transit":false,"line":3,"transit":false},{"station_id":"PRP","transit":false,"time":9,"is_transit":false,"i_lat":-6.3441410000000005,"i_long":106.568863,"line":6,"distance":7025,"station_name":"Parung Panjang"},{"distance":5968,"line":3,"station_name":"Cicayur","station_id":"CC","transit":false,"i_lat":-6.329547,"i_long":106.617853,"time":8,"is_transit":false},{"distance":2519,"i_long":106.640411,"time":4,"transit":false,"i_lat":-6.32484,"station_id":"CSK","is_transit":false,"line":3,"station_name":"Cisauk"},{"transit":false,"station_id":"SRP","i_long":106.66566,"is_transit":false,"time":4,"station_name":"Serpong","i_lat":-6.319871,"line":6,"distance":1784},{"is_transit":false,"station_name":"Rawa Buntu","i_lat":-6.314823,"line":6,"i_long":106.675475,"transit":false,"time":4,"distance":2413,"station_id":"RU"},{"i_long":106.712277,"time":6,"station_name":"Sudimara","is_transit":false,"transit":false,"station_id":"SDM","line":6,"i_lat":-6.296963,"distance":4566},{"station_name":"Jurangmangu","is_transit":false,"transit":false,"i_lat":-6.288927,"line":6,"time":4,"distance":1994,"i_long":106.728916,"station_id":"JMU"},{"time":3,"i_long":106.74273,"line":6,"distance":2179,"station_name":"Pondokranji","transit":false,"station_id":"PDJ","is_transit":false,"i_lat":-6.276362},{"transit":false,"is_transit":false,"station_name":"Kebayoran","station_id":"KBY","i_long":106.780334,"distance":6218,"time":8,"i_lat":-6.237242,"line":6},{"is_transit":false,"station_name":"Palmerah","i_lat":-6.207404,"distance":3737,"line":6,"transit":false,"station_id":"PLM","i_long":106.79689,"time":7},{"station_name":"Tanah Abang","i_lat":-6.185545,"time":6,"is_transit":true,"station_id":"THB","transit":true,"distance":3191,"i_long":106.811091,"line":1},{"i_long":106.800832,"i_lat":-6.155215,"distance":3632,"transit":false,"is_transit":false,"time":8,"station_name":"Duri","station_id":"DU","line":1},{"time":4,"i_long":106.79867,"station_id":"AK","line":1,"transit":false,"is_transit":false,"station_name":"Angke","i_lat":-6.144674,"distance":1230},{"is_transit":true,"station_name":"Kampung Bandan","station_id":"KPB","transit":true,"i_lat":-6.132549,"distance":4102,"i_long":106.826365,"time":9,"line":4},{"is_transit":true,"station_name":"Jakarta Kota","i_long":106.812439,"distance":1364,"transit":true,"time":3,"station_id":"JAKK","line":2,"i_lat":-6.137569},{"i_lat":-6.141205,"is_transit":false,"i_long":106.820901,"transit":false,"time":4,"station_name":"Jayakarta","distance":1264,"line":2,"station_id":"JAY"},{"i_lat":-6.149769,"is_transit":false,"station_id":"MGB","line":2,"distance":1080,"station_name":"Manggabesar","i_long":106.82482,"time":2,"transit":false},{"i_long":106.827103,"line":2,"is_transit":false,"station_id":"SW","i_lat":-6.160725,"transit":false,"distance":906,"station_name":"Sawah Besar","time":2},{"transit":false,"station_id":"JUA","i_lat":-6.166716,"line":2,"time":2,"is_transit":false,"station_name":"Juanda","i_long":106.828284,"distance":1149},{"time":4,"transit":false,"station_id":"GDD","i_lat":-6.186295,"station_name":"Gondangdia","line":2,"i_long":106.832183,"distance":2015,"is_transit":false},{"i_lat":-6.198556,"time":3,"i_long":106.840169,"is_transit":false,"transit":false,"station_name":"Cikini","distance":1750,"line":2,"station_id":"CKI"},{"distance":1590,"line":2,"transit":false,"is_transit":false,"i_long":106.84912,"time":4,"station_id":"MRI","i_lat":-6.209883,"station_name":"Manggarai"},{"is_transit":false,"distance":2610,"transit":false,"i_lat":-6.226659,"station_id":"TEB","line":2,"station_name":"Tebet","i_long":106.857948,"time":4},{"is_transit":false,"station_name":"Cawang","station_id":"CW","i_lat":-6.242512,"i_long":106.856607,"transit":false,"distance":1230,"line":2,"time":2},{"station_name":"Duren Kalibata","transit":false,"i_lat":-6.255332,"time":3,"is_transit":false,"station_id":"DRN","i_long":106.85449,"distance":1546,"line":2},{"is_transit":false,"distance":824,"time":2,"station_id":"PSMB","station_name":"Pasar Minggu Baru","i_lat":-6.263214,"i_long":106.851577,"transit":false,"line":2},{"i_lat":-6.2842400000000005,"is_transit":false,"line":2,"station_id":"PSM","time":2,"transit":false,"i_long":106.843999,"distance":2380,"station_name":"Pasar Minggu"},{"transit":false,"i_long":106.838896,"station_id":"TNT","line":2,"station_name":"Tanjung Barat","time":4,"distance":2820,"is_transit":false,"i_lat":-6.3080680000000005},{"station_name":"Lenteng Agung","transit":false,"distance":2671,"line":2,"i_long":106.832616,"time":3,"is_transit":false,"i_lat":-6.330363,"station_id":"LNA"},{"i_long":106.834175,"transit":false,"station_name":"Univ. Pancasila","line":2,"time":2,"i_lat":-6.339291,"station_id":"UP","is_transit":false,"distance":1029},{"is_transit":false,"i_long":106.831474,"time":3,"station_name":"Univ. Indonesia","transit":false,"distance":2264,"i_lat":-6.360749,"station_id":"UI","line":2},{"station_id":"POC","is_transit":false,"i_lat":-6.369073,"time":2,"distance":1109,"transit":false,"line":2,"i_long":106.831114,"station_name":"Pondok Cina"},{"time":4,"distance":2727,"transit":false,"station_id":"DPB","is_transit":false,"i_lat":-6.391065,"i_long":106.819451,"line":2,"station_name":"Depokbaru"}],[{"i_lat":-6.352675,"i_long":106.250396,"station_name":"Rangkasbitung","transit":false,"line":3,"station_id":"RK","time":0,"distance":0,"is_transit":false},{"i_long":106.332092,"transit":false,"distance":9847,"station_name":"Citeras","station_id":"CTR","is_transit":false,"i_lat":-6.334892,"line":3,"time":13},{"line":6,"transit":false,"time":10,"station_id":"MJ","i_lat":-6.332307,"distance":7293,"is_transit":false,"station_name":"Maja","i_long":106.394373},{"transit":false,"line":3,"i_long":106.411216,"station_name":"Cikoya","i_lat":-6.33561,"time":4,"distance":1853,"station_id":"CKY","is_transit":false},{"time":3,"is_transit":false,"i_lat":-6.328533,"line":6,"distance":2651,"transit":false,"station_id":"TGS","station_name":"Tigaraksa","i_long":106.425991},{"station_name":"Tenjo","transit":false,"i_lat":-6.327251,"is_transit":false,"i_long":106.460812,"distance":2974,"time":5,"line":6,"station_id":"TEJ"},{"line":0,"distance":3902,"is_transit":false,"transit":false,"station_name":"Daru","station_id":"DAR","i_lat":-6.338021,"i_long":106.491338,"time":5},{"distance":2675,"is_transit":false,"station_id":"CJT","line":3,"station_name":"Cilejit","time":6,"i_lat":-6.354349,"i_long":106.508482,"transit":false},{"station_name":"Parung Panjang","station_id":"PRP","is_transit":false,"i_long":106.568863,"distance":7025,"i_lat":-6.3441410000000005,"transit":false,"time":9,"line":6},{"line":3,"station_name":"Cicayur","station_id":"CC","i_lat":-6.329547,"time":8,"i_long":106.617853,"is_transit":false,"transit":false,"distance":5968},{"time":4,"station_id":"CSK","i_lat":-6.32484,"transit":false,"station_name":"Cisauk","is_transit":false,"line":3,"distance":2519,"i_long":106.640411},{"i_long":106.66566,"transit":false,"distance":1784,"is_transit":false,"i_lat":-6.319871,"line":6,"station_name":"Serpong","station_id":"SRP","time":4},{"station_id":"RU","station_name":"Rawa Buntu","i_long":106.675475,"transit":false,"i_lat":-6.314823,"time":4,"distance":2413,"is_transit":false,"line":6},{"station_id":"SDM","line":6,"i_lat":-6.296963,"time":6,"station_name":"Sudimara","transit":false,"is_transit":false,"distance":4566,"i_long":106.712277},{"distance":1994,"is_transit":false,"station_name":"Jurangmangu","time":4,"station_id":"JMU","transit":false,"i_lat":-6.288927,"i_long":106.728916,"line":6},{"line":6,"distance":2179,"time":3,"station_name":"Pondokranji","transit":false,"i_lat":-6.276362,"i_long":106.74273,"is_transit":false,"station_id":"PDJ"},{"transit":false,"i_long":106.780334,"station_name":"Kebayoran","line":6,"station_id":"KBY","time":8,"is_transit":false,"distance":6218,"i_lat":-6.237242},{"time":7,"line":6,"distance":3737,"is_transit":false,"station_id":"PLM","transit":false,"i_lat":-6.207404,"station_name":"Palmerah","i_long":106.79689},{"i_long":106.811091,"time":6,"transit":true,"station_id":"THB","distance":3191,"station_name":"Tanah Abang","line":1,"is_transit":true,"i_lat":-6.185545},{"station_name":"Duri","transit":false,"time":8,"i_long":106.800832,"station_id":"DU","distance":3632,"is_transit":false,"i_lat":-6.155215,"line":1},{"time":4,"i_lat":-6.144674,"station_id":"AK","line":1,"station_name":"Angke","i_long":106.79867,"transit":false,"distance":1230,"is_transit":false},{"distance":4102,"i_long":106.826365,"line":4,"is_transit":true,"transit":true,"i_lat":-6.132549,"station_id":"KPB","time":9,"station_name":"Kampung Bandan"},{"i_long":106.836569,"time":3,"transit":false,"is_transit":false,"distance":1444,"station_name":"Rajawali","line":11,"station_id":"RJW","i_lat":-6.14505},{"time":5,"i_lat":-6.161728,"i_long":106.839204,"transit":false,"distance":1901,"station_name":"Kemayoran","station_id":"KMO","line":11,"is_transit":false},{"is_transit":false,"station_id":"PSE","i_lat":-6.174784,"time":4,"distance":1436,"transit":false,"i_long":106.84368,"station_name":"Pasar Senen","line":11},{"transit":false,"i_long":106.850107,"time":8,"distance":1567,"line":11,"station_id":"GST","is_transit":false,"station_name":"Gang Sentiong","i_lat":-6.185975},{"distance":973,"i_lat":-6.193792,"line":11,"station_name":"Kramat","time":1,"is_transit":false,"transit":false,"station_id":"KMT","i_long":106.855437},{"line":11,"station_name":"Pondok Jati","time":2,"i_lat":-6.209188,"transit":false,"is_transit":false,"station_id":"POK","i_long":106.861737,"distance":1829},{"time":9,"station_name":"Jatinegara","i_lat":-6.215091,"station_id":"JNG","i_long":106.86807400000001,"distance":1236,"is_transit":true,"transit":true,"line":1},{"time":2,"is_transit":false,"station_id":"MTR","station_name":"Matraman","transit":false,"i_long":106.858896,"line":1,"distance":1377,"i_lat":-6.212485},{"i_long":106.84912,"distance":1275,"time":2,"transit":true,"i_lat":-6.209883,"station_name":"Manggarai","station_id":"MRI","is_transit":true,"line":2},{"transit":false,"i_long":106.857948,"station_name":"Tebet","station_id":"TEB","line":2,"is_transit":false,"i_lat":-6.226659,"distance":2610,"time":4},{"station_name":"Cawang","time":2,"transit":false,"station_id":"CW","distance":1230,"is_transit":false,"i_long":106.856607,"i_lat":-6.242512,"line":2},{"station_id":"DRN","i_lat":-6.255332,"i_long":106.85449,"time":3,"transit":false,"line":2,"station_name":"Duren Kalibata","distance":1546,"is_transit":false},{"transit":false,"station_id":"PSMB","is_transit":false,"time":2,"distance":824,"station_name":"Pasar Minggu Baru","i_long":106.851577,"line":2,"i_lat":-6.263214},{"distance":2380,"transit":false,"line":2,"i_long":106.843999,"is_transit":false,"time":2,"station_name":"Pasar Minggu","station_id":"PSM","i_lat":-6.2842400000000005},{"i_lat":-6.3080680000000005,"station_name":"Tanjung Barat","is_transit":false,"line":2,"transit":false,"time":4,"station_id":"TNT","distance":2820,"i_long":106.838896},{"time":3,"station_id":"LNA","is_transit":false,"transit":false,"i_lat":-6.330363,"line":2,"distance":2671,"station_name":"Lenteng Agung","i_long":106.832616},{"line":2,"is_transit":false,"transit":false,"station_name":"Univ. Pancasila","distance":1029,"i_lat":-6.339291,"time":2,"station_id":"UP","i_long":106.834175},{"line":2,"is_transit":false,"station_name":"Univ. Indonesia","time":3,"i_long":106.831474,"distance":2264,"transit":false,"i_lat":-6.360749,"station_id":"UI"},{"station_name":"Pondok Cina","i_lat":-6.369073,"station_id":"POC","is_transit":false,"i_long":106.831114,"time":2,"distance":1109,"transit":false,"line":2},{"station_name":"Depokbaru","time":4,"line":2,"transit":false,"i_long":106.819451,"is_transit":false,"station_id":"DPB","i_lat":-6.391065,"distance":2727}]]}