{"data":[[{"i_long":106.250396,"distance":0,"transit":false,"line":3,"time":0,"station_name":"Rangkasbitung","i_lat":-6.352675,"is_transit":false,"station_id":"RK"},{"station_name":"Citeras","distance":9847,"station_id":"CTR","time":13,"i_long":106.332092,"i_lat":-6.334892,"transit":false,"is_transit":false,"line":3},{"distance":7293,"i_long":106.394373,"transit":false,"i_lat":-6.332307,"line":6,"time":10,"station_name":"Maja","station_id":"MJ","is_transit":false},{"time":4,"line":3,"station_name":"Cikoya","transit":false,"is_transit":false,"distance":1853,"i_lat":-6.33561,"i_long":106.411216,"station_id":"CKY"},{"station_name":"Tigaraksa","distance":2651,"i_lat":-6.328533,"station_id":"TGS","is_transit":false,"i_long":106.425991,"time":3,"transit":false,"line":6},{"station_id":"TEJ","transit":false,"is_transit":false,"time":5,"distance":2974,"station_name":"Tenjo","i_lat":-6.327251,"i_long":106.460812,"line":6},{"distance":3902,"station_name":"Daru","station_id":"DAR","is_transit":false,"i_lat":-6.338021,"line":0,"time":5,"transit":false,"i_long":106.491338},{"is_transit":false,"i_lat":-6.354349,"station_name":"Cilejit","transit":false,"station_id":"CJT","time":6,"i_long":106.508482,"line":3,"distance":2675},{"station_id":"PRP","distance":7025,"i_lat":-6.3441410000000005,"transit":false,"time":9,"line":6,"station_name":"Parung Panjang","i_long":106.568863,"is_transit":false},{"distance":5968,"station_name":"Cicayur","line":3,"i_long":106.617853,"station_id":"CC","transit":false,"is_transit":false,"time":8,"i_lat":-6.329547},{"distance":2519,"is_transit":false,"time":4,"station_name":"Cisauk","transit":false,"i_lat":-6.32484,"station_id":"CSK","i_long":106.640411,"line":3},{"is_transit":false,"distance":1784,"i_long":106.66566,"station_id":"SRP","i_lat":-6.319871,"time":4,"station_name":"Serpong","transit":false,"line":6},{"station_name":"Rawa Buntu","distance":2413,"line":6,"transit":false,"i_lat":-6.314823,"station_id":"RU","i_long":106.675475,"time":4,"is_transit":false},{"i_lat":-6.296963,"station_id":"SDM","is_transit":false,"transit":false,"i_long":106.712277,"time":6,"station_name":"Sudimara","line":6,"distance":4566},{"i_lat":-6.288927,"i_long":106.728916,"transit":false,"time":4,"line":6,"station_id":"JMU","is_transit":false,"station_name":"Jurangmangu","distance":1994},{"station_name":"Pondokranji","line":6,"transit":false,"station_id":"PDJ","is_transit":false,"time":3,"distance":2179,"i_long":106.74273,"i_lat":-6.276362},{"station_name":"Kebayoran","i_long":106.780334,"i_lat":-6.237242,"line":6,"station_id":"KBY","is_transit":false,"time":8,"distance":6218,"transit":false},{"distance":3737,"station_id":"PLM","transit":false,"i_lat":-6.207404,"is_transit":false,"station_name":"Palmerah","time":7,"i_long":106.79689,"line":6},{"transit":true,"is_transit":true,"i_long":106.811091,"distance":3191,"station_id":"THB","station_name":"Tanah Abang","time":6,"line":1,"i_lat":-6.185545},{"station_id":"KAT","line":1,"distance":2029,"time":5,"station_name":"Karet","is_transit":false,"i_long":106.816351,"transit":false,"i_lat":-6.20132},{"transit":false,"distance":471,"time":1,"line":1,"station_id":"SUDB","i_lat":-6.201433,"station_name":"Sudirman Baru","i_long":106.819881,"is_transit":false},{"distance":280,"i_long":106.822649,"i_lat":-6.202263,"station_name":"Sudirman","transit":false,"time":1,"line":1,"station_id":"SUD","is_transit":false},{"i_lat":-6.209883,"line":2,"time":4,"is_transit":true,"distance":3186,"station_name":"Manggarai","transit":true,"station_id":"MRI","i_long":106.84912},{"is_transit":false,"time":4,"transit":false,"station_id":"TEB","i_lat":-6.226659,"line":2,"distance":2610,"i_long":106.857948,"station_name":"Tebet"},{"i_long":106.856607,"distance":1230,"line":2,"is_transit":false,"station_name":"Cawang","station_id":"CW","i_lat":-6.242512,"time":2,"transit":false},{"time":3,"line":2,"station_id":"DRN","is_transit":false,"station_name":"Duren Kalibata","transit":false,"i_lat":-6.255332,"i_long":106.85449,"distance":1546},{"transit":false,"is_transit":false,"station_id":"PSMB","station_name":"Pasar Minggu Baru","i_lat":-6.263214,"time":2,"distance":824,"line":2,"i_long":106.851577},{"is_transit":false,"station_name":"Pasar Minggu","i_long":106.843999,"line":2,"i_lat":-6.2842400000000005,"station_id":"PSM","transit":false,"time":2,"distance":2380},{"is_transit":false,"transit":false,"station_name":"Tanjung Barat","time":4,"i_lat":-6.3080680000000005,"i_long":106.838896,"line":2,"distance":2820,"station_id":"TNT"},{"station_id":"LNA","distance":2671,"station_name":"Lenteng Agung","line":2,"i_lat":-6.330363,"time":3,"transit":false,"i_long":106.832616,"is_transit":false},{"is_transit":false,"station_id":"UP","i_long":106.834175,"i_lat":-6.339291,"distance":1029,"station_name":"Univ. Pancasila","transit":false,"time":2,"line":2},{"station_id":"UI","line":2,"transit":false,"distance":2264,"i_long":106.831474,"time":3,"is_transit":false,"i_lat":-6.360749,"station_name":"Univ. Indonesia"},{"time":2,"transit":false,"i_lat":-6.369073,"station_id":"POC","line":2,"is_transit":false,"i_long":106.831114,"distance":1109,"station_name":"Pondok Cina"},{"transit":false,"distance":2727,"is_transit":false,"line":2,"i_lat":-6.391065,"i_long":106.819451,"station_id":"DPB","time":4,"station_name":"Depokbaru"}],[{"station_id":"RK","station_name":"Rangkasbitung","i_long":106.250396,"transit":false,"line":3,"i_lat":-6.352675,"distance":0,"time":0,"is_transit":false},{"line":3,"transit":false,"station_id":"CTR","time":13,"station_name":"Citeras","is_transit":false,"distance":9847,"i_long":106.332092,"i_lat":-6.334892},{"station_name":"Maja","time":10,"line":6,"is_transit":false,"station_id":"MJ","transit":false,"i_long":106.394373,"i_lat":-6.332307,"distance":7293},{"is_transit":false,"station_id":"CKY","time":4,"i_lat":-6.33561,"transit":false,"station_name":"Cikoya","line":3,"distance":1853,"i_long":106.411216},{"station_name":"Tigaraksa","line":6,"i_lat":-6.328533,"is_transit":false,"i_long":106.425991,"station_id":"TGS","distance":2651,"transit":false,"time":3},{"line":6,"is_transit":false,"distance":2974,"station_name":"Tenjo","time":5,"i_lat":-6.327251,"i_long":106.460812,"station_id":"TEJ","transit":false},{"station_name":"Daru","i_long":106.491338,"is_transit":false,"station_id":"DAR","transit":false,"time":5,"i_lat":-6.338021,"line":0,"distance":3902},{"i_lat":-6.354349,"i_long":106.508482,"line":3,"station_name":"Cilejit","time":6,"transit":false,"distance":2675,"station_id":"CJT","is_transit":false},{"time":9,"line":6,"station_id":"PRP","i_long":106.568863,"distance":7025,"is_transit":false,"transit":false,"station_name":"Parung Panjang","i_lat":-6.3441410000000005},{"transit":false,"i_long":106.617853,"line":3,"station_id":"CC","station_name":"Cicayur","i_lat":-6.329547,"is_transit":false,"distance":5968,"time":8},{"i_long":106.640411,"line":3,"station_name":"Cisauk","transit":false,"distance":2519,"i_lat":-6.32484,"time":4,"is_transit":false,"station_id":"CSK"},{"distance":1784,"time":4,"line":6,"i_long":106.66566,"station_name":"Serpong","is_transit":false,"transit":false,"i_lat":-6.319871,"station_id":"SRP"},{"time":4,"i_lat":-6.314823,"station_id":"RU","line":6,"i_long":106.675475,"distance":2413,"transit":false,"station_name":"Rawa Buntu","is_transit":false},{"station_name":"Sudimara","transit":false,"time":6,"is_transit":false,"i_long":106.712277,"station_id":"SDM","i_lat":-6.296963,"distance":4566,"line":6},{"station_name":"Jurangmangu","transit":false,"distance":1994,"time":4,"station_id":"JMU","i_lat":-6.288927,"i_long":106.728916,"line":6,"is_transit":false},{"line":6,"transit":false,"station_id":"PDJ","is_transit":false,"i_long":106.74273,"distance":2179,"time":3,"station_name":"Pondokranji","i_lat":-6.276362},{"station_name":"Kebayoran","station_id":"KBY","line":6,"distance":6218,"transit":false,"time":8,"is_transit":false,"i_lat":-6.237242,"i_long":106.780334},{"station_id":"PLM","i_long":106.79689,"is_transit":false,"time":7,"transit":false,"i_lat":-6.207404,"distance":3737,"station_name":"Palmerah","line":6},{"station_name":"Tanah Abang","station_id":"THB","distance":3191,"is_transit":true,"transit":true,"line":1,"time":6,"i_lat":-6.185545,"i_long":106.811091},{"i_long":106.800832,"distance":3632,"is_transit":false,"station_name":"Duri","station_id":"DU","time":8,"i_lat":-6.155215,"transit":false,"line":1},{"station_id":"AK","i_lat":-6.144674,"transit":false,"station_name":"Angke","distance":1230,"i_long":106.79867,"time":4,"line":1,"is_transit":false},{"transit":true,"distance":4102,"line":4,"is_transit":true,"station_name":"Kampung Bandan","i_lat":-6.132549,"station_id":"KPB","time":9,"i_long":106.826365},{"distance":1364,"line":2,"station_id":"JAKK","i_lat":-6.137569,"is_transit":true,"transit":true,"station_name":"Jakarta Kota","time":3,"i_long":106.812439},{"station_id":"JAY","time":4,"transit":false,"i_lat":-6.141205,"is_transit":false,"i_long":106.820901,"distance":1264,"line":2,"station_name":"Jayakarta"},{"station_name":"Manggabesar","is_transit":false,"distance":1080,"station_id":"MGB","i_lat":-6.149769,"i_long":106.82482,"time":2,"transit":false,"line":2},{"distance":906,"station_id":"SW","station_name":"Sawah Besar","time":2,"transit":false,"i_long":106.827103,"i_lat":-6.160725,"line":2,"is_transit":false},{"station_id":"JUA","time":2,"i_lat":-6.166716,"line":2,"i_long":106.828284,"transit":false,"is_transit":false,"distance":1149,"station_name":"Juanda"},{"i_lat":-6.186295,"line":2,"i_long":106.832183,"station_id":"GDD","is_transit":false,"distance":2015,"station_name":"Gondangdia","transit":false,"time":4},{"i_lat":-6.198556,"line":2,"i_long":106.840169,"transit":false,"distance":1750,"is_transit":false,"station_id":"CKI","station_name":"Cikini","time":3},{"line":2,"time":4,"transit":false,"is_transit":false,"distance":1590,"i_long":106.84912,"station_name":"Manggarai","i_lat":-6.209883,"station_id":"MRI"},{"distance":2610,"transit":false,"station_name":"Tebet","line":2,"time":4,"is_transit":false,"station_id":"TEB","i_lat":-6.226659,"i_long":106.857948},{"i_lat":-6.242512,"transit":false,"station_id":"CW","station_name":"Cawang","time":2,"line":2,"is_transit":false,"distance":1230,"i_long":106.856607},{"is_transit":false,"time":3,"distance":1546,"station_name":"Duren Kalibata","station_id":"DRN","i_long":106.85449,"i_lat":-6.255332,"transit":false,"line":2},{"i_lat":-6.263214,"i_long":106.851577,"station_id":"PSMB","time":2,"transit":false,"line":2,"distance":824,"station_name":"Pasar Minggu Baru","is_transit":false},{"distance":2380,"station_id":"PSM","i_long":106.843999,"line":2,"i_lat":-6.2842400000000005,"station_name":"Pasar Minggu","transit":false,"time":2,"is_transit":false},{"transit":false,"i_long":106.838896,"is_transit":false,"distance":2820,"station_name":"Tanjung Barat","time":4,"line":2,"station_id":"TNT","i_lat":-6.3080680000000005},{"line":2,"i_lat":-6.330363,"distance":2671,"station_id":"LNA","is_transit":false,"station_name":"Lenteng Agung","transit":false,"time":3,"i_long":106.832616},{"station_name":"Univ. Pancasila","transit":false,"time":2,"i_long":106.834175,"station_id":"UP","i_lat":-6.339291,"line":2,"is_transit":false,"distance":1029},{"i_lat":-6.360749,"time":3,"station_name":"Univ. Indonesia","transit":false,"is_transit":false,"station_id":"UI","distance":2264,"i_long":106.831474,"line":2},{"i_lat":-6.369073,"station_name":"Pondok Cina","time":2,"line":2,"i_long":106.831114,"station_id":"POC","distance":1109,"is_transit":false,"transit":false},{"distance":2727,"is_transit":false,"i_long":106.819451,"i_lat":-6.391065,"time":4,"line":2,"station_name":"Depokbaru","transit":false,"station_id":"DPB"}],[{"transit":false,"i_long":106.250396,"line":3,"distance":0,"station_name":"Rangkasbitung","time":0,"i_lat":-6.352675,"station_id":"RK","is_transit":false},{"station_id":"CTR","distance":9847,"line":3,"time":13,"transit":false,"station_name":"Citeras","i_long":106.332092,"i_lat":-6.334892,"is_transit":false},{"station_id":"MJ","transit":false,"time":10,"distance":7293,"i_long":106.394373,"is_transit":false,"station_name":"Maja","line":6,"i_lat":-6.332307},{"i_lat":-6.33561,"distance":1853,"time":4,"is_transit":false,"station_id":"CKY","i_long":106.411216,"line":3,"station_name":"Cikoya","transit":false},{"time":3,"station_id":"TGS","transit":false,"is_transit":false,"i_lat":-6.328533,"i_long":106.425991,"line":6,"station_name":"Tigaraksa","distance":2651},{"line":6,"distance":2974,"station_name":"Tenjo","station_id":"TEJ","time":5,"i_long":106.460812,"transit":false,"i_lat":-6.327251,"is_transit":false},{"line":0,"distance":3902,"station_name":"Daru","transit":false,"is_transit":false,"time":5,"i_lat":-6.338021,"station_id":"DAR","i_long":106.491338},{"is_transit":false,"station_name":"Cilejit","i_lat":-6.354349,"distance":2675,"transit":false,"time":6,"line":3,"i_long":106.508482,"station_id":"CJT"},{"is_transit":false,"line":6,"time":9,"distance":7025,"station_id":"PRP","transit":false,"station_name":"Parung Panjang","i_long":106.568863,"i_lat":-6.3441410000000005},{"line":3,"i_lat":-6.329547,"is_transit":false,"distance":5968,"station_id":"CC","station_name":"Cicayur","time":8,"i_long":106.617853,"transit":false},{"i_long":106.640411,"is_transit":false,"transit":false,"i_lat":-6.32484,"distance":2519,"line":3,"time":4,"station_id":"CSK","station_name":"Cisauk"},{"line":6,"transit":false,"station_id":"SRP","distance":1784,"is_transit":false,"time":4,"i_long":106.66566,"station_name":"Serpong","i_lat":-6.319871},{"line":6,"station_id":"RU","station_name":"Rawa Buntu","distance":2413,"transit":false,"time":4,"is_transit":false,"i_lat":-6.314823,"i_long":106.675475},{"station_name":"Sudimara","i_long":106.712277,"station_id":"SDM","time":6,"distance":4566,"transit":false,"is_transit":false,"line":6,"i_lat":-6.296963},{"i_long":106.728916,"i_lat":-6.288927,"line":6,"time":4,"distance":1994,"station_name":"Jurangmangu","station_id":"JMU","is_transit":false,"transit":false},{"station_id":"PDJ","transit":false,"station_name":"Pondokranji","i_lat":-6.276362,"line":6,"is_transit":false,"time":3,"distance":2179,"i_long":106.74273},{"line":6,"transit":false,"i_lat":-6.237242,"distance":6218,"time":8,"is_transit":false,"station_name":"Kebayoran","i_long":106.780334,"station_id":"KBY"},{"station_name":"Palmerah","transit":false,"line":6,"is_transit":false,"distance":3737,"time":7,"i_lat":-6.207404,"i_long":106.79689,"station_id":"PLM"},{"is_transit":true,"station_id":"THB","time":6,"station_name":"Tanah Abang","transit":true,"distance":3191,"i_lat":-6.185545,"i_long":106.811091,"line":1},{"i_lat":-6.155215,"line":1,"distance":3632,"is_transit":false,"station_id":"DU","time":8,"transit":false,"station_name":"Duri","i_long":106.800832},{"transit":false,"line":1,"time":4,"distance":1230,"station_name":"Angke","i_long":106.79867,"station_id":"AK","is_transit":false,"i_lat":-6.144674},{"station_id":"KPB","transit":true,"i_long":106.826365,"is_transit":true,"station_name":"Kampung Bandan","distance":4102,"time":9,"i_lat":-6.132549,"line":4},{"time":3,"transit":false,"is_transit":false,"i_long":106.836569,"distance":1444,"i_lat":-6.14505,"line":11,"station_id":"RJW","station_name":"Rajawali"},{"i_lat":-6.161728,"station_name":"Kemayoran","time":5,"i_long":106.839204,"is_transit":false,"line":11,"station_id":"KMO","distance":1901,"transit":false},{"station_name":"Pasar Senen","is_transit":false,"transit":false,"line":11,"station_id":"PSE","time":4,"i_long":106.84368,"i_lat":-6.174784,"distance":1436},{"i_long":106.850107,"distance":1567,"transit":false,"station_id":"GST","is_transit":false,"station_name":"Gang Sentiong","i_lat":-6.185975,"line":11,"time":8},{"line":11,"distance":973,"is_transit":false,"time":1,"station_id":"KMT","transit":false,"i_lat":-6.193792,"i_long":106.855437,"station_name":"Kramat"},{"transit":false,"i_lat":-6.209188,"distance":1829,"time":2,"is_transit":false,"line":11,"i_long":106.861737,"station_name":"Pondok Jati","station_id":"POK"},{"is_transit":true,"station_id":"JNG","time":9,"i_lat":-6.215091,"distance":1236,"transit":true,"i_long":106.86807400000001,"line":1,"station_name":"Jatinegara"},{"i_long":106.858896,"distance":1377,"station_name":"Matraman","time":2,"station_id":"MTR","line":1,"transit":false,"is_transit":false,"i_lat":-6.212485},{"distance":1275,"i_lat":-6.209883,"station_id":"MRI","i_long":106.84912,"transit":true,"is_transit":true,"station_name":"Manggarai","time":2,"line":2},{"time":4,"station_id":"TEB","i_long":106.857948,"distance":2610,"station_name":"Tebet","i_lat":-6.226659,"line":2,"transit":false,"is_transit":false},{"station_name":"Cawang","i_lat":-6.242512,"line":2,"is_transit":false,"distance":1230,"time":2,"i_long":106.856607,"station_id":"CW","transit":false},{"i_lat":-6.255332,"time":3,"i_long":106.85449,"line":2,"transit":false,"is_transit":false,"distance":1546,"station_name":"Duren Kalibata","station_id":"DRN"},{"time":2,"distance":824,"i_long":106.851577,"line":2,"station_name":"Pasar Minggu Baru","i_lat":-6.263214,"transit":false,"is_transit":false,"station_id":"PSMB"},{"time":2,"i_lat":-6.2842400000000005,"line":2,"i_long":106.843999,"station_name":"Pasar Minggu","transit":false,"is_transit":false,"station_id":"PSM","distance":2380},{"transit":false,"i_lat":-6.3080680000000005,"i_long":106.838896,"station_id":"TNT","time":4,"station_name":"Tanjung Barat","line":2,"is_transit":false,"distance":2820},{"is_transit":false,"station_id":"LNA","i_lat":-6.330363,"line":2,"transit":false,"time":3,"station_name":"Lenteng Agung","i_long":106.832616,"distance":2671},{"i_lat":-6.339291,"station_id":"UP","line":2,"is_transit":false,"i_long":106.834175,"station_name":"Univ. Pancasila","time":2,"distance":1029,"transit":false},{"time":3,"i_lat":-6.360749,"station_name":"Univ. Indonesia","distance":2264,"transit":false,"station_id":"UI","i_long":106.831474,"line":2,"is_transit":false},{"is_transit":false,"i_long":106.831114,"transit":false,"station_id":"POC","time":2,"i_lat":-6.369073,"distance":1109,"station_name":"Pondok Cina","line":2},{"i_long":106.819451,"is_transit":false,"distance":2727,"time":4,"line":2,"transit":false,"i_lat":-6.391065,"station_name":"Depokbaru","station_id":"DPB"}]]}