{"data":[[{"station_name":"Rangkasbitung","i_lat":-6.352675,"distance":0,"is_transit":true,"transit":false,"line":0,"time":0,"i_long":106.250396,"station_id":"RK"},{"time":13,"station_id":"CTR","transit":false,"station_name":"Citeras","i_lat":-6.334892,"line":0,"i_long":106.332092,"distance":9847,"is_transit":false},{"station_id":"MJ","transit":false,"is_transit":false,"station_name":"Maja","time":10,"i_lat":-6.332307,"i_long":106.394373,"distance":7293,"line":6},{"station_id":"CKY","distance":1853,"i_lat":-6.33561,"time":4,"i_long":106.411216,"is_transit":false,"station_name":"Cikoya","transit":false,"line":0},{"is_transit":false,"station_name":"Tigaraksa","line":6,"station_id":"TGS","distance":2651,"time":3,"i_lat":-6.328533,"transit":false,"i_long":106.425991},{"station_id":"TEJ","line":6,"station_name":"Tenjo","is_transit":false,"time":5,"i_lat":-6.327251,"transit":false,"i_long":106.460812,"distance":2974},{"line":0,"distance":3902,"time":5,"i_long":106.491338,"transit":false,"is_transit":false,"station_name":"Daru","station_id":"DAR","i_lat":-6.338021},{"i_lat":-6.354349,"i_long":106.508482,"line":0,"station_id":"CJT","distance":2675,"is_transit":false,"transit":false,"station_name":"Cilejit","time":6},{"line":6,"time":9,"station_id":"PRP","distance":7025,"transit":false,"i_lat":-6.3441410000000005,"station_name":"Parung Panjang","is_transit":false,"i_long":106.568863},{"time":8,"line":0,"is_transit":false,"i_lat":-6.329547,"station_id":"CC","transit":false,"i_long":106.617853,"distance":5968,"station_name":"Cicayur"},{"is_transit":false,"station_id":"CSK","line":0,"time":4,"i_lat":-6.32484,"station_name":"Cisauk","transit":false,"i_long":106.640411,"distance":2519},{"station_id":"SRP","line":6,"i_lat":-6.319871,"i_long":106.66566,"station_name":"Serpong","transit":false,"distance":1784,"time":4,"is_transit":false},{"distance":2413,"is_transit":false,"time":4,"transit":false,"station_name":"Rawa Buntu","line":6,"i_lat":-6.314823,"station_id":"RU","i_long":106.675475},{"station_id":"SDM","time":6,"i_lat":-6.296963,"i_long":106.712277,"distance":4566,"is_transit":false,"station_name":"Sudimara","transit":false,"line":6},{"i_lat":-6.288927,"station_id":"JMU","distance":1994,"is_transit":false,"line":6,"transit":false,"time":4,"i_long":106.728916,"station_name":"Jurangmangu"},{"station_id":"PDJ","i_lat":-6.276362,"transit":false,"is_transit":false,"time":3,"line":6,"i_long":106.74273,"distance":2179,"station_name":"Pondokranji"},{"i_lat":-6.237242,"distance":6218,"station_name":"Kebayoran","transit":false,"i_long":106.780334,"time":8,"line":6,"is_transit":false,"station_id":"KBY"},{"i_lat":-6.207404,"time":7,"station_id":"PLM","station_name":"Palmerah","transit":false,"is_transit":false,"i_long":106.79689,"line":6,"distance":3737},{"is_transit":true,"station_id":"THB","distance":3191,"station_name":"Tanah Abang","time":6,"i_lat":-6.185545,"i_long":106.811091,"transit":true,"line":1},{"station_name":"Karet","i_lat":-6.20132,"station_id":"KAT","time":5,"distance":2029,"is_transit":false,"transit":false,"i_long":106.816351,"line":1},{"distance":471,"i_long":106.819881,"line":1,"transit":false,"station_name":"Sudirman Baru","is_transit":false,"i_lat":-6.201433,"time":1,"station_id":"SUDB"},{"i_long":106.822649,"station_id":"SUD","line":1,"transit":false,"distance":280,"station_name":"Sudirman","i_lat":-6.202263,"time":1,"is_transit":false},{"line":0,"station_name":"Manggarai","station_id":"MRI","time":4,"transit":true,"is_transit":true,"i_long":106.84912,"i_lat":-6.209883,"distance":3186},{"station_id":"TEB","distance":2610,"is_transit":false,"i_lat":-6.226659,"line":2,"transit":false,"i_long":106.857948,"time":4,"station_name":"Tebet"},{"transit":false,"station_id":"CW","distance":1230,"is_transit":false,"time":2,"station_name":"Cawang","line":0,"i_long":106.856607,"i_lat":-6.242512},{"transit":false,"distance":1546,"station_id":"DRN","i_lat":-6.255332,"time":3,"station_name":"Duren Kalibata","i_long":106.85449,"is_transit":false,"line":0},{"station_id":"PSMB","transit":false,"line":2,"i_long":106.851577,"distance":824,"i_lat":-6.263214,"time":2,"station_name":"Pasar Minggu Baru","is_transit":false},{"is_transit":false,"station_id":"PSM","station_name":"Pasar Minggu","i_lat":-6.2842400000000005,"i_long":106.843999,"line":2,"transit":false,"time":2,"distance":2380},{"station_id":"TNT","transit":false,"i_long":106.838896,"line":2,"i_lat":-6.3080680000000005,"time":4,"station_name":"Tanjung Barat","is_transit":false,"distance":2820},{"time":3,"i_long":106.832616,"line":2,"station_name":"Lenteng Agung","distance":2671,"is_transit":false,"transit":false,"i_lat":-6.330363,"station_id":"LNA"},{"time":2,"i_lat":-6.339291,"line":2,"station_name":"Univ. Pancasila","i_long":106.834175,"is_transit":false,"distance":1029,"station_id":"UP","transit":false},{"station_name":"Univ. Indonesia","is_transit":false,"station_id":"UI","i_lat":-6.360749,"i_long":106.831474,"line":2,"time":3,"distance":2264,"transit":false},{"station_id":"POC","time":2,"i_lat":-6.369073,"station_name":"Pondok Cina","distance":1109,"is_transit":false,"transit":false,"i_long":106.831114,"line":2},{"transit":false,"distance":2727,"i_lat":-6.391065,"line":0,"i_long":106.819451,"station_name":"Depokbaru","is_transit":false,"station_id":"DPB","time":4}],[{"distance":0,"time":0,"station_name":"Rangkasbitung","is_transit":true,"transit":false,"station_id":"RK","i_lat":-6.352675,"i_long":106.250396,"line":0},{"transit":false,"station_name":"Citeras","time":13,"i_long":106.332092,"distance":9847,"is_transit":false,"station_id":"CTR","line":0,"i_lat":-6.334892},{"is_transit":false,"transit":false,"line":6,"station_id":"MJ","time":10,"station_name":"Maja","i_lat":-6.332307,"distance":7293,"i_long":106.394373},{"time":4,"i_long":106.411216,"station_name":"Cikoya","i_lat":-6.33561,"distance":1853,"line":0,"is_transit":false,"transit":false,"station_id":"CKY"},{"i_long":106.425991,"station_name":"Tigaraksa","transit":false,"distance":2651,"time":3,"is_transit":false,"station_id":"TGS","line":6,"i_lat":-6.328533},{"i_lat":-6.327251,"station_name":"Tenjo","transit":false,"is_transit":false,"line":6,"station_id":"TEJ","time":5,"distance":2974,"i_long":106.460812},{"transit":false,"time":5,"is_transit":false,"i_long":106.491338,"station_id":"DAR","line":0,"i_lat":-6.338021,"station_name":"Daru","distance":3902},{"station_name":"Cilejit","station_id":"CJT","is_transit":false,"i_lat":-6.354349,"line":0,"distance":2675,"transit":false,"time":6,"i_long":106.508482},{"station_id":"PRP","station_name":"Parung Panjang","i_lat":-6.3441410000000005,"is_transit":false,"time":9,"transit":false,"line":6,"distance":7025,"i_long":106.568863},{"distance":5968,"station_id":"CC","transit":false,"i_long":106.617853,"line":0,"is_transit":false,"station_name":"Cicayur","i_lat":-6.329547,"time":8},{"distance":2519,"is_transit":false,"transit":false,"line":0,"i_lat":-6.32484,"station_id":"CSK","i_long":106.640411,"station_name":"Cisauk","time":4},{"i_lat":-6.319871,"distance":1784,"station_id":"SRP","time":4,"station_name":"Serpong","i_long":106.66566,"transit":false,"is_transit":false,"line":6},{"line":6,"i_lat":-6.314823,"station_id":"RU","distance":2413,"is_transit":false,"station_name":"Rawa Buntu","transit":false,"time":4,"i_long":106.675475},{"line":6,"station_id":"SDM","time":6,"station_name":"Sudimara","i_lat":-6.296963,"transit":false,"i_long":106.712277,"is_transit":false,"distance":4566},{"distance":1994,"is_transit":false,"station_id":"JMU","station_name":"Jurangmangu","time":4,"i_lat":-6.288927,"i_long":106.728916,"line":6,"transit":false},{"i_long":106.74273,"is_transit":false,"station_name":"Pondokranji","distance":2179,"station_id":"PDJ","time":3,"line":6,"transit":false,"i_lat":-6.276362},{"distance":6218,"station_id":"KBY","time":8,"i_long":106.780334,"station_name":"Kebayoran","transit":false,"i_lat":-6.237242,"line":6,"is_transit":false},{"time":7,"line":6,"distance":3737,"i_long":106.79689,"station_id":"PLM","i_lat":-6.207404,"is_transit":false,"transit":false,"station_name":"Palmerah"},{"station_id":"THB","i_long":106.811091,"time":6,"station_name":"Tanah Abang","line":1,"transit":true,"is_transit":true,"i_lat":-6.185545,"distance":3191},{"line":1,"distance":3632,"is_transit":true,"station_id":"DU","time":8,"i_long":106.800832,"station_name":"Duri","transit":true,"i_lat":-6.155215},{"is_transit":false,"distance":1230,"i_long":106.79867,"station_id":"AK","line":0,"transit":false,"station_name":"Angke","time":4,"i_lat":-6.144674},{"is_transit":true,"station_id":"KPB","station_name":"Kampung Bandan","transit":false,"time":9,"i_lat":-6.132549,"line":0,"distance":4102,"i_long":106.826365},{"transit":true,"i_long":106.812439,"station_id":"JAKK","line":0,"time":3,"is_transit":true,"station_name":"Jakarta Kota","distance":1364,"i_lat":-6.137569},{"distance":1264,"transit":false,"time":4,"i_lat":-6.141205,"line":7,"is_transit":false,"i_long":106.820901,"station_id":"JAY","station_name":"Jayakarta"},{"is_transit":false,"i_long":106.82482,"station_id":"MGB","station_name":"Manggabesar","distance":1080,"transit":false,"line":2,"i_lat":-6.149769,"time":2},{"station_id":"SW","is_transit":false,"transit":false,"distance":906,"i_long":106.827103,"time":2,"line":2,"station_name":"Sawah Besar","i_lat":-6.160725},{"is_transit":false,"i_long":106.828284,"station_name":"Juanda","transit":false,"distance":1149,"line":2,"station_id":"JUA","time":2,"i_lat":-6.166716},{"line":2,"is_transit":false,"distance":2015,"time":4,"station_name":"Gondangdia","i_long":106.832183,"station_id":"GDD","transit":false,"i_lat":-6.186295},{"time":3,"is_transit":false,"i_lat":-6.198556,"station_name":"Cikini","i_long":106.840169,"station_id":"CKI","transit":false,"line":0,"distance":1750},{"i_lat":-6.209883,"distance":1590,"is_transit":true,"station_id":"MRI","transit":true,"station_name":"Manggarai","line":0,"time":4,"i_long":106.84912},{"distance":2610,"line":2,"transit":false,"i_long":106.857948,"i_lat":-6.226659,"is_transit":false,"time":4,"station_name":"Tebet","station_id":"TEB"},{"i_lat":-6.242512,"transit":false,"i_long":106.856607,"time":2,"line":0,"distance":1230,"is_transit":false,"station_name":"Cawang","station_id":"CW"},{"transit":false,"station_name":"Duren Kalibata","distance":1546,"is_transit":false,"time":3,"station_id":"DRN","i_long":106.85449,"i_lat":-6.255332,"line":0},{"station_id":"PSMB","line":2,"is_transit":false,"time":2,"transit":false,"station_name":"Pasar Minggu Baru","distance":824,"i_lat":-6.263214,"i_long":106.851577},{"i_lat":-6.2842400000000005,"station_name":"Pasar Minggu","station_id":"PSM","transit":false,"line":2,"time":2,"distance":2380,"is_transit":false,"i_long":106.843999},{"distance":2820,"time":4,"is_transit":false,"line":2,"station_name":"Tanjung Barat","transit":false,"i_long":106.838896,"station_id":"TNT","i_lat":-6.3080680000000005},{"i_long":106.832616,"line":2,"transit":false,"distance":2671,"station_id":"LNA","is_transit":false,"time":3,"i_lat":-6.330363,"station_name":"Lenteng Agung"},{"i_long":106.834175,"distance":1029,"i_lat":-6.339291,"is_transit":false,"station_id":"UP","time":2,"station_name":"Univ. Pancasila","transit":false,"line":2},{"station_name":"Univ. Indonesia","distance":2264,"time":3,"station_id":"UI","i_lat":-6.360749,"is_transit":false,"transit":false,"i_long":106.831474,"line":2},{"distance":1109,"is_transit":false,"station_name":"Pondok Cina","station_id":"POC","i_lat":-6.369073,"time":2,"i_long":106.831114,"line":2,"transit":false},{"time":4,"distance":2727,"station_id":"DPB","station_name":"Depokbaru","i_long":106.819451,"i_lat":-6.391065,"is_transit":false,"line":0,"transit":false}],[{"i_lat":-6.352675,"line":0,"station_id":"RK","is_transit":true,"distance":0,"i_long":106.250396,"station_name":"Rangkasbitung","time":0,"transit":false},{"transit":false,"station_id":"CTR","i_lat":-6.334892,"distance":9847,"time":13,"station_name":"Citeras","is_transit":false,"i_long":106.332092,"line":0},{"distance":7293,"is_transit":false,"time":10,"transit":false,"i_long":106.394373,"i_lat":-6.332307,"station_id":"MJ","line":6,"station_name":"Maja"},{"transit":false,"station_id":"CKY","is_transit":false,"i_lat":-6.33561,"distance":1853,"station_name":"Cikoya","i_long":106.411216,"line":0,"time":4},{"station_name":"Tigaraksa","is_transit":false,"i_lat":-6.328533,"line":6,"distance":2651,"transit":false,"time":3,"station_id":"TGS","i_long":106.425991},{"i_lat":-6.327251,"is_transit":false,"station_id":"TEJ","line":6,"station_name":"Tenjo","distance":2974,"time":5,"transit":false,"i_long":106.460812},{"transit":false,"is_transit":false,"i_lat":-6.338021,"line":0,"station_name":"Daru","time":5,"distance":3902,"i_long":106.491338,"station_id":"DAR"},{"distance":2675,"station_name":"Cilejit","line":0,"i_lat":-6.354349,"station_id":"CJT","transit":false,"is_transit":false,"time":6,"i_long":106.508482},{"i_lat":-6.3441410000000005,"line":6,"is_transit":false,"station_name":"Parung Panjang","transit":false,"station_id":"PRP","distance":7025,"i_long":106.568863,"time":9},{"is_transit":false,"distance":5968,"i_lat":-6.329547,"station_name":"Cicayur","line":0,"transit":false,"time":8,"station_id":"CC","i_long":106.617853},{"transit":false,"station_name":"Cisauk","time":4,"i_lat":-6.32484,"line":0,"distance":2519,"station_id":"CSK","is_transit":false,"i_long":106.640411},{"i_lat":-6.319871,"distance":1784,"line":6,"i_long":106.66566,"station_id":"SRP","is_transit":false,"transit":false,"station_name":"Serpong","time":4},{"distance":2413,"transit":false,"station_id":"RU","line":6,"station_name":"Rawa Buntu","i_lat":-6.314823,"is_transit":false,"i_long":106.675475,"time":4},{"station_id":"SDM","is_transit":false,"i_long":106.712277,"line":6,"time":6,"transit":false,"station_name":"Sudimara","distance":4566,"i_lat":-6.296963},{"time":4,"distance":1994,"is_transit":false,"station_name":"Jurangmangu","station_id":"JMU","transit":false,"i_lat":-6.288927,"i_long":106.728916,"line":6},{"distance":2179,"time":3,"transit":false,"line":6,"station_name":"Pondokranji","i_long":106.74273,"is_transit":false,"i_lat":-6.276362,"station_id":"PDJ"},{"i_long":106.780334,"transit":false,"time":8,"station_name":"Kebayoran","line":6,"station_id":"KBY","i_lat":-6.237242,"is_transit":false,"distance":6218},{"i_long":106.79689,"time":7,"station_name":"Palmerah","distance":3737,"is_transit":false,"line":6,"transit":false,"station_id":"PLM","i_lat":-6.207404},{"time":6,"is_transit":true,"line":1,"station_id":"THB","i_lat":-6.185545,"distance":3191,"station_name":"Tanah Abang","i_long":106.811091,"transit":true},{"i_long":106.800832,"i_lat":-6.155215,"distance":3632,"is_transit":true,"line":1,"time":8,"station_name":"Duri","station_id":"DU","transit":true},{"station_name":"Angke","time":4,"station_id":"AK","i_long":106.79867,"distance":1230,"is_transit":false,"i_lat":-6.144674,"line":0,"transit":false},{"station_id":"KPB","transit":true,"is_transit":true,"distance":4102,"time":9,"station_name":"Kampung Bandan","i_long":106.826365,"line":0,"i_lat":-6.132549},{"transit":false,"i_lat":-6.14505,"i_long":106.836569,"time":3,"is_transit":false,"line":11,"station_id":"RJW","distance":1444,"station_name":"Rajawali"},{"distance":1901,"line":11,"time":5,"station_id":"KMO","station_name":"Kemayoran","transit":false,"i_long":106.839204,"is_transit":false,"i_lat":-6.161728},{"station_id":"PSE","distance":1436,"is_transit":false,"station_name":"Pasar Senen","time":4,"i_lat":-6.174784,"i_long":106.84368,"line":11,"transit":false},{"distance":1567,"i_long":106.850107,"line":11,"station_name":"Gang Sentiong","i_lat":-6.185975,"time":8,"transit":false,"station_id":"GST","is_transit":false},{"is_transit":false,"distance":973,"i_long":106.855437,"station_id":"KMT","transit":false,"time":1,"station_name":"Kramat","line":11,"i_lat":-6.193792},{"i_lat":-6.209188,"distance":1829,"is_transit":false,"transit":false,"time":2,"i_long":106.861737,"line":11,"station_id":"POK","station_name":"Pondok Jati"},{"i_lat":-6.215091,"is_transit":true,"station_name":"Jatinegara","distance":1236,"transit":true,"time":9,"line":0,"i_long":106.86807400000001,"station_id":"JNG"},{"i_long":106.858896,"station_name":"Matraman","line":1,"transit":false,"distance":1377,"time":2,"is_transit":false,"station_id":"MTR","i_lat":-6.212485},{"time":2,"is_transit":true,"distance":1275,"station_name":"Manggarai","transit":true,"i_lat":-6.209883,"line":0,"station_id":"MRI","i_long":106.84912},{"i_lat":-6.226659,"transit":false,"line":2,"is_transit":false,"station_id":"TEB","i_long":106.857948,"distance":2610,"time":4,"station_name":"Tebet"},{"is_transit":false,"time":2,"station_name":"Cawang","transit":false,"i_lat":-6.242512,"line":0,"distance":1230,"station_id":"CW","i_long":106.856607},{"distance":1546,"station_id":"DRN","i_lat":-6.255332,"time":3,"transit":false,"is_transit":false,"station_name":"Duren Kalibata","i_long":106.85449,"line":0},{"station_name":"Pasar Minggu Baru","transit":false,"station_id":"PSMB","distance":824,"i_long":106.851577,"line":2,"is_transit":false,"time":2,"i_lat":-6.263214},{"i_lat":-6.2842400000000005,"is_transit":false,"line":2,"distance":2380,"time":2,"i_long":106.843999,"station_id":"PSM","transit":false,"station_name":"Pasar Minggu"},{"transit":false,"station_id":"TNT","line":2,"time":4,"i_lat":-6.3080680000000005,"distance":2820,"station_name":"Tanjung Barat","i_long":106.838896,"is_transit":false},{"line":2,"station_name":"Lenteng Agung","is_transit":false,"time":3,"i_lat":-6.330363,"distance":2671,"station_id":"LNA","i_long":106.832616,"transit":false},{"station_id":"UP","distance":1029,"is_transit":false,"transit":false,"i_lat":-6.339291,"line":2,"station_name":"Univ. Pancasila","time":2,"i_long":106.834175},{"line":2,"transit":false,"distance":2264,"station_name":"Univ. Indonesia","station_id":"UI","i_lat":-6.360749,"time":3,"i_long":106.831474,"is_transit":false},{"transit":false,"time":2,"station_name":"Pondok Cina","i_lat":-6.369073,"line":2,"distance":1109,"station_id":"POC","is_transit":false,"i_long":106.831114},{"i_lat":-6.391065,"i_long":106.819451,"distance":2727,"is_transit":false,"station_id":"DPB","transit":false,"station_name":"Depokbaru","time":4,"line":0}]]}