{"data":[[{"i_lat":-6.352675,"is_transit":true,"station_id":"RK","time":0,"transit":false,"i_long":106.250396,"line":0,"distance":0,"station_name":"Rangkasbitung"},{"i_long":106.332092,"distance":9847,"is_transit":false,"station_id":"CTR","line":0,"station_name":"Citeras","transit":false,"i_lat":-6.334892,"time":13},{"is_transit":false,"station_name":"Maja","transit":false,"distance":7293,"i_long":106.394373,"i_lat":-6.332307,"time":10,"line":6,"station_id":"MJ"},{"distance":1853,"is_transit":false,"station_name":"Cikoya","transit":false,"line":0,"station_id":"CKY","time":4,"i_long":106.411216,"i_lat":-6.33561},{"line":6,"is_transit":false,"station_name":"Tigaraksa","station_id":"TGS","transit":false,"i_long":106.425991,"distance":2651,"i_lat":-6.328533,"time":3},{"time":5,"station_name":"Tenjo","distance":2974,"i_long":106.460812,"station_id":"TEJ","i_lat":-6.327251,"transit":false,"is_transit":false,"line":6},{"transit":false,"distance":3902,"station_name":"Daru","is_transit":false,"i_lat":-6.338021,"line":0,"station_id":"DAR","time":5,"i_long":106.491338},{"i_long":106.508482,"transit":false,"distance":2675,"is_transit":false,"station_id":"CJT","time":6,"i_lat":-6.354349,"line":0,"station_name":"Cilejit"},{"transit":false,"i_long":106.568863,"distance":7025,"station_id":"PRP","station_name":"Parung Panjang","line":6,"i_lat":-6.3441410000000005,"time":9,"is_transit":false},{"distance":5968,"is_transit":false,"station_name":"Cicayur","transit":false,"i_lat":-6.329547,"i_long":106.617853,"time":8,"station_id":"CC","line":0},{"distance":2519,"is_transit":false,"transit":false,"i_lat":-6.32484,"station_id":"CSK","station_name":"Cisauk","time":4,"i_long":106.640411,"line":0},{"i_lat":-6.319871,"i_long":106.66566,"line":6,"distance":1784,"is_transit":false,"station_id":"SRP","station_name":"Serpong","transit":false,"time":4},{"is_transit":false,"i_long":106.675475,"transit":false,"distance":2413,"station_id":"RU","time":4,"line":6,"i_lat":-6.314823,"station_name":"Rawa Buntu"},{"i_lat":-6.296963,"station_id":"SDM","station_name":"Sudimara","time":6,"line":6,"transit":false,"distance":4566,"is_transit":false,"i_long":106.712277},{"station_name":"Jurangmangu","distance":1994,"time":4,"transit":false,"i_long":106.728916,"is_transit":false,"i_lat":-6.288927,"line":6,"station_id":"JMU"},{"i_lat":-6.276362,"is_transit":false,"i_long":106.74273,"distance":2179,"transit":false,"time":3,"station_id":"PDJ","station_name":"Pondokranji","line":6},{"station_name":"Kebayoran","is_transit":false,"transit":false,"i_lat":-6.237242,"station_id":"KBY","time":8,"i_long":106.780334,"line":6,"distance":6218},{"time":7,"station_name":"Palmerah","line":6,"station_id":"PLM","transit":false,"is_transit":false,"distance":3737,"i_lat":-6.207404,"i_long":106.79689},{"time":6,"i_lat":-6.185545,"station_id":"THB","station_name":"Tanah Abang","transit":true,"i_long":106.811091,"distance":3191,"is_transit":true,"line":1},{"is_transit":false,"transit":false,"i_lat":-6.20132,"line":1,"i_long":106.816351,"time":5,"distance":2029,"station_name":"Karet","station_id":"KAT"},{"i_lat":-6.201433,"i_long":106.819881,"is_transit":false,"station_id":"SUDB","station_name":"Sudirman Baru","distance":471,"line":1,"transit":false,"time":1},{"i_long":106.822649,"transit":false,"line":1,"station_name":"Sudirman","i_lat":-6.202263,"station_id":"SUD","distance":280,"is_transit":false,"time":1},{"line":0,"i_lat":-6.209883,"distance":3186,"station_id":"MRI","is_transit":true,"station_name":"Manggarai","transit":true,"time":4,"i_long":106.84912},{"transit":false,"line":2,"i_long":106.857948,"i_lat":-6.226659,"station_name":"Tebet","time":4,"distance":2610,"is_transit":false,"station_id":"TEB"},{"is_transit":false,"time":2,"i_long":106.856607,"station_id":"CW","transit":false,"line":0,"distance":1230,"station_name":"Cawang","i_lat":-6.242512},{"transit":false,"station_id":"DRN","distance":1546,"is_transit":false,"time":3,"i_long":106.85449,"line":0,"station_name":"Duren Kalibata","i_lat":-6.255332}],[{"station_id":"RK","is_transit":true,"transit":false,"i_lat":-6.352675,"distance":0,"line":0,"time":0,"station_name":"Rangkasbitung","i_long":106.250396},{"station_id":"CTR","time":13,"i_lat":-6.334892,"station_name":"Citeras","distance":9847,"is_transit":false,"transit":false,"i_long":106.332092,"line":0},{"station_id":"MJ","line":6,"is_transit":false,"station_name":"Maja","i_lat":-6.332307,"transit":false,"time":10,"i_long":106.394373,"distance":7293},{"i_lat":-6.33561,"station_name":"Cikoya","transit":false,"time":4,"i_long":106.411216,"line":0,"station_id":"CKY","distance":1853,"is_transit":false},{"distance":2651,"station_id":"TGS","is_transit":false,"station_name":"Tigaraksa","time":3,"transit":false,"i_lat":-6.328533,"line":6,"i_long":106.425991},{"is_transit":false,"time":5,"i_long":106.460812,"station_id":"TEJ","station_name":"Tenjo","transit":false,"i_lat":-6.327251,"distance":2974,"line":6},{"i_long":106.491338,"i_lat":-6.338021,"transit":false,"time":5,"station_id":"DAR","distance":3902,"is_transit":false,"line":0,"station_name":"Daru"},{"distance":2675,"station_name":"Cilejit","line":0,"transit":false,"station_id":"CJT","time":6,"i_lat":-6.354349,"i_long":106.508482,"is_transit":false},{"station_id":"PRP","i_lat":-6.3441410000000005,"time":9,"line":6,"station_name":"Parung Panjang","is_transit":false,"distance":7025,"transit":false,"i_long":106.568863},{"station_name":"Cicayur","line":0,"is_transit":false,"i_long":106.617853,"station_id":"CC","transit":false,"time":8,"i_lat":-6.329547,"distance":5968},{"distance":2519,"transit":false,"is_transit":false,"time":4,"station_id":"CSK","i_long":106.640411,"station_name":"Cisauk","i_lat":-6.32484,"line":0},{"station_name":"Serpong","i_lat":-6.319871,"i_long":106.66566,"line":6,"transit":false,"time":4,"distance":1784,"is_transit":false,"station_id":"SRP"},{"transit":false,"distance":2413,"i_long":106.675475,"station_name":"Rawa Buntu","i_lat":-6.314823,"line":6,"is_transit":false,"station_id":"RU","time":4},{"station_name":"Sudimara","time":6,"i_lat":-6.296963,"is_transit":false,"i_long":106.712277,"line":6,"station_id":"SDM","transit":false,"distance":4566},{"line":6,"time":4,"is_transit":false,"i_long":106.728916,"distance":1994,"station_id":"JMU","transit":false,"station_name":"Jurangmangu","i_lat":-6.288927},{"distance":2179,"station_name":"Pondokranji","time":3,"i_lat":-6.276362,"line":6,"is_transit":false,"transit":false,"station_id":"PDJ","i_long":106.74273},{"line":6,"i_long":106.780334,"distance":6218,"is_transit":false,"i_lat":-6.237242,"transit":false,"time":8,"station_id":"KBY","station_name":"Kebayoran"},{"distance":3737,"is_transit":false,"station_name":"Palmerah","station_id":"PLM","transit":false,"time":7,"i_lat":-6.207404,"line":6,"i_long":106.79689},{"line":1,"station_name":"Tanah Abang","transit":true,"distance":3191,"i_lat":-6.185545,"i_long":106.811091,"station_id":"THB","is_transit":true,"time":6},{"distance":3632,"is_transit":true,"i_long":106.800832,"station_name":"Duri","station_id":"DU","i_lat":-6.155215,"line":1,"transit":true,"time":8},{"time":4,"line":0,"distance":1230,"station_name":"Angke","is_transit":false,"station_id":"AK","transit":false,"i_lat":-6.144674,"i_long":106.79867},{"station_name":"Kampung Bandan","i_long":106.826365,"station_id":"KPB","distance":4102,"is_transit":true,"transit":false,"time":9,"i_lat":-6.132549,"line":0},{"i_long":106.812439,"transit":true,"station_name":"Jakarta Kota","is_transit":true,"time":3,"line":0,"distance":1364,"station_id":"JAKK","i_lat":-6.137569},{"is_transit":false,"station_id":"JAY","i_lat":-6.141205,"station_name":"Jayakarta","time":4,"line":7,"distance":1264,"transit":false,"i_long":106.820901},{"i_long":106.82482,"i_lat":-6.149769,"station_name":"Manggabesar","is_transit":false,"station_id":"MGB","transit":false,"line":2,"time":2,"distance":1080},{"distance":906,"is_transit":false,"transit":false,"station_name":"Sawah Besar","time":2,"i_long":106.827103,"station_id":"SW","i_lat":-6.160725,"line":2},{"is_transit":false,"transit":false,"station_name":"Juanda","station_id":"JUA","line":2,"i_lat":-6.166716,"distance":1149,"i_long":106.828284,"time":2},{"time":4,"i_lat":-6.186295,"i_long":106.832183,"line":2,"is_transit":false,"station_id":"GDD","distance":2015,"transit":false,"station_name":"Gondangdia"},{"transit":false,"i_long":106.840169,"time":3,"distance":1750,"is_transit":false,"station_id":"CKI","i_lat":-6.198556,"line":0,"station_name":"Cikini"},{"transit":true,"is_transit":true,"station_name":"Manggarai","distance":1590,"time":4,"i_lat":-6.209883,"station_id":"MRI","i_long":106.84912,"line":0},{"i_lat":-6.226659,"station_name":"Tebet","i_long":106.857948,"line":2,"station_id":"TEB","time":4,"transit":false,"is_transit":false,"distance":2610},{"i_lat":-6.242512,"station_id":"CW","is_transit":false,"transit":false,"time":2,"i_long":106.856607,"line":0,"distance":1230,"station_name":"Cawang"},{"line":0,"i_lat":-6.255332,"is_transit":false,"transit":false,"station_id":"DRN","distance":1546,"time":3,"i_long":106.85449,"station_name":"Duren Kalibata"}],[{"distance":0,"is_transit":true,"station_id":"RK","transit":false,"line":0,"time":0,"i_lat":-6.352675,"i_long":106.250396,"station_name":"Rangkasbitung"},{"time":13,"i_long":106.332092,"line":0,"distance":9847,"is_transit":false,"station_id":"CTR","station_name":"Citeras","transit":false,"i_lat":-6.334892},{"i_lat":-6.332307,"line":6,"time":10,"distance":7293,"is_transit":false,"station_name":"Maja","transit":false,"station_id":"MJ","i_long":106.394373},{"i_lat":-6.33561,"station_id":"CKY","station_name":"Cikoya","time":4,"distance":1853,"is_transit":false,"i_long":106.411216,"transit":false,"line":0},{"time":3,"i_lat":-6.328533,"i_long":106.425991,"transit":false,"distance":2651,"line":6,"station_id":"TGS","station_name":"Tigaraksa","is_transit":false},{"transit":false,"i_lat":-6.327251,"station_name":"Tenjo","line":6,"time":5,"distance":2974,"is_transit":false,"station_id":"TEJ","i_long":106.460812},{"i_long":106.491338,"time":5,"station_id":"DAR","distance":3902,"i_lat":-6.338021,"station_name":"Daru","line":0,"is_transit":false,"transit":false},{"station_id":"CJT","i_long":106.508482,"transit":false,"distance":2675,"station_name":"Cilejit","time":6,"i_lat":-6.354349,"is_transit":false,"line":0},{"i_lat":-6.3441410000000005,"i_long":106.568863,"station_name":"Parung Panjang","transit":false,"time":9,"line":6,"is_transit":false,"station_id":"PRP","distance":7025},{"time":8,"distance":5968,"i_lat":-6.329547,"line":0,"is_transit":false,"station_name":"Cicayur","station_id":"CC","i_long":106.617853,"transit":false},{"time":4,"station_name":"Cisauk","station_id":"CSK","is_transit":false,"transit":false,"i_long":106.640411,"distance":2519,"line":0,"i_lat":-6.32484},{"station_id":"SRP","line":6,"transit":false,"station_name":"Serpong","distance":1784,"time":4,"i_long":106.66566,"is_transit":false,"i_lat":-6.319871},{"station_id":"RU","station_name":"Rawa Buntu","transit":false,"i_lat":-6.314823,"i_long":106.675475,"time":4,"line":6,"is_transit":false,"distance":2413},{"i_long":106.712277,"station_name":"Sudimara","is_transit":false,"distance":4566,"line":6,"i_lat":-6.296963,"transit":false,"time":6,"station_id":"SDM"},{"time":4,"distance":1994,"line":6,"station_id":"JMU","transit":false,"i_long":106.728916,"station_name":"Jurangmangu","i_lat":-6.288927,"is_transit":false},{"station_id":"PDJ","i_long":106.74273,"i_lat":-6.276362,"transit":false,"time":3,"is_transit":false,"line":6,"distance":2179,"station_name":"Pondokranji"},{"time":8,"i_long":106.780334,"is_transit":false,"line":6,"distance":6218,"station_name":"Kebayoran","i_lat":-6.237242,"station_id":"KBY","transit":false},{"transit":false,"line":6,"station_name":"Palmerah","station_id":"PLM","distance":3737,"is_transit":false,"i_lat":-6.207404,"time":7,"i_long":106.79689},{"station_name":"Tanah Abang","transit":true,"time":6,"station_id":"THB","i_long":106.811091,"is_transit":true,"i_lat":-6.185545,"line":1,"distance":3191},{"station_id":"DU","i_long":106.800832,"distance":3632,"station_name":"Duri","i_lat":-6.155215,"is_transit":true,"time":8,"line":1,"transit":true},{"is_transit":false,"i_long":106.79867,"station_id":"AK","transit":false,"distance":1230,"station_name":"Angke","time":4,"line":0,"i_lat":-6.144674},{"is_transit":true,"station_name":"Kampung Bandan","station_id":"KPB","time":9,"i_long":106.826365,"distance":4102,"transit":true,"i_lat":-6.132549,"line":0},{"i_long":106.836569,"time":3,"line":11,"is_transit":false,"station_id":"RJW","transit":false,"distance":1444,"station_name":"Rajawali","i_lat":-6.14505},{"line":11,"time":5,"distance":1901,"station_name":"Kemayoran","transit":false,"station_id":"KMO","i_lat":-6.161728,"is_transit":false,"i_long":106.839204},{"i_long":106.84368,"is_transit":false,"transit":false,"distance":1436,"i_lat":-6.174784,"station_name":"Pasar Senen","station_id":"PSE","line":11,"time":4},{"station_id":"GST","line":11,"is_transit":false,"i_lat":-6.185975,"transit":false,"time":8,"station_name":"Gang Sentiong","i_long":106.850107,"distance":1567},{"station_name":"Kramat","distance":973,"i_long":106.855437,"line":11,"time":1,"is_transit":false,"i_lat":-6.193792,"station_id":"KMT","transit":false},{"i_long":106.861737,"line":11,"station_name":"Pondok Jati","station_id":"POK","distance":1829,"transit":false,"time":2,"i_lat":-6.209188,"is_transit":false},{"transit":true,"line":0,"station_name":"Jatinegara","station_id":"JNG","time":9,"is_transit":true,"i_lat":-6.215091,"i_long":106.86807400000001,"distance":1236},{"station_name":"Matraman","i_long":106.858896,"transit":false,"time":2,"is_transit":false,"station_id":"MTR","distance":1377,"i_lat":-6.212485,"line":1},{"i_long":106.84912,"is_transit":true,"i_lat":-6.209883,"transit":true,"time":2,"distance":1275,"station_id":"MRI","station_name":"Manggarai","line":0},{"time":4,"station_id":"TEB","distance":2610,"i_lat":-6.226659,"line":2,"i_long":106.857948,"station_name":"Tebet","is_transit":false,"transit":false},{"is_transit":false,"station_name":"Cawang","time":2,"i_lat":-6.242512,"station_id":"CW","distance":1230,"transit":false,"i_long":106.856607,"line":0},{"i_long":106.85449,"i_lat":-6.255332,"time":3,"is_transit":false,"distance":1546,"station_id":"DRN","station_name":"Duren Kalibata","transit":false,"line":0}]]}