{"data":[[{"is_transit":false,"i_lat":-6.352675,"station_id":"RK","time":0,"i_long":106.250396,"distance":0,"transit":false,"station_name":"Rangkasbitung","line":3},{"station_id":"CTR","line":3,"i_lat":-6.334892,"is_transit":false,"station_name":"Citeras","distance":9847,"i_long":106.332092,"transit":false,"time":13},{"i_lat":-6.332307,"transit":false,"line":6,"time":10,"station_id":"MJ","is_transit":false,"station_name":"Maja","i_long":106.394373,"distance":7293},{"distance":1853,"transit":false,"station_name":"Cikoya","i_long":106.411216,"line":3,"i_lat":-6.33561,"station_id":"CKY","time":4,"is_transit":false},{"line":6,"i_long":106.425991,"is_transit":false,"time":3,"station_id":"TGS","i_lat":-6.328533,"transit":false,"station_name":"Tigaraksa","distance":2651},{"i_lat":-6.327251,"line":6,"is_transit":false,"transit":false,"i_long":106.460812,"station_id":"TEJ","station_name":"Tenjo","time":5,"distance":2974},{"distance":3902,"station_id":"DAR","line":0,"is_transit":false,"i_lat":-6.338021,"transit":false,"i_long":106.491338,"time":5,"station_name":"Daru"},{"station_name":"Cilejit","i_lat":-6.354349,"time":6,"line":3,"is_transit":false,"station_id":"CJT","distance":2675,"i_long":106.508482,"transit":false},{"distance":7025,"i_lat":-6.3441410000000005,"station_id":"PRP","station_name":"Parung Panjang","i_long":106.568863,"is_transit":false,"time":9,"line":6,"transit":false},{"transit":false,"distance":5968,"i_long":106.617853,"line":3,"station_id":"CC","i_lat":-6.329547,"time":8,"is_transit":false,"station_name":"Cicayur"},{"is_transit":false,"station_name":"Cisauk","time":4,"distance":2519,"i_lat":-6.32484,"station_id":"CSK","i_long":106.640411,"line":3,"transit":false},{"station_name":"Serpong","distance":1784,"station_id":"SRP","i_lat":-6.319871,"i_long":106.66566,"time":4,"line":6,"is_transit":false,"transit":false},{"station_name":"Rawa Buntu","is_transit":false,"line":6,"i_long":106.675475,"i_lat":-6.314823,"transit":false,"station_id":"RU","time":4,"distance":2413},{"is_transit":false,"time":6,"station_id":"SDM","station_name":"Sudimara","transit":false,"distance":4566,"i_lat":-6.296963,"i_long":106.712277,"line":6},{"transit":false,"distance":1994,"line":6,"i_long":106.728916,"i_lat":-6.288927,"station_name":"Jurangmangu","is_transit":false,"station_id":"JMU","time":4},{"station_id":"PDJ","i_long":106.74273,"is_transit":false,"line":6,"time":3,"transit":false,"station_name":"Pondokranji","distance":2179,"i_lat":-6.276362},{"i_long":106.780334,"is_transit":false,"distance":6218,"i_lat":-6.237242,"line":6,"station_id":"KBY","time":8,"transit":false,"station_name":"Kebayoran"},{"is_transit":false,"distance":3737,"station_name":"Palmerah","i_long":106.79689,"line":6,"transit":false,"time":7,"station_id":"PLM","i_lat":-6.207404},{"is_transit":true,"distance":3191,"station_id":"THB","i_long":106.811091,"line":1,"i_lat":-6.185545,"station_name":"Tanah Abang","time":6,"transit":true},{"is_transit":false,"station_id":"KAT","station_name":"Karet","distance":2029,"time":5,"i_lat":-6.20132,"i_long":106.816351,"line":1,"transit":false},{"distance":471,"time":1,"station_name":"Sudirman Baru","i_long":106.819881,"is_transit":false,"line":1,"station_id":"SUDB","i_lat":-6.201433,"transit":false},{"i_lat":-6.202263,"i_long":106.822649,"distance":280,"line":1,"transit":false,"time":1,"is_transit":false,"station_id":"SUD","station_name":"Sudirman"},{"station_name":"Manggarai","is_transit":true,"time":4,"line":2,"i_long":106.84912,"distance":3186,"i_lat":-6.209883,"transit":true,"station_id":"MRI"},{"station_name":"Tebet","transit":false,"i_long":106.857948,"is_transit":false,"line":2,"station_id":"TEB","i_lat":-6.226659,"time":4,"distance":2610},{"station_name":"Cawang","distance":1230,"station_id":"CW","i_lat":-6.242512,"line":2,"time":2,"is_transit":false,"transit":false,"i_long":106.856607},{"line":2,"station_name":"Duren Kalibata","station_id":"DRN","i_long":106.85449,"time":3,"is_transit":false,"distance":1546,"transit":false,"i_lat":-6.255332}],[{"transit":false,"station_name":"Rangkasbitung","time":0,"is_transit":false,"i_long":106.250396,"station_id":"RK","i_lat":-6.352675,"line":3,"distance":0},{"station_name":"Citeras","i_lat":-6.334892,"i_long":106.332092,"line":3,"distance":9847,"is_transit":false,"station_id":"CTR","transit":false,"time":13},{"transit":false,"i_long":106.394373,"time":10,"distance":7293,"i_lat":-6.332307,"line":6,"station_name":"Maja","station_id":"MJ","is_transit":false},{"transit":false,"i_long":106.411216,"station_id":"CKY","i_lat":-6.33561,"distance":1853,"station_name":"Cikoya","line":3,"is_transit":false,"time":4},{"time":3,"transit":false,"is_transit":false,"line":6,"station_name":"Tigaraksa","distance":2651,"i_lat":-6.328533,"i_long":106.425991,"station_id":"TGS"},{"distance":2974,"station_id":"TEJ","time":5,"i_long":106.460812,"station_name":"Tenjo","transit":false,"is_transit":false,"line":6,"i_lat":-6.327251},{"i_long":106.491338,"line":0,"distance":3902,"station_name":"Daru","time":5,"is_transit":false,"transit":false,"station_id":"DAR","i_lat":-6.338021},{"time":6,"is_transit":false,"transit":false,"i_long":106.508482,"distance":2675,"station_name":"Cilejit","i_lat":-6.354349,"station_id":"CJT","line":3},{"station_id":"PRP","time":9,"i_long":106.568863,"i_lat":-6.3441410000000005,"line":6,"is_transit":false,"transit":false,"station_name":"Parung Panjang","distance":7025},{"time":8,"i_lat":-6.329547,"line":3,"transit":false,"i_long":106.617853,"distance":5968,"station_id":"CC","station_name":"Cicayur","is_transit":false},{"time":4,"station_name":"Cisauk","i_lat":-6.32484,"is_transit":false,"i_long":106.640411,"line":3,"distance":2519,"station_id":"CSK","transit":false},{"station_id":"SRP","line":6,"i_lat":-6.319871,"time":4,"i_long":106.66566,"distance":1784,"station_name":"Serpong","is_transit":false,"transit":false},{"i_lat":-6.314823,"station_name":"Rawa Buntu","time":4,"line":6,"is_transit":false,"distance":2413,"station_id":"RU","i_long":106.675475,"transit":false},{"time":6,"distance":4566,"i_lat":-6.296963,"transit":false,"station_name":"Sudimara","is_transit":false,"i_long":106.712277,"station_id":"SDM","line":6},{"station_id":"JMU","station_name":"Jurangmangu","is_transit":false,"line":6,"i_lat":-6.288927,"time":4,"i_long":106.728916,"transit":false,"distance":1994},{"distance":2179,"i_lat":-6.276362,"line":6,"time":3,"i_long":106.74273,"is_transit":false,"station_name":"Pondokranji","transit":false,"station_id":"PDJ"},{"transit":false,"time":8,"i_lat":-6.237242,"i_long":106.780334,"is_transit":false,"line":6,"distance":6218,"station_id":"KBY","station_name":"Kebayoran"},{"i_long":106.79689,"line":6,"station_name":"Palmerah","transit":false,"distance":3737,"i_lat":-6.207404,"time":7,"is_transit":false,"station_id":"PLM"},{"distance":3191,"time":6,"line":1,"i_long":106.811091,"station_name":"Tanah Abang","is_transit":true,"transit":true,"i_lat":-6.185545,"station_id":"THB"},{"is_transit":false,"i_lat":-6.155215,"station_id":"DU","line":1,"i_long":106.800832,"distance":3632,"transit":false,"station_name":"Duri","time":8},{"station_name":"Angke","transit":false,"time":4,"is_transit":false,"i_long":106.79867,"station_id":"AK","i_lat":-6.144674,"distance":1230,"line":1},{"is_transit":true,"transit":true,"time":9,"distance":4102,"station_id":"KPB","i_lat":-6.132549,"i_long":106.826365,"line":4,"station_name":"Kampung Bandan"},{"line":2,"transit":true,"station_id":"JAKK","is_transit":true,"i_long":106.812439,"distance":1364,"time":3,"station_name":"Jakarta Kota","i_lat":-6.137569},{"station_name":"Jayakarta","station_id":"JAY","line":2,"distance":1264,"transit":false,"time":4,"is_transit":false,"i_lat":-6.141205,"i_long":106.820901},{"station_id":"MGB","i_long":106.82482,"is_transit":false,"time":2,"transit":false,"i_lat":-6.149769,"distance":1080,"station_name":"Manggabesar","line":2},{"station_name":"Sawah Besar","station_id":"SW","distance":906,"is_transit":false,"transit":false,"line":2,"time":2,"i_lat":-6.160725,"i_long":106.827103},{"i_long":106.828284,"is_transit":false,"distance":1149,"station_name":"Juanda","time":2,"station_id":"JUA","i_lat":-6.166716,"transit":false,"line":2},{"station_id":"GDD","i_lat":-6.186295,"transit":false,"station_name":"Gondangdia","distance":2015,"i_long":106.832183,"time":4,"line":2,"is_transit":false},{"transit":false,"distance":1750,"line":2,"station_name":"Cikini","is_transit":false,"i_lat":-6.198556,"time":3,"station_id":"CKI","i_long":106.840169},{"distance":1590,"line":2,"station_id":"MRI","i_lat":-6.209883,"transit":false,"is_transit":false,"station_name":"Manggarai","time":4,"i_long":106.84912},{"station_id":"TEB","time":4,"transit":false,"i_lat":-6.226659,"is_transit":false,"i_long":106.857948,"distance":2610,"line":2,"station_name":"Tebet"},{"station_name":"Cawang","is_transit":false,"distance":1230,"station_id":"CW","i_lat":-6.242512,"i_long":106.856607,"time":2,"transit":false,"line":2},{"distance":1546,"station_id":"DRN","station_name":"Duren Kalibata","time":3,"transit":false,"i_long":106.85449,"i_lat":-6.255332,"line":2,"is_transit":false}],[{"time":0,"station_name":"Rangkasbitung","is_transit":false,"transit":false,"distance":0,"i_long":106.250396,"i_lat":-6.352675,"station_id":"RK","line":3},{"is_transit":false,"transit":false,"i_lat":-6.334892,"station_name":"Citeras","distance":9847,"i_long":106.332092,"station_id":"CTR","time":13,"line":3},{"station_name":"Maja","distance":7293,"is_transit":false,"transit":false,"time":10,"i_lat":-6.332307,"line":6,"station_id":"MJ","i_long":106.394373},{"distance":1853,"i_lat":-6.33561,"time":4,"transit":false,"is_transit":false,"station_id":"CKY","station_name":"Cikoya","line":3,"i_long":106.411216},{"is_transit":false,"station_id":"TGS","transit":false,"distance":2651,"i_lat":-6.328533,"time":3,"i_long":106.425991,"station_name":"Tigaraksa","line":6},{"i_lat":-6.327251,"time":5,"station_id":"TEJ","transit":false,"distance":2974,"line":6,"i_long":106.460812,"is_transit":false,"station_name":"Tenjo"},{"station_name":"Daru","i_lat":-6.338021,"i_long":106.491338,"line":0,"is_transit":false,"station_id":"DAR","distance":3902,"time":5,"transit":false},{"i_lat":-6.354349,"i_long":106.508482,"station_id":"CJT","time":6,"transit":false,"line":3,"distance":2675,"station_name":"Cilejit","is_transit":false},{"distance":7025,"station_id":"PRP","i_long":106.568863,"line":6,"i_lat":-6.3441410000000005,"station_name":"Parung Panjang","transit":false,"time":9,"is_transit":false},{"transit":false,"i_long":106.617853,"is_transit":false,"time":8,"station_name":"Cicayur","distance":5968,"line":3,"station_id":"CC","i_lat":-6.329547},{"line":3,"i_lat":-6.32484,"distance":2519,"station_id":"CSK","is_transit":false,"station_name":"Cisauk","transit":false,"time":4,"i_long":106.640411},{"station_name":"Serpong","distance":1784,"time":4,"i_long":106.66566,"station_id":"SRP","i_lat":-6.319871,"line":6,"is_transit":false,"transit":false},{"i_lat":-6.314823,"time":4,"station_name":"Rawa Buntu","transit":false,"is_transit":false,"station_id":"RU","distance":2413,"i_long":106.675475,"line":6},{"i_lat":-6.296963,"station_name":"Sudimara","time":6,"line":6,"i_long":106.712277,"station_id":"SDM","transit":false,"is_transit":false,"distance":4566},{"distance":1994,"is_transit":false,"i_long":106.728916,"i_lat":-6.288927,"time":4,"line":6,"station_name":"Jurangmangu","transit":false,"station_id":"JMU"},{"transit":false,"i_long":106.74273,"line":6,"distance":2179,"station_name":"Pondokranji","time":3,"i_lat":-6.276362,"station_id":"PDJ","is_transit":false},{"station_id":"KBY","distance":6218,"line":6,"time":8,"transit":false,"station_name":"Kebayoran","i_long":106.780334,"i_lat":-6.237242,"is_transit":false},{"station_id":"PLM","transit":false,"time":7,"distance":3737,"i_long":106.79689,"station_name":"Palmerah","is_transit":false,"line":6,"i_lat":-6.207404},{"i_lat":-6.185545,"distance":3191,"time":6,"is_transit":true,"station_id":"THB","i_long":106.811091,"line":1,"station_name":"Tanah Abang","transit":true},{"time":8,"transit":false,"station_id":"DU","is_transit":false,"i_lat":-6.155215,"i_long":106.800832,"line":1,"station_name":"Duri","distance":3632},{"line":1,"distance":1230,"station_name":"Angke","station_id":"AK","time":4,"i_long":106.79867,"transit":false,"i_lat":-6.144674,"is_transit":false},{"line":4,"distance":4102,"station_name":"Kampung Bandan","transit":true,"time":9,"is_transit":true,"i_lat":-6.132549,"station_id":"KPB","i_long":106.826365},{"is_transit":false,"station_name":"Rajawali","i_lat":-6.14505,"distance":1444,"transit":false,"time":3,"line":11,"i_long":106.836569,"station_id":"RJW"},{"is_transit":false,"line":11,"time":5,"distance":1901,"transit":false,"station_id":"KMO","station_name":"Kemayoran","i_long":106.839204,"i_lat":-6.161728},{"line":11,"i_lat":-6.174784,"is_transit":false,"time":4,"distance":1436,"station_name":"Pasar Senen","station_id":"PSE","i_long":106.84368,"transit":false},{"i_long":106.850107,"is_transit":false,"transit":false,"i_lat":-6.185975,"distance":1567,"line":11,"time":8,"station_id":"GST","station_name":"Gang Sentiong"},{"line":11,"transit":false,"station_id":"KMT","distance":973,"is_transit":false,"time":1,"i_long":106.855437,"station_name":"Kramat","i_lat":-6.193792},{"line":11,"station_id":"POK","station_name":"Pondok Jati","distance":1829,"transit":false,"time":2,"is_transit":false,"i_lat":-6.209188,"i_long":106.861737},{"station_name":"Jatinegara","i_long":106.86807400000001,"station_id":"JNG","time":9,"distance":1236,"transit":true,"is_transit":true,"line":1,"i_lat":-6.215091},{"i_long":106.858896,"i_lat":-6.212485,"line":1,"time":2,"station_name":"Matraman","distance":1377,"transit":false,"is_transit":false,"station_id":"MTR"},{"station_id":"MRI","transit":true,"station_name":"Manggarai","i_lat":-6.209883,"line":2,"is_transit":true,"time":2,"distance":1275,"i_long":106.84912},{"line":2,"transit":false,"i_lat":-6.226659,"time":4,"distance":2610,"is_transit":false,"station_name":"Tebet","i_long":106.857948,"station_id":"TEB"},{"station_name":"Cawang","transit":false,"line":2,"time":2,"is_transit":false,"distance":1230,"i_lat":-6.242512,"i_long":106.856607,"station_id":"CW"},{"station_id":"DRN","transit":false,"line":2,"i_lat":-6.255332,"time":3,"distance":1546,"i_long":106.85449,"station_name":"Duren Kalibata","is_transit":false}]]}