{"data":[[{"is_transit":false,"station_id":"RK","distance":0,"i_lat":-6.352675,"i_long":106.250396,"line":3,"station_name":"Rangkasbitung","time":0,"transit":false},{"transit":false,"i_lat":-6.334892,"station_id":"CTR","station_name":"Citeras","is_transit":false,"i_long":106.332092,"line":3,"time":13,"distance":9847},{"i_lat":-6.332307,"line":6,"time":10,"i_long":106.394373,"is_transit":false,"distance":7293,"transit":false,"station_name":"Maja","station_id":"MJ"},{"station_id":"CKY","station_name":"Cikoya","is_transit":false,"line":3,"i_long":106.411216,"i_lat":-6.33561,"transit":false,"time":4,"distance":1853},{"transit":false,"line":6,"i_long":106.425991,"station_id":"TGS","station_name":"Tigaraksa","is_transit":false,"i_lat":-6.328533,"distance":2651,"time":3},{"i_lat":-6.327251,"is_transit":false,"i_long":106.460812,"line":6,"station_id":"TEJ","distance":2974,"transit":false,"station_name":"Tenjo","time":5},{"i_long":106.491338,"distance":3902,"station_name":"Daru","is_transit":false,"transit":false,"i_lat":-6.338021,"line":0,"time":5,"station_id":"DAR"},{"station_name":"Cilejit","distance":2675,"line":3,"station_id":"CJT","transit":false,"is_transit":false,"i_lat":-6.354349,"i_long":106.508482,"time":6},{"i_lat":-6.3441410000000005,"i_long":106.568863,"station_id":"PRP","line":6,"station_name":"Parung Panjang","is_transit":false,"transit":false,"time":9,"distance":7025},{"i_lat":-6.329547,"i_long":106.617853,"line":3,"station_name":"Cicayur","distance":5968,"transit":false,"is_transit":false,"station_id":"CC","time":8},{"i_lat":-6.32484,"station_name":"Cisauk","line":3,"time":4,"station_id":"CSK","distance":2519,"transit":false,"is_transit":false,"i_long":106.640411},{"time":4,"distance":1784,"transit":false,"i_long":106.66566,"station_name":"Serpong","line":6,"is_transit":false,"station_id":"SRP","i_lat":-6.319871},{"time":4,"transit":false,"i_long":106.675475,"i_lat":-6.314823,"station_name":"Rawa Buntu","station_id":"RU","is_transit":false,"distance":2413,"line":6},{"distance":4566,"i_long":106.712277,"station_name":"Sudimara","is_transit":false,"i_lat":-6.296963,"line":6,"station_id":"SDM","time":6,"transit":false},{"distance":1994,"transit":false,"i_lat":-6.288927,"i_long":106.728916,"station_id":"JMU","is_transit":false,"station_name":"Jurangmangu","time":4,"line":6},{"i_lat":-6.276362,"i_long":106.74273,"station_name":"Pondokranji","line":6,"transit":false,"station_id":"PDJ","time":3,"is_transit":false,"distance":2179},{"is_transit":false,"i_long":106.780334,"i_lat":-6.237242,"station_id":"KBY","time":8,"distance":6218,"station_name":"Kebayoran","line":6,"transit":false},{"line":6,"station_name":"Palmerah","is_transit":false,"time":7,"i_long":106.79689,"station_id":"PLM","distance":3737,"transit":false,"i_lat":-6.207404},{"station_name":"Tanah Abang","station_id":"THB","distance":3191,"i_lat":-6.185545,"transit":true,"i_long":106.811091,"line":1,"is_transit":true,"time":6},{"line":1,"i_lat":-6.20132,"distance":2029,"i_long":106.816351,"station_id":"KAT","transit":false,"station_name":"Karet","is_transit":false,"time":5},{"i_lat":-6.201433,"transit":false,"station_name":"Sudirman Baru","line":1,"distance":471,"station_id":"SUDB","i_long":106.819881,"time":1,"is_transit":false},{"time":1,"station_name":"Sudirman","station_id":"SUD","is_transit":false,"transit":false,"distance":280,"line":1,"i_long":106.822649,"i_lat":-6.202263},{"i_long":106.84912,"line":2,"is_transit":true,"i_lat":-6.209883,"transit":true,"station_name":"Manggarai","station_id":"MRI","time":4,"distance":3186},{"i_lat":-6.226659,"i_long":106.857948,"station_name":"Tebet","transit":false,"distance":2610,"line":2,"station_id":"TEB","is_transit":false,"time":4},{"time":2,"station_name":"Cawang","distance":1230,"line":2,"i_lat":-6.242512,"i_long":106.856607,"transit":false,"is_transit":false,"station_id":"CW"},{"line":2,"i_long":106.85449,"transit":false,"station_name":"Duren Kalibata","time":3,"i_lat":-6.255332,"is_transit":false,"station_id":"DRN","distance":1546}],[{"distance":0,"station_id":"RK","time":0,"transit":false,"i_lat":-6.352675,"is_transit":false,"station_name":"Rangkasbitung","i_long":106.250396,"line":3},{"station_name":"Citeras","station_id":"CTR","line":3,"is_transit":false,"time":13,"i_long":106.332092,"distance":9847,"transit":false,"i_lat":-6.334892},{"i_lat":-6.332307,"station_name":"Maja","transit":false,"i_long":106.394373,"is_transit":false,"distance":7293,"line":6,"time":10,"station_id":"MJ"},{"distance":1853,"line":3,"i_long":106.411216,"station_name":"Cikoya","station_id":"CKY","i_lat":-6.33561,"transit":false,"is_transit":false,"time":4},{"station_id":"TGS","i_lat":-6.328533,"distance":2651,"transit":false,"i_long":106.425991,"is_transit":false,"line":6,"station_name":"Tigaraksa","time":3},{"line":6,"is_transit":false,"time":5,"i_lat":-6.327251,"distance":2974,"transit":false,"station_id":"TEJ","station_name":"Tenjo","i_long":106.460812},{"is_transit":false,"time":5,"transit":false,"i_long":106.491338,"station_id":"DAR","line":0,"distance":3902,"i_lat":-6.338021,"station_name":"Daru"},{"distance":2675,"line":3,"i_long":106.508482,"station_id":"CJT","time":6,"transit":false,"station_name":"Cilejit","i_lat":-6.354349,"is_transit":false},{"station_name":"Parung Panjang","time":9,"i_lat":-6.3441410000000005,"i_long":106.568863,"transit":false,"station_id":"PRP","distance":7025,"is_transit":false,"line":6},{"i_long":106.617853,"line":3,"station_name":"Cicayur","time":8,"distance":5968,"station_id":"CC","is_transit":false,"i_lat":-6.329547,"transit":false},{"station_id":"CSK","transit":false,"time":4,"i_lat":-6.32484,"i_long":106.640411,"distance":2519,"line":3,"is_transit":false,"station_name":"Cisauk"},{"line":6,"is_transit":false,"distance":1784,"station_id":"SRP","time":4,"transit":false,"i_lat":-6.319871,"i_long":106.66566,"station_name":"Serpong"},{"station_name":"Rawa Buntu","line":6,"station_id":"RU","is_transit":false,"distance":2413,"transit":false,"time":4,"i_long":106.675475,"i_lat":-6.314823},{"station_name":"Sudimara","i_long":106.712277,"distance":4566,"line":6,"transit":false,"i_lat":-6.296963,"station_id":"SDM","is_transit":false,"time":6},{"distance":1994,"i_lat":-6.288927,"station_id":"JMU","line":6,"transit":false,"time":4,"is_transit":false,"i_long":106.728916,"station_name":"Jurangmangu"},{"line":6,"is_transit":false,"time":3,"i_lat":-6.276362,"i_long":106.74273,"station_name":"Pondokranji","distance":2179,"station_id":"PDJ","transit":false},{"i_lat":-6.237242,"i_long":106.780334,"station_id":"KBY","line":6,"station_name":"Kebayoran","is_transit":false,"time":8,"distance":6218,"transit":false},{"line":6,"station_id":"PLM","is_transit":false,"i_long":106.79689,"station_name":"Palmerah","transit":false,"time":7,"distance":3737,"i_lat":-6.207404},{"station_id":"THB","time":6,"line":1,"is_transit":true,"transit":true,"i_long":106.811091,"station_name":"Tanah Abang","distance":3191,"i_lat":-6.185545},{"station_name":"Duri","i_long":106.800832,"time":8,"line":1,"transit":false,"is_transit":false,"distance":3632,"i_lat":-6.155215,"station_id":"DU"},{"station_name":"Angke","distance":1230,"i_long":106.79867,"is_transit":false,"line":1,"time":4,"transit":false,"i_lat":-6.144674,"station_id":"AK"},{"i_long":106.826365,"is_transit":true,"transit":true,"time":9,"i_lat":-6.132549,"line":4,"station_name":"Kampung Bandan","station_id":"KPB","distance":4102},{"time":3,"station_id":"JAKK","is_transit":true,"transit":true,"i_long":106.812439,"distance":1364,"i_lat":-6.137569,"station_name":"Jakarta Kota","line":2},{"station_name":"Jayakarta","time":4,"distance":1264,"i_lat":-6.141205,"i_long":106.820901,"is_transit":false,"line":2,"transit":false,"station_id":"JAY"},{"station_name":"Manggabesar","distance":1080,"station_id":"MGB","is_transit":false,"time":2,"i_long":106.82482,"line":2,"i_lat":-6.149769,"transit":false},{"i_long":106.827103,"time":2,"transit":false,"line":2,"is_transit":false,"station_id":"SW","distance":906,"i_lat":-6.160725,"station_name":"Sawah Besar"},{"i_lat":-6.166716,"distance":1149,"transit":false,"line":2,"time":2,"i_long":106.828284,"station_id":"JUA","is_transit":false,"station_name":"Juanda"},{"station_id":"GDD","i_long":106.832183,"is_transit":false,"line":2,"time":4,"i_lat":-6.186295,"station_name":"Gondangdia","distance":2015,"transit":false},{"time":3,"station_name":"Cikini","distance":1750,"line":2,"i_long":106.840169,"transit":false,"station_id":"CKI","is_transit":false,"i_lat":-6.198556},{"i_lat":-6.209883,"is_transit":false,"station_name":"Manggarai","i_long":106.84912,"distance":1590,"line":2,"station_id":"MRI","transit":false,"time":4},{"time":4,"transit":false,"is_transit":false,"i_lat":-6.226659,"i_long":106.857948,"distance":2610,"line":2,"station_name":"Tebet","station_id":"TEB"},{"station_name":"Cawang","is_transit":false,"time":2,"i_lat":-6.242512,"distance":1230,"station_id":"CW","i_long":106.856607,"line":2,"transit":false},{"is_transit":false,"transit":false,"line":2,"i_long":106.85449,"distance":1546,"station_id":"DRN","station_name":"Duren Kalibata","i_lat":-6.255332,"time":3}],[{"station_id":"RK","i_long":106.250396,"is_transit":false,"transit":false,"time":0,"distance":0,"line":3,"station_name":"Rangkasbitung","i_lat":-6.352675},{"line":3,"station_name":"Citeras","station_id":"CTR","transit":false,"i_lat":-6.334892,"i_long":106.332092,"is_transit":false,"time":13,"distance":9847},{"station_id":"MJ","is_transit":false,"i_long":106.394373,"distance":7293,"time":10,"i_lat":-6.332307,"line":6,"transit":false,"station_name":"Maja"},{"is_transit":false,"i_lat":-6.33561,"i_long":106.411216,"station_id":"CKY","distance":1853,"line":3,"time":4,"transit":false,"station_name":"Cikoya"},{"distance":2651,"i_long":106.425991,"transit":false,"i_lat":-6.328533,"station_name":"Tigaraksa","line":6,"is_transit":false,"station_id":"TGS","time":3},{"station_id":"TEJ","distance":2974,"line":6,"time":5,"is_transit":false,"station_name":"Tenjo","i_long":106.460812,"transit":false,"i_lat":-6.327251},{"distance":3902,"i_long":106.491338,"transit":false,"station_name":"Daru","i_lat":-6.338021,"is_transit":false,"line":0,"time":5,"station_id":"DAR"},{"transit":false,"station_id":"CJT","i_lat":-6.354349,"line":3,"i_long":106.508482,"time":6,"station_name":"Cilejit","distance":2675,"is_transit":false},{"line":6,"i_long":106.568863,"station_name":"Parung Panjang","distance":7025,"i_lat":-6.3441410000000005,"station_id":"PRP","transit":false,"is_transit":false,"time":9},{"station_id":"CC","transit":false,"line":3,"is_transit":false,"distance":5968,"i_lat":-6.329547,"i_long":106.617853,"station_name":"Cicayur","time":8},{"distance":2519,"i_lat":-6.32484,"i_long":106.640411,"station_name":"Cisauk","transit":false,"station_id":"CSK","time":4,"line":3,"is_transit":false},{"i_lat":-6.319871,"i_long":106.66566,"station_name":"Serpong","station_id":"SRP","distance":1784,"is_transit":false,"transit":false,"line":6,"time":4},{"line":6,"station_id":"RU","i_lat":-6.314823,"distance":2413,"transit":false,"station_name":"Rawa Buntu","is_transit":false,"time":4,"i_long":106.675475},{"transit":false,"station_id":"SDM","is_transit":false,"line":6,"i_lat":-6.296963,"station_name":"Sudimara","time":6,"i_long":106.712277,"distance":4566},{"time":4,"is_transit":false,"i_long":106.728916,"station_id":"JMU","station_name":"Jurangmangu","i_lat":-6.288927,"line":6,"distance":1994,"transit":false},{"line":6,"station_id":"PDJ","i_lat":-6.276362,"station_name":"Pondokranji","i_long":106.74273,"distance":2179,"time":3,"transit":false,"is_transit":false},{"line":6,"time":8,"station_name":"Kebayoran","station_id":"KBY","transit":false,"distance":6218,"i_lat":-6.237242,"is_transit":false,"i_long":106.780334},{"line":6,"station_name":"Palmerah","is_transit":false,"i_lat":-6.207404,"distance":3737,"i_long":106.79689,"transit":false,"station_id":"PLM","time":7},{"transit":true,"distance":3191,"time":6,"station_id":"THB","is_transit":true,"i_lat":-6.185545,"i_long":106.811091,"line":1,"station_name":"Tanah Abang"},{"distance":3632,"line":1,"station_name":"Duri","time":8,"station_id":"DU","transit":false,"is_transit":false,"i_long":106.800832,"i_lat":-6.155215},{"time":4,"i_lat":-6.144674,"i_long":106.79867,"distance":1230,"transit":false,"is_transit":false,"line":1,"station_name":"Angke","station_id":"AK"},{"time":9,"is_transit":true,"line":4,"station_id":"KPB","transit":true,"station_name":"Kampung Bandan","i_long":106.826365,"distance":4102,"i_lat":-6.132549},{"station_name":"Rajawali","station_id":"RJW","transit":false,"time":3,"distance":1444,"i_lat":-6.14505,"is_transit":false,"i_long":106.836569,"line":11},{"i_long":106.839204,"i_lat":-6.161728,"line":11,"distance":1901,"time":5,"is_transit":false,"station_id":"KMO","transit":false,"station_name":"Kemayoran"},{"i_lat":-6.174784,"line":11,"time":4,"station_id":"PSE","is_transit":false,"distance":1436,"transit":false,"i_long":106.84368,"station_name":"Pasar Senen"},{"i_long":106.850107,"i_lat":-6.185975,"time":8,"line":11,"station_id":"GST","is_transit":false,"distance":1567,"station_name":"Gang Sentiong","transit":false},{"station_name":"Kramat","line":11,"is_transit":false,"time":1,"i_lat":-6.193792,"distance":973,"transit":false,"station_id":"KMT","i_long":106.855437},{"transit":false,"i_lat":-6.209188,"station_id":"POK","time":2,"station_name":"Pondok Jati","is_transit":false,"line":11,"i_long":106.861737,"distance":1829},{"i_long":106.86807400000001,"station_name":"Jatinegara","is_transit":true,"time":9,"i_lat":-6.215091,"transit":true,"line":1,"station_id":"JNG","distance":1236},{"station_name":"Matraman","time":2,"is_transit":false,"line":1,"station_id":"MTR","distance":1377,"i_lat":-6.212485,"i_long":106.858896,"transit":false},{"station_name":"Manggarai","i_long":106.84912,"line":2,"transit":true,"station_id":"MRI","is_transit":true,"time":2,"i_lat":-6.209883,"distance":1275},{"station_name":"Tebet","i_long":106.857948,"line":2,"distance":2610,"is_transit":false,"transit":false,"time":4,"i_lat":-6.226659,"station_id":"TEB"},{"station_name":"Cawang","transit":false,"distance":1230,"i_long":106.856607,"time":2,"is_transit":false,"line":2,"i_lat":-6.242512,"station_id":"CW"},{"distance":1546,"i_lat":-6.255332,"line":2,"time":3,"i_long":106.85449,"station_name":"Duren Kalibata","transit":false,"station_id":"DRN","is_transit":false}]]}