{"data":[[{"line":3,"station_name":"Rangkasbitung","time":0,"station_id":"RK","i_long":106.250396,"i_lat":-6.352675,"is_transit":false,"transit":false,"distance":0},{"transit":false,"is_transit":false,"i_lat":-6.334892,"station_name":"Citeras","i_long":106.332092,"distance":9847,"line":3,"time":13,"station_id":"CTR"},{"is_transit":false,"station_name":"Maja","transit":false,"distance":7293,"i_lat":-6.332307,"i_long":106.394373,"line":6,"time":10,"station_id":"MJ"},{"distance":1853,"station_name":"Cikoya","i_lat":-6.33561,"i_long":106.411216,"is_transit":false,"transit":false,"line":3,"station_id":"CKY","time":4},{"time":3,"i_long":106.425991,"station_id":"TGS","line":6,"distance":2651,"i_lat":-6.328533,"transit":false,"station_name":"Tigaraksa","is_transit":false},{"distance":2974,"station_name":"Tenjo","i_long":106.460812,"transit":false,"time":5,"is_transit":false,"station_id":"TEJ","i_lat":-6.327251,"line":6},{"station_name":"Daru","transit":false,"is_transit":false,"i_long":106.491338,"distance":3902,"station_id":"DAR","time":5,"line":0,"i_lat":-6.338021},{"time":6,"station_id":"CJT","distance":2675,"station_name":"Cilejit","is_transit":false,"transit":false,"i_long":106.508482,"line":3,"i_lat":-6.354349},{"is_transit":false,"i_long":106.568863,"line":6,"distance":7025,"station_name":"Parung Panjang","i_lat":-6.3441410000000005,"time":9,"transit":false,"station_id":"PRP"},{"station_id":"CC","i_lat":-6.329547,"distance":5968,"transit":false,"i_long":106.617853,"line":3,"station_name":"Cicayur","time":8,"is_transit":false},{"distance":2519,"transit":false,"station_id":"CSK","i_long":106.640411,"station_name":"Cisauk","line":3,"i_lat":-6.32484,"is_transit":false,"time":4},{"line":6,"distance":1784,"is_transit":false,"transit":false,"time":4,"station_id":"SRP","station_name":"Serpong","i_long":106.66566,"i_lat":-6.319871},{"is_transit":false,"transit":false,"i_long":106.675475,"distance":2413,"time":4,"line":6,"i_lat":-6.314823,"station_name":"Rawa Buntu","station_id":"RU"},{"distance":4566,"transit":false,"i_lat":-6.296963,"time":6,"station_name":"Sudimara","is_transit":false,"line":6,"i_long":106.712277,"station_id":"SDM"},{"is_transit":false,"i_lat":-6.288927,"distance":1994,"station_id":"JMU","line":6,"station_name":"Jurangmangu","time":4,"i_long":106.728916,"transit":false},{"time":3,"transit":false,"distance":2179,"i_lat":-6.276362,"line":6,"is_transit":false,"i_long":106.74273,"station_name":"Pondokranji","station_id":"PDJ"},{"i_long":106.780334,"is_transit":false,"i_lat":-6.237242,"station_id":"KBY","station_name":"Kebayoran","time":8,"line":6,"transit":false,"distance":6218},{"time":7,"transit":false,"distance":3737,"station_id":"PLM","is_transit":false,"i_long":106.79689,"station_name":"Palmerah","i_lat":-6.207404,"line":6},{"time":6,"line":1,"distance":3191,"station_id":"THB","i_long":106.811091,"is_transit":true,"station_name":"Tanah Abang","i_lat":-6.185545,"transit":true},{"i_lat":-6.155215,"station_id":"DU","transit":false,"i_long":106.800832,"line":1,"distance":3632,"station_name":"Duri","is_transit":false,"time":8},{"station_name":"Angke","transit":false,"line":1,"i_lat":-6.144674,"distance":1230,"time":4,"station_id":"AK","i_long":106.79867,"is_transit":false},{"transit":true,"distance":4102,"i_long":106.826365,"time":9,"station_name":"Kampung Bandan","is_transit":true,"station_id":"KPB","i_lat":-6.132549,"line":4},{"station_name":"Rajawali","station_id":"RJW","i_lat":-6.14505,"distance":1444,"is_transit":false,"i_long":106.836569,"line":11,"time":3,"transit":false},{"transit":false,"station_id":"KMO","i_long":106.839204,"station_name":"Kemayoran","time":5,"i_lat":-6.161728,"is_transit":false,"line":11,"distance":1901},{"time":4,"station_name":"Pasar Senen","distance":1436,"station_id":"PSE","line":11,"i_long":106.84368,"i_lat":-6.174784,"is_transit":false,"transit":false},{"station_id":"GST","station_name":"Gang Sentiong","is_transit":false,"line":11,"i_long":106.850107,"i_lat":-6.185975,"time":8,"transit":false,"distance":1567},{"transit":false,"i_lat":-6.193792,"station_name":"Kramat","line":11,"station_id":"KMT","distance":973,"is_transit":false,"i_long":106.855437,"time":1}],[{"time":0,"is_transit":false,"station_name":"Rangkasbitung","line":3,"station_id":"RK","i_lat":-6.352675,"distance":0,"i_long":106.250396,"transit":false},{"distance":9847,"station_name":"Citeras","is_transit":false,"line":3,"transit":false,"time":13,"i_long":106.332092,"station_id":"CTR","i_lat":-6.334892},{"is_transit":false,"station_name":"Maja","time":10,"distance":7293,"station_id":"MJ","i_lat":-6.332307,"i_long":106.394373,"line":6,"transit":false},{"transit":false,"is_transit":false,"distance":1853,"time":4,"i_lat":-6.33561,"line":3,"station_id":"CKY","i_long":106.411216,"station_name":"Cikoya"},{"station_name":"Tigaraksa","i_long":106.425991,"time":3,"i_lat":-6.328533,"is_transit":false,"station_id":"TGS","line":6,"distance":2651,"transit":false},{"is_transit":false,"time":5,"line":6,"transit":false,"station_name":"Tenjo","i_lat":-6.327251,"i_long":106.460812,"distance":2974,"station_id":"TEJ"},{"distance":3902,"i_lat":-6.338021,"is_transit":false,"station_name":"Daru","transit":false,"line":0,"station_id":"DAR","i_long":106.491338,"time":5},{"transit":false,"station_id":"CJT","time":6,"is_transit":false,"i_long":106.508482,"i_lat":-6.354349,"line":3,"distance":2675,"station_name":"Cilejit"},{"transit":false,"distance":7025,"line":6,"is_transit":false,"station_name":"Parung Panjang","station_id":"PRP","time":9,"i_lat":-6.3441410000000005,"i_long":106.568863},{"station_name":"Cicayur","i_lat":-6.329547,"is_transit":false,"time":8,"distance":5968,"transit":false,"line":3,"station_id":"CC","i_long":106.617853},{"station_name":"Cisauk","is_transit":false,"i_lat":-6.32484,"distance":2519,"station_id":"CSK","time":4,"i_long":106.640411,"line":3,"transit":false},{"station_name":"Serpong","i_lat":-6.319871,"i_long":106.66566,"line":6,"station_id":"SRP","is_transit":false,"distance":1784,"time":4,"transit":false},{"time":4,"i_lat":-6.314823,"line":6,"station_id":"RU","i_long":106.675475,"transit":false,"is_transit":false,"station_name":"Rawa Buntu","distance":2413},{"distance":4566,"transit":false,"time":6,"station_id":"SDM","is_transit":false,"i_long":106.712277,"line":6,"i_lat":-6.296963,"station_name":"Sudimara"},{"distance":1994,"is_transit":false,"line":6,"i_lat":-6.288927,"transit":false,"station_name":"Jurangmangu","time":4,"i_long":106.728916,"station_id":"JMU"},{"station_name":"Pondokranji","is_transit":false,"i_long":106.74273,"time":3,"i_lat":-6.276362,"transit":false,"station_id":"PDJ","distance":2179,"line":6},{"station_id":"KBY","is_transit":false,"distance":6218,"time":8,"station_name":"Kebayoran","i_lat":-6.237242,"transit":false,"i_long":106.780334,"line":6},{"distance":3737,"transit":false,"station_id":"PLM","station_name":"Palmerah","i_lat":-6.207404,"line":6,"i_long":106.79689,"time":7,"is_transit":false},{"station_id":"THB","station_name":"Tanah Abang","i_long":106.811091,"line":1,"transit":true,"i_lat":-6.185545,"is_transit":true,"distance":3191,"time":6},{"distance":2029,"transit":false,"line":1,"station_name":"Karet","i_long":106.816351,"station_id":"KAT","is_transit":false,"time":5,"i_lat":-6.20132},{"transit":false,"is_transit":false,"time":1,"distance":471,"line":1,"station_id":"SUDB","station_name":"Sudirman Baru","i_lat":-6.201433,"i_long":106.819881},{"line":1,"time":1,"distance":280,"station_id":"SUD","i_lat":-6.202263,"i_long":106.822649,"station_name":"Sudirman","transit":false,"is_transit":false},{"i_lat":-6.209883,"i_long":106.84912,"station_name":"Manggarai","distance":3186,"line":2,"station_id":"MRI","transit":false,"time":4,"is_transit":false},{"station_name":"Matraman","distance":1275,"transit":false,"station_id":"MTR","i_lat":-6.212485,"i_long":106.858896,"line":1,"time":2,"is_transit":false},{"station_id":"JNG","i_long":106.86807400000001,"time":8,"line":1,"is_transit":true,"station_name":"Jatinegara","i_lat":-6.215091,"transit":true,"distance":1377},{"line":11,"time":2,"station_name":"Pondok Jati","i_lat":-6.209188,"distance":1236,"station_id":"POK","is_transit":false,"i_long":106.861737,"transit":false},{"station_id":"KMT","station_name":"Kramat","is_transit":false,"i_lat":-6.193792,"time":2,"distance":1829,"transit":false,"i_long":106.855437,"line":11}],[{"i_long":106.250396,"transit":false,"station_name":"Rangkasbitung","time":0,"is_transit":false,"i_lat":-6.352675,"line":3,"station_id":"RK","distance":0},{"station_name":"Citeras","distance":9847,"transit":false,"line":3,"station_id":"CTR","time":13,"is_transit":false,"i_lat":-6.334892,"i_long":106.332092},{"station_name":"Maja","transit":false,"i_long":106.394373,"station_id":"MJ","time":10,"is_transit":false,"i_lat":-6.332307,"distance":7293,"line":6},{"time":4,"station_name":"Cikoya","is_transit":false,"i_long":106.411216,"distance":1853,"station_id":"CKY","transit":false,"line":3,"i_lat":-6.33561},{"station_name":"Tigaraksa","time":3,"transit":false,"distance":2651,"station_id":"TGS","i_lat":-6.328533,"is_transit":false,"i_long":106.425991,"line":6},{"transit":false,"distance":2974,"station_id":"TEJ","i_long":106.460812,"time":5,"station_name":"Tenjo","is_transit":false,"i_lat":-6.327251,"line":6},{"is_transit":false,"time":5,"line":0,"transit":false,"distance":3902,"i_long":106.491338,"station_name":"Daru","i_lat":-6.338021,"station_id":"DAR"},{"distance":2675,"transit":false,"station_name":"Cilejit","line":3,"is_transit":false,"time":6,"i_long":106.508482,"i_lat":-6.354349,"station_id":"CJT"},{"distance":7025,"i_lat":-6.3441410000000005,"line":6,"i_long":106.568863,"transit":false,"station_id":"PRP","is_transit":false,"station_name":"Parung Panjang","time":9},{"time":8,"i_lat":-6.329547,"i_long":106.617853,"distance":5968,"station_name":"Cicayur","transit":false,"station_id":"CC","line":3,"is_transit":false},{"is_transit":false,"i_lat":-6.32484,"station_id":"CSK","i_long":106.640411,"transit":false,"time":4,"line":3,"station_name":"Cisauk","distance":2519},{"station_name":"Serpong","line":6,"time":4,"station_id":"SRP","i_lat":-6.319871,"transit":false,"distance":1784,"i_long":106.66566,"is_transit":false},{"distance":2413,"station_name":"Rawa Buntu","is_transit":false,"i_lat":-6.314823,"time":4,"i_long":106.675475,"station_id":"RU","transit":false,"line":6},{"i_long":106.712277,"distance":4566,"line":6,"time":6,"i_lat":-6.296963,"transit":false,"station_name":"Sudimara","station_id":"SDM","is_transit":false},{"station_name":"Jurangmangu","transit":false,"is_transit":false,"i_lat":-6.288927,"distance":1994,"station_id":"JMU","i_long":106.728916,"time":4,"line":6},{"distance":2179,"i_lat":-6.276362,"i_long":106.74273,"line":6,"is_transit":false,"transit":false,"station_name":"Pondokranji","time":3,"station_id":"PDJ"},{"i_long":106.780334,"distance":6218,"i_lat":-6.237242,"time":8,"station_name":"Kebayoran","station_id":"KBY","transit":false,"line":6,"is_transit":false},{"is_transit":false,"distance":3737,"station_id":"PLM","station_name":"Palmerah","i_long":106.79689,"time":7,"transit":false,"line":6,"i_lat":-6.207404},{"transit":true,"station_name":"Tanah Abang","distance":3191,"station_id":"THB","i_lat":-6.185545,"is_transit":true,"i_long":106.811091,"line":1,"time":6},{"i_lat":-6.155215,"station_name":"Duri","transit":false,"i_long":106.800832,"time":8,"line":1,"station_id":"DU","distance":3632,"is_transit":false},{"distance":1230,"i_lat":-6.144674,"station_name":"Angke","station_id":"AK","is_transit":false,"line":1,"time":4,"i_long":106.79867,"transit":false},{"i_long":106.826365,"station_name":"Kampung Bandan","distance":4102,"transit":true,"time":9,"line":4,"is_transit":true,"i_lat":-6.132549,"station_id":"KPB"},{"i_long":106.812439,"line":2,"i_lat":-6.137569,"distance":1364,"time":3,"station_id":"JAKK","station_name":"Jakarta Kota","transit":true,"is_transit":true},{"is_transit":false,"line":2,"i_lat":-6.141205,"station_id":"JAY","transit":false,"i_long":106.820901,"time":4,"distance":1264,"station_name":"Jayakarta"},{"line":2,"distance":1080,"is_transit":false,"i_long":106.82482,"transit":false,"time":2,"station_name":"Manggabesar","i_lat":-6.149769,"station_id":"MGB"},{"i_long":106.827103,"station_id":"SW","i_lat":-6.160725,"time":2,"line":2,"station_name":"Sawah Besar","distance":906,"is_transit":false,"transit":false},{"line":2,"distance":1149,"transit":false,"i_lat":-6.166716,"is_transit":false,"station_name":"Juanda","station_id":"JUA","time":2,"i_long":106.828284},{"station_name":"Gondangdia","is_transit":false,"time":4,"i_long":106.832183,"transit":false,"line":2,"distance":2015,"i_lat":-6.186295,"station_id":"GDD"},{"transit":false,"distance":1750,"station_id":"CKI","station_name":"Cikini","is_transit":false,"i_long":106.840169,"i_lat":-6.198556,"time":3,"line":2},{"station_name":"Manggarai","i_lat":-6.209883,"is_transit":true,"distance":1590,"i_long":106.84912,"time":4,"line":2,"station_id":"MRI","transit":true},{"station_id":"MTR","is_transit":false,"time":2,"distance":1275,"i_long":106.858896,"station_name":"Matraman","i_lat":-6.212485,"line":1,"transit":false},{"transit":true,"line":1,"time":8,"distance":1377,"is_transit":true,"station_name":"Jatinegara","i_lat":-6.215091,"station_id":"JNG","i_long":106.86807400000001},{"i_lat":-6.209188,"distance":1236,"transit":false,"line":11,"station_name":"Pondok Jati","is_transit":false,"station_id":"POK","i_long":106.861737,"time":2},{"line":11,"station_id":"KMT","time":2,"transit":false,"station_name":"Kramat","i_lat":-6.193792,"i_long":106.855437,"is_transit":false,"distance":1829}],[{"time":0,"is_transit":false,"transit":false,"i_lat":-6.352675,"station_name":"Rangkasbitung","station_id":"RK","line":3,"distance":0,"i_long":106.250396},{"station_id":"CTR","station_name":"Citeras","i_lat":-6.334892,"line":3,"transit":false,"is_transit":false,"distance":9847,"i_long":106.332092,"time":13},{"i_long":106.394373,"transit":false,"is_transit":false,"station_name":"Maja","station_id":"MJ","distance":7293,"time":10,"line":6,"i_lat":-6.332307},{"i_lat":-6.33561,"time":4,"transit":false,"station_id":"CKY","station_name":"Cikoya","i_long":106.411216,"is_transit":false,"distance":1853,"line":3},{"station_id":"TGS","station_name":"Tigaraksa","i_long":106.425991,"transit":false,"time":3,"is_transit":false,"i_lat":-6.328533,"distance":2651,"line":6},{"i_lat":-6.327251,"i_long":106.460812,"transit":false,"is_transit":false,"distance":2974,"station_name":"Tenjo","line":6,"station_id":"TEJ","time":5},{"transit":false,"i_long":106.491338,"line":0,"i_lat":-6.338021,"time":5,"station_id":"DAR","distance":3902,"is_transit":false,"station_name":"Daru"},{"i_lat":-6.354349,"i_long":106.508482,"distance":2675,"line":3,"station_name":"Cilejit","time":6,"station_id":"CJT","transit":false,"is_transit":false},{"station_name":"Parung Panjang","distance":7025,"i_long":106.568863,"transit":false,"time":9,"station_id":"PRP","is_transit":false,"i_lat":-6.3441410000000005,"line":6},{"line":3,"distance":5968,"is_transit":false,"i_lat":-6.329547,"time":8,"transit":false,"station_id":"CC","station_name":"Cicayur","i_long":106.617853},{"i_long":106.640411,"station_id":"CSK","station_name":"Cisauk","time":4,"transit":false,"distance":2519,"line":3,"is_transit":false,"i_lat":-6.32484},{"i_lat":-6.319871,"station_id":"SRP","i_long":106.66566,"line":6,"is_transit":false,"transit":false,"time":4,"station_name":"Serpong","distance":1784},{"station_id":"RU","station_name":"Rawa Buntu","i_lat":-6.314823,"transit":false,"i_long":106.675475,"time":4,"distance":2413,"line":6,"is_transit":false},{"i_lat":-6.296963,"distance":4566,"line":6,"station_id":"SDM","transit":false,"i_long":106.712277,"station_name":"Sudimara","time":6,"is_transit":false},{"is_transit":false,"line":6,"distance":1994,"time":4,"i_lat":-6.288927,"station_id":"JMU","station_name":"Jurangmangu","transit":false,"i_long":106.728916},{"i_long":106.74273,"line":6,"distance":2179,"is_transit":false,"transit":false,"station_name":"Pondokranji","time":3,"i_lat":-6.276362,"station_id":"PDJ"},{"station_name":"Kebayoran","is_transit":false,"station_id":"KBY","line":6,"i_lat":-6.237242,"transit":false,"distance":6218,"time":8,"i_long":106.780334},{"is_transit":false,"time":7,"station_id":"PLM","i_lat":-6.207404,"line":6,"station_name":"Palmerah","distance":3737,"i_long":106.79689,"transit":false},{"time":6,"i_long":106.811091,"line":1,"station_name":"Tanah Abang","i_lat":-6.185545,"transit":true,"distance":3191,"station_id":"THB","is_transit":true},{"transit":false,"i_long":106.816351,"distance":2029,"station_name":"Karet","time":5,"is_transit":false,"station_id":"KAT","i_lat":-6.20132,"line":1},{"distance":471,"i_long":106.819881,"is_transit":false,"station_id":"SUDB","station_name":"Sudirman Baru","transit":false,"line":1,"i_lat":-6.201433,"time":1},{"i_lat":-6.202263,"is_transit":false,"station_name":"Sudirman","time":1,"distance":280,"i_long":106.822649,"station_id":"SUD","line":1,"transit":false},{"station_name":"Manggarai","distance":3186,"i_lat":-6.209883,"line":2,"time":4,"station_id":"MRI","is_transit":true,"i_long":106.84912,"transit":true},{"line":2,"distance":1590,"station_id":"CKI","is_transit":false,"time":4,"transit":false,"station_name":"Cikini","i_lat":-6.198556,"i_long":106.840169},{"station_name":"Gondangdia","distance":1750,"i_lat":-6.186295,"transit":false,"station_id":"GDD","is_transit":false,"i_long":106.832183,"line":2,"time":3},{"line":2,"i_lat":-6.166716,"is_transit":false,"distance":2015,"transit":false,"station_id":"JUA","station_name":"Juanda","time":4,"i_long":106.828284},{"distance":1149,"i_lat":-6.160725,"i_long":106.827103,"time":2,"line":2,"station_name":"Sawah Besar","is_transit":false,"station_id":"SW","transit":false},{"line":2,"transit":false,"time":2,"distance":906,"i_lat":-6.149769,"station_name":"Manggabesar","is_transit":false,"i_long":106.82482,"station_id":"MGB"},{"i_long":106.820901,"distance":1080,"station_name":"Jayakarta","line":2,"time":2,"i_lat":-6.141205,"is_transit":false,"transit":false,"station_id":"JAY"},{"time":4,"station_name":"Jakarta Kota","i_lat":-6.137569,"line":2,"i_long":106.812439,"station_id":"JAKK","transit":true,"distance":1264,"is_transit":true},{"distance":1364,"line":4,"is_transit":true,"time":3,"transit":true,"station_name":"Kampung Bandan","i_long":106.826365,"station_id":"KPB","i_lat":-6.132549},{"station_id":"RJW","is_transit":false,"line":11,"transit":false,"time":3,"distance":1444,"i_lat":-6.14505,"i_long":106.836569,"station_name":"Rajawali"},{"i_lat":-6.161728,"i_long":106.839204,"line":11,"is_transit":false,"time":5,"transit":false,"distance":1901,"station_id":"KMO","station_name":"Kemayoran"},{"line":11,"is_transit":false,"time":4,"station_name":"Pasar Senen","transit":false,"distance":1436,"station_id":"PSE","i_lat":-6.174784,"i_long":106.84368},{"i_long":106.850107,"station_name":"Gang Sentiong","transit":false,"i_lat":-6.185975,"time":8,"station_id":"GST","is_transit":false,"line":11,"distance":1567},{"i_long":106.855437,"station_id":"KMT","line":11,"transit":false,"distance":973,"is_transit":false,"time":1,"station_name":"Kramat","i_lat":-6.193792}]]}