{"data":[[{"is_transit":false,"i_long":106.250396,"time":0,"station_id":"RK","station_name":"Rangkasbitung","distance":0,"line":3,"i_lat":-6.352675,"transit":false},{"line":3,"i_lat":-6.334892,"i_long":106.332092,"station_name":"Citeras","transit":false,"station_id":"CTR","distance":9847,"is_transit":false,"time":13},{"i_lat":-6.332307,"transit":false,"i_long":106.394373,"distance":7293,"is_transit":false,"time":10,"station_id":"MJ","line":6,"station_name":"Maja"},{"i_lat":-6.33561,"is_transit":false,"station_name":"Cikoya","station_id":"CKY","i_long":106.411216,"line":3,"distance":1853,"time":4,"transit":false},{"transit":false,"station_name":"Tigaraksa","time":3,"line":6,"station_id":"TGS","is_transit":false,"i_long":106.425991,"distance":2651,"i_lat":-6.328533},{"i_long":106.460812,"station_id":"TEJ","station_name":"Tenjo","is_transit":false,"time":5,"distance":2974,"i_lat":-6.327251,"line":6,"transit":false},{"i_lat":-6.338021,"i_long":106.491338,"line":0,"time":5,"distance":3902,"transit":false,"station_id":"DAR","is_transit":false,"station_name":"Daru"},{"distance":2675,"station_id":"CJT","i_long":106.508482,"transit":false,"i_lat":-6.354349,"station_name":"Cilejit","time":6,"is_transit":false,"line":3},{"i_long":106.568863,"distance":7025,"is_transit":false,"time":9,"transit":false,"line":6,"station_id":"PRP","station_name":"Parung Panjang","i_lat":-6.3441410000000005},{"station_name":"Cicayur","station_id":"CC","transit":false,"i_lat":-6.329547,"time":8,"line":3,"distance":5968,"i_long":106.617853,"is_transit":false},{"i_long":106.640411,"line":3,"station_id":"CSK","station_name":"Cisauk","time":4,"i_lat":-6.32484,"distance":2519,"transit":false,"is_transit":false},{"time":4,"line":6,"transit":false,"station_id":"SRP","distance":1784,"i_lat":-6.319871,"i_long":106.66566,"station_name":"Serpong","is_transit":false},{"time":4,"is_transit":false,"transit":false,"distance":2413,"station_id":"RU","line":6,"i_long":106.675475,"station_name":"Rawa Buntu","i_lat":-6.314823},{"transit":false,"i_lat":-6.296963,"i_long":106.712277,"distance":4566,"line":6,"station_name":"Sudimara","is_transit":false,"time":6,"station_id":"SDM"},{"distance":1994,"transit":false,"time":4,"line":6,"i_lat":-6.288927,"i_long":106.728916,"station_name":"Jurangmangu","station_id":"JMU","is_transit":false},{"station_id":"PDJ","transit":false,"distance":2179,"station_name":"Pondokranji","i_long":106.74273,"line":6,"time":3,"is_transit":false,"i_lat":-6.276362},{"is_transit":false,"transit":false,"time":8,"i_lat":-6.237242,"distance":6218,"line":6,"i_long":106.780334,"station_id":"KBY","station_name":"Kebayoran"},{"station_id":"PLM","i_long":106.79689,"transit":false,"station_name":"Palmerah","line":6,"distance":3737,"i_lat":-6.207404,"is_transit":false,"time":7},{"station_id":"THB","line":1,"time":6,"distance":3191,"station_name":"Tanah Abang","transit":true,"is_transit":true,"i_lat":-6.185545,"i_long":106.811091},{"i_long":106.800832,"i_lat":-6.155215,"line":1,"station_id":"DU","time":8,"transit":false,"distance":3632,"station_name":"Duri","is_transit":false},{"line":1,"station_id":"AK","i_long":106.79867,"station_name":"Angke","time":4,"i_lat":-6.144674,"transit":false,"is_transit":false,"distance":1230},{"is_transit":true,"time":9,"i_long":106.826365,"station_id":"KPB","line":4,"station_name":"Kampung Bandan","distance":4102,"i_lat":-6.132549,"transit":true},{"i_lat":-6.14505,"transit":false,"station_name":"Rajawali","is_transit":false,"time":3,"distance":1444,"i_long":106.836569,"line":11,"station_id":"RJW"},{"is_transit":false,"distance":1901,"i_lat":-6.161728,"line":11,"transit":false,"station_name":"Kemayoran","time":5,"i_long":106.839204,"station_id":"KMO"},{"i_lat":-6.174784,"i_long":106.84368,"line":11,"time":4,"transit":false,"station_name":"Pasar Senen","station_id":"PSE","is_transit":false,"distance":1436},{"line":11,"i_long":106.850107,"distance":1567,"station_name":"Gang Sentiong","station_id":"GST","is_transit":false,"time":8,"transit":false,"i_lat":-6.185975},{"station_name":"Kramat","time":1,"i_lat":-6.193792,"station_id":"KMT","distance":973,"i_long":106.855437,"transit":false,"is_transit":false,"line":11}],[{"line":3,"is_transit":false,"i_long":106.250396,"station_name":"Rangkasbitung","transit":false,"station_id":"RK","i_lat":-6.352675,"time":0,"distance":0},{"distance":9847,"i_lat":-6.334892,"transit":false,"time":13,"i_long":106.332092,"station_name":"Citeras","station_id":"CTR","is_transit":false,"line":3},{"station_name":"Maja","transit":false,"i_long":106.394373,"station_id":"MJ","line":6,"distance":7293,"is_transit":false,"i_lat":-6.332307,"time":10},{"i_lat":-6.33561,"i_long":106.411216,"is_transit":false,"station_name":"Cikoya","transit":false,"line":3,"distance":1853,"time":4,"station_id":"CKY"},{"is_transit":false,"station_id":"TGS","station_name":"Tigaraksa","time":3,"transit":false,"line":6,"i_long":106.425991,"distance":2651,"i_lat":-6.328533},{"i_lat":-6.327251,"i_long":106.460812,"station_id":"TEJ","time":5,"line":6,"distance":2974,"transit":false,"station_name":"Tenjo","is_transit":false},{"is_transit":false,"time":5,"station_name":"Daru","station_id":"DAR","i_long":106.491338,"i_lat":-6.338021,"transit":false,"distance":3902,"line":0},{"transit":false,"station_name":"Cilejit","i_lat":-6.354349,"station_id":"CJT","i_long":106.508482,"distance":2675,"line":3,"is_transit":false,"time":6},{"time":9,"station_id":"PRP","is_transit":false,"station_name":"Parung Panjang","transit":false,"distance":7025,"i_lat":-6.3441410000000005,"line":6,"i_long":106.568863},{"transit":false,"station_id":"CC","distance":5968,"station_name":"Cicayur","is_transit":false,"i_lat":-6.329547,"i_long":106.617853,"line":3,"time":8},{"station_name":"Cisauk","is_transit":false,"transit":false,"station_id":"CSK","distance":2519,"i_lat":-6.32484,"i_long":106.640411,"line":3,"time":4},{"is_transit":false,"distance":1784,"time":4,"i_long":106.66566,"line":6,"station_id":"SRP","transit":false,"i_lat":-6.319871,"station_name":"Serpong"},{"transit":false,"station_name":"Rawa Buntu","is_transit":false,"time":4,"i_long":106.675475,"line":6,"distance":2413,"i_lat":-6.314823,"station_id":"RU"},{"station_id":"SDM","time":6,"is_transit":false,"station_name":"Sudimara","distance":4566,"line":6,"i_lat":-6.296963,"i_long":106.712277,"transit":false},{"station_id":"JMU","i_lat":-6.288927,"is_transit":false,"time":4,"i_long":106.728916,"line":6,"transit":false,"distance":1994,"station_name":"Jurangmangu"},{"station_name":"Pondokranji","station_id":"PDJ","is_transit":false,"line":6,"i_long":106.74273,"i_lat":-6.276362,"distance":2179,"time":3,"transit":false},{"station_name":"Kebayoran","station_id":"KBY","distance":6218,"is_transit":false,"time":8,"i_long":106.780334,"transit":false,"line":6,"i_lat":-6.237242},{"line":6,"station_id":"PLM","transit":false,"time":7,"distance":3737,"i_long":106.79689,"station_name":"Palmerah","i_lat":-6.207404,"is_transit":false},{"station_name":"Tanah Abang","i_lat":-6.185545,"line":1,"time":6,"is_transit":true,"station_id":"THB","i_long":106.811091,"distance":3191,"transit":true},{"i_long":106.816351,"station_id":"KAT","line":1,"station_name":"Karet","transit":false,"time":5,"distance":2029,"i_lat":-6.20132,"is_transit":false},{"station_id":"SUDB","distance":471,"is_transit":false,"i_long":106.819881,"transit":false,"station_name":"Sudirman Baru","line":1,"i_lat":-6.201433,"time":1},{"station_name":"Sudirman","transit":false,"time":1,"i_lat":-6.202263,"station_id":"SUD","is_transit":false,"distance":280,"i_long":106.822649,"line":1},{"time":4,"station_id":"MRI","i_long":106.84912,"transit":false,"station_name":"Manggarai","i_lat":-6.209883,"is_transit":false,"distance":3186,"line":2},{"i_lat":-6.212485,"is_transit":false,"time":2,"transit":false,"station_name":"Matraman","station_id":"MTR","distance":1275,"i_long":106.858896,"line":1},{"time":8,"i_lat":-6.215091,"line":1,"i_long":106.86807400000001,"station_name":"Jatinegara","is_transit":true,"station_id":"JNG","distance":1377,"transit":true},{"distance":1236,"station_id":"POK","station_name":"Pondok Jati","transit":false,"i_long":106.861737,"time":2,"i_lat":-6.209188,"line":11,"is_transit":false},{"station_name":"Kramat","station_id":"KMT","is_transit":false,"time":2,"transit":false,"distance":1829,"i_long":106.855437,"i_lat":-6.193792,"line":11}],[{"i_long":106.250396,"station_id":"RK","time":0,"i_lat":-6.352675,"line":3,"is_transit":false,"transit":false,"station_name":"Rangkasbitung","distance":0},{"station_id":"CTR","station_name":"Citeras","is_transit":false,"time":13,"i_lat":-6.334892,"line":3,"transit":false,"distance":9847,"i_long":106.332092},{"station_name":"Maja","is_transit":false,"line":6,"distance":7293,"i_lat":-6.332307,"i_long":106.394373,"time":10,"station_id":"MJ","transit":false},{"line":3,"station_name":"Cikoya","transit":false,"distance":1853,"time":4,"is_transit":false,"station_id":"CKY","i_lat":-6.33561,"i_long":106.411216},{"i_lat":-6.328533,"station_name":"Tigaraksa","is_transit":false,"station_id":"TGS","time":3,"distance":2651,"line":6,"transit":false,"i_long":106.425991},{"transit":false,"station_id":"TEJ","i_lat":-6.327251,"line":6,"station_name":"Tenjo","is_transit":false,"distance":2974,"i_long":106.460812,"time":5},{"i_lat":-6.338021,"station_id":"DAR","i_long":106.491338,"time":5,"station_name":"Daru","is_transit":false,"distance":3902,"line":0,"transit":false},{"station_id":"CJT","i_long":106.508482,"station_name":"Cilejit","transit":false,"distance":2675,"is_transit":false,"time":6,"i_lat":-6.354349,"line":3},{"i_long":106.568863,"station_name":"Parung Panjang","transit":false,"time":9,"station_id":"PRP","line":6,"distance":7025,"is_transit":false,"i_lat":-6.3441410000000005},{"distance":5968,"station_name":"Cicayur","line":3,"time":8,"i_lat":-6.329547,"i_long":106.617853,"transit":false,"station_id":"CC","is_transit":false},{"station_name":"Cisauk","distance":2519,"line":3,"transit":false,"station_id":"CSK","is_transit":false,"time":4,"i_long":106.640411,"i_lat":-6.32484},{"i_long":106.66566,"station_id":"SRP","transit":false,"station_name":"Serpong","is_transit":false,"distance":1784,"time":4,"i_lat":-6.319871,"line":6},{"transit":false,"station_name":"Rawa Buntu","station_id":"RU","is_transit":false,"distance":2413,"time":4,"i_lat":-6.314823,"i_long":106.675475,"line":6},{"line":6,"is_transit":false,"distance":4566,"i_long":106.712277,"time":6,"transit":false,"station_name":"Sudimara","station_id":"SDM","i_lat":-6.296963},{"transit":false,"distance":1994,"i_lat":-6.288927,"station_name":"Jurangmangu","is_transit":false,"time":4,"i_long":106.728916,"station_id":"JMU","line":6},{"is_transit":false,"i_lat":-6.276362,"transit":false,"station_name":"Pondokranji","distance":2179,"station_id":"PDJ","line":6,"i_long":106.74273,"time":3},{"time":8,"i_lat":-6.237242,"is_transit":false,"station_id":"KBY","distance":6218,"line":6,"i_long":106.780334,"station_name":"Kebayoran","transit":false},{"transit":false,"station_name":"Palmerah","is_transit":false,"time":7,"distance":3737,"i_long":106.79689,"station_id":"PLM","i_lat":-6.207404,"line":6},{"distance":3191,"i_lat":-6.185545,"line":1,"time":6,"i_long":106.811091,"station_name":"Tanah Abang","transit":true,"station_id":"THB","is_transit":true},{"distance":3632,"line":1,"station_name":"Duri","time":8,"i_lat":-6.155215,"transit":false,"station_id":"DU","i_long":106.800832,"is_transit":false},{"line":1,"i_long":106.79867,"transit":false,"station_id":"AK","time":4,"distance":1230,"i_lat":-6.144674,"is_transit":false,"station_name":"Angke"},{"i_lat":-6.132549,"transit":true,"station_name":"Kampung Bandan","station_id":"KPB","distance":4102,"is_transit":true,"line":4,"time":9,"i_long":106.826365},{"station_id":"JAKK","is_transit":true,"i_lat":-6.137569,"transit":true,"distance":1364,"time":3,"line":2,"station_name":"Jakarta Kota","i_long":106.812439},{"i_lat":-6.141205,"station_name":"Jayakarta","is_transit":false,"time":4,"distance":1264,"i_long":106.820901,"transit":false,"station_id":"JAY","line":2},{"transit":false,"i_lat":-6.149769,"is_transit":false,"time":2,"i_long":106.82482,"station_id":"MGB","distance":1080,"line":2,"station_name":"Manggabesar"},{"distance":906,"station_id":"SW","i_lat":-6.160725,"is_transit":false,"transit":false,"i_long":106.827103,"station_name":"Sawah Besar","line":2,"time":2},{"station_id":"JUA","time":2,"station_name":"Juanda","i_long":106.828284,"transit":false,"distance":1149,"i_lat":-6.166716,"line":2,"is_transit":false},{"transit":false,"station_name":"Gondangdia","is_transit":false,"i_long":106.832183,"station_id":"GDD","line":2,"time":4,"i_lat":-6.186295,"distance":2015},{"station_id":"CKI","time":3,"is_transit":false,"i_lat":-6.198556,"transit":false,"i_long":106.840169,"distance":1750,"station_name":"Cikini","line":2},{"station_id":"MRI","i_long":106.84912,"line":2,"i_lat":-6.209883,"time":4,"station_name":"Manggarai","is_transit":true,"distance":1590,"transit":true},{"is_transit":false,"distance":1275,"time":2,"i_lat":-6.212485,"station_id":"MTR","line":1,"i_long":106.858896,"transit":false,"station_name":"Matraman"},{"transit":true,"time":8,"distance":1377,"is_transit":true,"i_lat":-6.215091,"line":1,"station_id":"JNG","station_name":"Jatinegara","i_long":106.86807400000001},{"time":2,"i_lat":-6.209188,"transit":false,"station_id":"POK","distance":1236,"i_long":106.861737,"line":11,"station_name":"Pondok Jati","is_transit":false},{"transit":false,"station_name":"Kramat","is_transit":false,"time":2,"distance":1829,"line":11,"station_id":"KMT","i_long":106.855437,"i_lat":-6.193792}],[{"i_long":106.250396,"is_transit":false,"station_id":"RK","time":0,"line":3,"transit":false,"station_name":"Rangkasbitung","i_lat":-6.352675,"distance":0},{"time":13,"distance":9847,"i_long":106.332092,"is_transit":false,"i_lat":-6.334892,"station_name":"Citeras","line":3,"transit":false,"station_id":"CTR"},{"distance":7293,"time":10,"station_id":"MJ","i_lat":-6.332307,"transit":false,"line":6,"station_name":"Maja","is_transit":false,"i_long":106.394373},{"distance":1853,"station_id":"CKY","time":4,"i_long":106.411216,"i_lat":-6.33561,"station_name":"Cikoya","is_transit":false,"line":3,"transit":false},{"distance":2651,"i_long":106.425991,"transit":false,"i_lat":-6.328533,"station_name":"Tigaraksa","time":3,"line":6,"is_transit":false,"station_id":"TGS"},{"i_long":106.460812,"station_id":"TEJ","line":6,"is_transit":false,"i_lat":-6.327251,"time":5,"transit":false,"distance":2974,"station_name":"Tenjo"},{"time":5,"i_long":106.491338,"line":0,"station_id":"DAR","distance":3902,"is_transit":false,"i_lat":-6.338021,"transit":false,"station_name":"Daru"},{"time":6,"i_long":106.508482,"is_transit":false,"i_lat":-6.354349,"distance":2675,"line":3,"transit":false,"station_name":"Cilejit","station_id":"CJT"},{"time":9,"transit":false,"is_transit":false,"distance":7025,"i_long":106.568863,"station_id":"PRP","i_lat":-6.3441410000000005,"station_name":"Parung Panjang","line":6},{"i_lat":-6.329547,"is_transit":false,"station_name":"Cicayur","line":3,"distance":5968,"time":8,"station_id":"CC","transit":false,"i_long":106.617853},{"i_long":106.640411,"transit":false,"station_id":"CSK","line":3,"time":4,"distance":2519,"station_name":"Cisauk","i_lat":-6.32484,"is_transit":false},{"distance":1784,"i_lat":-6.319871,"station_name":"Serpong","i_long":106.66566,"transit":false,"line":6,"station_id":"SRP","time":4,"is_transit":false},{"transit":false,"i_lat":-6.314823,"distance":2413,"time":4,"station_name":"Rawa Buntu","is_transit":false,"i_long":106.675475,"line":6,"station_id":"RU"},{"is_transit":false,"i_lat":-6.296963,"distance":4566,"line":6,"time":6,"station_id":"SDM","i_long":106.712277,"station_name":"Sudimara","transit":false},{"is_transit":false,"i_lat":-6.288927,"station_id":"JMU","i_long":106.728916,"transit":false,"distance":1994,"station_name":"Jurangmangu","line":6,"time":4},{"line":6,"transit":false,"distance":2179,"i_long":106.74273,"station_id":"PDJ","is_transit":false,"station_name":"Pondokranji","time":3,"i_lat":-6.276362},{"time":8,"distance":6218,"station_id":"KBY","is_transit":false,"transit":false,"station_name":"Kebayoran","i_long":106.780334,"line":6,"i_lat":-6.237242},{"i_lat":-6.207404,"transit":false,"station_id":"PLM","station_name":"Palmerah","time":7,"i_long":106.79689,"distance":3737,"is_transit":false,"line":6},{"time":6,"line":1,"transit":true,"i_lat":-6.185545,"is_transit":true,"distance":3191,"station_name":"Tanah Abang","i_long":106.811091,"station_id":"THB"},{"transit":false,"i_lat":-6.20132,"is_transit":false,"time":5,"station_id":"KAT","line":1,"distance":2029,"station_name":"Karet","i_long":106.816351},{"i_lat":-6.201433,"distance":471,"is_transit":false,"time":1,"station_name":"Sudirman Baru","i_long":106.819881,"line":1,"station_id":"SUDB","transit":false},{"distance":280,"i_lat":-6.202263,"station_id":"SUD","time":1,"line":1,"i_long":106.822649,"transit":false,"station_name":"Sudirman","is_transit":false},{"station_id":"MRI","distance":3186,"transit":true,"is_transit":true,"station_name":"Manggarai","i_lat":-6.209883,"i_long":106.84912,"time":4,"line":2},{"time":4,"i_lat":-6.198556,"transit":false,"distance":1590,"is_transit":false,"station_id":"CKI","i_long":106.840169,"line":2,"station_name":"Cikini"},{"transit":false,"station_name":"Gondangdia","is_transit":false,"line":2,"distance":1750,"i_lat":-6.186295,"i_long":106.832183,"time":3,"station_id":"GDD"},{"i_long":106.828284,"line":2,"time":4,"transit":false,"station_name":"Juanda","station_id":"JUA","is_transit":false,"i_lat":-6.166716,"distance":2015},{"is_transit":false,"i_long":106.827103,"station_id":"SW","transit":false,"time":2,"line":2,"distance":1149,"i_lat":-6.160725,"station_name":"Sawah Besar"},{"is_transit":false,"i_lat":-6.149769,"i_long":106.82482,"line":2,"station_id":"MGB","time":2,"station_name":"Manggabesar","distance":906,"transit":false},{"i_lat":-6.141205,"transit":false,"line":2,"is_transit":false,"distance":1080,"station_id":"JAY","station_name":"Jayakarta","time":2,"i_long":106.820901},{"is_transit":true,"i_lat":-6.137569,"station_id":"JAKK","line":2,"station_name":"Jakarta Kota","time":4,"transit":true,"distance":1264,"i_long":106.812439},{"distance":1364,"station_id":"KPB","i_lat":-6.132549,"station_name":"Kampung Bandan","is_transit":true,"line":4,"transit":true,"time":3,"i_long":106.826365},{"time":3,"distance":1444,"i_lat":-6.14505,"station_name":"Rajawali","is_transit":false,"line":11,"transit":false,"station_id":"RJW","i_long":106.836569},{"time":5,"transit":false,"station_name":"Kemayoran","is_transit":false,"distance":1901,"i_long":106.839204,"i_lat":-6.161728,"line":11,"station_id":"KMO"},{"i_long":106.84368,"line":11,"station_name":"Pasar Senen","is_transit":false,"distance":1436,"i_lat":-6.174784,"transit":false,"time":4,"station_id":"PSE"},{"distance":1567,"transit":false,"is_transit":false,"i_lat":-6.185975,"time":8,"station_id":"GST","station_name":"Gang Sentiong","i_long":106.850107,"line":11},{"is_transit":false,"i_lat":-6.193792,"i_long":106.855437,"time":1,"station_name":"Kramat","line":11,"distance":973,"transit":false,"station_id":"KMT"}]]}