{"data":[[{"station_name":"Rangkasbitung","station_id":"RK","is_transit":false,"distance":0,"i_long":106.250396,"time":0,"i_lat":-6.352675,"line":3,"transit":false},{"transit":false,"station_name":"Citeras","i_long":106.332092,"distance":9847,"station_id":"CTR","is_transit":false,"line":3,"i_lat":-6.334892,"time":13},{"time":10,"is_transit":false,"distance":7293,"i_long":106.394373,"station_name":"Maja","transit":false,"i_lat":-6.332307,"station_id":"MJ","line":6},{"station_name":"Cikoya","distance":1853,"transit":false,"is_transit":false,"station_id":"CKY","line":3,"i_long":106.411216,"time":4,"i_lat":-6.33561},{"line":6,"transit":false,"distance":2651,"i_lat":-6.328533,"i_long":106.425991,"is_transit":false,"station_id":"TGS","station_name":"Tigaraksa","time":3},{"is_transit":false,"time":5,"station_id":"TEJ","i_long":106.460812,"transit":false,"station_name":"Tenjo","distance":2974,"i_lat":-6.327251,"line":6},{"station_name":"Daru","i_long":106.491338,"time":5,"line":0,"distance":3902,"is_transit":false,"transit":false,"i_lat":-6.338021,"station_id":"DAR"},{"i_long":106.508482,"station_id":"CJT","distance":2675,"transit":false,"is_transit":false,"time":6,"line":3,"i_lat":-6.354349,"station_name":"Cilejit"},{"is_transit":false,"time":9,"i_long":106.568863,"i_lat":-6.3441410000000005,"line":6,"station_name":"Parung Panjang","station_id":"PRP","transit":false,"distance":7025},{"station_name":"Cicayur","time":8,"transit":false,"i_long":106.617853,"line":3,"station_id":"CC","is_transit":false,"i_lat":-6.329547,"distance":5968},{"distance":2519,"line":3,"transit":false,"i_long":106.640411,"station_name":"Cisauk","station_id":"CSK","i_lat":-6.32484,"is_transit":false,"time":4},{"is_transit":false,"time":4,"station_id":"SRP","i_lat":-6.319871,"transit":false,"i_long":106.66566,"line":6,"station_name":"Serpong","distance":1784},{"i_lat":-6.314823,"transit":false,"is_transit":false,"time":4,"distance":2413,"line":6,"station_id":"RU","i_long":106.675475,"station_name":"Rawa Buntu"},{"time":6,"i_long":106.712277,"i_lat":-6.296963,"station_name":"Sudimara","is_transit":false,"station_id":"SDM","distance":4566,"line":6,"transit":false},{"station_id":"JMU","station_name":"Jurangmangu","line":6,"i_lat":-6.288927,"time":4,"transit":false,"is_transit":false,"distance":1994,"i_long":106.728916},{"station_id":"PDJ","line":6,"is_transit":false,"i_long":106.74273,"transit":false,"time":3,"i_lat":-6.276362,"station_name":"Pondokranji","distance":2179}]]}