{"data":[[{"transit":false,"station_id":"RK","line":3,"is_transit":false,"distance":0,"station_name":"Rangkasbitung","i_lat":-6.352675,"i_long":106.250396,"time":0},{"line":3,"distance":9847,"time":13,"transit":false,"station_id":"CTR","i_long":106.332092,"station_name":"Citeras","is_transit":false,"i_lat":-6.334892},{"line":6,"station_id":"MJ","distance":7293,"time":10,"transit":false,"station_name":"Maja","i_lat":-6.332307,"is_transit":false,"i_long":106.394373},{"i_lat":-6.33561,"transit":false,"distance":1853,"line":3,"station_name":"Cikoya","time":4,"i_long":106.411216,"station_id":"CKY","is_transit":false},{"transit":false,"is_transit":false,"time":3,"line":6,"station_id":"TGS","station_name":"Tigaraksa","i_lat":-6.328533,"i_long":106.425991,"distance":2651},{"line":6,"is_transit":false,"distance":2974,"time":5,"i_lat":-6.327251,"station_name":"Tenjo","station_id":"TEJ","transit":false,"i_long":106.460812},{"distance":3902,"line":0,"i_long":106.491338,"i_lat":-6.338021,"station_name":"Daru","station_id":"DAR","transit":false,"time":5,"is_transit":false},{"transit":false,"is_transit":false,"i_lat":-6.354349,"i_long":106.508482,"line":3,"time":6,"distance":2675,"station_name":"Cilejit","station_id":"CJT"},{"station_id":"PRP","distance":7025,"i_long":106.568863,"station_name":"Parung Panjang","i_lat":-6.3441410000000005,"time":9,"transit":false,"is_transit":false,"line":6},{"is_transit":false,"i_lat":-6.329547,"station_name":"Cicayur","time":8,"distance":5968,"transit":false,"line":3,"i_long":106.617853,"station_id":"CC"},{"i_lat":-6.32484,"station_name":"Cisauk","i_long":106.640411,"station_id":"CSK","is_transit":false,"time":4,"line":3,"transit":false,"distance":2519},{"station_id":"SRP","distance":1784,"i_lat":-6.319871,"transit":false,"i_long":106.66566,"line":6,"is_transit":false,"time":4,"station_name":"Serpong"},{"time":4,"i_lat":-6.314823,"distance":2413,"line":6,"station_id":"RU","transit":false,"i_long":106.675475,"station_name":"Rawa Buntu","is_transit":false},{"station_name":"Sudimara","station_id":"SDM","transit":false,"is_transit":false,"time":6,"i_lat":-6.296963,"line":6,"i_long":106.712277,"distance":4566},{"i_long":106.728916,"line":6,"time":4,"station_name":"Jurangmangu","i_lat":-6.288927,"station_id":"JMU","distance":1994,"transit":false,"is_transit":false},{"i_long":106.74273,"transit":false,"time":3,"station_name":"Pondokranji","line":6,"distance":2179,"is_transit":false,"i_lat":-6.276362,"station_id":"PDJ"}]]}