{"data":[[{"station_name":"Rangkasbitung","line":3,"distance":0,"station_id":"RK","time":0,"is_transit":false,"i_lat":-6.352675,"i_long":106.250396,"transit":false},{"station_name":"Citeras","line":3,"transit":false,"distance":9847,"is_transit":false,"time":13,"station_id":"CTR","i_lat":-6.334892,"i_long":106.332092},{"distance":7293,"station_id":"MJ","time":10,"i_long":106.394373,"is_transit":false,"line":6,"transit":false,"i_lat":-6.332307,"station_name":"Maja"},{"time":4,"transit":false,"is_transit":false,"station_name":"Cikoya","i_lat":-6.33561,"line":3,"distance":1853,"i_long":106.411216,"station_id":"CKY"},{"i_lat":-6.328533,"is_transit":false,"transit":false,"station_id":"TGS","time":3,"station_name":"Tigaraksa","i_long":106.425991,"distance":2651,"line":6},{"i_lat":-6.327251,"line":6,"station_id":"TEJ","time":5,"i_long":106.460812,"is_transit":false,"transit":false,"station_name":"Tenjo","distance":2974},{"time":5,"station_id":"DAR","i_long":106.491338,"distance":3902,"station_name":"Daru","transit":false,"line":0,"is_transit":false,"i_lat":-6.338021},{"distance":2675,"time":6,"station_id":"CJT","is_transit":false,"i_long":106.508482,"line":3,"transit":false,"station_name":"Cilejit","i_lat":-6.354349},{"line":6,"station_id":"PRP","distance":7025,"transit":false,"is_transit":false,"time":9,"i_long":106.568863,"i_lat":-6.3441410000000005,"station_name":"Parung Panjang"},{"station_id":"CC","time":8,"i_lat":-6.329547,"distance":5968,"line":3,"transit":false,"station_name":"Cicayur","i_long":106.617853,"is_transit":false},{"line":3,"time":4,"distance":2519,"i_long":106.640411,"i_lat":-6.32484,"transit":false,"station_name":"Cisauk","station_id":"CSK","is_transit":false},{"transit":false,"i_lat":-6.319871,"station_id":"SRP","station_name":"Serpong","distance":1784,"line":6,"time":4,"i_long":106.66566,"is_transit":false},{"i_long":106.675475,"distance":2413,"station_name":"Rawa Buntu","station_id":"RU","transit":false,"i_lat":-6.314823,"is_transit":false,"time":4,"line":6},{"station_name":"Sudimara","i_long":106.712277,"i_lat":-6.296963,"transit":false,"line":6,"time":6,"station_id":"SDM","is_transit":false,"distance":4566},{"transit":false,"station_name":"Jurangmangu","is_transit":false,"distance":1994,"time":4,"station_id":"JMU","i_long":106.728916,"line":6,"i_lat":-6.288927},{"distance":2179,"is_transit":false,"i_long":106.74273,"station_name":"Pondokranji","line":6,"transit":false,"i_lat":-6.276362,"station_id":"PDJ","time":3},{"is_transit":false,"time":8,"line":6,"i_lat":-6.237242,"i_long":106.780334,"station_id":"KBY","transit":false,"distance":6218,"station_name":"Kebayoran"},{"transit":false,"i_lat":-6.207404,"station_name":"Palmerah","distance":3737,"time":7,"station_id":"PLM","i_long":106.79689,"is_transit":false,"line":6},{"line":1,"is_transit":true,"transit":true,"distance":3191,"station_id":"THB","i_lat":-6.185545,"i_long":106.811091,"station_name":"Tanah Abang","time":6},{"time":8,"line":1,"distance":3632,"i_lat":-6.155215,"station_name":"Duri","transit":true,"station_id":"DU","i_long":106.800832,"is_transit":true},{"station_name":"Grogol","time":3,"transit":false,"i_lat":-6.162021,"i_long":106.788277,"is_transit":false,"station_id":"GGL","distance":1700,"line":5},{"i_long":106.771379,"is_transit":false,"transit":false,"station_name":"Pesing","station_id":"PSG","time":2,"distance":2036,"i_lat":-6.161433,"line":5}],[{"station_name":"Rangkasbitung","time":0,"i_long":106.250396,"line":3,"station_id":"RK","distance":0,"i_lat":-6.352675,"transit":false,"is_transit":false},{"station_name":"Citeras","i_lat":-6.334892,"station_id":"CTR","is_transit":false,"time":13,"line":3,"distance":9847,"i_long":106.332092,"transit":false},{"transit":false,"line":6,"station_id":"MJ","distance":7293,"is_transit":false,"station_name":"Maja","time":10,"i_lat":-6.332307,"i_long":106.394373},{"i_lat":-6.33561,"station_id":"CKY","transit":false,"line":3,"is_transit":false,"i_long":106.411216,"time":4,"distance":1853,"station_name":"Cikoya"},{"transit":false,"i_lat":-6.328533,"distance":2651,"is_transit":false,"line":6,"station_id":"TGS","station_name":"Tigaraksa","time":3,"i_long":106.425991},{"distance":2974,"i_lat":-6.327251,"i_long":106.460812,"station_name":"Tenjo","time":5,"station_id":"TEJ","is_transit":false,"transit":false,"line":6},{"line":0,"transit":false,"is_transit":false,"distance":3902,"station_id":"DAR","station_name":"Daru","i_long":106.491338,"time":5,"i_lat":-6.338021},{"is_transit":false,"station_id":"CJT","line":3,"station_name":"Cilejit","transit":false,"i_long":106.508482,"i_lat":-6.354349,"time":6,"distance":2675},{"time":9,"i_lat":-6.3441410000000005,"line":6,"station_name":"Parung Panjang","is_transit":false,"transit":false,"i_long":106.568863,"station_id":"PRP","distance":7025},{"station_id":"CC","i_long":106.617853,"station_name":"Cicayur","time":8,"is_transit":false,"i_lat":-6.329547,"line":3,"transit":false,"distance":5968},{"i_lat":-6.32484,"station_name":"Cisauk","station_id":"CSK","is_transit":false,"transit":false,"i_long":106.640411,"line":3,"distance":2519,"time":4},{"i_lat":-6.319871,"station_name":"Serpong","transit":false,"station_id":"SRP","i_long":106.66566,"distance":1784,"is_transit":false,"time":4,"line":6},{"time":4,"i_long":106.675475,"i_lat":-6.314823,"station_name":"Rawa Buntu","station_id":"RU","transit":false,"line":6,"is_transit":false,"distance":2413},{"distance":4566,"transit":false,"line":6,"station_name":"Sudimara","station_id":"SDM","is_transit":false,"i_lat":-6.296963,"i_long":106.712277,"time":6},{"i_long":106.728916,"station_id":"JMU","transit":false,"time":4,"distance":1994,"station_name":"Jurangmangu","is_transit":false,"i_lat":-6.288927,"line":6},{"distance":2179,"i_long":106.74273,"line":6,"i_lat":-6.276362,"time":3,"is_transit":false,"station_name":"Pondokranji","transit":false,"station_id":"PDJ"},{"transit":false,"station_id":"KBY","i_lat":-6.237242,"is_transit":false,"distance":6218,"line":6,"station_name":"Kebayoran","time":8,"i_long":106.780334},{"is_transit":false,"station_id":"PLM","station_name":"Palmerah","i_long":106.79689,"transit":false,"distance":3737,"i_lat":-6.207404,"time":7,"line":6},{"line":1,"station_name":"Tanah Abang","time":6,"station_id":"THB","is_transit":true,"distance":3191,"i_long":106.811091,"transit":true,"i_lat":-6.185545},{"station_id":"KAT","distance":2029,"i_lat":-6.20132,"line":1,"is_transit":false,"station_name":"Karet","transit":false,"i_long":106.816351,"time":5},{"station_id":"SUDB","is_transit":false,"i_long":106.819881,"line":1,"time":1,"station_name":"Sudirman Baru","transit":false,"distance":471,"i_lat":-6.201433},{"i_long":106.822649,"time":1,"distance":280,"transit":false,"station_id":"SUD","is_transit":false,"i_lat":-6.202263,"station_name":"Sudirman","line":1},{"is_transit":true,"line":2,"transit":true,"distance":3186,"station_name":"Manggarai","i_lat":-6.209883,"time":4,"i_long":106.84912,"station_id":"MRI"},{"is_transit":false,"distance":1590,"transit":false,"i_long":106.840169,"station_name":"Cikini","station_id":"CKI","time":4,"i_lat":-6.198556,"line":2},{"is_transit":false,"distance":1750,"transit":false,"station_name":"Gondangdia","i_long":106.832183,"station_id":"GDD","i_lat":-6.186295,"line":2,"time":3},{"is_transit":false,"i_lat":-6.166716,"transit":false,"i_long":106.828284,"station_name":"Juanda","distance":2015,"time":4,"station_id":"JUA","line":2},{"i_lat":-6.160725,"i_long":106.827103,"station_name":"Sawah Besar","station_id":"SW","distance":1149,"is_transit":false,"time":2,"transit":false,"line":2},{"is_transit":false,"distance":906,"station_id":"MGB","time":2,"i_lat":-6.149769,"i_long":106.82482,"line":2,"transit":false,"station_name":"Manggabesar"},{"distance":1080,"station_name":"Jayakarta","time":2,"station_id":"JAY","i_long":106.820901,"transit":false,"i_lat":-6.141205,"is_transit":false,"line":2},{"distance":1264,"is_transit":true,"i_lat":-6.137569,"transit":true,"station_id":"JAKK","station_name":"Jakarta Kota","time":4,"line":2,"i_long":106.812439},{"distance":1364,"i_lat":-6.132549,"i_long":106.826365,"line":4,"is_transit":true,"time":3,"transit":true,"station_name":"Kampung Bandan","station_id":"KPB"},{"station_id":"AK","is_transit":false,"distance":4102,"time":9,"i_lat":-6.144674,"station_name":"Angke","i_long":106.79867,"line":1,"transit":false},{"is_transit":true,"i_long":106.800832,"station_name":"Duri","station_id":"DU","distance":1230,"time":4,"transit":true,"i_lat":-6.155215,"line":1},{"is_transit":false,"time":3,"station_name":"Grogol","line":5,"distance":1700,"transit":false,"i_lat":-6.162021,"i_long":106.788277,"station_id":"GGL"},{"i_lat":-6.161433,"time":2,"line":5,"station_id":"PSG","station_name":"Pesing","transit":false,"is_transit":false,"i_long":106.771379,"distance":2036}],[{"is_transit":false,"station_id":"RK","distance":0,"time":0,"i_lat":-6.352675,"i_long":106.250396,"transit":false,"station_name":"Rangkasbitung","line":3},{"is_transit":false,"station_id":"CTR","distance":9847,"i_lat":-6.334892,"line":3,"i_long":106.332092,"time":13,"transit":false,"station_name":"Citeras"},{"i_long":106.394373,"time":10,"station_id":"MJ","line":6,"transit":false,"distance":7293,"station_name":"Maja","is_transit":false,"i_lat":-6.332307},{"station_name":"Cikoya","transit":false,"station_id":"CKY","time":4,"i_long":106.411216,"i_lat":-6.33561,"distance":1853,"is_transit":false,"line":3},{"station_name":"Tigaraksa","i_long":106.425991,"line":6,"time":3,"transit":false,"is_transit":false,"distance":2651,"i_lat":-6.328533,"station_id":"TGS"},{"i_long":106.460812,"i_lat":-6.327251,"station_id":"TEJ","time":5,"station_name":"Tenjo","transit":false,"is_transit":false,"distance":2974,"line":6},{"i_lat":-6.338021,"station_id":"DAR","is_transit":false,"transit":false,"distance":3902,"time":5,"i_long":106.491338,"line":0,"station_name":"Daru"},{"distance":2675,"station_name":"Cilejit","station_id":"CJT","is_transit":false,"line":3,"transit":false,"time":6,"i_long":106.508482,"i_lat":-6.354349},{"time":9,"distance":7025,"i_lat":-6.3441410000000005,"i_long":106.568863,"station_id":"PRP","line":6,"transit":false,"station_name":"Parung Panjang","is_transit":false},{"is_transit":false,"i_long":106.617853,"transit":false,"station_id":"CC","station_name":"Cicayur","line":3,"distance":5968,"time":8,"i_lat":-6.329547},{"station_id":"CSK","i_long":106.640411,"line":3,"distance":2519,"station_name":"Cisauk","time":4,"is_transit":false,"transit":false,"i_lat":-6.32484},{"line":6,"i_long":106.66566,"i_lat":-6.319871,"station_id":"SRP","transit":false,"station_name":"Serpong","is_transit":false,"time":4,"distance":1784},{"transit":false,"line":6,"station_id":"RU","i_lat":-6.314823,"is_transit":false,"station_name":"Rawa Buntu","i_long":106.675475,"distance":2413,"time":4},{"transit":false,"i_lat":-6.296963,"distance":4566,"time":6,"station_name":"Sudimara","station_id":"SDM","is_transit":false,"i_long":106.712277,"line":6},{"transit":false,"distance":1994,"station_id":"JMU","is_transit":false,"station_name":"Jurangmangu","time":4,"i_lat":-6.288927,"i_long":106.728916,"line":6},{"time":3,"station_name":"Pondokranji","distance":2179,"i_long":106.74273,"station_id":"PDJ","is_transit":false,"line":6,"i_lat":-6.276362,"transit":false},{"is_transit":false,"transit":false,"distance":6218,"i_lat":-6.237242,"i_long":106.780334,"station_id":"KBY","time":8,"station_name":"Kebayoran","line":6},{"distance":3737,"i_lat":-6.207404,"time":7,"line":6,"i_long":106.79689,"is_transit":false,"station_name":"Palmerah","transit":false,"station_id":"PLM"},{"station_name":"Tanah Abang","distance":3191,"line":1,"time":6,"transit":true,"i_lat":-6.185545,"is_transit":true,"i_long":106.811091,"station_id":"THB"},{"line":1,"transit":false,"station_id":"KAT","station_name":"Karet","i_lat":-6.20132,"time":5,"i_long":106.816351,"is_transit":false,"distance":2029},{"station_id":"SUDB","distance":471,"i_long":106.819881,"line":1,"time":1,"is_transit":false,"i_lat":-6.201433,"station_name":"Sudirman Baru","transit":false},{"station_name":"Sudirman","transit":false,"i_lat":-6.202263,"is_transit":false,"distance":280,"time":1,"i_long":106.822649,"station_id":"SUD","line":1},{"transit":false,"is_transit":false,"station_id":"MRI","distance":3186,"i_long":106.84912,"station_name":"Manggarai","i_lat":-6.209883,"time":4,"line":2},{"distance":1275,"i_lat":-6.212485,"is_transit":false,"i_long":106.858896,"time":2,"station_name":"Matraman","line":1,"station_id":"MTR","transit":false},{"station_id":"JNG","i_lat":-6.215091,"transit":true,"station_name":"Jatinegara","is_transit":true,"distance":1377,"time":8,"i_long":106.86807400000001,"line":1},{"distance":1236,"station_id":"POK","line":11,"i_lat":-6.209188,"is_transit":false,"time":2,"transit":false,"i_long":106.861737,"station_name":"Pondok Jati"},{"i_lat":-6.193792,"distance":1829,"transit":false,"time":2,"is_transit":false,"i_long":106.855437,"line":11,"station_name":"Kramat","station_id":"KMT"},{"station_id":"GST","distance":973,"time":1,"station_name":"Gang Sentiong","is_transit":false,"i_long":106.850107,"line":11,"i_lat":-6.185975,"transit":false},{"i_lat":-6.174784,"station_id":"PSE","is_transit":false,"station_name":"Pasar Senen","i_long":106.84368,"distance":1567,"time":8,"transit":false,"line":11},{"station_id":"KMO","distance":1436,"i_lat":-6.161728,"line":11,"time":4,"is_transit":false,"i_long":106.839204,"transit":false,"station_name":"Kemayoran"},{"station_id":"RJW","time":5,"distance":1901,"i_long":106.836569,"transit":false,"line":11,"is_transit":false,"station_name":"Rajawali","i_lat":-6.14505},{"station_name":"Kampung Bandan","line":4,"i_long":106.826365,"distance":1444,"station_id":"KPB","i_lat":-6.132549,"transit":true,"is_transit":true,"time":3},{"time":9,"i_long":106.79867,"station_id":"AK","line":1,"station_name":"Angke","i_lat":-6.144674,"transit":false,"distance":4102,"is_transit":false},{"is_transit":true,"transit":true,"distance":1230,"i_lat":-6.155215,"i_long":106.800832,"line":1,"time":4,"station_id":"DU","station_name":"Duri"},{"station_name":"Grogol","transit":false,"i_long":106.788277,"line":5,"distance":1700,"station_id":"GGL","is_transit":false,"time":3,"i_lat":-6.162021},{"i_long":106.771379,"is_transit":false,"distance":2036,"station_name":"Pesing","transit":false,"station_id":"PSG","i_lat":-6.161433,"line":5,"time":2}]]}