{"data":[[{"distance":0,"station_name":"Rangkasbitung","line":0,"transit":false,"station_id":"RK","time":0,"i_lat":-6.352675,"i_long":106.250396,"is_transit":true},{"station_id":"CTR","i_lat":-6.334892,"time":13,"line":0,"station_name":"Citeras","is_transit":false,"distance":9847,"transit":false,"i_long":106.332092},{"station_name":"Maja","line":6,"is_transit":false,"i_long":106.394373,"station_id":"MJ","transit":false,"time":10,"i_lat":-6.332307,"distance":7293},{"distance":1853,"transit":false,"is_transit":false,"time":4,"station_id":"CKY","i_long":106.411216,"station_name":"Cikoya","i_lat":-6.33561,"line":0},{"station_name":"Tigaraksa","i_lat":-6.328533,"i_long":106.425991,"line":6,"transit":false,"time":3,"distance":2651,"is_transit":false,"station_id":"TGS"},{"transit":false,"distance":2974,"i_long":106.460812,"station_name":"Tenjo","i_lat":-6.327251,"line":6,"is_transit":false,"station_id":"TEJ","time":5},{"station_name":"Daru","time":5,"i_lat":-6.338021,"is_transit":false,"i_long":106.491338,"line":0,"station_id":"DAR","transit":false,"distance":3902},{"line":0,"time":6,"is_transit":false,"i_long":106.508482,"distance":2675,"station_id":"CJT","transit":false,"station_name":"Cilejit","i_lat":-6.354349},{"distance":7025,"station_name":"Parung Panjang","time":9,"i_lat":-6.3441410000000005,"line":6,"is_transit":false,"transit":false,"station_id":"PRP","i_long":106.568863},{"line":0,"i_long":106.617853,"distance":5968,"is_transit":false,"i_lat":-6.329547,"transit":false,"time":8,"station_id":"CC","station_name":"Cicayur"},{"i_lat":-6.32484,"station_name":"Cisauk","is_transit":false,"time":4,"station_id":"CSK","transit":false,"line":0,"distance":2519,"i_long":106.640411},{"i_lat":-6.319871,"distance":1784,"station_name":"Serpong","line":6,"station_id":"SRP","is_transit":false,"transit":false,"time":4,"i_long":106.66566},{"transit":false,"i_lat":-6.314823,"distance":2413,"station_id":"RU","is_transit":false,"time":4,"i_long":106.675475,"line":6,"station_name":"Rawa Buntu"},{"station_id":"SDM","line":6,"time":6,"i_lat":-6.296963,"distance":4566,"transit":false,"is_transit":false,"station_name":"Sudimara","i_long":106.712277},{"distance":1994,"is_transit":false,"line":6,"i_lat":-6.288927,"time":4,"i_long":106.728916,"station_id":"JMU","transit":false,"station_name":"Jurangmangu"},{"distance":2179,"transit":false,"time":3,"line":6,"i_lat":-6.276362,"station_id":"PDJ","is_transit":false,"station_name":"Pondokranji","i_long":106.74273}]]}