{"data":[[{"station_id":"RK","i_long":106.250396,"is_transit":false,"time":0,"transit":false,"i_lat":-6.352675,"distance":0,"station_name":"Rangkasbitung","line":3},{"station_name":"Citeras","station_id":"CTR","distance":9847,"is_transit":false,"transit":false,"line":3,"time":13,"i_lat":-6.334892,"i_long":106.332092},{"i_long":106.394373,"is_transit":false,"distance":7293,"station_name":"Maja","station_id":"MJ","time":10,"i_lat":-6.332307,"transit":false,"line":6},{"station_id":"CKY","i_lat":-6.33561,"transit":false,"station_name":"Cikoya","distance":1853,"i_long":106.411216,"time":4,"line":3,"is_transit":false},{"transit":false,"distance":2651,"line":6,"station_name":"Tigaraksa","is_transit":false,"i_lat":-6.328533,"station_id":"TGS","time":3,"i_long":106.425991},{"distance":2974,"line":6,"station_id":"TEJ","i_lat":-6.327251,"transit":false,"is_transit":false,"station_name":"Tenjo","time":5,"i_long":106.460812},{"station_id":"DAR","time":5,"transit":false,"i_lat":-6.338021,"is_transit":false,"i_long":106.491338,"distance":3902,"line":0,"station_name":"Daru"},{"station_name":"Cilejit","is_transit":false,"station_id":"CJT","distance":2675,"i_lat":-6.354349,"i_long":106.508482,"time":6,"transit":false,"line":3},{"station_id":"PRP","distance":7025,"station_name":"Parung Panjang","time":9,"transit":false,"i_long":106.568863,"i_lat":-6.3441410000000005,"line":6,"is_transit":false},{"station_id":"CC","distance":5968,"i_lat":-6.329547,"line":3,"i_long":106.617853,"transit":false,"is_transit":false,"time":8,"station_name":"Cicayur"},{"i_lat":-6.32484,"line":3,"i_long":106.640411,"station_id":"CSK","transit":false,"station_name":"Cisauk","is_transit":false,"time":4,"distance":2519},{"i_lat":-6.319871,"line":6,"i_long":106.66566,"transit":false,"distance":1784,"station_id":"SRP","station_name":"Serpong","is_transit":false,"time":4},{"line":6,"time":4,"transit":false,"is_transit":false,"distance":2413,"i_long":106.675475,"station_name":"Rawa Buntu","i_lat":-6.314823,"station_id":"RU"},{"distance":4566,"transit":false,"station_name":"Sudimara","line":6,"time":6,"is_transit":false,"station_id":"SDM","i_lat":-6.296963,"i_long":106.712277},{"i_lat":-6.288927,"transit":false,"station_id":"JMU","station_name":"Jurangmangu","time":4,"line":6,"is_transit":false,"distance":1994,"i_long":106.728916},{"is_transit":false,"time":3,"distance":2179,"station_name":"Pondokranji","station_id":"PDJ","i_long":106.74273,"i_lat":-6.276362,"transit":false,"line":6},{"line":6,"i_long":106.780334,"time":8,"station_id":"KBY","i_lat":-6.237242,"station_name":"Kebayoran","transit":false,"distance":6218,"is_transit":false},{"is_transit":false,"line":6,"transit":false,"distance":3737,"i_lat":-6.207404,"station_id":"PLM","time":7,"i_long":106.79689,"station_name":"Palmerah"},{"is_transit":true,"i_lat":-6.185545,"i_long":106.811091,"time":6,"transit":true,"line":1,"station_id":"THB","station_name":"Tanah Abang","distance":3191},{"i_long":106.816351,"station_name":"Karet","station_id":"KAT","i_lat":-6.20132,"time":5,"transit":false,"distance":2029,"line":1,"is_transit":false},{"time":1,"transit":false,"i_long":106.819881,"station_id":"SUDB","line":1,"is_transit":false,"distance":471,"i_lat":-6.201433,"station_name":"Sudirman Baru"},{"transit":false,"station_name":"Sudirman","i_lat":-6.202263,"is_transit":false,"distance":280,"line":1,"time":1,"i_long":106.822649,"station_id":"SUD"},{"distance":3186,"line":2,"is_transit":true,"i_long":106.84912,"station_id":"MRI","station_name":"Manggarai","i_lat":-6.209883,"time":4,"transit":true},{"time":4,"is_transit":false,"transit":false,"station_name":"Tebet","line":2,"distance":2610,"i_lat":-6.226659,"station_id":"TEB","i_long":106.857948},{"transit":false,"station_name":"Cawang","i_long":106.856607,"is_transit":false,"station_id":"CW","line":2,"time":2,"distance":1230,"i_lat":-6.242512},{"is_transit":false,"distance":1546,"time":3,"station_id":"DRN","i_long":106.85449,"transit":false,"line":2,"station_name":"Duren Kalibata","i_lat":-6.255332},{"i_lat":-6.263214,"transit":false,"line":2,"time":2,"station_id":"PSMB","i_long":106.851577,"is_transit":false,"distance":824,"station_name":"Pasar Minggu Baru"},{"transit":false,"is_transit":false,"distance":2380,"i_lat":-6.2842400000000005,"i_long":106.843999,"line":2,"station_name":"Pasar Minggu","station_id":"PSM","time":2}],[{"station_id":"RK","transit":false,"distance":0,"station_name":"Rangkasbitung","i_lat":-6.352675,"i_long":106.250396,"is_transit":false,"line":3,"time":0},{"i_long":106.332092,"station_name":"Citeras","time":13,"line":3,"i_lat":-6.334892,"distance":9847,"is_transit":false,"station_id":"CTR","transit":false},{"is_transit":false,"station_name":"Maja","i_long":106.394373,"i_lat":-6.332307,"time":10,"transit":false,"line":6,"distance":7293,"station_id":"MJ"},{"i_long":106.411216,"i_lat":-6.33561,"line":3,"is_transit":false,"transit":false,"distance":1853,"station_id":"CKY","time":4,"station_name":"Cikoya"},{"time":3,"station_id":"TGS","transit":false,"is_transit":false,"distance":2651,"i_lat":-6.328533,"station_name":"Tigaraksa","i_long":106.425991,"line":6},{"distance":2974,"station_name":"Tenjo","is_transit":false,"time":5,"transit":false,"i_long":106.460812,"line":6,"station_id":"TEJ","i_lat":-6.327251},{"i_lat":-6.338021,"transit":false,"is_transit":false,"time":5,"distance":3902,"station_name":"Daru","i_long":106.491338,"station_id":"DAR","line":0},{"i_lat":-6.354349,"distance":2675,"i_long":106.508482,"station_name":"Cilejit","station_id":"CJT","transit":false,"line":3,"time":6,"is_transit":false},{"i_lat":-6.3441410000000005,"i_long":106.568863,"station_name":"Parung Panjang","time":9,"station_id":"PRP","line":6,"distance":7025,"is_transit":false,"transit":false},{"distance":5968,"station_id":"CC","transit":false,"i_lat":-6.329547,"i_long":106.617853,"line":3,"station_name":"Cicayur","is_transit":false,"time":8},{"i_long":106.640411,"transit":false,"line":3,"is_transit":false,"time":4,"station_name":"Cisauk","i_lat":-6.32484,"distance":2519,"station_id":"CSK"},{"station_name":"Serpong","line":6,"distance":1784,"i_lat":-6.319871,"station_id":"SRP","time":4,"i_long":106.66566,"is_transit":false,"transit":false},{"transit":false,"station_name":"Rawa Buntu","i_lat":-6.314823,"station_id":"RU","i_long":106.675475,"is_transit":false,"line":6,"time":4,"distance":2413},{"i_long":106.712277,"is_transit":false,"station_id":"SDM","transit":false,"station_name":"Sudimara","line":6,"distance":4566,"i_lat":-6.296963,"time":6},{"i_lat":-6.288927,"line":6,"i_long":106.728916,"distance":1994,"station_name":"Jurangmangu","is_transit":false,"station_id":"JMU","time":4,"transit":false},{"is_transit":false,"i_lat":-6.276362,"i_long":106.74273,"line":6,"station_name":"Pondokranji","distance":2179,"transit":false,"time":3,"station_id":"PDJ"},{"transit":false,"station_name":"Kebayoran","station_id":"KBY","i_lat":-6.237242,"distance":6218,"time":8,"i_long":106.780334,"is_transit":false,"line":6},{"transit":false,"station_name":"Palmerah","station_id":"PLM","i_lat":-6.207404,"distance":3737,"line":6,"time":7,"is_transit":false,"i_long":106.79689},{"time":6,"distance":3191,"i_long":106.811091,"station_name":"Tanah Abang","station_id":"THB","is_transit":true,"line":1,"transit":true,"i_lat":-6.185545},{"station_id":"DU","line":1,"is_transit":false,"distance":3632,"i_lat":-6.155215,"transit":false,"station_name":"Duri","time":8,"i_long":106.800832},{"distance":1230,"station_id":"AK","transit":false,"line":1,"i_long":106.79867,"time":4,"i_lat":-6.144674,"station_name":"Angke","is_transit":false},{"line":4,"distance":4102,"station_name":"Kampung Bandan","i_long":106.826365,"i_lat":-6.132549,"transit":true,"is_transit":true,"station_id":"KPB","time":9},{"is_transit":true,"i_long":106.812439,"line":2,"station_name":"Jakarta Kota","i_lat":-6.137569,"transit":true,"distance":1364,"time":3,"station_id":"JAKK"},{"i_lat":-6.141205,"line":2,"time":4,"transit":false,"distance":1264,"station_id":"JAY","station_name":"Jayakarta","is_transit":false,"i_long":106.820901},{"station_id":"MGB","line":2,"time":2,"transit":false,"distance":1080,"i_long":106.82482,"i_lat":-6.149769,"is_transit":false,"station_name":"Manggabesar"},{"line":2,"transit":false,"station_id":"SW","i_lat":-6.160725,"station_name":"Sawah Besar","time":2,"distance":906,"is_transit":false,"i_long":106.827103},{"is_transit":false,"distance":1149,"time":2,"station_id":"JUA","transit":false,"line":2,"station_name":"Juanda","i_lat":-6.166716,"i_long":106.828284},{"distance":2015,"station_name":"Gondangdia","station_id":"GDD","i_long":106.832183,"transit":false,"line":2,"i_lat":-6.186295,"is_transit":false,"time":4},{"distance":1750,"line":2,"time":3,"station_name":"Cikini","i_lat":-6.198556,"station_id":"CKI","transit":false,"i_long":106.840169,"is_transit":false},{"i_lat":-6.209883,"line":2,"is_transit":false,"station_id":"MRI","station_name":"Manggarai","time":4,"transit":false,"distance":1590,"i_long":106.84912},{"time":4,"line":2,"i_long":106.857948,"i_lat":-6.226659,"is_transit":false,"transit":false,"distance":2610,"station_id":"TEB","station_name":"Tebet"},{"i_long":106.856607,"i_lat":-6.242512,"distance":1230,"line":2,"time":2,"station_name":"Cawang","station_id":"CW","is_transit":false,"transit":false},{"i_lat":-6.255332,"is_transit":false,"time":3,"station_id":"DRN","transit":false,"line":2,"i_long":106.85449,"station_name":"Duren Kalibata","distance":1546},{"transit":false,"i_long":106.851577,"station_id":"PSMB","station_name":"Pasar Minggu Baru","distance":824,"i_lat":-6.263214,"is_transit":false,"time":2,"line":2},{"station_name":"Pasar Minggu","i_long":106.843999,"station_id":"PSM","line":2,"distance":2380,"transit":false,"is_transit":false,"i_lat":-6.2842400000000005,"time":2}],[{"i_lat":-6.352675,"is_transit":false,"station_name":"Rangkasbitung","line":3,"station_id":"RK","distance":0,"transit":false,"i_long":106.250396,"time":0},{"station_id":"CTR","i_long":106.332092,"line":3,"distance":9847,"is_transit":false,"station_name":"Citeras","i_lat":-6.334892,"time":13,"transit":false},{"station_name":"Maja","line":6,"i_lat":-6.332307,"distance":7293,"time":10,"transit":false,"is_transit":false,"station_id":"MJ","i_long":106.394373},{"line":3,"distance":1853,"station_id":"CKY","station_name":"Cikoya","i_lat":-6.33561,"is_transit":false,"i_long":106.411216,"time":4,"transit":false},{"i_lat":-6.328533,"is_transit":false,"distance":2651,"line":6,"station_id":"TGS","transit":false,"station_name":"Tigaraksa","i_long":106.425991,"time":3},{"time":5,"is_transit":false,"i_lat":-6.327251,"i_long":106.460812,"transit":false,"distance":2974,"station_name":"Tenjo","station_id":"TEJ","line":6},{"station_name":"Daru","distance":3902,"i_lat":-6.338021,"i_long":106.491338,"station_id":"DAR","line":0,"transit":false,"is_transit":false,"time":5},{"i_long":106.508482,"station_id":"CJT","i_lat":-6.354349,"station_name":"Cilejit","time":6,"line":3,"is_transit":false,"transit":false,"distance":2675},{"distance":7025,"i_long":106.568863,"station_name":"Parung Panjang","station_id":"PRP","is_transit":false,"i_lat":-6.3441410000000005,"time":9,"transit":false,"line":6},{"time":8,"line":3,"station_id":"CC","distance":5968,"is_transit":false,"transit":false,"i_lat":-6.329547,"station_name":"Cicayur","i_long":106.617853},{"is_transit":false,"transit":false,"i_long":106.640411,"line":3,"time":4,"station_name":"Cisauk","distance":2519,"i_lat":-6.32484,"station_id":"CSK"},{"i_lat":-6.319871,"station_name":"Serpong","i_long":106.66566,"station_id":"SRP","transit":false,"distance":1784,"line":6,"is_transit":false,"time":4},{"distance":2413,"station_id":"RU","i_long":106.675475,"station_name":"Rawa Buntu","i_lat":-6.314823,"is_transit":false,"transit":false,"time":4,"line":6},{"line":6,"is_transit":false,"distance":4566,"i_lat":-6.296963,"time":6,"transit":false,"station_id":"SDM","station_name":"Sudimara","i_long":106.712277},{"station_name":"Jurangmangu","i_lat":-6.288927,"i_long":106.728916,"transit":false,"time":4,"is_transit":false,"station_id":"JMU","line":6,"distance":1994},{"transit":false,"time":3,"i_long":106.74273,"station_name":"Pondokranji","line":6,"i_lat":-6.276362,"is_transit":false,"station_id":"PDJ","distance":2179},{"is_transit":false,"i_long":106.780334,"station_name":"Kebayoran","station_id":"KBY","transit":false,"line":6,"time":8,"distance":6218,"i_lat":-6.237242},{"i_long":106.79689,"transit":false,"station_name":"Palmerah","distance":3737,"is_transit":false,"line":6,"time":7,"i_lat":-6.207404,"station_id":"PLM"},{"station_id":"THB","i_lat":-6.185545,"i_long":106.811091,"is_transit":true,"distance":3191,"time":6,"station_name":"Tanah Abang","transit":true,"line":1},{"time":8,"station_name":"Duri","line":1,"distance":3632,"transit":false,"i_long":106.800832,"is_transit":false,"station_id":"DU","i_lat":-6.155215},{"is_transit":false,"line":1,"station_id":"AK","i_lat":-6.144674,"time":4,"station_name":"Angke","transit":false,"distance":1230,"i_long":106.79867},{"distance":4102,"transit":true,"i_lat":-6.132549,"i_long":106.826365,"time":9,"is_transit":true,"station_id":"KPB","station_name":"Kampung Bandan","line":4},{"distance":1444,"is_transit":false,"transit":false,"station_id":"RJW","i_lat":-6.14505,"i_long":106.836569,"station_name":"Rajawali","time":3,"line":11},{"i_long":106.839204,"is_transit":false,"station_id":"KMO","i_lat":-6.161728,"line":11,"time":5,"transit":false,"distance":1901,"station_name":"Kemayoran"},{"distance":1436,"station_id":"PSE","transit":false,"station_name":"Pasar Senen","i_lat":-6.174784,"line":11,"is_transit":false,"time":4,"i_long":106.84368},{"distance":1567,"is_transit":false,"transit":false,"i_lat":-6.185975,"time":8,"station_name":"Gang Sentiong","line":11,"i_long":106.850107,"station_id":"GST"},{"i_lat":-6.193792,"distance":973,"station_name":"Kramat","i_long":106.855437,"transit":false,"line":11,"station_id":"KMT","is_transit":false,"time":1},{"distance":1829,"line":11,"station_id":"POK","is_transit":false,"time":2,"transit":false,"i_long":106.861737,"i_lat":-6.209188,"station_name":"Pondok Jati"},{"distance":1236,"transit":true,"i_long":106.86807400000001,"is_transit":true,"station_name":"Jatinegara","line":1,"station_id":"JNG","time":9,"i_lat":-6.215091},{"station_id":"MTR","station_name":"Matraman","distance":1377,"transit":false,"i_lat":-6.212485,"is_transit":false,"i_long":106.858896,"time":2,"line":1},{"time":2,"i_lat":-6.209883,"station_id":"MRI","station_name":"Manggarai","distance":1275,"transit":true,"i_long":106.84912,"is_transit":true,"line":2},{"line":2,"is_transit":false,"distance":2610,"i_lat":-6.226659,"station_id":"TEB","station_name":"Tebet","i_long":106.857948,"time":4,"transit":false},{"transit":false,"distance":1230,"station_id":"CW","is_transit":false,"i_long":106.856607,"i_lat":-6.242512,"line":2,"time":2,"station_name":"Cawang"},{"line":2,"transit":false,"distance":1546,"i_long":106.85449,"time":3,"i_lat":-6.255332,"station_name":"Duren Kalibata","station_id":"DRN","is_transit":false},{"station_id":"PSMB","line":2,"i_lat":-6.263214,"transit":false,"time":2,"i_long":106.851577,"is_transit":false,"station_name":"Pasar Minggu Baru","distance":824},{"is_transit":false,"time":2,"station_id":"PSM","station_name":"Pasar Minggu","transit":false,"distance":2380,"i_long":106.843999,"line":2,"i_lat":-6.2842400000000005}]]}