{"data":[[{"i_lat":-6.352675,"station_id":"RK","time":0,"station_name":"Rangkasbitung","distance":0,"transit":false,"line":3,"is_transit":false,"i_long":106.250396},{"is_transit":false,"distance":9847,"i_long":106.332092,"station_id":"CTR","i_lat":-6.334892,"line":3,"time":13,"station_name":"Citeras","transit":false},{"distance":7293,"i_long":106.394373,"station_name":"Maja","i_lat":-6.332307,"line":6,"station_id":"MJ","time":10,"transit":false,"is_transit":false},{"i_long":106.411216,"transit":false,"line":3,"station_id":"CKY","i_lat":-6.33561,"station_name":"Cikoya","distance":1853,"time":4,"is_transit":false},{"line":6,"is_transit":false,"time":3,"station_name":"Tigaraksa","i_lat":-6.328533,"transit":false,"i_long":106.425991,"station_id":"TGS","distance":2651},{"station_name":"Tenjo","distance":2974,"i_lat":-6.327251,"transit":false,"station_id":"TEJ","time":5,"is_transit":false,"line":6,"i_long":106.460812},{"station_name":"Daru","transit":false,"station_id":"DAR","distance":3902,"is_transit":false,"i_long":106.491338,"line":0,"time":5,"i_lat":-6.338021},{"station_name":"Cilejit","station_id":"CJT","is_transit":false,"time":6,"line":3,"i_lat":-6.354349,"distance":2675,"transit":false,"i_long":106.508482},{"line":6,"is_transit":false,"i_lat":-6.3441410000000005,"time":9,"distance":7025,"transit":false,"station_name":"Parung Panjang","i_long":106.568863,"station_id":"PRP"},{"is_transit":false,"station_name":"Cicayur","i_lat":-6.329547,"station_id":"CC","i_long":106.617853,"line":3,"transit":false,"time":8,"distance":5968},{"transit":false,"i_long":106.640411,"station_name":"Cisauk","time":4,"station_id":"CSK","is_transit":false,"i_lat":-6.32484,"line":3,"distance":2519},{"i_long":106.66566,"time":4,"transit":false,"station_name":"Serpong","station_id":"SRP","is_transit":false,"distance":1784,"i_lat":-6.319871,"line":6},{"distance":2413,"time":4,"i_long":106.675475,"i_lat":-6.314823,"line":6,"station_name":"Rawa Buntu","station_id":"RU","transit":false,"is_transit":false},{"is_transit":false,"time":6,"line":6,"distance":4566,"i_lat":-6.296963,"i_long":106.712277,"transit":false,"station_id":"SDM","station_name":"Sudimara"},{"i_lat":-6.288927,"transit":false,"station_id":"JMU","is_transit":false,"time":4,"line":6,"station_name":"Jurangmangu","i_long":106.728916,"distance":1994},{"is_transit":false,"distance":2179,"i_lat":-6.276362,"station_id":"PDJ","line":6,"i_long":106.74273,"station_name":"Pondokranji","time":3,"transit":false},{"line":6,"distance":6218,"transit":false,"station_id":"KBY","time":8,"i_lat":-6.237242,"i_long":106.780334,"is_transit":false,"station_name":"Kebayoran"},{"station_name":"Palmerah","distance":3737,"i_lat":-6.207404,"line":6,"time":7,"station_id":"PLM","transit":false,"is_transit":false,"i_long":106.79689},{"i_long":106.811091,"time":6,"is_transit":true,"transit":true,"station_name":"Tanah Abang","line":1,"station_id":"THB","distance":3191,"i_lat":-6.185545},{"station_id":"DU","time":8,"station_name":"Duri","distance":3632,"i_lat":-6.155215,"i_long":106.800832,"line":1,"transit":true,"is_transit":true},{"i_long":106.788277,"i_lat":-6.162021,"transit":false,"time":3,"line":5,"is_transit":false,"distance":1700,"station_id":"GRG","station_name":"Grogol"},{"line":5,"transit":false,"station_id":"PSG","i_lat":-6.161433,"i_long":106.771379,"is_transit":false,"station_name":"Pesing","distance":2036,"time":2}],[{"station_id":"RK","transit":false,"is_transit":false,"i_long":106.250396,"station_name":"Rangkasbitung","distance":0,"i_lat":-6.352675,"line":3,"time":0},{"station_name":"Citeras","distance":9847,"i_long":106.332092,"is_transit":false,"transit":false,"station_id":"CTR","i_lat":-6.334892,"time":13,"line":3},{"transit":false,"distance":7293,"station_id":"MJ","is_transit":false,"time":10,"line":6,"i_lat":-6.332307,"i_long":106.394373,"station_name":"Maja"},{"is_transit":false,"line":3,"time":4,"distance":1853,"station_name":"Cikoya","station_id":"CKY","i_long":106.411216,"transit":false,"i_lat":-6.33561},{"line":6,"distance":2651,"time":3,"transit":false,"is_transit":false,"station_name":"Tigaraksa","i_long":106.425991,"station_id":"TGS","i_lat":-6.328533},{"transit":false,"i_lat":-6.327251,"i_long":106.460812,"station_name":"Tenjo","line":6,"station_id":"TEJ","time":5,"distance":2974,"is_transit":false},{"transit":false,"time":5,"i_long":106.491338,"station_id":"DAR","distance":3902,"line":0,"station_name":"Daru","i_lat":-6.338021,"is_transit":false},{"line":3,"station_name":"Cilejit","distance":2675,"station_id":"CJT","i_lat":-6.354349,"is_transit":false,"transit":false,"time":6,"i_long":106.508482},{"i_lat":-6.3441410000000005,"is_transit":false,"distance":7025,"line":6,"station_id":"PRP","time":9,"transit":false,"i_long":106.568863,"station_name":"Parung Panjang"},{"line":3,"station_id":"CC","is_transit":false,"station_name":"Cicayur","transit":false,"i_lat":-6.329547,"time":8,"i_long":106.617853,"distance":5968},{"time":4,"distance":2519,"is_transit":false,"transit":false,"station_name":"Cisauk","station_id":"CSK","i_lat":-6.32484,"line":3,"i_long":106.640411},{"is_transit":false,"i_lat":-6.319871,"line":6,"station_id":"SRP","transit":false,"i_long":106.66566,"distance":1784,"station_name":"Serpong","time":4},{"is_transit":false,"time":4,"i_lat":-6.314823,"station_id":"RU","i_long":106.675475,"station_name":"Rawa Buntu","distance":2413,"transit":false,"line":6},{"i_long":106.712277,"distance":4566,"time":6,"i_lat":-6.296963,"station_name":"Sudimara","line":6,"transit":false,"is_transit":false,"station_id":"SDM"},{"station_name":"Jurangmangu","i_long":106.728916,"i_lat":-6.288927,"distance":1994,"time":4,"transit":false,"line":6,"is_transit":false,"station_id":"JMU"},{"line":6,"time":3,"distance":2179,"i_lat":-6.276362,"is_transit":false,"transit":false,"station_id":"PDJ","i_long":106.74273,"station_name":"Pondokranji"},{"station_name":"Kebayoran","line":6,"distance":6218,"time":8,"transit":false,"station_id":"KBY","i_lat":-6.237242,"is_transit":false,"i_long":106.780334},{"time":7,"transit":false,"station_id":"PLM","station_name":"Palmerah","i_lat":-6.207404,"line":6,"distance":3737,"is_transit":false,"i_long":106.79689},{"time":6,"line":1,"station_name":"Tanah Abang","station_id":"THB","is_transit":true,"transit":true,"distance":3191,"i_lat":-6.185545,"i_long":106.811091},{"distance":2029,"is_transit":false,"station_name":"Karet","time":5,"i_lat":-6.20132,"i_long":106.816351,"station_id":"KAT","line":1,"transit":false},{"time":1,"station_id":"SUDB","is_transit":false,"i_lat":-6.201433,"distance":471,"line":1,"i_long":106.819881,"transit":false,"station_name":"Sudirman Baru"},{"i_long":106.822649,"is_transit":false,"transit":false,"i_lat":-6.202263,"station_id":"SUD","distance":280,"time":1,"station_name":"Sudirman","line":1},{"i_long":106.84912,"is_transit":true,"transit":true,"station_name":"Manggarai","station_id":"MRI","time":4,"distance":3186,"i_lat":-6.209883,"line":2},{"is_transit":false,"distance":1590,"line":2,"i_long":106.840169,"i_lat":-6.198556,"station_name":"Cikini","transit":false,"station_id":"CKI","time":4},{"i_long":106.832183,"line":2,"station_name":"Gondangdia","station_id":"GDD","transit":false,"time":3,"distance":1750,"is_transit":false,"i_lat":-6.186295},{"i_lat":-6.166716,"station_name":"Juanda","distance":2015,"i_long":106.828284,"time":4,"is_transit":false,"transit":false,"line":2,"station_id":"JUA"},{"line":2,"station_name":"Sawah Besar","is_transit":false,"station_id":"SW","time":2,"transit":false,"distance":1149,"i_lat":-6.160725,"i_long":106.827103},{"distance":906,"i_long":106.82482,"i_lat":-6.149769,"line":2,"transit":false,"time":2,"is_transit":false,"station_name":"Manggabesar","station_id":"MGB"},{"station_id":"JAY","time":2,"is_transit":false,"i_long":106.820901,"i_lat":-6.141205,"distance":1080,"line":2,"station_name":"Jayakarta","transit":false},{"distance":1264,"transit":true,"line":2,"is_transit":true,"station_name":"Jakarta Kota","time":4,"station_id":"JAKK","i_lat":-6.137569,"i_long":106.812439},{"i_lat":-6.132549,"is_transit":true,"station_id":"KPB","transit":true,"time":3,"distance":1364,"i_long":106.826365,"line":4,"station_name":"Kampung Bandan"},{"transit":false,"station_id":"AK","distance":4102,"station_name":"Angke","time":9,"line":1,"i_lat":-6.144674,"i_long":106.79867,"is_transit":false},{"distance":1230,"station_id":"DU","transit":true,"i_long":106.800832,"station_name":"Duri","time":4,"is_transit":true,"line":1,"i_lat":-6.155215},{"distance":1700,"station_id":"GRG","is_transit":false,"time":3,"station_name":"Grogol","line":5,"i_lat":-6.162021,"i_long":106.788277,"transit":false},{"line":5,"is_transit":false,"time":2,"transit":false,"station_id":"PSG","station_name":"Pesing","distance":2036,"i_lat":-6.161433,"i_long":106.771379}],[{"station_id":"RK","station_name":"Rangkasbitung","i_long":106.250396,"time":0,"i_lat":-6.352675,"distance":0,"line":3,"transit":false,"is_transit":false},{"distance":9847,"i_lat":-6.334892,"line":3,"station_name":"Citeras","i_long":106.332092,"station_id":"CTR","time":13,"is_transit":false,"transit":false},{"time":10,"station_id":"MJ","distance":7293,"i_long":106.394373,"station_name":"Maja","transit":false,"is_transit":false,"i_lat":-6.332307,"line":6},{"is_transit":false,"time":4,"transit":false,"i_lat":-6.33561,"distance":1853,"station_name":"Cikoya","station_id":"CKY","i_long":106.411216,"line":3},{"time":3,"is_transit":false,"i_long":106.425991,"transit":false,"i_lat":-6.328533,"distance":2651,"line":6,"station_id":"TGS","station_name":"Tigaraksa"},{"i_lat":-6.327251,"station_id":"TEJ","time":5,"line":6,"i_long":106.460812,"distance":2974,"is_transit":false,"transit":false,"station_name":"Tenjo"},{"time":5,"is_transit":false,"i_long":106.491338,"transit":false,"station_name":"Daru","i_lat":-6.338021,"line":0,"station_id":"DAR","distance":3902},{"i_lat":-6.354349,"is_transit":false,"transit":false,"station_name":"Cilejit","time":6,"line":3,"i_long":106.508482,"station_id":"CJT","distance":2675},{"time":9,"line":6,"distance":7025,"i_lat":-6.3441410000000005,"i_long":106.568863,"station_name":"Parung Panjang","station_id":"PRP","is_transit":false,"transit":false},{"line":3,"time":8,"station_id":"CC","i_lat":-6.329547,"distance":5968,"station_name":"Cicayur","transit":false,"is_transit":false,"i_long":106.617853},{"time":4,"distance":2519,"station_id":"CSK","station_name":"Cisauk","transit":false,"i_lat":-6.32484,"i_long":106.640411,"line":3,"is_transit":false},{"transit":false,"i_long":106.66566,"i_lat":-6.319871,"is_transit":false,"station_id":"SRP","station_name":"Serpong","distance":1784,"time":4,"line":6},{"station_name":"Rawa Buntu","distance":2413,"line":6,"time":4,"is_transit":false,"i_long":106.675475,"transit":false,"station_id":"RU","i_lat":-6.314823},{"is_transit":false,"distance":4566,"i_lat":-6.296963,"station_name":"Sudimara","transit":false,"i_long":106.712277,"line":6,"time":6,"station_id":"SDM"},{"i_long":106.728916,"station_id":"JMU","i_lat":-6.288927,"line":6,"station_name":"Jurangmangu","time":4,"is_transit":false,"transit":false,"distance":1994},{"station_name":"Pondokranji","distance":2179,"transit":false,"line":6,"is_transit":false,"station_id":"PDJ","i_lat":-6.276362,"time":3,"i_long":106.74273},{"transit":false,"i_lat":-6.237242,"station_id":"KBY","i_long":106.780334,"line":6,"is_transit":false,"distance":6218,"station_name":"Kebayoran","time":8},{"station_name":"Palmerah","i_long":106.79689,"is_transit":false,"line":6,"time":7,"station_id":"PLM","distance":3737,"i_lat":-6.207404,"transit":false},{"time":6,"i_long":106.811091,"distance":3191,"station_name":"Tanah Abang","station_id":"THB","i_lat":-6.185545,"line":1,"is_transit":true,"transit":true},{"transit":false,"station_id":"KAT","time":5,"station_name":"Karet","distance":2029,"line":1,"i_lat":-6.20132,"is_transit":false,"i_long":106.816351},{"distance":471,"station_id":"SUDB","time":1,"station_name":"Sudirman Baru","transit":false,"is_transit":false,"i_lat":-6.201433,"i_long":106.819881,"line":1},{"i_long":106.822649,"station_id":"SUD","transit":false,"time":1,"distance":280,"is_transit":false,"line":1,"i_lat":-6.202263,"station_name":"Sudirman"},{"station_id":"MRI","distance":3186,"transit":false,"station_name":"Manggarai","i_lat":-6.209883,"i_long":106.84912,"line":2,"time":4,"is_transit":false},{"is_transit":false,"station_id":"MTR","station_name":"Matraman","distance":1275,"i_long":106.858896,"transit":false,"time":2,"i_lat":-6.212485,"line":1},{"station_name":"Jatinegara","i_long":106.86807400000001,"time":8,"is_transit":true,"line":1,"i_lat":-6.215091,"station_id":"JNG","transit":true,"distance":1377},{"i_lat":-6.209188,"is_transit":false,"line":11,"distance":1236,"station_id":"POK","i_long":106.861737,"station_name":"Pondok Jati","transit":false,"time":2},{"time":2,"i_lat":-6.193792,"i_long":106.855437,"is_transit":false,"line":11,"station_name":"Kramat","transit":false,"station_id":"KMT","distance":1829},{"i_lat":-6.185975,"line":11,"is_transit":false,"distance":973,"transit":false,"station_id":"GST","i_long":106.850107,"station_name":"Gang Sentiong","time":1},{"is_transit":false,"station_id":"PSE","transit":false,"i_lat":-6.174784,"i_long":106.84368,"distance":1567,"time":8,"station_name":"Pasar Senen","line":11},{"line":11,"station_name":"Kemayoran","transit":false,"time":4,"is_transit":false,"station_id":"KMO","distance":1436,"i_lat":-6.161728,"i_long":106.839204},{"is_transit":false,"distance":1901,"i_long":106.836569,"i_lat":-6.14505,"time":5,"transit":false,"station_name":"Rajawali","station_id":"RJW","line":11},{"station_id":"KPB","transit":true,"i_long":106.826365,"i_lat":-6.132549,"station_name":"Kampung Bandan","distance":1444,"is_transit":true,"line":4,"time":3},{"station_name":"Angke","is_transit":false,"line":1,"time":9,"distance":4102,"transit":false,"station_id":"AK","i_lat":-6.144674,"i_long":106.79867},{"station_id":"DU","i_lat":-6.155215,"distance":1230,"line":1,"is_transit":true,"i_long":106.800832,"time":4,"station_name":"Duri","transit":true},{"i_lat":-6.162021,"station_id":"GRG","i_long":106.788277,"station_name":"Grogol","line":5,"distance":1700,"time":3,"transit":false,"is_transit":false},{"i_long":106.771379,"line":5,"time":2,"station_id":"PSG","is_transit":false,"distance":2036,"i_lat":-6.161433,"station_name":"Pesing","transit":false}]]}