{"data":[[{"i_lat":-6.352675,"station_id":"RK","line":3,"time":0,"is_transit":false,"distance":0,"transit":false,"i_long":106.250396,"station_name":"Rangkasbitung"},{"line":3,"transit":false,"distance":9847,"station_name":"Citeras","station_id":"CTR","i_lat":-6.334892,"time":13,"i_long":106.332092,"is_transit":false},{"is_transit":false,"i_long":106.394373,"distance":7293,"i_lat":-6.332307,"line":6,"time":10,"station_id":"MJ","transit":false,"station_name":"Maja"},{"i_lat":-6.33561,"i_long":106.411216,"station_id":"CKY","distance":1853,"line":3,"time":4,"transit":false,"station_name":"Cikoya","is_transit":false},{"station_name":"Tigaraksa","i_lat":-6.328533,"station_id":"TGS","is_transit":false,"line":6,"i_long":106.425991,"distance":2651,"time":3,"transit":false},{"distance":2974,"station_id":"TEJ","is_transit":false,"time":5,"transit":false,"station_name":"Tenjo","i_lat":-6.327251,"i_long":106.460812,"line":6},{"transit":false,"i_lat":-6.338021,"i_long":106.491338,"station_name":"Daru","line":0,"distance":3902,"time":5,"station_id":"DAR","is_transit":false},{"i_lat":-6.354349,"transit":false,"station_name":"Cilejit","time":6,"station_id":"CJT","is_transit":false,"i_long":106.508482,"line":3,"distance":2675},{"is_transit":false,"i_lat":-6.3441410000000005,"station_name":"Parung Panjang","transit":false,"station_id":"PRP","i_long":106.568863,"distance":7025,"line":6,"time":9},{"i_lat":-6.329547,"station_name":"Cicayur","time":8,"line":3,"is_transit":false,"transit":false,"i_long":106.617853,"distance":5968,"station_id":"CC"},{"station_name":"Cisauk","line":3,"time":4,"station_id":"CSK","is_transit":false,"distance":2519,"transit":false,"i_lat":-6.32484,"i_long":106.640411},{"station_name":"Serpong","line":6,"i_long":106.66566,"i_lat":-6.319871,"distance":1784,"is_transit":false,"time":4,"station_id":"SRP","transit":false},{"station_id":"RU","time":4,"station_name":"Rawa Buntu","transit":false,"distance":2413,"i_long":106.675475,"line":6,"is_transit":false,"i_lat":-6.314823},{"transit":false,"i_long":106.712277,"station_id":"SDM","i_lat":-6.296963,"line":6,"distance":4566,"time":6,"is_transit":false,"station_name":"Sudimara"},{"i_long":106.728916,"is_transit":false,"distance":1994,"time":4,"line":6,"transit":false,"station_name":"Jurangmangu","station_id":"JMU","i_lat":-6.288927},{"distance":2179,"time":3,"station_id":"PDJ","is_transit":false,"station_name":"Pondokranji","line":6,"transit":false,"i_lat":-6.276362,"i_long":106.74273}]]}