{"data":[[{"station_id":"RK","transit":false,"station_name":"Rangkasbitung","i_long":106.250396,"distance":0,"time":0,"is_transit":false,"i_lat":-6.352675,"line":3},{"time":13,"i_lat":-6.334892,"line":3,"transit":false,"distance":9847,"station_name":"Citeras","is_transit":false,"station_id":"CTR","i_long":106.332092},{"distance":7293,"time":10,"station_id":"MJ","i_lat":-6.332307,"i_long":106.394373,"line":6,"transit":false,"is_transit":false,"station_name":"Maja"},{"i_long":106.411216,"station_name":"Cikoya","i_lat":-6.33561,"station_id":"CKY","line":3,"time":4,"distance":1853,"is_transit":false,"transit":false},{"station_name":"Tigaraksa","transit":false,"is_transit":false,"distance":2651,"i_lat":-6.328533,"i_long":106.425991,"station_id":"TGS","time":3,"line":6},{"i_lat":-6.327251,"station_id":"TEJ","time":5,"station_name":"Tenjo","line":6,"transit":false,"distance":2974,"is_transit":false,"i_long":106.460812},{"i_long":106.491338,"is_transit":false,"i_lat":-6.338021,"time":5,"line":0,"station_id":"DAR","transit":false,"distance":3902,"station_name":"Daru"},{"time":6,"station_name":"Cilejit","transit":false,"i_long":106.508482,"line":3,"distance":2675,"is_transit":false,"i_lat":-6.354349,"station_id":"CJT"},{"distance":7025,"station_name":"Parung Panjang","station_id":"PRP","line":6,"i_long":106.568863,"transit":false,"time":9,"is_transit":false,"i_lat":-6.3441410000000005},{"station_name":"Cicayur","i_lat":-6.329547,"station_id":"CC","i_long":106.617853,"line":3,"distance":5968,"time":8,"is_transit":false,"transit":false},{"is_transit":false,"distance":2519,"station_id":"CSK","i_lat":-6.32484,"i_long":106.640411,"line":3,"transit":false,"time":4,"station_name":"Cisauk"},{"station_id":"SRP","is_transit":false,"line":6,"station_name":"Serpong","transit":false,"time":4,"distance":1784,"i_lat":-6.319871,"i_long":106.66566},{"distance":2413,"is_transit":false,"line":6,"station_id":"RU","station_name":"Rawa Buntu","i_lat":-6.314823,"time":4,"transit":false,"i_long":106.675475},{"station_id":"SDM","transit":false,"is_transit":false,"distance":4566,"i_lat":-6.296963,"line":6,"i_long":106.712277,"station_name":"Sudimara","time":6},{"time":4,"line":6,"is_transit":false,"station_name":"Jurangmangu","i_lat":-6.288927,"transit":false,"i_long":106.728916,"distance":1994,"station_id":"JMU"},{"transit":false,"i_lat":-6.276362,"station_name":"Pondokranji","i_long":106.74273,"line":6,"time":3,"is_transit":false,"distance":2179,"station_id":"PDJ"},{"i_long":106.780334,"line":6,"distance":6218,"transit":false,"station_id":"KBY","station_name":"Kebayoran","i_lat":-6.237242,"is_transit":false,"time":8},{"station_name":"Palmerah","transit":false,"station_id":"PLM","i_long":106.79689,"time":7,"distance":3737,"line":6,"is_transit":false,"i_lat":-6.207404},{"transit":true,"i_lat":-6.185545,"time":6,"line":1,"i_long":106.811091,"distance":3191,"station_name":"Tanah Abang","is_transit":true,"station_id":"THB"},{"station_id":"KAT","distance":2029,"line":1,"i_lat":-6.20132,"transit":false,"time":5,"is_transit":false,"station_name":"Karet","i_long":106.816351},{"i_lat":-6.201433,"station_name":"Sudirman Baru","distance":471,"transit":false,"station_id":"SUDB","line":1,"is_transit":false,"i_long":106.819881,"time":1},{"i_lat":-6.202263,"distance":280,"time":1,"line":1,"transit":false,"i_long":106.822649,"station_name":"Sudirman","is_transit":false,"station_id":"SUD"},{"station_name":"Manggarai","is_transit":true,"time":4,"station_id":"MRI","transit":true,"i_long":106.84912,"line":2,"distance":3186,"i_lat":-6.209883},{"i_lat":-6.226659,"distance":2610,"is_transit":false,"station_name":"Tebet","transit":false,"line":2,"time":4,"station_id":"TEB","i_long":106.857948},{"station_name":"Cawang","station_id":"CW","distance":1230,"is_transit":false,"i_lat":-6.242512,"i_long":106.856607,"time":2,"line":2,"transit":false},{"line":2,"transit":false,"i_long":106.85449,"station_id":"DRN","time":3,"is_transit":false,"distance":1546,"station_name":"Duren Kalibata","i_lat":-6.255332},{"station_id":"PSMB","transit":false,"is_transit":false,"distance":824,"station_name":"Pasar Minggu Baru","time":2,"i_long":106.851577,"i_lat":-6.263214,"line":2},{"station_name":"Pasar Minggu","station_id":"PSM","transit":false,"distance":2380,"line":2,"i_long":106.843999,"time":2,"is_transit":false,"i_lat":-6.2842400000000005}],[{"station_name":"Rangkasbitung","i_lat":-6.352675,"line":3,"station_id":"RK","time":0,"is_transit":false,"transit":false,"i_long":106.250396,"distance":0},{"station_name":"Citeras","station_id":"CTR","i_lat":-6.334892,"time":13,"is_transit":false,"transit":false,"distance":9847,"i_long":106.332092,"line":3},{"i_lat":-6.332307,"line":6,"distance":7293,"is_transit":false,"station_name":"Maja","time":10,"station_id":"MJ","transit":false,"i_long":106.394373},{"transit":false,"station_id":"CKY","i_lat":-6.33561,"time":4,"is_transit":false,"station_name":"Cikoya","distance":1853,"i_long":106.411216,"line":3},{"distance":2651,"line":6,"is_transit":false,"time":3,"i_lat":-6.328533,"station_name":"Tigaraksa","i_long":106.425991,"station_id":"TGS","transit":false},{"i_lat":-6.327251,"line":6,"station_id":"TEJ","time":5,"is_transit":false,"i_long":106.460812,"distance":2974,"station_name":"Tenjo","transit":false},{"time":5,"station_id":"DAR","transit":false,"is_transit":false,"distance":3902,"i_lat":-6.338021,"i_long":106.491338,"line":0,"station_name":"Daru"},{"line":3,"time":6,"i_lat":-6.354349,"station_id":"CJT","transit":false,"distance":2675,"i_long":106.508482,"is_transit":false,"station_name":"Cilejit"},{"station_name":"Parung Panjang","i_long":106.568863,"distance":7025,"station_id":"PRP","i_lat":-6.3441410000000005,"line":6,"time":9,"is_transit":false,"transit":false},{"is_transit":false,"station_name":"Cicayur","distance":5968,"transit":false,"line":3,"station_id":"CC","time":8,"i_lat":-6.329547,"i_long":106.617853},{"is_transit":false,"station_name":"Cisauk","line":3,"station_id":"CSK","distance":2519,"time":4,"i_lat":-6.32484,"transit":false,"i_long":106.640411},{"time":4,"i_long":106.66566,"distance":1784,"i_lat":-6.319871,"station_id":"SRP","is_transit":false,"transit":false,"line":6,"station_name":"Serpong"},{"station_name":"Rawa Buntu","time":4,"i_lat":-6.314823,"distance":2413,"is_transit":false,"transit":false,"i_long":106.675475,"station_id":"RU","line":6},{"distance":4566,"time":6,"transit":false,"station_id":"SDM","is_transit":false,"i_lat":-6.296963,"i_long":106.712277,"line":6,"station_name":"Sudimara"},{"i_lat":-6.288927,"time":4,"transit":false,"i_long":106.728916,"is_transit":false,"station_id":"JMU","distance":1994,"station_name":"Jurangmangu","line":6},{"time":3,"transit":false,"distance":2179,"is_transit":false,"station_id":"PDJ","i_lat":-6.276362,"i_long":106.74273,"station_name":"Pondokranji","line":6},{"is_transit":false,"station_id":"KBY","transit":false,"i_lat":-6.237242,"line":6,"time":8,"distance":6218,"station_name":"Kebayoran","i_long":106.780334},{"station_name":"Palmerah","line":6,"time":7,"station_id":"PLM","is_transit":false,"distance":3737,"transit":false,"i_long":106.79689,"i_lat":-6.207404},{"line":1,"time":6,"is_transit":true,"distance":3191,"station_name":"Tanah Abang","station_id":"THB","transit":true,"i_lat":-6.185545,"i_long":106.811091},{"station_name":"Duri","time":8,"is_transit":false,"transit":false,"i_lat":-6.155215,"line":1,"distance":3632,"station_id":"DU","i_long":106.800832},{"station_id":"AK","i_lat":-6.144674,"i_long":106.79867,"station_name":"Angke","time":4,"line":1,"is_transit":false,"distance":1230,"transit":false},{"station_name":"Kampung Bandan","line":4,"transit":true,"station_id":"KPB","i_long":106.826365,"distance":4102,"i_lat":-6.132549,"is_transit":true,"time":9},{"transit":true,"station_id":"JAKK","i_long":106.812439,"i_lat":-6.137569,"time":3,"station_name":"Jakarta Kota","line":2,"distance":1364,"is_transit":true},{"station_name":"Jayakarta","i_long":106.820901,"line":2,"distance":1264,"is_transit":false,"station_id":"JAY","transit":false,"i_lat":-6.141205,"time":4},{"i_long":106.82482,"station_id":"MGB","transit":false,"station_name":"Manggabesar","i_lat":-6.149769,"is_transit":false,"line":2,"time":2,"distance":1080},{"distance":906,"line":2,"transit":false,"station_id":"SW","time":2,"is_transit":false,"station_name":"Sawah Besar","i_long":106.827103,"i_lat":-6.160725},{"time":2,"station_name":"Juanda","is_transit":false,"station_id":"JUA","line":2,"i_long":106.828284,"distance":1149,"i_lat":-6.166716,"transit":false},{"station_id":"GDD","time":4,"transit":false,"distance":2015,"station_name":"Gondangdia","i_long":106.832183,"line":2,"is_transit":false,"i_lat":-6.186295},{"i_long":106.840169,"is_transit":false,"time":3,"distance":1750,"line":2,"transit":false,"station_id":"CKI","station_name":"Cikini","i_lat":-6.198556},{"i_long":106.84912,"station_name":"Manggarai","station_id":"MRI","is_transit":false,"transit":false,"line":2,"distance":1590,"time":4,"i_lat":-6.209883},{"i_lat":-6.226659,"line":2,"i_long":106.857948,"station_name":"Tebet","station_id":"TEB","is_transit":false,"time":4,"transit":false,"distance":2610},{"time":2,"is_transit":false,"station_name":"Cawang","station_id":"CW","distance":1230,"i_long":106.856607,"transit":false,"i_lat":-6.242512,"line":2},{"time":3,"station_name":"Duren Kalibata","i_lat":-6.255332,"line":2,"distance":1546,"i_long":106.85449,"station_id":"DRN","transit":false,"is_transit":false},{"station_id":"PSMB","time":2,"line":2,"is_transit":false,"transit":false,"i_long":106.851577,"i_lat":-6.263214,"station_name":"Pasar Minggu Baru","distance":824},{"i_lat":-6.2842400000000005,"i_long":106.843999,"line":2,"time":2,"is_transit":false,"distance":2380,"station_name":"Pasar Minggu","station_id":"PSM","transit":false}],[{"station_id":"RK","is_transit":false,"line":3,"i_lat":-6.352675,"i_long":106.250396,"distance":0,"transit":false,"time":0,"station_name":"Rangkasbitung"},{"distance":9847,"i_lat":-6.334892,"is_transit":false,"transit":false,"station_name":"Citeras","station_id":"CTR","time":13,"i_long":106.332092,"line":3},{"station_id":"MJ","distance":7293,"i_long":106.394373,"station_name":"Maja","time":10,"transit":false,"i_lat":-6.332307,"is_transit":false,"line":6},{"i_lat":-6.33561,"time":4,"is_transit":false,"station_name":"Cikoya","line":3,"i_long":106.411216,"station_id":"CKY","transit":false,"distance":1853},{"transit":false,"station_id":"TGS","line":6,"is_transit":false,"station_name":"Tigaraksa","distance":2651,"i_lat":-6.328533,"i_long":106.425991,"time":3},{"transit":false,"distance":2974,"station_name":"Tenjo","station_id":"TEJ","time":5,"i_long":106.460812,"i_lat":-6.327251,"line":6,"is_transit":false},{"i_lat":-6.338021,"station_name":"Daru","i_long":106.491338,"station_id":"DAR","transit":false,"is_transit":false,"distance":3902,"line":0,"time":5},{"is_transit":false,"station_id":"CJT","distance":2675,"station_name":"Cilejit","transit":false,"line":3,"time":6,"i_lat":-6.354349,"i_long":106.508482},{"time":9,"station_name":"Parung Panjang","station_id":"PRP","i_lat":-6.3441410000000005,"line":6,"distance":7025,"i_long":106.568863,"is_transit":false,"transit":false},{"i_lat":-6.329547,"station_name":"Cicayur","station_id":"CC","time":8,"transit":false,"is_transit":false,"i_long":106.617853,"distance":5968,"line":3},{"time":4,"transit":false,"station_name":"Cisauk","station_id":"CSK","i_lat":-6.32484,"i_long":106.640411,"distance":2519,"is_transit":false,"line":3},{"i_lat":-6.319871,"i_long":106.66566,"line":6,"station_name":"Serpong","transit":false,"is_transit":false,"station_id":"SRP","distance":1784,"time":4},{"is_transit":false,"station_name":"Rawa Buntu","time":4,"distance":2413,"station_id":"RU","transit":false,"i_lat":-6.314823,"i_long":106.675475,"line":6},{"i_lat":-6.296963,"i_long":106.712277,"time":6,"station_name":"Sudimara","line":6,"is_transit":false,"station_id":"SDM","transit":false,"distance":4566},{"distance":1994,"line":6,"time":4,"station_name":"Jurangmangu","i_lat":-6.288927,"is_transit":false,"station_id":"JMU","transit":false,"i_long":106.728916},{"is_transit":false,"i_lat":-6.276362,"line":6,"distance":2179,"station_id":"PDJ","transit":false,"i_long":106.74273,"time":3,"station_name":"Pondokranji"},{"i_lat":-6.237242,"transit":false,"distance":6218,"i_long":106.780334,"line":6,"station_id":"KBY","is_transit":false,"station_name":"Kebayoran","time":8},{"station_id":"PLM","i_lat":-6.207404,"is_transit":false,"station_name":"Palmerah","line":6,"time":7,"distance":3737,"transit":false,"i_long":106.79689},{"line":1,"station_name":"Tanah Abang","i_lat":-6.185545,"distance":3191,"time":6,"is_transit":true,"i_long":106.811091,"transit":true,"station_id":"THB"},{"time":8,"station_name":"Duri","distance":3632,"i_lat":-6.155215,"i_long":106.800832,"is_transit":false,"transit":false,"line":1,"station_id":"DU"},{"distance":1230,"is_transit":false,"i_long":106.79867,"line":1,"station_name":"Angke","station_id":"AK","time":4,"transit":false,"i_lat":-6.144674},{"line":4,"station_name":"Kampung Bandan","i_long":106.826365,"time":9,"station_id":"KPB","is_transit":true,"transit":true,"distance":4102,"i_lat":-6.132549},{"distance":1444,"i_long":106.836569,"is_transit":false,"line":11,"time":3,"station_name":"Rajawali","station_id":"RJW","i_lat":-6.14505,"transit":false},{"station_name":"Kemayoran","station_id":"KMO","transit":false,"line":11,"is_transit":false,"time":5,"distance":1901,"i_lat":-6.161728,"i_long":106.839204},{"i_long":106.84368,"time":4,"transit":false,"i_lat":-6.174784,"is_transit":false,"station_id":"PSE","line":11,"station_name":"Pasar Senen","distance":1436},{"time":8,"is_transit":false,"i_lat":-6.185975,"station_id":"GST","transit":false,"distance":1567,"line":11,"station_name":"Gang Sentiong","i_long":106.850107},{"i_long":106.855437,"time":1,"station_name":"Kramat","i_lat":-6.193792,"line":11,"is_transit":false,"station_id":"KMT","distance":973,"transit":false},{"distance":1829,"transit":false,"station_id":"POK","station_name":"Pondok Jati","i_lat":-6.209188,"time":2,"is_transit":false,"i_long":106.861737,"line":11},{"transit":true,"distance":1236,"i_lat":-6.215091,"station_id":"JNG","i_long":106.86807400000001,"line":1,"time":9,"is_transit":true,"station_name":"Jatinegara"},{"distance":1377,"i_long":106.858896,"line":1,"station_id":"MTR","time":2,"i_lat":-6.212485,"transit":false,"station_name":"Matraman","is_transit":false},{"station_name":"Manggarai","station_id":"MRI","distance":1275,"i_long":106.84912,"is_transit":true,"transit":true,"i_lat":-6.209883,"line":2,"time":2},{"transit":false,"i_long":106.857948,"time":4,"station_name":"Tebet","distance":2610,"station_id":"TEB","line":2,"is_transit":false,"i_lat":-6.226659},{"i_long":106.856607,"i_lat":-6.242512,"station_id":"CW","line":2,"is_transit":false,"transit":false,"time":2,"distance":1230,"station_name":"Cawang"},{"i_lat":-6.255332,"line":2,"time":3,"station_name":"Duren Kalibata","station_id":"DRN","distance":1546,"i_long":106.85449,"transit":false,"is_transit":false},{"station_id":"PSMB","line":2,"i_lat":-6.263214,"distance":824,"i_long":106.851577,"transit":false,"station_name":"Pasar Minggu Baru","is_transit":false,"time":2},{"station_name":"Pasar Minggu","i_lat":-6.2842400000000005,"distance":2380,"is_transit":false,"station_id":"PSM","time":2,"line":2,"i_long":106.843999,"transit":false}]]}