{"data":[[{"i_lat":-6.352675,"is_transit":true,"station_id":"RK","i_long":106.250396,"time":0,"transit":false,"station_name":"Rangkasbitung","distance":0,"line":0},{"line":0,"station_name":"Citeras","transit":false,"time":13,"station_id":"CTR","is_transit":false,"i_lat":-6.334892,"i_long":106.332092,"distance":9847},{"line":6,"is_transit":false,"station_name":"Maja","distance":7293,"transit":false,"time":10,"station_id":"MJ","i_lat":-6.332307,"i_long":106.394373},{"line":0,"i_long":106.411216,"i_lat":-6.33561,"distance":1853,"transit":false,"is_transit":false,"time":4,"station_id":"CKY","station_name":"Cikoya"},{"station_name":"Tigaraksa","line":6,"i_lat":-6.328533,"is_transit":false,"distance":2651,"transit":false,"station_id":"TGS","time":3,"i_long":106.425991},{"station_id":"TEJ","time":5,"i_long":106.460812,"line":6,"transit":false,"i_lat":-6.327251,"is_transit":false,"distance":2974,"station_name":"Tenjo"},{"distance":3902,"line":0,"station_name":"Daru","is_transit":false,"transit":false,"time":5,"i_lat":-6.338021,"i_long":106.491338,"station_id":"DAR"},{"i_long":106.508482,"line":0,"station_id":"CJT","transit":false,"time":6,"distance":2675,"i_lat":-6.354349,"station_name":"Cilejit","is_transit":false},{"distance":7025,"station_id":"PRP","i_lat":-6.3441410000000005,"time":9,"i_long":106.568863,"line":6,"transit":false,"is_transit":false,"station_name":"Parung Panjang"},{"station_id":"CC","is_transit":false,"i_long":106.617853,"line":0,"distance":5968,"station_name":"Cicayur","transit":false,"i_lat":-6.329547,"time":8},{"distance":2519,"transit":false,"is_transit":false,"time":4,"i_long":106.640411,"station_id":"CSK","station_name":"Cisauk","line":0,"i_lat":-6.32484},{"station_name":"Serpong","transit":false,"i_lat":-6.319871,"distance":1784,"station_id":"SRP","time":4,"line":6,"is_transit":false,"i_long":106.66566},{"distance":2413,"line":6,"station_id":"RU","station_name":"Rawa Buntu","i_long":106.675475,"i_lat":-6.314823,"time":4,"transit":false,"is_transit":false},{"station_id":"SDM","i_lat":-6.296963,"station_name":"Sudimara","distance":4566,"i_long":106.712277,"time":6,"transit":false,"line":6,"is_transit":false},{"i_long":106.728916,"line":6,"is_transit":false,"station_id":"JMU","distance":1994,"i_lat":-6.288927,"station_name":"Jurangmangu","time":4,"transit":false},{"is_transit":false,"station_id":"PDJ","station_name":"Pondokranji","transit":false,"time":3,"i_long":106.74273,"distance":2179,"i_lat":-6.276362,"line":6},{"is_transit":false,"distance":6218,"i_lat":-6.237242,"i_long":106.780334,"station_id":"KBY","station_name":"Kebayoran","transit":false,"time":8,"line":6},{"is_transit":false,"station_id":"PLM","station_name":"Palmerah","transit":false,"distance":3737,"i_lat":-6.207404,"i_long":106.79689,"time":7,"line":6},{"is_transit":true,"distance":3191,"line":1,"transit":true,"station_id":"THB","i_lat":-6.185545,"i_long":106.811091,"time":6,"station_name":"Tanah Abang"},{"station_id":"DU","distance":3632,"station_name":"Duri","i_lat":-6.155215,"line":1,"transit":true,"i_long":106.800832,"time":8,"is_transit":true},{"line":5,"station_id":"GGL","time":3,"distance":1700,"station_name":"Grogol","transit":false,"i_lat":-6.162021,"i_long":106.788277,"is_transit":false},{"transit":false,"distance":2036,"is_transit":false,"time":2,"station_name":"Pesing","i_long":106.771379,"i_lat":-6.161433,"line":5,"station_id":"PSG"}],[{"station_id":"RK","station_name":"Rangkasbitung","line":0,"is_transit":true,"i_lat":-6.352675,"i_long":106.250396,"distance":0,"transit":false,"time":0},{"time":13,"distance":9847,"is_transit":false,"station_name":"Citeras","i_long":106.332092,"i_lat":-6.334892,"transit":false,"line":0,"station_id":"CTR"},{"is_transit":false,"station_id":"MJ","station_name":"Maja","i_lat":-6.332307,"i_long":106.394373,"distance":7293,"line":6,"transit":false,"time":10},{"line":0,"distance":1853,"is_transit":false,"station_id":"CKY","station_name":"Cikoya","transit":false,"time":4,"i_lat":-6.33561,"i_long":106.411216},{"is_transit":false,"line":6,"station_id":"TGS","distance":2651,"i_lat":-6.328533,"station_name":"Tigaraksa","transit":false,"i_long":106.425991,"time":3},{"i_long":106.460812,"station_id":"TEJ","i_lat":-6.327251,"line":6,"time":5,"is_transit":false,"transit":false,"distance":2974,"station_name":"Tenjo"},{"i_long":106.491338,"i_lat":-6.338021,"station_name":"Daru","distance":3902,"line":0,"station_id":"DAR","is_transit":false,"transit":false,"time":5},{"i_lat":-6.354349,"transit":false,"station_id":"CJT","i_long":106.508482,"time":6,"line":0,"distance":2675,"is_transit":false,"station_name":"Cilejit"},{"distance":7025,"station_id":"PRP","transit":false,"i_long":106.568863,"line":6,"i_lat":-6.3441410000000005,"station_name":"Parung Panjang","is_transit":false,"time":9},{"is_transit":false,"distance":5968,"station_name":"Cicayur","i_lat":-6.329547,"i_long":106.617853,"station_id":"CC","time":8,"line":0,"transit":false},{"i_long":106.640411,"transit":false,"station_id":"CSK","i_lat":-6.32484,"station_name":"Cisauk","is_transit":false,"time":4,"distance":2519,"line":0},{"station_id":"SRP","transit":false,"is_transit":false,"i_lat":-6.319871,"time":4,"line":6,"distance":1784,"station_name":"Serpong","i_long":106.66566},{"i_lat":-6.314823,"is_transit":false,"station_id":"RU","i_long":106.675475,"station_name":"Rawa Buntu","transit":false,"time":4,"distance":2413,"line":6},{"station_name":"Sudimara","is_transit":false,"transit":false,"distance":4566,"time":6,"line":6,"station_id":"SDM","i_lat":-6.296963,"i_long":106.712277},{"is_transit":false,"station_id":"JMU","station_name":"Jurangmangu","line":6,"transit":false,"i_long":106.728916,"i_lat":-6.288927,"distance":1994,"time":4},{"distance":2179,"i_long":106.74273,"line":6,"station_id":"PDJ","transit":false,"i_lat":-6.276362,"is_transit":false,"station_name":"Pondokranji","time":3},{"transit":false,"distance":6218,"is_transit":false,"station_id":"KBY","station_name":"Kebayoran","time":8,"line":6,"i_lat":-6.237242,"i_long":106.780334},{"time":7,"distance":3737,"i_lat":-6.207404,"station_name":"Palmerah","i_long":106.79689,"is_transit":false,"line":6,"station_id":"PLM","transit":false},{"is_transit":true,"station_id":"THB","time":6,"transit":true,"i_long":106.811091,"i_lat":-6.185545,"distance":3191,"station_name":"Tanah Abang","line":1},{"station_name":"Karet","transit":false,"i_lat":-6.20132,"i_long":106.816351,"distance":2029,"is_transit":false,"station_id":"KAT","line":1,"time":5},{"time":1,"line":1,"station_id":"SUDB","distance":471,"is_transit":false,"station_name":"Sudirman Baru","i_long":106.819881,"i_lat":-6.201433,"transit":false},{"is_transit":false,"station_id":"SUD","distance":280,"i_long":106.822649,"station_name":"Sudirman","time":1,"line":1,"i_lat":-6.202263,"transit":false},{"i_lat":-6.209883,"i_long":106.84912,"line":0,"time":4,"station_id":"MRI","transit":true,"is_transit":true,"station_name":"Manggarai","distance":3186},{"line":0,"is_transit":false,"transit":false,"i_long":106.840169,"distance":1590,"station_id":"CKI","i_lat":-6.198556,"time":4,"station_name":"Cikini"},{"transit":false,"is_transit":false,"time":3,"station_name":"Gondangdia","distance":1750,"station_id":"GDD","i_long":106.832183,"line":2,"i_lat":-6.186295},{"line":2,"is_transit":false,"station_name":"Juanda","i_lat":-6.166716,"distance":2015,"time":4,"transit":false,"i_long":106.828284,"station_id":"JUA"},{"distance":1149,"is_transit":false,"station_id":"SW","time":2,"transit":false,"i_long":106.827103,"station_name":"Sawah Besar","line":2,"i_lat":-6.160725},{"time":2,"is_transit":false,"distance":906,"station_name":"Manggabesar","transit":false,"line":2,"station_id":"MGB","i_long":106.82482,"i_lat":-6.149769},{"station_name":"Jayakarta","time":2,"i_long":106.820901,"station_id":"JAY","transit":false,"line":7,"is_transit":false,"i_lat":-6.141205,"distance":1080},{"station_id":"JAKK","i_lat":-6.137569,"line":0,"time":4,"i_long":106.812439,"is_transit":true,"station_name":"Jakarta Kota","transit":true,"distance":1264},{"i_long":106.826365,"line":0,"is_transit":true,"time":3,"transit":false,"station_name":"Kampung Bandan","station_id":"KPB","i_lat":-6.132549,"distance":1364},{"is_transit":false,"transit":false,"i_long":106.79867,"station_name":"Angke","time":9,"distance":4102,"i_lat":-6.144674,"station_id":"AK","line":0},{"station_name":"Duri","line":1,"station_id":"DU","i_long":106.800832,"i_lat":-6.155215,"distance":1230,"is_transit":true,"transit":true,"time":4},{"i_lat":-6.162021,"is_transit":false,"transit":false,"line":5,"i_long":106.788277,"station_id":"GGL","time":3,"station_name":"Grogol","distance":1700},{"i_long":106.771379,"line":5,"transit":false,"station_id":"PSG","station_name":"Pesing","is_transit":false,"i_lat":-6.161433,"time":2,"distance":2036}],[{"time":0,"distance":0,"is_transit":true,"station_id":"RK","line":0,"i_lat":-6.352675,"station_name":"Rangkasbitung","i_long":106.250396,"transit":false},{"line":0,"station_id":"CTR","is_transit":false,"distance":9847,"station_name":"Citeras","i_lat":-6.334892,"transit":false,"i_long":106.332092,"time":13},{"distance":7293,"station_id":"MJ","station_name":"Maja","is_transit":false,"transit":false,"i_lat":-6.332307,"i_long":106.394373,"time":10,"line":6},{"transit":false,"i_long":106.411216,"station_name":"Cikoya","is_transit":false,"distance":1853,"i_lat":-6.33561,"station_id":"CKY","time":4,"line":0},{"time":3,"line":6,"distance":2651,"is_transit":false,"station_id":"TGS","station_name":"Tigaraksa","transit":false,"i_lat":-6.328533,"i_long":106.425991},{"transit":false,"i_long":106.460812,"line":6,"station_id":"TEJ","i_lat":-6.327251,"time":5,"is_transit":false,"station_name":"Tenjo","distance":2974},{"is_transit":false,"i_long":106.491338,"time":5,"distance":3902,"station_id":"DAR","i_lat":-6.338021,"line":0,"transit":false,"station_name":"Daru"},{"i_long":106.508482,"station_name":"Cilejit","is_transit":false,"distance":2675,"station_id":"CJT","i_lat":-6.354349,"time":6,"line":0,"transit":false},{"time":9,"is_transit":false,"transit":false,"i_long":106.568863,"station_name":"Parung Panjang","i_lat":-6.3441410000000005,"line":6,"distance":7025,"station_id":"PRP"},{"station_name":"Cicayur","time":8,"i_lat":-6.329547,"distance":5968,"i_long":106.617853,"transit":false,"line":0,"is_transit":false,"station_id":"CC"},{"i_lat":-6.32484,"distance":2519,"station_id":"CSK","line":0,"transit":false,"time":4,"i_long":106.640411,"station_name":"Cisauk","is_transit":false},{"time":4,"is_transit":false,"i_long":106.66566,"i_lat":-6.319871,"line":6,"transit":false,"station_name":"Serpong","distance":1784,"station_id":"SRP"},{"is_transit":false,"station_name":"Rawa Buntu","time":4,"i_lat":-6.314823,"line":6,"distance":2413,"transit":false,"i_long":106.675475,"station_id":"RU"},{"station_name":"Sudimara","is_transit":false,"time":6,"i_lat":-6.296963,"i_long":106.712277,"station_id":"SDM","distance":4566,"line":6,"transit":false},{"is_transit":false,"distance":1994,"station_id":"JMU","time":4,"transit":false,"line":6,"i_long":106.728916,"station_name":"Jurangmangu","i_lat":-6.288927},{"distance":2179,"is_transit":false,"line":6,"station_id":"PDJ","i_long":106.74273,"i_lat":-6.276362,"station_name":"Pondokranji","transit":false,"time":3},{"station_name":"Kebayoran","i_long":106.780334,"distance":6218,"line":6,"transit":false,"is_transit":false,"station_id":"KBY","time":8,"i_lat":-6.237242},{"i_long":106.79689,"station_name":"Palmerah","is_transit":false,"time":7,"line":6,"distance":3737,"station_id":"PLM","i_lat":-6.207404,"transit":false},{"is_transit":true,"distance":3191,"station_id":"THB","transit":true,"station_name":"Tanah Abang","time":6,"i_long":106.811091,"i_lat":-6.185545,"line":1},{"transit":false,"i_long":106.816351,"i_lat":-6.20132,"station_id":"KAT","distance":2029,"station_name":"Karet","time":5,"line":1,"is_transit":false},{"station_name":"Sudirman Baru","is_transit":false,"distance":471,"station_id":"SUDB","i_lat":-6.201433,"time":1,"i_long":106.819881,"line":1,"transit":false},{"is_transit":false,"i_lat":-6.202263,"station_id":"SUD","station_name":"Sudirman","transit":false,"time":1,"distance":280,"line":1,"i_long":106.822649},{"station_name":"Manggarai","transit":false,"is_transit":true,"station_id":"MRI","distance":3186,"time":4,"line":0,"i_lat":-6.209883,"i_long":106.84912},{"line":1,"station_id":"MTR","time":2,"is_transit":false,"distance":1275,"transit":false,"i_lat":-6.212485,"station_name":"Matraman","i_long":106.858896},{"transit":true,"station_id":"JNG","i_lat":-6.215091,"distance":1377,"is_transit":true,"time":8,"line":0,"i_long":106.86807400000001,"station_name":"Jatinegara"},{"transit":false,"i_lat":-6.209188,"is_transit":false,"line":11,"distance":1236,"station_id":"POK","time":2,"i_long":106.861737,"station_name":"Pondok Jati"},{"station_name":"Kramat","station_id":"KMT","i_lat":-6.193792,"transit":false,"distance":1829,"time":2,"line":11,"is_transit":false,"i_long":106.855437},{"is_transit":false,"i_long":106.850107,"transit":false,"station_id":"GST","time":1,"line":11,"i_lat":-6.185975,"distance":973,"station_name":"Gang Sentiong"},{"station_id":"PSE","line":11,"time":8,"is_transit":false,"i_long":106.84368,"distance":1567,"transit":false,"i_lat":-6.174784,"station_name":"Pasar Senen"},{"time":4,"i_long":106.839204,"line":11,"distance":1436,"transit":false,"i_lat":-6.161728,"station_name":"Kemayoran","station_id":"KMO","is_transit":false},{"station_id":"RJW","is_transit":false,"transit":false,"i_long":106.836569,"station_name":"Rajawali","i_lat":-6.14505,"distance":1901,"time":5,"line":11},{"station_name":"Kampung Bandan","i_lat":-6.132549,"time":3,"station_id":"KPB","i_long":106.826365,"line":0,"is_transit":true,"transit":true,"distance":1444},{"station_name":"Angke","station_id":"AK","distance":4102,"transit":false,"i_long":106.79867,"i_lat":-6.144674,"time":9,"line":0,"is_transit":false},{"distance":1230,"i_long":106.800832,"i_lat":-6.155215,"line":1,"transit":true,"is_transit":true,"station_name":"Duri","time":4,"station_id":"DU"},{"line":5,"station_name":"Grogol","transit":false,"time":3,"distance":1700,"i_lat":-6.162021,"is_transit":false,"i_long":106.788277,"station_id":"GGL"},{"i_long":106.771379,"distance":2036,"i_lat":-6.161433,"line":5,"transit":false,"station_name":"Pesing","time":2,"station_id":"PSG","is_transit":false}]]}