{"data":[[{"i_long":106.250396,"line":3,"station_id":"RK","transit":false,"station_name":"Rangkasbitung","time":0,"is_transit":false,"i_lat":-6.352675,"distance":0},{"transit":false,"station_name":"Citeras","is_transit":false,"station_id":"CTR","time":13,"distance":9847,"i_lat":-6.334892,"i_long":106.332092,"line":3},{"station_name":"Maja","station_id":"MJ","distance":7293,"i_long":106.394373,"is_transit":false,"i_lat":-6.332307,"time":10,"line":6,"transit":false},{"time":4,"i_lat":-6.33561,"i_long":106.411216,"station_name":"Cikoya","transit":false,"is_transit":false,"distance":1853,"line":3,"station_id":"CKY"},{"transit":false,"is_transit":false,"station_id":"TGS","distance":2651,"time":3,"line":6,"station_name":"Tigaraksa","i_lat":-6.328533,"i_long":106.425991},{"station_id":"TEJ","transit":false,"is_transit":false,"station_name":"Tenjo","i_lat":-6.327251,"time":5,"distance":2974,"i_long":106.460812,"line":6},{"station_name":"Daru","station_id":"DAR","is_transit":false,"distance":3902,"transit":false,"line":0,"i_lat":-6.338021,"time":5,"i_long":106.491338},{"time":6,"station_name":"Cilejit","i_lat":-6.354349,"station_id":"CJT","transit":false,"distance":2675,"line":3,"i_long":106.508482,"is_transit":false},{"line":6,"is_transit":false,"i_long":106.568863,"station_name":"Parung Panjang","transit":false,"time":9,"distance":7025,"i_lat":-6.3441410000000005,"station_id":"PRP"},{"line":3,"i_lat":-6.329547,"transit":false,"station_name":"Cicayur","is_transit":false,"time":8,"i_long":106.617853,"station_id":"CC","distance":5968},{"line":3,"transit":false,"is_transit":false,"i_long":106.640411,"time":4,"distance":2519,"station_id":"CSK","station_name":"Cisauk","i_lat":-6.32484},{"station_id":"SRP","i_long":106.66566,"station_name":"Serpong","time":4,"line":6,"is_transit":false,"transit":false,"distance":1784,"i_lat":-6.319871},{"time":4,"station_name":"Rawa Buntu","transit":false,"distance":2413,"station_id":"RU","line":6,"is_transit":false,"i_lat":-6.314823,"i_long":106.675475},{"distance":4566,"i_lat":-6.296963,"station_id":"SDM","station_name":"Sudimara","transit":false,"is_transit":false,"time":6,"i_long":106.712277,"line":6},{"transit":false,"station_id":"JMU","is_transit":false,"line":6,"station_name":"Jurangmangu","i_lat":-6.288927,"time":4,"distance":1994,"i_long":106.728916},{"station_id":"PDJ","i_lat":-6.276362,"transit":false,"station_name":"Pondokranji","is_transit":false,"distance":2179,"line":6,"i_long":106.74273,"time":3},{"time":8,"i_long":106.780334,"line":6,"i_lat":-6.237242,"station_name":"Kebayoran","station_id":"KBY","distance":6218,"is_transit":false,"transit":false},{"line":6,"station_name":"Palmerah","distance":3737,"i_long":106.79689,"is_transit":false,"time":7,"transit":false,"station_id":"PLM","i_lat":-6.207404},{"time":6,"transit":true,"distance":3191,"i_lat":-6.185545,"is_transit":true,"station_name":"Tanah Abang","line":1,"station_id":"THB","i_long":106.811091},{"time":5,"transit":false,"station_id":"KAT","line":1,"i_long":106.816351,"distance":2029,"i_lat":-6.20132,"station_name":"Karet","is_transit":false},{"i_long":106.819881,"station_name":"Sudirman Baru","time":1,"is_transit":false,"transit":false,"distance":471,"line":1,"station_id":"SUDB","i_lat":-6.201433},{"transit":false,"i_lat":-6.202263,"station_id":"SUD","is_transit":false,"time":1,"distance":280,"line":1,"station_name":"Sudirman","i_long":106.822649},{"i_long":106.84912,"station_id":"MRI","transit":true,"station_name":"Manggarai","distance":3186,"is_transit":true,"time":4,"i_lat":-6.209883,"line":2},{"distance":2610,"line":2,"station_id":"TEB","transit":false,"is_transit":false,"station_name":"Tebet","i_lat":-6.226659,"i_long":106.857948,"time":4},{"station_id":"CW","station_name":"Cawang","i_long":106.856607,"distance":1230,"line":2,"i_lat":-6.242512,"is_transit":false,"time":2,"transit":false},{"i_long":106.85449,"line":2,"transit":false,"station_name":"Duren Kalibata","time":3,"distance":1546,"is_transit":false,"station_id":"DRN","i_lat":-6.255332},{"time":2,"station_name":"Pasar Minggu Baru","is_transit":false,"distance":824,"i_long":106.851577,"station_id":"PSMB","transit":false,"line":2,"i_lat":-6.263214},{"i_long":106.843999,"is_transit":false,"i_lat":-6.2842400000000005,"time":2,"transit":false,"station_name":"Pasar Minggu","station_id":"PSM","distance":2380,"line":2}],[{"time":0,"distance":0,"transit":false,"is_transit":false,"i_lat":-6.352675,"i_long":106.250396,"line":3,"station_name":"Rangkasbitung","station_id":"RK"},{"is_transit":false,"time":13,"line":3,"transit":false,"i_lat":-6.334892,"distance":9847,"station_id":"CTR","i_long":106.332092,"station_name":"Citeras"},{"i_lat":-6.332307,"is_transit":false,"station_name":"Maja","transit":false,"station_id":"MJ","time":10,"distance":7293,"i_long":106.394373,"line":6},{"station_id":"CKY","is_transit":false,"transit":false,"i_long":106.411216,"line":3,"distance":1853,"i_lat":-6.33561,"station_name":"Cikoya","time":4},{"line":6,"station_id":"TGS","distance":2651,"i_lat":-6.328533,"station_name":"Tigaraksa","time":3,"transit":false,"i_long":106.425991,"is_transit":false},{"line":6,"i_lat":-6.327251,"time":5,"station_name":"Tenjo","is_transit":false,"station_id":"TEJ","i_long":106.460812,"transit":false,"distance":2974},{"station_name":"Daru","i_long":106.491338,"station_id":"DAR","transit":false,"distance":3902,"i_lat":-6.338021,"is_transit":false,"line":0,"time":5},{"station_id":"CJT","station_name":"Cilejit","distance":2675,"i_long":106.508482,"transit":false,"time":6,"is_transit":false,"i_lat":-6.354349,"line":3},{"station_id":"PRP","i_long":106.568863,"line":6,"station_name":"Parung Panjang","distance":7025,"time":9,"is_transit":false,"i_lat":-6.3441410000000005,"transit":false},{"i_long":106.617853,"station_name":"Cicayur","transit":false,"i_lat":-6.329547,"station_id":"CC","distance":5968,"line":3,"time":8,"is_transit":false},{"line":3,"time":4,"station_id":"CSK","is_transit":false,"i_lat":-6.32484,"i_long":106.640411,"distance":2519,"transit":false,"station_name":"Cisauk"},{"is_transit":false,"i_long":106.66566,"i_lat":-6.319871,"station_name":"Serpong","time":4,"transit":false,"distance":1784,"line":6,"station_id":"SRP"},{"time":4,"i_lat":-6.314823,"station_id":"RU","distance":2413,"i_long":106.675475,"station_name":"Rawa Buntu","is_transit":false,"line":6,"transit":false},{"transit":false,"is_transit":false,"time":6,"i_long":106.712277,"i_lat":-6.296963,"line":6,"distance":4566,"station_id":"SDM","station_name":"Sudimara"},{"i_lat":-6.288927,"transit":false,"station_name":"Jurangmangu","is_transit":false,"time":4,"station_id":"JMU","distance":1994,"i_long":106.728916,"line":6},{"station_name":"Pondokranji","distance":2179,"is_transit":false,"transit":false,"i_long":106.74273,"station_id":"PDJ","time":3,"i_lat":-6.276362,"line":6},{"station_name":"Kebayoran","transit":false,"time":8,"i_lat":-6.237242,"i_long":106.780334,"distance":6218,"is_transit":false,"line":6,"station_id":"KBY"},{"station_id":"PLM","station_name":"Palmerah","transit":false,"is_transit":false,"i_long":106.79689,"distance":3737,"time":7,"i_lat":-6.207404,"line":6},{"transit":true,"time":6,"i_lat":-6.185545,"line":1,"i_long":106.811091,"is_transit":true,"distance":3191,"station_name":"Tanah Abang","station_id":"THB"},{"i_long":106.800832,"station_id":"DU","station_name":"Duri","distance":3632,"time":8,"line":1,"transit":false,"is_transit":false,"i_lat":-6.155215},{"distance":1230,"transit":false,"station_name":"Angke","line":1,"i_lat":-6.144674,"station_id":"AK","time":4,"is_transit":false,"i_long":106.79867},{"station_name":"Kampung Bandan","station_id":"KPB","time":9,"i_lat":-6.132549,"transit":true,"distance":4102,"i_long":106.826365,"line":4,"is_transit":true},{"station_name":"Jakarta Kota","distance":1364,"i_long":106.812439,"station_id":"JAKK","time":3,"is_transit":true,"i_lat":-6.137569,"transit":true,"line":2},{"is_transit":false,"distance":1264,"i_long":106.820901,"line":2,"station_id":"JAY","station_name":"Jayakarta","transit":false,"time":4,"i_lat":-6.141205},{"time":2,"i_long":106.82482,"is_transit":false,"i_lat":-6.149769,"transit":false,"station_id":"MGB","station_name":"Manggabesar","line":2,"distance":1080},{"is_transit":false,"line":2,"transit":false,"time":2,"i_long":106.827103,"distance":906,"station_id":"SW","station_name":"Sawah Besar","i_lat":-6.160725},{"i_lat":-6.166716,"is_transit":false,"station_id":"JUA","station_name":"Juanda","time":2,"transit":false,"distance":1149,"line":2,"i_long":106.828284},{"line":2,"i_lat":-6.186295,"i_long":106.832183,"station_name":"Gondangdia","is_transit":false,"distance":2015,"time":4,"station_id":"GDD","transit":false},{"line":2,"station_id":"CKI","i_lat":-6.198556,"station_name":"Cikini","distance":1750,"transit":false,"is_transit":false,"time":3,"i_long":106.840169},{"distance":1590,"i_long":106.84912,"is_transit":false,"line":2,"station_name":"Manggarai","station_id":"MRI","transit":false,"time":4,"i_lat":-6.209883},{"time":4,"i_lat":-6.226659,"is_transit":false,"distance":2610,"line":2,"i_long":106.857948,"transit":false,"station_id":"TEB","station_name":"Tebet"},{"station_id":"CW","line":2,"is_transit":false,"time":2,"transit":false,"distance":1230,"station_name":"Cawang","i_lat":-6.242512,"i_long":106.856607},{"i_lat":-6.255332,"station_name":"Duren Kalibata","i_long":106.85449,"transit":false,"distance":1546,"line":2,"station_id":"DRN","is_transit":false,"time":3},{"i_lat":-6.263214,"is_transit":false,"time":2,"line":2,"distance":824,"station_id":"PSMB","transit":false,"station_name":"Pasar Minggu Baru","i_long":106.851577},{"station_id":"PSM","i_lat":-6.2842400000000005,"station_name":"Pasar Minggu","line":2,"time":2,"i_long":106.843999,"distance":2380,"is_transit":false,"transit":false}],[{"is_transit":false,"line":3,"station_id":"RK","station_name":"Rangkasbitung","transit":false,"time":0,"distance":0,"i_long":106.250396,"i_lat":-6.352675},{"transit":false,"is_transit":false,"distance":9847,"i_lat":-6.334892,"station_id":"CTR","i_long":106.332092,"station_name":"Citeras","line":3,"time":13},{"station_id":"MJ","time":10,"i_long":106.394373,"distance":7293,"station_name":"Maja","line":6,"i_lat":-6.332307,"is_transit":false,"transit":false},{"station_id":"CKY","i_long":106.411216,"is_transit":false,"line":3,"station_name":"Cikoya","transit":false,"i_lat":-6.33561,"time":4,"distance":1853},{"line":6,"transit":false,"i_long":106.425991,"station_name":"Tigaraksa","station_id":"TGS","is_transit":false,"distance":2651,"time":3,"i_lat":-6.328533},{"distance":2974,"transit":false,"station_name":"Tenjo","station_id":"TEJ","is_transit":false,"i_lat":-6.327251,"i_long":106.460812,"line":6,"time":5},{"i_lat":-6.338021,"line":0,"station_id":"DAR","transit":false,"distance":3902,"is_transit":false,"station_name":"Daru","i_long":106.491338,"time":5},{"i_long":106.508482,"distance":2675,"line":3,"station_id":"CJT","is_transit":false,"transit":false,"station_name":"Cilejit","time":6,"i_lat":-6.354349},{"time":9,"i_long":106.568863,"is_transit":false,"distance":7025,"transit":false,"line":6,"i_lat":-6.3441410000000005,"station_id":"PRP","station_name":"Parung Panjang"},{"time":8,"station_id":"CC","is_transit":false,"line":3,"i_lat":-6.329547,"station_name":"Cicayur","distance":5968,"transit":false,"i_long":106.617853},{"is_transit":false,"i_lat":-6.32484,"station_name":"Cisauk","i_long":106.640411,"line":3,"transit":false,"station_id":"CSK","time":4,"distance":2519},{"is_transit":false,"distance":1784,"i_lat":-6.319871,"station_id":"SRP","line":6,"time":4,"i_long":106.66566,"station_name":"Serpong","transit":false},{"i_lat":-6.314823,"transit":false,"station_id":"RU","is_transit":false,"time":4,"line":6,"i_long":106.675475,"station_name":"Rawa Buntu","distance":2413},{"distance":4566,"time":6,"station_id":"SDM","is_transit":false,"i_long":106.712277,"line":6,"transit":false,"station_name":"Sudimara","i_lat":-6.296963},{"i_lat":-6.288927,"station_id":"JMU","station_name":"Jurangmangu","is_transit":false,"transit":false,"line":6,"distance":1994,"time":4,"i_long":106.728916},{"transit":false,"station_id":"PDJ","is_transit":false,"i_lat":-6.276362,"line":6,"distance":2179,"station_name":"Pondokranji","time":3,"i_long":106.74273},{"is_transit":false,"station_name":"Kebayoran","distance":6218,"time":8,"i_lat":-6.237242,"line":6,"i_long":106.780334,"transit":false,"station_id":"KBY"},{"i_lat":-6.207404,"transit":false,"is_transit":false,"time":7,"line":6,"station_name":"Palmerah","i_long":106.79689,"distance":3737,"station_id":"PLM"},{"distance":3191,"i_long":106.811091,"station_id":"THB","is_transit":true,"transit":true,"i_lat":-6.185545,"line":1,"time":6,"station_name":"Tanah Abang"},{"i_long":106.800832,"line":1,"time":8,"transit":false,"station_id":"DU","i_lat":-6.155215,"is_transit":false,"distance":3632,"station_name":"Duri"},{"time":4,"i_lat":-6.144674,"transit":false,"distance":1230,"i_long":106.79867,"station_name":"Angke","station_id":"AK","line":1,"is_transit":false},{"time":9,"distance":4102,"line":4,"transit":true,"station_id":"KPB","i_long":106.826365,"is_transit":true,"i_lat":-6.132549,"station_name":"Kampung Bandan"},{"station_name":"Rajawali","station_id":"RJW","i_long":106.836569,"is_transit":false,"line":11,"transit":false,"i_lat":-6.14505,"time":3,"distance":1444},{"line":11,"distance":1901,"transit":false,"time":5,"i_long":106.839204,"i_lat":-6.161728,"is_transit":false,"station_name":"Kemayoran","station_id":"KMO"},{"station_id":"PSE","distance":1436,"i_long":106.84368,"transit":false,"time":4,"i_lat":-6.174784,"line":11,"station_name":"Pasar Senen","is_transit":false},{"i_lat":-6.185975,"i_long":106.850107,"line":11,"time":8,"distance":1567,"transit":false,"station_name":"Gang Sentiong","station_id":"GST","is_transit":false},{"is_transit":false,"station_name":"Kramat","station_id":"KMT","distance":973,"time":1,"i_lat":-6.193792,"line":11,"transit":false,"i_long":106.855437},{"distance":1829,"line":11,"is_transit":false,"i_long":106.861737,"i_lat":-6.209188,"station_id":"POK","station_name":"Pondok Jati","time":2,"transit":false},{"time":9,"station_id":"JNG","transit":true,"station_name":"Jatinegara","i_long":106.86807400000001,"line":1,"distance":1236,"i_lat":-6.215091,"is_transit":true},{"distance":1377,"i_long":106.858896,"line":1,"station_name":"Matraman","is_transit":false,"i_lat":-6.212485,"station_id":"MTR","time":2,"transit":false},{"i_long":106.84912,"time":2,"line":2,"is_transit":true,"i_lat":-6.209883,"station_name":"Manggarai","transit":true,"station_id":"MRI","distance":1275},{"station_id":"TEB","transit":false,"station_name":"Tebet","i_lat":-6.226659,"time":4,"distance":2610,"i_long":106.857948,"is_transit":false,"line":2},{"i_long":106.856607,"transit":false,"is_transit":false,"station_id":"CW","time":2,"distance":1230,"line":2,"station_name":"Cawang","i_lat":-6.242512},{"transit":false,"is_transit":false,"time":3,"line":2,"station_name":"Duren Kalibata","distance":1546,"station_id":"DRN","i_lat":-6.255332,"i_long":106.85449},{"distance":824,"station_name":"Pasar Minggu Baru","time":2,"i_lat":-6.263214,"is_transit":false,"station_id":"PSMB","transit":false,"i_long":106.851577,"line":2},{"station_id":"PSM","is_transit":false,"distance":2380,"line":2,"transit":false,"station_name":"Pasar Minggu","i_lat":-6.2842400000000005,"time":2,"i_long":106.843999}]]}