{"data":[[{"time":0,"distance":0,"station_name":"Rangkasbitung","i_lat":-6.352675,"transit":false,"station_id":"RK","line":0,"i_long":106.250396,"is_transit":true},{"i_lat":-6.334892,"line":0,"is_transit":false,"time":13,"station_name":"Citeras","i_long":106.332092,"distance":9847,"station_id":"CTR","transit":false},{"line":6,"station_id":"MJ","is_transit":false,"transit":false,"i_lat":-6.332307,"station_name":"Maja","i_long":106.394373,"distance":7293,"time":10},{"time":4,"i_lat":-6.33561,"is_transit":false,"line":0,"i_long":106.411216,"station_name":"Cikoya","distance":1853,"station_id":"CKY","transit":false},{"is_transit":false,"line":6,"distance":2651,"transit":false,"station_name":"Tigaraksa","station_id":"TGS","time":3,"i_lat":-6.328533,"i_long":106.425991},{"transit":false,"i_long":106.460812,"time":5,"is_transit":false,"station_id":"TEJ","line":6,"i_lat":-6.327251,"distance":2974,"station_name":"Tenjo"},{"distance":3902,"i_long":106.491338,"station_id":"DAR","is_transit":false,"station_name":"Daru","line":0,"time":5,"transit":false,"i_lat":-6.338021},{"station_name":"Cilejit","is_transit":false,"transit":false,"time":6,"distance":2675,"i_lat":-6.354349,"line":0,"i_long":106.508482,"station_id":"CJT"},{"is_transit":false,"station_name":"Parung Panjang","station_id":"PRP","time":9,"i_long":106.568863,"distance":7025,"line":6,"i_lat":-6.3441410000000005,"transit":false},{"is_transit":false,"distance":5968,"station_name":"Cicayur","time":8,"transit":false,"i_lat":-6.329547,"i_long":106.617853,"line":0,"station_id":"CC"},{"time":4,"i_long":106.640411,"line":0,"station_id":"CSK","is_transit":false,"i_lat":-6.32484,"station_name":"Cisauk","distance":2519,"transit":false},{"station_id":"SRP","i_long":106.66566,"is_transit":false,"time":4,"distance":1784,"i_lat":-6.319871,"station_name":"Serpong","line":6,"transit":false},{"distance":2413,"is_transit":false,"station_id":"RU","transit":false,"i_lat":-6.314823,"station_name":"Rawa Buntu","time":4,"i_long":106.675475,"line":6},{"station_name":"Sudimara","distance":4566,"line":6,"i_long":106.712277,"is_transit":false,"i_lat":-6.296963,"station_id":"SDM","time":6,"transit":false},{"distance":1994,"transit":false,"time":4,"line":6,"is_transit":false,"station_id":"JMU","station_name":"Jurangmangu","i_lat":-6.288927,"i_long":106.728916},{"station_name":"Pondokranji","station_id":"PDJ","i_lat":-6.276362,"line":6,"transit":false,"distance":2179,"is_transit":false,"i_long":106.74273,"time":3},{"i_lat":-6.237242,"transit":false,"i_long":106.780334,"time":8,"distance":6218,"is_transit":false,"station_name":"Kebayoran","line":6,"station_id":"KBY"},{"station_id":"PLM","transit":false,"i_lat":-6.207404,"line":6,"i_long":106.79689,"is_transit":false,"distance":3737,"station_name":"Palmerah","time":7},{"transit":true,"station_name":"Tanah Abang","time":6,"distance":3191,"i_long":106.811091,"i_lat":-6.185545,"is_transit":true,"line":1,"station_id":"THB"},{"time":5,"station_id":"KAT","i_lat":-6.20132,"station_name":"Karet","line":1,"transit":false,"i_long":106.816351,"distance":2029,"is_transit":false},{"i_long":106.819881,"transit":false,"line":1,"station_id":"SUDB","is_transit":false,"time":1,"station_name":"Sudirman Baru","i_lat":-6.201433,"distance":471},{"distance":280,"is_transit":false,"i_lat":-6.202263,"transit":false,"line":1,"station_name":"Sudirman","station_id":"SUD","i_long":106.822649,"time":1},{"station_name":"Manggarai","i_long":106.84912,"transit":true,"i_lat":-6.209883,"distance":3186,"time":4,"is_transit":true,"station_id":"MRI","line":0},{"station_name":"Tebet","transit":false,"line":2,"distance":2610,"is_transit":false,"i_long":106.857948,"i_lat":-6.226659,"station_id":"TEB","time":4},{"transit":false,"distance":1230,"station_id":"CW","time":2,"line":0,"is_transit":false,"station_name":"Cawang","i_long":106.856607,"i_lat":-6.242512},{"station_name":"Duren Kalibata","i_long":106.85449,"station_id":"DRN","i_lat":-6.255332,"is_transit":false,"line":0,"transit":false,"time":3,"distance":1546},{"i_lat":-6.263214,"i_long":106.851577,"distance":824,"transit":false,"line":2,"station_id":"PSMB","time":2,"station_name":"Pasar Minggu Baru","is_transit":false},{"i_lat":-6.2842400000000005,"i_long":106.843999,"time":2,"station_id":"PSM","station_name":"Pasar Minggu","distance":2380,"line":2,"is_transit":false,"transit":false}],[{"distance":0,"transit":false,"station_id":"RK","is_transit":true,"station_name":"Rangkasbitung","i_long":106.250396,"i_lat":-6.352675,"time":0,"line":0},{"time":13,"station_id":"CTR","i_long":106.332092,"line":0,"transit":false,"station_name":"Citeras","i_lat":-6.334892,"distance":9847,"is_transit":false},{"station_id":"MJ","station_name":"Maja","i_lat":-6.332307,"is_transit":false,"distance":7293,"transit":false,"line":6,"i_long":106.394373,"time":10},{"time":4,"station_name":"Cikoya","i_long":106.411216,"station_id":"CKY","is_transit":false,"distance":1853,"transit":false,"line":0,"i_lat":-6.33561},{"distance":2651,"is_transit":false,"transit":false,"station_name":"Tigaraksa","station_id":"TGS","time":3,"i_lat":-6.328533,"i_long":106.425991,"line":6},{"is_transit":false,"station_name":"Tenjo","time":5,"station_id":"TEJ","transit":false,"distance":2974,"i_long":106.460812,"line":6,"i_lat":-6.327251},{"distance":3902,"is_transit":false,"station_id":"DAR","line":0,"station_name":"Daru","transit":false,"i_long":106.491338,"i_lat":-6.338021,"time":5},{"i_long":106.508482,"station_name":"Cilejit","time":6,"line":0,"distance":2675,"is_transit":false,"station_id":"CJT","transit":false,"i_lat":-6.354349},{"station_id":"PRP","i_long":106.568863,"i_lat":-6.3441410000000005,"transit":false,"is_transit":false,"line":6,"distance":7025,"station_name":"Parung Panjang","time":9},{"i_lat":-6.329547,"station_id":"CC","station_name":"Cicayur","transit":false,"line":0,"distance":5968,"i_long":106.617853,"time":8,"is_transit":false},{"transit":false,"i_lat":-6.32484,"i_long":106.640411,"distance":2519,"line":0,"station_name":"Cisauk","station_id":"CSK","time":4,"is_transit":false},{"distance":1784,"station_id":"SRP","transit":false,"station_name":"Serpong","line":6,"time":4,"is_transit":false,"i_lat":-6.319871,"i_long":106.66566},{"i_long":106.675475,"station_id":"RU","line":6,"time":4,"is_transit":false,"station_name":"Rawa Buntu","i_lat":-6.314823,"transit":false,"distance":2413},{"i_lat":-6.296963,"is_transit":false,"line":6,"transit":false,"station_name":"Sudimara","i_long":106.712277,"station_id":"SDM","time":6,"distance":4566},{"transit":false,"i_lat":-6.288927,"i_long":106.728916,"distance":1994,"is_transit":false,"station_name":"Jurangmangu","station_id":"JMU","time":4,"line":6},{"line":6,"i_long":106.74273,"time":3,"station_id":"PDJ","distance":2179,"is_transit":false,"station_name":"Pondokranji","transit":false,"i_lat":-6.276362},{"is_transit":false,"line":6,"distance":6218,"station_id":"KBY","time":8,"station_name":"Kebayoran","transit":false,"i_lat":-6.237242,"i_long":106.780334},{"time":7,"distance":3737,"is_transit":false,"station_name":"Palmerah","station_id":"PLM","transit":false,"i_lat":-6.207404,"i_long":106.79689,"line":6},{"distance":3191,"time":6,"transit":true,"line":1,"station_name":"Tanah Abang","i_long":106.811091,"is_transit":true,"i_lat":-6.185545,"station_id":"THB"},{"i_long":106.800832,"transit":true,"time":8,"station_name":"Duri","line":1,"station_id":"DU","i_lat":-6.155215,"is_transit":true,"distance":3632},{"i_long":106.79867,"time":4,"station_name":"Angke","distance":1230,"is_transit":false,"line":0,"transit":false,"station_id":"AK","i_lat":-6.144674},{"time":9,"is_transit":true,"line":0,"station_id":"KPB","i_lat":-6.132549,"distance":4102,"station_name":"Kampung Bandan","i_long":106.826365,"transit":false},{"i_long":106.812439,"i_lat":-6.137569,"distance":1364,"is_transit":true,"line":0,"time":3,"station_name":"Jakarta Kota","station_id":"JAKK","transit":true},{"station_name":"Jayakarta","time":4,"station_id":"JAY","i_long":106.820901,"distance":1264,"is_transit":false,"i_lat":-6.141205,"line":7,"transit":false},{"station_id":"MGB","transit":false,"is_transit":false,"distance":1080,"time":2,"station_name":"Manggabesar","i_long":106.82482,"line":2,"i_lat":-6.149769},{"transit":false,"i_lat":-6.160725,"i_long":106.827103,"time":2,"is_transit":false,"line":2,"station_id":"SW","distance":906,"station_name":"Sawah Besar"},{"distance":1149,"line":2,"time":2,"station_id":"JUA","station_name":"Juanda","transit":false,"i_long":106.828284,"is_transit":false,"i_lat":-6.166716},{"station_id":"GDD","distance":2015,"is_transit":false,"station_name":"Gondangdia","time":4,"i_lat":-6.186295,"i_long":106.832183,"line":2,"transit":false},{"distance":1750,"i_long":106.840169,"line":0,"station_name":"Cikini","i_lat":-6.198556,"time":3,"transit":false,"station_id":"CKI","is_transit":false},{"is_transit":true,"distance":1590,"i_long":106.84912,"station_id":"MRI","transit":true,"time":4,"station_name":"Manggarai","line":0,"i_lat":-6.209883},{"i_lat":-6.226659,"distance":2610,"is_transit":false,"transit":false,"time":4,"i_long":106.857948,"line":2,"station_id":"TEB","station_name":"Tebet"},{"i_lat":-6.242512,"is_transit":false,"station_name":"Cawang","distance":1230,"transit":false,"time":2,"line":0,"i_long":106.856607,"station_id":"CW"},{"i_long":106.85449,"station_name":"Duren Kalibata","line":0,"transit":false,"distance":1546,"time":3,"is_transit":false,"station_id":"DRN","i_lat":-6.255332},{"station_name":"Pasar Minggu Baru","line":2,"i_long":106.851577,"is_transit":false,"transit":false,"time":2,"i_lat":-6.263214,"distance":824,"station_id":"PSMB"},{"distance":2380,"i_lat":-6.2842400000000005,"station_name":"Pasar Minggu","transit":false,"i_long":106.843999,"time":2,"is_transit":false,"line":2,"station_id":"PSM"}],[{"time":0,"transit":false,"station_id":"RK","station_name":"Rangkasbitung","i_long":106.250396,"line":0,"distance":0,"i_lat":-6.352675,"is_transit":true},{"distance":9847,"station_id":"CTR","i_lat":-6.334892,"time":13,"transit":false,"is_transit":false,"station_name":"Citeras","i_long":106.332092,"line":0},{"station_name":"Maja","transit":false,"station_id":"MJ","distance":7293,"i_long":106.394373,"line":6,"is_transit":false,"time":10,"i_lat":-6.332307},{"i_lat":-6.33561,"is_transit":false,"line":0,"distance":1853,"time":4,"i_long":106.411216,"station_id":"CKY","transit":false,"station_name":"Cikoya"},{"transit":false,"station_id":"TGS","line":6,"time":3,"i_lat":-6.328533,"distance":2651,"station_name":"Tigaraksa","i_long":106.425991,"is_transit":false},{"line":6,"station_name":"Tenjo","is_transit":false,"time":5,"i_lat":-6.327251,"distance":2974,"station_id":"TEJ","i_long":106.460812,"transit":false},{"station_id":"DAR","distance":3902,"is_transit":false,"transit":false,"i_lat":-6.338021,"line":0,"station_name":"Daru","time":5,"i_long":106.491338},{"line":0,"transit":false,"distance":2675,"station_name":"Cilejit","station_id":"CJT","i_lat":-6.354349,"time":6,"i_long":106.508482,"is_transit":false},{"transit":false,"time":9,"station_name":"Parung Panjang","i_lat":-6.3441410000000005,"line":6,"distance":7025,"station_id":"PRP","is_transit":false,"i_long":106.568863},{"i_lat":-6.329547,"i_long":106.617853,"distance":5968,"is_transit":false,"station_id":"CC","transit":false,"station_name":"Cicayur","time":8,"line":0},{"transit":false,"line":0,"station_id":"CSK","i_lat":-6.32484,"station_name":"Cisauk","distance":2519,"time":4,"i_long":106.640411,"is_transit":false},{"distance":1784,"is_transit":false,"time":4,"station_id":"SRP","station_name":"Serpong","i_long":106.66566,"transit":false,"line":6,"i_lat":-6.319871},{"transit":false,"is_transit":false,"time":4,"line":6,"distance":2413,"i_lat":-6.314823,"station_id":"RU","station_name":"Rawa Buntu","i_long":106.675475},{"transit":false,"i_long":106.712277,"is_transit":false,"distance":4566,"line":6,"station_name":"Sudimara","time":6,"i_lat":-6.296963,"station_id":"SDM"},{"distance":1994,"station_name":"Jurangmangu","time":4,"i_lat":-6.288927,"is_transit":false,"transit":false,"station_id":"JMU","i_long":106.728916,"line":6},{"station_name":"Pondokranji","i_long":106.74273,"time":3,"is_transit":false,"station_id":"PDJ","transit":false,"i_lat":-6.276362,"distance":2179,"line":6},{"distance":6218,"i_long":106.780334,"line":6,"transit":false,"i_lat":-6.237242,"station_id":"KBY","is_transit":false,"station_name":"Kebayoran","time":8},{"station_id":"PLM","station_name":"Palmerah","time":7,"i_lat":-6.207404,"line":6,"transit":false,"distance":3737,"i_long":106.79689,"is_transit":false},{"time":6,"is_transit":true,"station_name":"Tanah Abang","transit":true,"line":1,"distance":3191,"i_lat":-6.185545,"i_long":106.811091,"station_id":"THB"},{"line":1,"i_lat":-6.155215,"station_name":"Duri","transit":true,"time":8,"station_id":"DU","distance":3632,"i_long":106.800832,"is_transit":true},{"distance":1230,"line":0,"i_lat":-6.144674,"station_id":"AK","station_name":"Angke","transit":false,"time":4,"is_transit":false,"i_long":106.79867},{"i_long":106.826365,"i_lat":-6.132549,"line":0,"station_name":"Kampung Bandan","time":9,"distance":4102,"is_transit":true,"station_id":"KPB","transit":true},{"station_id":"RJW","i_long":106.836569,"is_transit":false,"time":3,"i_lat":-6.14505,"transit":false,"distance":1444,"line":11,"station_name":"Rajawali"},{"is_transit":false,"station_name":"Kemayoran","station_id":"KMO","line":11,"distance":1901,"transit":false,"time":5,"i_long":106.839204,"i_lat":-6.161728},{"i_lat":-6.174784,"is_transit":false,"station_id":"PSE","station_name":"Pasar Senen","transit":false,"i_long":106.84368,"distance":1436,"time":4,"line":11},{"station_name":"Gang Sentiong","i_lat":-6.185975,"i_long":106.850107,"distance":1567,"transit":false,"is_transit":false,"line":11,"time":8,"station_id":"GST"},{"station_id":"KMT","line":11,"distance":973,"i_long":106.855437,"transit":false,"i_lat":-6.193792,"station_name":"Kramat","time":1,"is_transit":false},{"distance":1829,"i_long":106.861737,"time":2,"line":11,"is_transit":false,"station_name":"Pondok Jati","transit":false,"i_lat":-6.209188,"station_id":"POK"},{"distance":1236,"station_id":"JNG","i_lat":-6.215091,"i_long":106.86807400000001,"transit":true,"station_name":"Jatinegara","is_transit":true,"time":9,"line":0},{"station_name":"Matraman","station_id":"MTR","transit":false,"i_lat":-6.212485,"i_long":106.858896,"is_transit":false,"time":2,"line":1,"distance":1377},{"is_transit":true,"distance":1275,"station_id":"MRI","station_name":"Manggarai","transit":true,"i_lat":-6.209883,"line":0,"time":2,"i_long":106.84912},{"i_long":106.857948,"time":4,"transit":false,"line":2,"i_lat":-6.226659,"is_transit":false,"station_id":"TEB","station_name":"Tebet","distance":2610},{"time":2,"i_lat":-6.242512,"station_name":"Cawang","line":0,"distance":1230,"is_transit":false,"transit":false,"station_id":"CW","i_long":106.856607},{"i_long":106.85449,"transit":false,"distance":1546,"is_transit":false,"station_id":"DRN","station_name":"Duren Kalibata","i_lat":-6.255332,"line":0,"time":3},{"i_lat":-6.263214,"line":2,"is_transit":false,"station_name":"Pasar Minggu Baru","distance":824,"transit":false,"station_id":"PSMB","time":2,"i_long":106.851577},{"i_long":106.843999,"distance":2380,"i_lat":-6.2842400000000005,"is_transit":false,"station_id":"PSM","transit":false,"time":2,"station_name":"Pasar Minggu","line":2}]]}