{"data":[[{"is_transit":false,"i_lat":-6.352675,"station_id":"RK","time":0,"transit":false,"i_long":106.250396,"line":3,"distance":0,"station_name":"Rangkasbitung"},{"line":3,"station_name":"Citeras","is_transit":false,"distance":9847,"time":13,"transit":false,"i_lat":-6.334892,"i_long":106.332092,"station_id":"CTR"},{"is_transit":false,"time":10,"station_id":"MJ","line":6,"distance":7293,"i_lat":-6.332307,"transit":false,"station_name":"Maja","i_long":106.394373},{"time":4,"line":3,"transit":false,"distance":1853,"is_transit":false,"station_id":"CKY","i_long":106.411216,"station_name":"Cikoya","i_lat":-6.33561},{"distance":2651,"is_transit":false,"time":3,"i_lat":-6.328533,"line":6,"transit":false,"station_name":"Tigaraksa","i_long":106.425991,"station_id":"TGS"},{"is_transit":false,"station_id":"TEJ","distance":2974,"time":5,"i_lat":-6.327251,"line":6,"transit":false,"station_name":"Tenjo","i_long":106.460812},{"distance":3902,"time":5,"station_name":"Daru","is_transit":false,"i_long":106.491338,"i_lat":-6.338021,"station_id":"DAR","line":0,"transit":false},{"i_long":106.508482,"line":3,"station_name":"Cilejit","is_transit":false,"time":6,"i_lat":-6.354349,"transit":false,"distance":2675,"station_id":"CJT"},{"time":9,"i_lat":-6.3441410000000005,"line":6,"transit":false,"distance":7025,"is_transit":false,"station_id":"PRP","station_name":"Parung Panjang","i_long":106.568863},{"station_name":"Cicayur","time":8,"distance":5968,"is_transit":false,"line":3,"transit":false,"i_lat":-6.329547,"i_long":106.617853,"station_id":"CC"},{"i_lat":-6.32484,"station_name":"Cisauk","is_transit":false,"distance":2519,"station_id":"CSK","i_long":106.640411,"line":3,"transit":false,"time":4},{"station_name":"Serpong","distance":1784,"time":4,"i_long":106.66566,"transit":false,"station_id":"SRP","i_lat":-6.319871,"is_transit":false,"line":6},{"is_transit":false,"station_id":"RU","line":6,"i_long":106.675475,"distance":2413,"transit":false,"station_name":"Rawa Buntu","time":4,"i_lat":-6.314823},{"distance":4566,"time":6,"station_name":"Sudimara","i_lat":-6.296963,"is_transit":false,"transit":false,"i_long":106.712277,"station_id":"SDM","line":6},{"time":4,"transit":false,"distance":1994,"i_lat":-6.288927,"line":6,"station_name":"Jurangmangu","i_long":106.728916,"station_id":"JMU","is_transit":false},{"station_name":"Pondokranji","is_transit":false,"time":3,"distance":2179,"i_lat":-6.276362,"station_id":"PDJ","line":6,"i_long":106.74273,"transit":false},{"station_id":"KBY","i_long":106.780334,"line":6,"distance":6218,"transit":false,"time":8,"is_transit":false,"i_lat":-6.237242,"station_name":"Kebayoran"},{"line":6,"station_name":"Palmerah","station_id":"PLM","distance":3737,"i_long":106.79689,"transit":false,"is_transit":false,"time":7,"i_lat":-6.207404},{"is_transit":true,"transit":true,"distance":3191,"i_long":106.811091,"line":1,"station_name":"Tanah Abang","i_lat":-6.185545,"time":6,"station_id":"THB"},{"distance":3632,"station_id":"DU","i_lat":-6.155215,"line":1,"is_transit":true,"i_long":106.800832,"station_name":"Duri","transit":true,"time":8},{"transit":false,"i_lat":-6.162021,"i_long":106.788277,"distance":1700,"station_name":"Grogol","is_transit":false,"line":5,"time":3,"station_id":"GRG"},{"time":2,"distance":2036,"i_long":106.771379,"i_lat":-6.161433,"station_id":"PSG","is_transit":false,"line":5,"transit":false,"station_name":"Pesing"},{"station_id":"TKO","station_name":"Taman Kota","i_lat":-6.1587309999999995,"line":5,"time":2,"is_transit":false,"transit":false,"i_long":106.756522,"distance":1614},{"station_name":"Bojongindah","line":5,"transit":false,"i_lat":-6.159876,"i_long":106.737035,"distance":2334,"is_transit":false,"time":2,"station_id":"BOI"},{"i_lat":-6.162758,"station_name":"Rawa Buaya","distance":1152,"i_long":106.723064,"transit":false,"time":4,"line":5,"station_id":"RW","is_transit":false}],[{"is_transit":false,"transit":false,"i_long":106.250396,"distance":0,"station_id":"RK","line":3,"station_name":"Rangkasbitung","i_lat":-6.352675,"time":0},{"time":13,"station_name":"Citeras","distance":9847,"i_lat":-6.334892,"station_id":"CTR","is_transit":false,"transit":false,"line":3,"i_long":106.332092},{"time":10,"is_transit":false,"station_name":"Maja","i_long":106.394373,"line":6,"station_id":"MJ","transit":false,"i_lat":-6.332307,"distance":7293},{"station_name":"Cikoya","transit":false,"distance":1853,"is_transit":false,"i_lat":-6.33561,"i_long":106.411216,"line":3,"station_id":"CKY","time":4},{"i_lat":-6.328533,"transit":false,"is_transit":false,"distance":2651,"i_long":106.425991,"station_name":"Tigaraksa","line":6,"time":3,"station_id":"TGS"},{"time":5,"station_id":"TEJ","i_long":106.460812,"is_transit":false,"transit":false,"station_name":"Tenjo","distance":2974,"line":6,"i_lat":-6.327251},{"i_long":106.491338,"station_id":"DAR","time":5,"line":0,"transit":false,"is_transit":false,"station_name":"Daru","distance":3902,"i_lat":-6.338021},{"time":6,"i_long":106.508482,"station_name":"Cilejit","transit":false,"distance":2675,"line":3,"i_lat":-6.354349,"station_id":"CJT","is_transit":false},{"distance":7025,"time":9,"station_id":"PRP","transit":false,"is_transit":false,"i_lat":-6.3441410000000005,"i_long":106.568863,"line":6,"station_name":"Parung Panjang"},{"line":3,"time":8,"is_transit":false,"station_name":"Cicayur","transit":false,"i_lat":-6.329547,"station_id":"CC","i_long":106.617853,"distance":5968},{"line":3,"distance":2519,"i_lat":-6.32484,"station_name":"Cisauk","is_transit":false,"i_long":106.640411,"transit":false,"time":4,"station_id":"CSK"},{"transit":false,"station_id":"SRP","line":6,"distance":1784,"time":4,"i_lat":-6.319871,"station_name":"Serpong","is_transit":false,"i_long":106.66566},{"station_name":"Rawa Buntu","transit":false,"station_id":"RU","i_long":106.675475,"time":4,"i_lat":-6.314823,"line":6,"distance":2413,"is_transit":false},{"station_id":"SDM","is_transit":false,"time":6,"station_name":"Sudimara","line":6,"i_lat":-6.296963,"i_long":106.712277,"distance":4566,"transit":false},{"time":4,"i_long":106.728916,"is_transit":false,"distance":1994,"station_name":"Jurangmangu","i_lat":-6.288927,"line":6,"transit":false,"station_id":"JMU"},{"i_long":106.74273,"time":3,"station_name":"Pondokranji","distance":2179,"is_transit":false,"transit":false,"line":6,"i_lat":-6.276362,"station_id":"PDJ"},{"i_long":106.780334,"station_id":"KBY","transit":false,"line":6,"station_name":"Kebayoran","distance":6218,"is_transit":false,"time":8,"i_lat":-6.237242},{"is_transit":false,"station_name":"Palmerah","transit":false,"distance":3737,"station_id":"PLM","i_long":106.79689,"i_lat":-6.207404,"line":6,"time":7},{"transit":true,"is_transit":true,"time":6,"i_lat":-6.185545,"line":1,"station_name":"Tanah Abang","station_id":"THB","distance":3191,"i_long":106.811091},{"station_name":"Karet","station_id":"KAT","time":5,"distance":2029,"i_long":106.816351,"is_transit":false,"transit":false,"i_lat":-6.20132,"line":1},{"distance":471,"i_long":106.819881,"station_id":"SUDB","line":1,"station_name":"Sudirman Baru","is_transit":false,"i_lat":-6.201433,"transit":false,"time":1},{"distance":280,"i_long":106.822649,"station_id":"SUD","line":1,"transit":false,"station_name":"Sudirman","is_transit":false,"i_lat":-6.202263,"time":1},{"line":2,"time":4,"station_id":"MRI","transit":true,"is_transit":true,"distance":3186,"station_name":"Manggarai","i_long":106.84912,"i_lat":-6.209883},{"time":4,"is_transit":false,"transit":false,"distance":1590,"station_name":"Cikini","i_lat":-6.198556,"station_id":"CKI","i_long":106.840169,"line":2},{"transit":false,"line":2,"station_name":"Gondangdia","is_transit":false,"distance":1750,"time":3,"i_long":106.832183,"station_id":"GDD","i_lat":-6.186295},{"i_long":106.828284,"station_name":"Juanda","time":4,"i_lat":-6.166716,"line":2,"is_transit":false,"distance":2015,"station_id":"JUA","transit":false},{"time":2,"i_long":106.827103,"line":2,"transit":false,"station_id":"SW","is_transit":false,"distance":1149,"i_lat":-6.160725,"station_name":"Sawah Besar"},{"i_long":106.82482,"is_transit":false,"time":2,"transit":false,"station_id":"MGB","distance":906,"line":2,"station_name":"Manggabesar","i_lat":-6.149769},{"distance":1080,"transit":false,"i_long":106.820901,"station_name":"Jayakarta","i_lat":-6.141205,"line":2,"is_transit":false,"time":2,"station_id":"JAY"},{"station_name":"Jakarta Kota","i_long":106.812439,"distance":1264,"time":4,"i_lat":-6.137569,"is_transit":true,"line":2,"transit":true,"station_id":"JAKK"},{"station_name":"Kampung Bandan","time":3,"i_lat":-6.132549,"i_long":106.826365,"transit":true,"distance":1364,"line":4,"is_transit":true,"station_id":"KPB"},{"line":1,"transit":false,"is_transit":false,"station_id":"AK","time":9,"i_lat":-6.144674,"distance":4102,"i_long":106.79867,"station_name":"Angke"},{"distance":1230,"line":1,"transit":true,"i_long":106.800832,"i_lat":-6.155215,"station_name":"Duri","station_id":"DU","is_transit":true,"time":4},{"i_lat":-6.162021,"line":5,"is_transit":false,"station_name":"Grogol","transit":false,"station_id":"GRG","time":3,"distance":1700,"i_long":106.788277},{"time":2,"distance":2036,"i_lat":-6.161433,"line":5,"station_id":"PSG","is_transit":false,"transit":false,"station_name":"Pesing","i_long":106.771379},{"is_transit":false,"transit":false,"station_id":"TKO","station_name":"Taman Kota","i_lat":-6.1587309999999995,"time":2,"line":5,"i_long":106.756522,"distance":1614},{"i_lat":-6.159876,"time":2,"i_long":106.737035,"station_id":"BOI","transit":false,"line":5,"station_name":"Bojongindah","distance":2334,"is_transit":false},{"station_name":"Rawa Buaya","i_lat":-6.162758,"station_id":"RW","time":4,"transit":false,"is_transit":false,"distance":1152,"i_long":106.723064,"line":5}],[{"station_id":"RK","station_name":"Rangkasbitung","time":0,"i_lat":-6.352675,"transit":false,"is_transit":false,"distance":0,"i_long":106.250396,"line":3},{"i_lat":-6.334892,"transit":false,"time":13,"i_long":106.332092,"is_transit":false,"station_name":"Citeras","line":3,"distance":9847,"station_id":"CTR"},{"is_transit":false,"station_id":"MJ","i_long":106.394373,"distance":7293,"transit":false,"station_name":"Maja","time":10,"line":6,"i_lat":-6.332307},{"time":4,"i_lat":-6.33561,"is_transit":false,"station_id":"CKY","distance":1853,"i_long":106.411216,"line":3,"station_name":"Cikoya","transit":false},{"transit":false,"time":3,"is_transit":false,"distance":2651,"station_id":"TGS","station_name":"Tigaraksa","i_lat":-6.328533,"line":6,"i_long":106.425991},{"time":5,"i_long":106.460812,"is_transit":false,"transit":false,"distance":2974,"station_id":"TEJ","station_name":"Tenjo","i_lat":-6.327251,"line":6},{"station_id":"DAR","time":5,"distance":3902,"i_lat":-6.338021,"i_long":106.491338,"transit":false,"line":0,"is_transit":false,"station_name":"Daru"},{"i_long":106.508482,"station_name":"Cilejit","station_id":"CJT","transit":false,"is_transit":false,"line":3,"i_lat":-6.354349,"time":6,"distance":2675},{"distance":7025,"station_name":"Parung Panjang","time":9,"i_long":106.568863,"is_transit":false,"transit":false,"station_id":"PRP","i_lat":-6.3441410000000005,"line":6},{"transit":false,"distance":5968,"station_name":"Cicayur","station_id":"CC","time":8,"line":3,"is_transit":false,"i_lat":-6.329547,"i_long":106.617853},{"station_name":"Cisauk","time":4,"i_lat":-6.32484,"station_id":"CSK","transit":false,"i_long":106.640411,"is_transit":false,"distance":2519,"line":3},{"station_name":"Serpong","distance":1784,"station_id":"SRP","i_lat":-6.319871,"line":6,"transit":false,"is_transit":false,"i_long":106.66566,"time":4},{"i_long":106.675475,"line":6,"time":4,"is_transit":false,"transit":false,"distance":2413,"station_name":"Rawa Buntu","i_lat":-6.314823,"station_id":"RU"},{"station_id":"SDM","i_long":106.712277,"distance":4566,"transit":false,"time":6,"station_name":"Sudimara","is_transit":false,"i_lat":-6.296963,"line":6},{"distance":1994,"is_transit":false,"station_name":"Jurangmangu","station_id":"JMU","transit":false,"i_long":106.728916,"time":4,"line":6,"i_lat":-6.288927},{"station_id":"PDJ","distance":2179,"i_lat":-6.276362,"transit":false,"line":6,"i_long":106.74273,"time":3,"is_transit":false,"station_name":"Pondokranji"},{"station_name":"Kebayoran","distance":6218,"time":8,"i_long":106.780334,"is_transit":false,"line":6,"i_lat":-6.237242,"station_id":"KBY","transit":false},{"i_lat":-6.207404,"line":6,"is_transit":false,"station_name":"Palmerah","transit":false,"distance":3737,"i_long":106.79689,"time":7,"station_id":"PLM"},{"is_transit":true,"station_name":"Tanah Abang","i_long":106.811091,"line":1,"time":6,"transit":true,"station_id":"THB","i_lat":-6.185545,"distance":3191},{"distance":2029,"is_transit":false,"transit":false,"time":5,"line":1,"station_id":"KAT","i_lat":-6.20132,"i_long":106.816351,"station_name":"Karet"},{"is_transit":false,"station_id":"SUDB","i_long":106.819881,"line":1,"i_lat":-6.201433,"distance":471,"time":1,"station_name":"Sudirman Baru","transit":false},{"is_transit":false,"line":1,"transit":false,"station_id":"SUD","i_long":106.822649,"station_name":"Sudirman","i_lat":-6.202263,"time":1,"distance":280},{"station_id":"MRI","time":4,"transit":false,"i_long":106.84912,"line":2,"i_lat":-6.209883,"distance":3186,"is_transit":false,"station_name":"Manggarai"},{"station_name":"Matraman","i_lat":-6.212485,"station_id":"MTR","line":1,"i_long":106.858896,"is_transit":false,"time":2,"distance":1275,"transit":false},{"i_lat":-6.215091,"i_long":106.86807400000001,"is_transit":true,"station_id":"JNG","station_name":"Jatinegara","time":8,"distance":1377,"transit":true,"line":1},{"station_name":"Pondok Jati","time":2,"i_lat":-6.209188,"is_transit":false,"i_long":106.861737,"distance":1236,"line":11,"station_id":"POK","transit":false},{"transit":false,"i_long":106.855437,"station_id":"KMT","time":2,"i_lat":-6.193792,"line":11,"distance":1829,"station_name":"Kramat","is_transit":false},{"distance":973,"i_lat":-6.185975,"i_long":106.850107,"line":11,"time":1,"is_transit":false,"station_id":"GST","transit":false,"station_name":"Gang Sentiong"},{"distance":1567,"station_name":"Pasar Senen","time":8,"line":11,"transit":false,"i_long":106.84368,"i_lat":-6.174784,"is_transit":false,"station_id":"PSE"},{"station_id":"KMO","transit":false,"line":11,"station_name":"Kemayoran","i_lat":-6.161728,"i_long":106.839204,"time":4,"distance":1436,"is_transit":false},{"is_transit":false,"time":5,"i_lat":-6.14505,"line":11,"station_id":"RJW","station_name":"Rajawali","i_long":106.836569,"transit":false,"distance":1901},{"is_transit":true,"time":3,"distance":1444,"i_lat":-6.132549,"line":4,"station_name":"Kampung Bandan","i_long":106.826365,"transit":true,"station_id":"KPB"},{"i_lat":-6.144674,"transit":false,"distance":4102,"i_long":106.79867,"is_transit":false,"station_name":"Angke","line":1,"time":9,"station_id":"AK"},{"line":1,"i_lat":-6.155215,"is_transit":true,"station_name":"Duri","time":4,"transit":true,"distance":1230,"station_id":"DU","i_long":106.800832},{"is_transit":false,"transit":false,"station_id":"GRG","station_name":"Grogol","i_lat":-6.162021,"line":5,"time":3,"distance":1700,"i_long":106.788277},{"time":2,"transit":false,"is_transit":false,"station_name":"Pesing","i_lat":-6.161433,"i_long":106.771379,"line":5,"station_id":"PSG","distance":2036},{"time":2,"transit":false,"station_id":"TKO","line":5,"distance":1614,"station_name":"Taman Kota","i_long":106.756522,"is_transit":false,"i_lat":-6.1587309999999995},{"station_id":"BOI","i_lat":-6.159876,"line":5,"station_name":"Bojongindah","distance":2334,"transit":false,"is_transit":false,"i_long":106.737035,"time":2},{"is_transit":false,"transit":false,"time":4,"i_lat":-6.162758,"i_long":106.723064,"station_name":"Rawa Buaya","distance":1152,"station_id":"RW","line":5}]]}