{"data":[[{"station_name":"Rangkasbitung","distance":0,"i_long":106.250396,"is_transit":true,"station_id":"RK","transit":false,"line":0,"time":0,"i_lat":-6.352675},{"distance":9847,"is_transit":false,"station_name":"Citeras","line":0,"station_id":"CTR","time":13,"i_lat":-6.334892,"i_long":106.332092,"transit":false},{"i_long":106.394373,"distance":7293,"station_name":"Maja","time":10,"line":6,"is_transit":false,"i_lat":-6.332307,"transit":false,"station_id":"MJ"},{"i_lat":-6.33561,"i_long":106.411216,"is_transit":false,"distance":1853,"line":0,"station_name":"Cikoya","transit":false,"time":4,"station_id":"CKY"},{"station_name":"Tigaraksa","is_transit":false,"i_lat":-6.328533,"line":6,"transit":false,"distance":2651,"time":3,"station_id":"TGS","i_long":106.425991},{"distance":2974,"i_lat":-6.327251,"station_id":"TEJ","time":5,"transit":false,"line":6,"is_transit":false,"station_name":"Tenjo","i_long":106.460812},{"is_transit":false,"i_long":106.491338,"station_id":"DAR","time":5,"distance":3902,"station_name":"Daru","transit":false,"i_lat":-6.338021,"line":0},{"time":6,"distance":2675,"line":0,"station_name":"Cilejit","transit":false,"is_transit":false,"station_id":"CJT","i_long":106.508482,"i_lat":-6.354349},{"is_transit":false,"station_id":"PRP","station_name":"Parung Panjang","transit":false,"time":9,"i_long":106.568863,"distance":7025,"i_lat":-6.3441410000000005,"line":6},{"distance":5968,"transit":false,"i_long":106.617853,"is_transit":false,"time":8,"station_id":"CC","station_name":"Cicayur","line":0,"i_lat":-6.329547},{"station_id":"CSK","transit":false,"distance":2519,"i_lat":-6.32484,"is_transit":false,"station_name":"Cisauk","i_long":106.640411,"line":0,"time":4},{"time":4,"i_long":106.66566,"is_transit":false,"station_name":"Serpong","transit":false,"i_lat":-6.319871,"station_id":"SRP","line":6,"distance":1784},{"i_long":106.675475,"station_name":"Rawa Buntu","transit":false,"time":4,"i_lat":-6.314823,"station_id":"RU","is_transit":false,"distance":2413,"line":6}]]}