{"data":[[{"i_lat":-6.352675,"transit":false,"station_name":"Rangkasbitung","is_transit":false,"time":0,"i_long":106.250396,"line":3,"distance":0,"station_id":"RK"},{"time":13,"transit":false,"station_id":"CTR","i_lat":-6.334892,"i_long":106.332092,"station_name":"Citeras","line":3,"is_transit":false,"distance":9847},{"transit":false,"station_name":"Maja","station_id":"MJ","distance":7293,"i_lat":-6.332307,"is_transit":false,"time":10,"i_long":106.394373,"line":6},{"distance":1853,"i_lat":-6.33561,"is_transit":false,"i_long":106.411216,"time":4,"line":3,"station_name":"Cikoya","transit":false,"station_id":"CKY"},{"time":3,"i_lat":-6.328533,"transit":false,"station_name":"Tigaraksa","is_transit":false,"distance":2651,"i_long":106.425991,"station_id":"TGS","line":6},{"transit":false,"line":6,"i_long":106.460812,"distance":2974,"station_id":"TEJ","i_lat":-6.327251,"is_transit":false,"station_name":"Tenjo","time":5},{"transit":false,"i_long":106.491338,"station_id":"DAR","i_lat":-6.338021,"station_name":"Daru","is_transit":false,"line":0,"time":5,"distance":3902},{"line":3,"station_id":"CJT","is_transit":false,"i_long":106.508482,"station_name":"Cilejit","transit":false,"time":6,"distance":2675,"i_lat":-6.354349},{"station_id":"PRP","time":9,"line":6,"is_transit":false,"transit":false,"i_long":106.568863,"station_name":"Parung Panjang","distance":7025,"i_lat":-6.3441410000000005},{"station_name":"Cicayur","i_long":106.617853,"time":8,"line":3,"transit":false,"is_transit":false,"distance":5968,"i_lat":-6.329547,"station_id":"CC"},{"station_name":"Cisauk","distance":2519,"i_long":106.640411,"is_transit":false,"line":3,"time":4,"transit":false,"i_lat":-6.32484,"station_id":"CSK"},{"i_long":106.66566,"is_transit":false,"transit":false,"time":4,"i_lat":-6.319871,"line":6,"station_name":"Serpong","station_id":"SRP","distance":1784},{"time":4,"station_id":"RU","is_transit":false,"transit":false,"i_long":106.675475,"distance":2413,"i_lat":-6.314823,"station_name":"Rawa Buntu","line":6}]]}