{"data":[[{"is_transit":false,"transit":false,"station_name":"Rangkasbitung","time":0,"i_long":106.250396,"station_id":"RK","distance":0,"line":3,"i_lat":-6.352675},{"time":13,"distance":9847,"transit":false,"station_name":"Citeras","station_id":"CTR","i_lat":-6.334892,"i_long":106.332092,"line":3,"is_transit":false},{"is_transit":false,"distance":7293,"station_name":"Maja","station_id":"MJ","i_lat":-6.332307,"i_long":106.394373,"line":6,"time":10,"transit":false},{"station_name":"Cikoya","station_id":"CKY","i_lat":-6.33561,"is_transit":false,"time":4,"transit":false,"line":3,"i_long":106.411216,"distance":1853},{"distance":2651,"transit":false,"line":6,"is_transit":false,"i_lat":-6.328533,"i_long":106.425991,"station_name":"Tigaraksa","time":3,"station_id":"TGS"},{"transit":false,"station_name":"Tenjo","i_long":106.460812,"time":5,"is_transit":false,"station_id":"TEJ","distance":2974,"i_lat":-6.327251,"line":6},{"i_lat":-6.338021,"distance":3902,"line":0,"i_long":106.491338,"station_id":"DAR","station_name":"Daru","transit":false,"is_transit":false,"time":5},{"time":6,"i_lat":-6.354349,"distance":2675,"line":3,"transit":false,"station_name":"Cilejit","i_long":106.508482,"is_transit":false,"station_id":"CJT"},{"i_lat":-6.3441410000000005,"transit":false,"time":9,"line":6,"station_name":"Parung Panjang","is_transit":false,"distance":7025,"station_id":"PRP","i_long":106.568863},{"station_name":"Cicayur","i_long":106.617853,"line":3,"transit":false,"is_transit":false,"station_id":"CC","i_lat":-6.329547,"time":8,"distance":5968},{"station_name":"Cisauk","is_transit":false,"distance":2519,"transit":false,"i_lat":-6.32484,"i_long":106.640411,"time":4,"station_id":"CSK","line":3},{"distance":1784,"station_name":"Serpong","i_lat":-6.319871,"i_long":106.66566,"transit":false,"time":4,"line":6,"is_transit":false,"station_id":"SRP"},{"line":6,"station_id":"RU","i_lat":-6.314823,"i_long":106.675475,"is_transit":false,"transit":false,"time":4,"distance":2413,"station_name":"Rawa Buntu"},{"is_transit":false,"i_long":106.712277,"line":6,"station_id":"SDM","station_name":"Sudimara","distance":4566,"transit":false,"time":6,"i_lat":-6.296963},{"i_lat":-6.288927,"distance":1994,"i_long":106.728916,"line":6,"station_id":"JMU","is_transit":false,"station_name":"Jurangmangu","transit":false,"time":4},{"i_long":106.74273,"station_id":"PDJ","time":3,"transit":false,"distance":2179,"station_name":"Pondokranji","i_lat":-6.276362,"line":6,"is_transit":false},{"station_name":"Kebayoran","is_transit":false,"i_lat":-6.237242,"transit":false,"distance":6218,"station_id":"KBY","i_long":106.780334,"time":8,"line":6},{"is_transit":false,"i_long":106.79689,"distance":3737,"i_lat":-6.207404,"transit":false,"time":7,"line":6,"station_id":"PLM","station_name":"Palmerah"},{"station_name":"Tanah Abang","distance":3191,"line":1,"i_long":106.811091,"transit":true,"is_transit":true,"time":6,"station_id":"THB","i_lat":-6.185545},{"station_name":"Duri","i_lat":-6.155215,"i_long":106.800832,"transit":true,"time":8,"station_id":"DU","is_transit":true,"distance":3632,"line":1},{"i_lat":-6.162021,"time":3,"line":5,"station_name":"Grogol","station_id":"GGL","transit":false,"distance":1700,"i_long":106.788277,"is_transit":false},{"time":2,"is_transit":false,"transit":false,"i_long":106.771379,"distance":2036,"line":5,"i_lat":-6.161433,"station_name":"Pesing","station_id":"PSG"},{"i_long":106.756522,"is_transit":false,"distance":1614,"time":2,"transit":false,"station_name":"Taman Kota","i_lat":-6.1587309999999995,"station_id":"TKO","line":5},{"station_name":"Bojongindah","time":2,"line":5,"i_lat":-6.159876,"distance":2334,"i_long":106.737035,"is_transit":false,"transit":false,"station_id":"BOI"},{"is_transit":false,"line":5,"station_id":"RW","distance":1152,"time":4,"i_long":106.723064,"transit":false,"station_name":"Rawa Buaya","i_lat":-6.162758}],[{"i_lat":-6.352675,"line":3,"distance":0,"station_name":"Rangkasbitung","is_transit":false,"transit":false,"i_long":106.250396,"time":0,"station_id":"RK"},{"station_id":"CTR","i_lat":-6.334892,"station_name":"Citeras","transit":false,"i_long":106.332092,"is_transit":false,"distance":9847,"time":13,"line":3},{"i_long":106.394373,"time":10,"station_name":"Maja","line":6,"station_id":"MJ","i_lat":-6.332307,"distance":7293,"transit":false,"is_transit":false},{"i_lat":-6.33561,"line":3,"station_id":"CKY","station_name":"Cikoya","time":4,"transit":false,"distance":1853,"i_long":106.411216,"is_transit":false},{"station_name":"Tigaraksa","is_transit":false,"time":3,"station_id":"TGS","transit":false,"i_lat":-6.328533,"i_long":106.425991,"line":6,"distance":2651},{"station_name":"Tenjo","station_id":"TEJ","transit":false,"distance":2974,"i_long":106.460812,"time":5,"is_transit":false,"i_lat":-6.327251,"line":6},{"i_lat":-6.338021,"is_transit":false,"i_long":106.491338,"distance":3902,"time":5,"line":0,"transit":false,"station_id":"DAR","station_name":"Daru"},{"i_lat":-6.354349,"distance":2675,"i_long":106.508482,"line":3,"is_transit":false,"station_id":"CJT","time":6,"transit":false,"station_name":"Cilejit"},{"distance":7025,"i_long":106.568863,"i_lat":-6.3441410000000005,"transit":false,"is_transit":false,"station_id":"PRP","time":9,"line":6,"station_name":"Parung Panjang"},{"transit":false,"i_lat":-6.329547,"distance":5968,"station_id":"CC","time":8,"line":3,"is_transit":false,"i_long":106.617853,"station_name":"Cicayur"},{"station_name":"Cisauk","i_lat":-6.32484,"time":4,"is_transit":false,"line":3,"distance":2519,"i_long":106.640411,"transit":false,"station_id":"CSK"},{"station_id":"SRP","i_lat":-6.319871,"distance":1784,"transit":false,"i_long":106.66566,"is_transit":false,"line":6,"time":4,"station_name":"Serpong"},{"distance":2413,"station_name":"Rawa Buntu","i_lat":-6.314823,"i_long":106.675475,"line":6,"station_id":"RU","is_transit":false,"time":4,"transit":false},{"distance":4566,"is_transit":false,"transit":false,"station_name":"Sudimara","i_long":106.712277,"station_id":"SDM","time":6,"line":6,"i_lat":-6.296963},{"i_lat":-6.288927,"is_transit":false,"i_long":106.728916,"distance":1994,"time":4,"transit":false,"station_id":"JMU","station_name":"Jurangmangu","line":6},{"transit":false,"time":3,"is_transit":false,"station_id":"PDJ","i_long":106.74273,"line":6,"distance":2179,"station_name":"Pondokranji","i_lat":-6.276362},{"i_lat":-6.237242,"line":6,"transit":false,"station_name":"Kebayoran","distance":6218,"i_long":106.780334,"is_transit":false,"time":8,"station_id":"KBY"},{"line":6,"distance":3737,"station_name":"Palmerah","i_lat":-6.207404,"is_transit":false,"time":7,"i_long":106.79689,"station_id":"PLM","transit":false},{"i_lat":-6.185545,"distance":3191,"i_long":106.811091,"station_id":"THB","transit":true,"line":1,"is_transit":true,"time":6,"station_name":"Tanah Abang"},{"station_id":"KAT","time":5,"line":1,"transit":false,"is_transit":false,"station_name":"Karet","distance":2029,"i_long":106.816351,"i_lat":-6.20132},{"distance":471,"time":1,"station_id":"SUDB","transit":false,"i_lat":-6.201433,"i_long":106.819881,"line":1,"is_transit":false,"station_name":"Sudirman Baru"},{"station_name":"Sudirman","i_long":106.822649,"i_lat":-6.202263,"distance":280,"is_transit":false,"transit":false,"station_id":"SUD","line":1,"time":1},{"transit":true,"line":2,"i_lat":-6.209883,"station_name":"Manggarai","is_transit":true,"station_id":"MRI","distance":3186,"time":4,"i_long":106.84912},{"distance":1590,"time":4,"i_lat":-6.198556,"i_long":106.840169,"is_transit":false,"transit":false,"line":2,"station_id":"CKI","station_name":"Cikini"},{"i_long":106.832183,"line":2,"transit":false,"station_id":"GDD","i_lat":-6.186295,"is_transit":false,"distance":1750,"time":3,"station_name":"Gondangdia"},{"distance":2015,"station_id":"JUA","transit":false,"time":4,"station_name":"Juanda","i_lat":-6.166716,"line":2,"is_transit":false,"i_long":106.828284},{"i_long":106.827103,"transit":false,"line":2,"i_lat":-6.160725,"station_name":"Sawah Besar","is_transit":false,"distance":1149,"station_id":"SW","time":2},{"distance":906,"i_lat":-6.149769,"transit":false,"station_name":"Manggabesar","line":2,"is_transit":false,"time":2,"station_id":"MGB","i_long":106.82482},{"station_id":"JAY","is_transit":false,"distance":1080,"time":2,"i_lat":-6.141205,"line":2,"station_name":"Jayakarta","i_long":106.820901,"transit":false},{"i_lat":-6.137569,"is_transit":true,"station_id":"JAKK","i_long":106.812439,"line":2,"time":4,"distance":1264,"transit":true,"station_name":"Jakarta Kota"},{"i_long":106.826365,"station_id":"KPB","is_transit":true,"distance":1364,"line":4,"transit":true,"i_lat":-6.132549,"time":3,"station_name":"Kampung Bandan"},{"i_lat":-6.144674,"line":1,"time":9,"distance":4102,"transit":false,"is_transit":false,"station_id":"AK","i_long":106.79867,"station_name":"Angke"},{"is_transit":true,"time":4,"distance":1230,"station_id":"DU","station_name":"Duri","i_lat":-6.155215,"i_long":106.800832,"line":1,"transit":true},{"i_lat":-6.162021,"transit":false,"distance":1700,"line":5,"i_long":106.788277,"time":3,"is_transit":false,"station_id":"GGL","station_name":"Grogol"},{"station_name":"Pesing","transit":false,"i_lat":-6.161433,"station_id":"PSG","is_transit":false,"distance":2036,"i_long":106.771379,"line":5,"time":2},{"i_lat":-6.1587309999999995,"line":5,"time":2,"distance":1614,"transit":false,"station_name":"Taman Kota","i_long":106.756522,"station_id":"TKO","is_transit":false},{"station_name":"Bojongindah","i_lat":-6.159876,"is_transit":false,"time":2,"line":5,"distance":2334,"i_long":106.737035,"transit":false,"station_id":"BOI"},{"is_transit":false,"station_id":"RW","line":5,"distance":1152,"station_name":"Rawa Buaya","i_long":106.723064,"i_lat":-6.162758,"time":4,"transit":false}],[{"distance":0,"i_lat":-6.352675,"transit":false,"is_transit":false,"station_id":"RK","station_name":"Rangkasbitung","i_long":106.250396,"time":0,"line":3},{"time":13,"transit":false,"station_name":"Citeras","distance":9847,"i_lat":-6.334892,"station_id":"CTR","line":3,"is_transit":false,"i_long":106.332092},{"distance":7293,"i_long":106.394373,"transit":false,"station_name":"Maja","line":6,"station_id":"MJ","time":10,"is_transit":false,"i_lat":-6.332307},{"station_id":"CKY","time":4,"station_name":"Cikoya","i_lat":-6.33561,"is_transit":false,"i_long":106.411216,"line":3,"transit":false,"distance":1853},{"station_id":"TGS","distance":2651,"i_long":106.425991,"line":6,"i_lat":-6.328533,"station_name":"Tigaraksa","time":3,"transit":false,"is_transit":false},{"is_transit":false,"distance":2974,"station_id":"TEJ","i_long":106.460812,"time":5,"station_name":"Tenjo","i_lat":-6.327251,"transit":false,"line":6},{"i_long":106.491338,"line":0,"station_id":"DAR","transit":false,"distance":3902,"station_name":"Daru","time":5,"is_transit":false,"i_lat":-6.338021},{"i_lat":-6.354349,"station_name":"Cilejit","distance":2675,"i_long":106.508482,"time":6,"line":3,"is_transit":false,"transit":false,"station_id":"CJT"},{"station_name":"Parung Panjang","time":9,"station_id":"PRP","i_lat":-6.3441410000000005,"line":6,"transit":false,"distance":7025,"i_long":106.568863,"is_transit":false},{"station_id":"CC","time":8,"is_transit":false,"station_name":"Cicayur","transit":false,"i_lat":-6.329547,"i_long":106.617853,"line":3,"distance":5968},{"station_name":"Cisauk","transit":false,"distance":2519,"station_id":"CSK","time":4,"line":3,"is_transit":false,"i_long":106.640411,"i_lat":-6.32484},{"distance":1784,"i_lat":-6.319871,"station_id":"SRP","station_name":"Serpong","i_long":106.66566,"time":4,"line":6,"is_transit":false,"transit":false},{"time":4,"transit":false,"i_long":106.675475,"line":6,"station_name":"Rawa Buntu","i_lat":-6.314823,"is_transit":false,"station_id":"RU","distance":2413},{"distance":4566,"i_long":106.712277,"line":6,"transit":false,"time":6,"is_transit":false,"station_id":"SDM","station_name":"Sudimara","i_lat":-6.296963},{"transit":false,"i_lat":-6.288927,"line":6,"is_transit":false,"time":4,"station_name":"Jurangmangu","distance":1994,"station_id":"JMU","i_long":106.728916},{"i_long":106.74273,"i_lat":-6.276362,"time":3,"transit":false,"distance":2179,"station_id":"PDJ","line":6,"station_name":"Pondokranji","is_transit":false},{"i_lat":-6.237242,"distance":6218,"transit":false,"station_name":"Kebayoran","line":6,"is_transit":false,"time":8,"station_id":"KBY","i_long":106.780334},{"transit":false,"time":7,"i_lat":-6.207404,"line":6,"station_name":"Palmerah","station_id":"PLM","is_transit":false,"i_long":106.79689,"distance":3737},{"is_transit":true,"distance":3191,"i_lat":-6.185545,"station_id":"THB","time":6,"transit":true,"station_name":"Tanah Abang","line":1,"i_long":106.811091},{"i_long":106.816351,"station_name":"Karet","is_transit":false,"time":5,"transit":false,"distance":2029,"i_lat":-6.20132,"line":1,"station_id":"KAT"},{"station_id":"SUDB","i_long":106.819881,"transit":false,"time":1,"i_lat":-6.201433,"is_transit":false,"station_name":"Sudirman Baru","line":1,"distance":471},{"is_transit":false,"i_long":106.822649,"distance":280,"i_lat":-6.202263,"station_id":"SUD","time":1,"transit":false,"station_name":"Sudirman","line":1},{"is_transit":false,"time":4,"station_name":"Manggarai","line":2,"i_long":106.84912,"distance":3186,"i_lat":-6.209883,"station_id":"MRI","transit":false},{"time":2,"transit":false,"i_long":106.858896,"line":1,"is_transit":false,"station_name":"Matraman","distance":1275,"i_lat":-6.212485,"station_id":"MTR"},{"is_transit":true,"station_id":"JNG","time":8,"transit":true,"line":1,"i_long":106.86807400000001,"station_name":"Jatinegara","i_lat":-6.215091,"distance":1377},{"is_transit":false,"station_name":"Pondok Jati","station_id":"POK","i_long":106.861737,"distance":1236,"transit":false,"line":11,"i_lat":-6.209188,"time":2},{"i_long":106.855437,"station_id":"KMT","distance":1829,"time":2,"station_name":"Kramat","i_lat":-6.193792,"line":11,"is_transit":false,"transit":false},{"time":1,"station_name":"Gang Sentiong","transit":false,"i_lat":-6.185975,"station_id":"GST","is_transit":false,"line":11,"distance":973,"i_long":106.850107},{"station_id":"PSE","distance":1567,"time":8,"station_name":"Pasar Senen","is_transit":false,"transit":false,"i_lat":-6.174784,"line":11,"i_long":106.84368},{"station_name":"Kemayoran","line":11,"station_id":"KMO","is_transit":false,"distance":1436,"transit":false,"i_lat":-6.161728,"time":4,"i_long":106.839204},{"i_long":106.836569,"is_transit":false,"distance":1901,"transit":false,"line":11,"station_name":"Rajawali","time":5,"station_id":"RJW","i_lat":-6.14505},{"time":3,"i_lat":-6.132549,"line":4,"is_transit":true,"distance":1444,"station_id":"KPB","transit":true,"station_name":"Kampung Bandan","i_long":106.826365},{"i_long":106.79867,"distance":4102,"line":1,"station_id":"AK","station_name":"Angke","transit":false,"is_transit":false,"time":9,"i_lat":-6.144674},{"i_long":106.800832,"station_id":"DU","line":1,"is_transit":true,"distance":1230,"i_lat":-6.155215,"time":4,"station_name":"Duri","transit":true},{"time":3,"station_name":"Grogol","transit":false,"i_lat":-6.162021,"is_transit":false,"distance":1700,"i_long":106.788277,"station_id":"GGL","line":5},{"i_long":106.771379,"distance":2036,"station_id":"PSG","transit":false,"time":2,"i_lat":-6.161433,"station_name":"Pesing","is_transit":false,"line":5},{"station_id":"TKO","time":2,"station_name":"Taman Kota","transit":false,"is_transit":false,"distance":1614,"i_long":106.756522,"line":5,"i_lat":-6.1587309999999995},{"station_id":"BOI","distance":2334,"transit":false,"i_lat":-6.159876,"is_transit":false,"time":2,"line":5,"i_long":106.737035,"station_name":"Bojongindah"},{"i_long":106.723064,"line":5,"is_transit":false,"transit":false,"distance":1152,"station_name":"Rawa Buaya","i_lat":-6.162758,"time":4,"station_id":"RW"}]]}