{"data":[[{"time":0,"station_name":"Rangkasbitung","i_lat":-6.352675,"i_long":106.250396,"station_id":"RK","transit":false,"is_transit":true,"line":0,"distance":0},{"transit":false,"is_transit":false,"i_long":106.332092,"station_id":"CTR","i_lat":-6.334892,"line":0,"time":13,"station_name":"Citeras","distance":9847},{"i_lat":-6.332307,"i_long":106.394373,"station_id":"MJ","station_name":"Maja","distance":7293,"transit":false,"line":6,"time":10,"is_transit":false},{"station_id":"CKY","line":0,"i_long":106.411216,"is_transit":false,"time":4,"station_name":"Cikoya","i_lat":-6.33561,"transit":false,"distance":1853},{"transit":false,"station_id":"TGS","distance":2651,"line":6,"is_transit":false,"i_long":106.425991,"i_lat":-6.328533,"time":3,"station_name":"Tigaraksa"},{"i_lat":-6.327251,"station_id":"TEJ","line":6,"distance":2974,"is_transit":false,"time":5,"station_name":"Tenjo","i_long":106.460812,"transit":false},{"line":0,"distance":3902,"time":5,"station_name":"Daru","is_transit":false,"i_lat":-6.338021,"i_long":106.491338,"transit":false,"station_id":"DAR"},{"time":6,"i_lat":-6.354349,"is_transit":false,"i_long":106.508482,"distance":2675,"transit":false,"station_id":"CJT","station_name":"Cilejit","line":0},{"distance":7025,"station_name":"Parung Panjang","i_lat":-6.3441410000000005,"i_long":106.568863,"transit":false,"line":6,"station_id":"PRP","is_transit":false,"time":9},{"is_transit":false,"station_name":"Cicayur","station_id":"CC","distance":5968,"i_lat":-6.329547,"line":0,"transit":false,"i_long":106.617853,"time":8},{"distance":2519,"i_long":106.640411,"is_transit":false,"i_lat":-6.32484,"station_id":"CSK","station_name":"Cisauk","transit":false,"time":4,"line":0},{"line":6,"is_transit":false,"transit":false,"time":4,"i_long":106.66566,"station_id":"SRP","distance":1784,"i_lat":-6.319871,"station_name":"Serpong"},{"is_transit":false,"station_id":"RU","distance":2413,"i_lat":-6.314823,"i_long":106.675475,"transit":false,"line":6,"time":4,"station_name":"Rawa Buntu"},{"distance":4566,"line":6,"station_id":"SDM","is_transit":false,"transit":false,"i_long":106.712277,"i_lat":-6.296963,"station_name":"Sudimara","time":6},{"is_transit":false,"i_lat":-6.288927,"station_id":"JMU","distance":1994,"transit":false,"station_name":"Jurangmangu","line":6,"i_long":106.728916,"time":4},{"i_long":106.74273,"transit":false,"distance":2179,"station_id":"PDJ","i_lat":-6.276362,"station_name":"Pondokranji","is_transit":false,"line":6,"time":3},{"station_id":"KBY","transit":false,"time":8,"station_name":"Kebayoran","i_long":106.780334,"line":6,"i_lat":-6.237242,"distance":6218,"is_transit":false},{"i_long":106.79689,"distance":3737,"is_transit":false,"time":7,"station_id":"PLM","station_name":"Palmerah","transit":false,"i_lat":-6.207404,"line":6},{"line":1,"is_transit":true,"distance":3191,"i_long":106.811091,"station_id":"THB","i_lat":-6.185545,"transit":true,"station_name":"Tanah Abang","time":6},{"distance":3632,"is_transit":true,"transit":true,"station_name":"Duri","station_id":"DU","time":8,"i_lat":-6.155215,"line":1,"i_long":106.800832},{"station_id":"GGL","distance":1700,"time":3,"is_transit":false,"station_name":"Grogol","transit":false,"i_lat":-6.162021,"line":5,"i_long":106.788277},{"station_name":"Pesing","distance":2036,"time":2,"i_lat":-6.161433,"line":5,"is_transit":false,"station_id":"PSG","transit":false,"i_long":106.771379},{"line":5,"station_id":"TKO","transit":false,"distance":1614,"time":2,"is_transit":false,"i_lat":-6.1587309999999995,"station_name":"Taman Kota","i_long":106.756522},{"station_id":"BOI","station_name":"Bojongindah","i_long":106.737035,"distance":2334,"i_lat":-6.159876,"line":0,"is_transit":false,"time":2,"transit":false},{"distance":1152,"i_lat":-6.162758,"i_long":106.723064,"transit":false,"is_transit":false,"time":4,"station_name":"Rawa Buaya","station_id":"RW","line":5}],[{"station_name":"Rangkasbitung","line":0,"time":0,"i_lat":-6.352675,"transit":false,"station_id":"RK","is_transit":true,"i_long":106.250396,"distance":0},{"is_transit":false,"line":0,"time":13,"distance":9847,"i_long":106.332092,"station_id":"CTR","i_lat":-6.334892,"transit":false,"station_name":"Citeras"},{"station_id":"MJ","time":10,"distance":7293,"i_lat":-6.332307,"i_long":106.394373,"line":6,"is_transit":false,"station_name":"Maja","transit":false},{"time":4,"line":0,"station_name":"Cikoya","distance":1853,"station_id":"CKY","i_lat":-6.33561,"i_long":106.411216,"is_transit":false,"transit":false},{"distance":2651,"station_id":"TGS","line":6,"time":3,"station_name":"Tigaraksa","i_lat":-6.328533,"transit":false,"i_long":106.425991,"is_transit":false},{"i_lat":-6.327251,"line":6,"distance":2974,"station_id":"TEJ","time":5,"station_name":"Tenjo","is_transit":false,"transit":false,"i_long":106.460812},{"transit":false,"time":5,"distance":3902,"i_lat":-6.338021,"is_transit":false,"station_name":"Daru","i_long":106.491338,"line":0,"station_id":"DAR"},{"is_transit":false,"i_lat":-6.354349,"i_long":106.508482,"distance":2675,"station_id":"CJT","line":0,"station_name":"Cilejit","transit":false,"time":6},{"line":6,"i_lat":-6.3441410000000005,"distance":7025,"is_transit":false,"transit":false,"time":9,"i_long":106.568863,"station_name":"Parung Panjang","station_id":"PRP"},{"time":8,"line":0,"i_lat":-6.329547,"station_name":"Cicayur","is_transit":false,"distance":5968,"i_long":106.617853,"station_id":"CC","transit":false},{"line":0,"i_long":106.640411,"distance":2519,"is_transit":false,"time":4,"transit":false,"i_lat":-6.32484,"station_name":"Cisauk","station_id":"CSK"},{"station_name":"Serpong","transit":false,"i_lat":-6.319871,"i_long":106.66566,"is_transit":false,"line":6,"distance":1784,"time":4,"station_id":"SRP"},{"transit":false,"station_name":"Rawa Buntu","is_transit":false,"station_id":"RU","distance":2413,"time":4,"i_lat":-6.314823,"i_long":106.675475,"line":6},{"station_name":"Sudimara","time":6,"i_lat":-6.296963,"distance":4566,"station_id":"SDM","is_transit":false,"transit":false,"i_long":106.712277,"line":6},{"i_lat":-6.288927,"distance":1994,"is_transit":false,"station_name":"Jurangmangu","i_long":106.728916,"line":6,"transit":false,"station_id":"JMU","time":4},{"transit":false,"distance":2179,"i_long":106.74273,"is_transit":false,"station_id":"PDJ","station_name":"Pondokranji","time":3,"line":6,"i_lat":-6.276362},{"is_transit":false,"station_id":"KBY","transit":false,"distance":6218,"time":8,"station_name":"Kebayoran","i_lat":-6.237242,"i_long":106.780334,"line":6},{"station_id":"PLM","transit":false,"i_lat":-6.207404,"distance":3737,"is_transit":false,"station_name":"Palmerah","i_long":106.79689,"line":6,"time":7},{"i_long":106.811091,"station_id":"THB","is_transit":true,"i_lat":-6.185545,"line":1,"transit":true,"distance":3191,"time":6,"station_name":"Tanah Abang"},{"i_long":106.816351,"station_name":"Karet","station_id":"KAT","transit":false,"distance":2029,"i_lat":-6.20132,"line":1,"is_transit":false,"time":5},{"i_long":106.819881,"time":1,"is_transit":false,"i_lat":-6.201433,"station_name":"Sudirman Baru","line":1,"distance":471,"transit":false,"station_id":"SUDB"},{"i_lat":-6.202263,"station_id":"SUD","is_transit":false,"transit":false,"time":1,"distance":280,"line":1,"station_name":"Sudirman","i_long":106.822649},{"distance":3186,"station_id":"MRI","i_long":106.84912,"is_transit":true,"time":4,"station_name":"Manggarai","transit":true,"i_lat":-6.209883,"line":0},{"transit":false,"time":4,"station_id":"CKI","distance":1590,"i_lat":-6.198556,"station_name":"Cikini","line":0,"i_long":106.840169,"is_transit":false},{"transit":false,"distance":1750,"line":2,"time":3,"station_id":"GDD","i_lat":-6.186295,"i_long":106.832183,"station_name":"Gondangdia","is_transit":false},{"transit":false,"station_name":"Juanda","time":4,"is_transit":false,"station_id":"JUA","i_long":106.828284,"distance":2015,"i_lat":-6.166716,"line":2},{"station_id":"SW","transit":false,"i_lat":-6.160725,"line":2,"station_name":"Sawah Besar","time":2,"i_long":106.827103,"is_transit":false,"distance":1149},{"transit":false,"is_transit":false,"time":2,"station_name":"Manggabesar","i_lat":-6.149769,"i_long":106.82482,"distance":906,"station_id":"MGB","line":2},{"transit":false,"station_name":"Jayakarta","i_lat":-6.141205,"time":2,"distance":1080,"i_long":106.820901,"line":7,"station_id":"JAY","is_transit":false},{"transit":true,"i_long":106.812439,"station_name":"Jakarta Kota","distance":1264,"station_id":"JAKK","time":4,"i_lat":-6.137569,"line":0,"is_transit":true},{"station_id":"KPB","transit":false,"station_name":"Kampung Bandan","i_long":106.826365,"time":3,"i_lat":-6.132549,"line":0,"is_transit":true,"distance":1364},{"distance":4102,"station_id":"AK","station_name":"Angke","i_lat":-6.144674,"is_transit":false,"time":9,"i_long":106.79867,"line":0,"transit":false},{"distance":1230,"station_name":"Duri","time":4,"is_transit":true,"station_id":"DU","line":1,"i_long":106.800832,"i_lat":-6.155215,"transit":true},{"station_id":"GGL","station_name":"Grogol","distance":1700,"i_lat":-6.162021,"is_transit":false,"line":5,"transit":false,"i_long":106.788277,"time":3},{"i_long":106.771379,"line":5,"distance":2036,"station_id":"PSG","transit":false,"station_name":"Pesing","time":2,"i_lat":-6.161433,"is_transit":false},{"station_name":"Taman Kota","i_lat":-6.1587309999999995,"distance":1614,"line":5,"is_transit":false,"station_id":"TKO","transit":false,"i_long":106.756522,"time":2},{"i_lat":-6.159876,"time":2,"transit":false,"i_long":106.737035,"is_transit":false,"line":0,"station_id":"BOI","station_name":"Bojongindah","distance":2334},{"time":4,"i_long":106.723064,"distance":1152,"is_transit":false,"i_lat":-6.162758,"station_name":"Rawa Buaya","station_id":"RW","line":5,"transit":false}],[{"distance":0,"station_name":"Rangkasbitung","station_id":"RK","is_transit":true,"transit":false,"i_lat":-6.352675,"i_long":106.250396,"time":0,"line":0},{"is_transit":false,"time":13,"station_id":"CTR","distance":9847,"transit":false,"i_long":106.332092,"station_name":"Citeras","i_lat":-6.334892,"line":0},{"time":10,"transit":false,"station_name":"Maja","i_long":106.394373,"station_id":"MJ","is_transit":false,"distance":7293,"i_lat":-6.332307,"line":6},{"station_name":"Cikoya","transit":false,"is_transit":false,"i_long":106.411216,"distance":1853,"time":4,"station_id":"CKY","i_lat":-6.33561,"line":0},{"is_transit":false,"distance":2651,"station_name":"Tigaraksa","transit":false,"time":3,"i_long":106.425991,"line":6,"i_lat":-6.328533,"station_id":"TGS"},{"i_lat":-6.327251,"transit":false,"station_name":"Tenjo","station_id":"TEJ","i_long":106.460812,"time":5,"distance":2974,"line":6,"is_transit":false},{"station_name":"Daru","transit":false,"station_id":"DAR","i_long":106.491338,"line":0,"distance":3902,"is_transit":false,"i_lat":-6.338021,"time":5},{"is_transit":false,"station_id":"CJT","transit":false,"time":6,"i_long":106.508482,"line":0,"i_lat":-6.354349,"distance":2675,"station_name":"Cilejit"},{"station_name":"Parung Panjang","time":9,"line":6,"station_id":"PRP","is_transit":false,"transit":false,"i_long":106.568863,"i_lat":-6.3441410000000005,"distance":7025},{"distance":5968,"i_long":106.617853,"station_id":"CC","transit":false,"line":0,"i_lat":-6.329547,"is_transit":false,"station_name":"Cicayur","time":8},{"i_lat":-6.32484,"distance":2519,"time":4,"station_name":"Cisauk","transit":false,"is_transit":false,"line":0,"station_id":"CSK","i_long":106.640411},{"station_id":"SRP","is_transit":false,"station_name":"Serpong","time":4,"distance":1784,"i_lat":-6.319871,"i_long":106.66566,"line":6,"transit":false},{"time":4,"i_long":106.675475,"line":6,"station_id":"RU","distance":2413,"station_name":"Rawa Buntu","is_transit":false,"transit":false,"i_lat":-6.314823},{"distance":4566,"is_transit":false,"i_long":106.712277,"station_id":"SDM","time":6,"station_name":"Sudimara","transit":false,"line":6,"i_lat":-6.296963},{"i_lat":-6.288927,"station_name":"Jurangmangu","is_transit":false,"time":4,"i_long":106.728916,"line":6,"distance":1994,"station_id":"JMU","transit":false},{"transit":false,"station_name":"Pondokranji","line":6,"time":3,"i_lat":-6.276362,"i_long":106.74273,"station_id":"PDJ","distance":2179,"is_transit":false},{"station_name":"Kebayoran","station_id":"KBY","line":6,"is_transit":false,"time":8,"i_lat":-6.237242,"i_long":106.780334,"distance":6218,"transit":false},{"time":7,"is_transit":false,"station_id":"PLM","transit":false,"line":6,"station_name":"Palmerah","i_lat":-6.207404,"i_long":106.79689,"distance":3737},{"is_transit":true,"transit":true,"distance":3191,"time":6,"i_long":106.811091,"line":1,"station_id":"THB","station_name":"Tanah Abang","i_lat":-6.185545},{"time":5,"station_id":"KAT","station_name":"Karet","transit":false,"i_lat":-6.20132,"i_long":106.816351,"line":1,"is_transit":false,"distance":2029},{"distance":471,"transit":false,"station_name":"Sudirman Baru","station_id":"SUDB","i_long":106.819881,"time":1,"line":1,"is_transit":false,"i_lat":-6.201433},{"distance":280,"line":1,"station_id":"SUD","i_long":106.822649,"is_transit":false,"i_lat":-6.202263,"transit":false,"time":1,"station_name":"Sudirman"},{"i_lat":-6.209883,"transit":false,"station_id":"MRI","distance":3186,"i_long":106.84912,"station_name":"Manggarai","time":4,"line":0,"is_transit":true},{"is_transit":false,"time":2,"distance":1275,"i_long":106.858896,"i_lat":-6.212485,"station_id":"MTR","station_name":"Matraman","transit":false,"line":1},{"time":8,"i_long":106.86807400000001,"distance":1377,"station_name":"Jatinegara","transit":true,"i_lat":-6.215091,"station_id":"JNG","line":0,"is_transit":true},{"distance":1236,"i_lat":-6.209188,"i_long":106.861737,"is_transit":false,"station_name":"Pondok Jati","station_id":"POK","transit":false,"line":11,"time":2},{"transit":false,"i_long":106.855437,"i_lat":-6.193792,"time":2,"station_name":"Kramat","distance":1829,"station_id":"KMT","is_transit":false,"line":11},{"line":11,"distance":973,"i_lat":-6.185975,"transit":false,"i_long":106.850107,"station_name":"Gang Sentiong","time":1,"is_transit":false,"station_id":"GST"},{"transit":false,"distance":1567,"station_id":"PSE","i_long":106.84368,"time":8,"is_transit":false,"i_lat":-6.174784,"station_name":"Pasar Senen","line":11},{"is_transit":false,"station_name":"Kemayoran","time":4,"line":11,"station_id":"KMO","transit":false,"distance":1436,"i_lat":-6.161728,"i_long":106.839204},{"transit":false,"i_lat":-6.14505,"line":11,"is_transit":false,"station_id":"RJW","station_name":"Rajawali","time":5,"i_long":106.836569,"distance":1901},{"distance":1444,"line":0,"station_id":"KPB","station_name":"Kampung Bandan","transit":true,"i_long":106.826365,"i_lat":-6.132549,"is_transit":true,"time":3},{"distance":4102,"time":9,"station_id":"AK","i_lat":-6.144674,"transit":false,"station_name":"Angke","i_long":106.79867,"is_transit":false,"line":0},{"distance":1230,"time":4,"i_long":106.800832,"transit":true,"line":1,"station_name":"Duri","station_id":"DU","i_lat":-6.155215,"is_transit":true},{"station_name":"Grogol","line":5,"station_id":"GGL","i_lat":-6.162021,"i_long":106.788277,"is_transit":false,"time":3,"distance":1700,"transit":false},{"is_transit":false,"station_id":"PSG","transit":false,"i_long":106.771379,"station_name":"Pesing","time":2,"line":5,"i_lat":-6.161433,"distance":2036},{"line":5,"station_name":"Taman Kota","is_transit":false,"i_long":106.756522,"station_id":"TKO","i_lat":-6.1587309999999995,"transit":false,"time":2,"distance":1614},{"transit":false,"is_transit":false,"distance":2334,"station_name":"Bojongindah","time":2,"i_lat":-6.159876,"station_id":"BOI","i_long":106.737035,"line":0},{"station_id":"RW","is_transit":false,"i_long":106.723064,"transit":false,"time":4,"i_lat":-6.162758,"line":5,"distance":1152,"station_name":"Rawa Buaya"}]]}