{"data":[[{"time":0,"station_id":"RK","station_name":"Rangkasbitung","line":3,"is_transit":false,"transit":false,"i_lat":-6.352675,"distance":0,"i_long":106.250396},{"transit":false,"station_name":"Citeras","is_transit":false,"i_long":106.332092,"i_lat":-6.334892,"line":3,"distance":9847,"time":13,"station_id":"CTR"},{"line":6,"is_transit":false,"i_lat":-6.332307,"i_long":106.394373,"time":10,"transit":false,"station_name":"Maja","station_id":"MJ","distance":7293},{"transit":false,"distance":1853,"line":3,"i_long":106.411216,"station_name":"Cikoya","time":4,"is_transit":false,"station_id":"CKY","i_lat":-6.33561},{"is_transit":false,"station_name":"Tigaraksa","line":6,"station_id":"TGS","time":3,"i_long":106.425991,"distance":2651,"transit":false,"i_lat":-6.328533},{"time":5,"station_id":"TEJ","is_transit":false,"station_name":"Tenjo","line":6,"distance":2974,"transit":false,"i_lat":-6.327251,"i_long":106.460812},{"line":0,"i_long":106.491338,"is_transit":false,"distance":3902,"station_id":"DAR","transit":false,"i_lat":-6.338021,"time":5,"station_name":"Daru"},{"i_long":106.508482,"station_name":"Cilejit","transit":false,"line":3,"station_id":"CJT","is_transit":false,"time":6,"i_lat":-6.354349,"distance":2675},{"time":9,"i_lat":-6.3441410000000005,"station_name":"Parung Panjang","transit":false,"is_transit":false,"station_id":"PRP","distance":7025,"i_long":106.568863,"line":6},{"transit":false,"line":3,"time":8,"is_transit":false,"station_name":"Cicayur","distance":5968,"i_lat":-6.329547,"i_long":106.617853,"station_id":"CC"},{"i_long":106.640411,"is_transit":false,"station_name":"Cisauk","line":3,"distance":2519,"station_id":"CSK","i_lat":-6.32484,"time":4,"transit":false},{"time":4,"is_transit":false,"station_id":"SRP","station_name":"Serpong","i_lat":-6.319871,"distance":1784,"i_long":106.66566,"line":6,"transit":false},{"time":4,"line":6,"i_lat":-6.314823,"station_id":"RU","is_transit":false,"distance":2413,"transit":false,"station_name":"Rawa Buntu","i_long":106.675475}]]}