{"data":[[{"station_id":"RK","station_name":"Rangkasbitung","i_long":106.250396,"i_lat":-6.352675,"transit":false,"is_transit":false,"time":0,"line":3,"distance":0},{"i_lat":-6.334892,"i_long":106.332092,"station_id":"CTR","is_transit":false,"station_name":"Citeras","time":13,"distance":9847,"line":3,"transit":false},{"line":6,"is_transit":false,"time":10,"i_long":106.394373,"station_id":"MJ","transit":false,"distance":7293,"station_name":"Maja","i_lat":-6.332307},{"i_long":106.411216,"time":4,"transit":false,"is_transit":false,"station_name":"Cikoya","distance":1853,"line":3,"station_id":"CKY","i_lat":-6.33561},{"transit":false,"i_lat":-6.328533,"i_long":106.425991,"time":3,"station_id":"TGS","station_name":"Tigaraksa","line":6,"distance":2651,"is_transit":false},{"transit":false,"i_long":106.460812,"line":6,"station_id":"TEJ","i_lat":-6.327251,"distance":2974,"is_transit":false,"station_name":"Tenjo","time":5},{"station_id":"DAR","distance":3902,"transit":false,"i_long":106.491338,"station_name":"Daru","i_lat":-6.338021,"is_transit":false,"line":0,"time":5},{"station_name":"Cilejit","is_transit":false,"distance":2675,"line":3,"i_long":106.508482,"transit":false,"station_id":"CJT","time":6,"i_lat":-6.354349},{"station_id":"PRP","line":6,"time":9,"transit":false,"i_long":106.568863,"distance":7025,"station_name":"Parung Panjang","i_lat":-6.3441410000000005,"is_transit":false},{"time":8,"i_lat":-6.329547,"line":3,"i_long":106.617853,"distance":5968,"station_id":"CC","transit":false,"is_transit":false,"station_name":"Cicayur"},{"station_id":"CSK","time":4,"i_lat":-6.32484,"i_long":106.640411,"distance":2519,"line":3,"transit":false,"station_name":"Cisauk","is_transit":false},{"is_transit":false,"transit":false,"station_name":"Serpong","i_lat":-6.319871,"line":6,"station_id":"SRP","time":4,"distance":1784,"i_long":106.66566},{"station_id":"RU","is_transit":false,"transit":false,"time":4,"i_lat":-6.314823,"distance":2413,"station_name":"Rawa Buntu","i_long":106.675475,"line":6},{"time":6,"i_lat":-6.296963,"station_id":"SDM","distance":4566,"line":6,"transit":false,"i_long":106.712277,"station_name":"Sudimara","is_transit":false},{"transit":false,"i_long":106.728916,"station_id":"JMU","station_name":"Jurangmangu","is_transit":false,"distance":1994,"i_lat":-6.288927,"time":4,"line":6},{"station_id":"PDJ","transit":false,"station_name":"Pondokranji","i_lat":-6.276362,"distance":2179,"is_transit":false,"i_long":106.74273,"time":3,"line":6},{"station_name":"Kebayoran","is_transit":false,"distance":6218,"station_id":"KBY","transit":false,"i_lat":-6.237242,"time":8,"line":6,"i_long":106.780334},{"i_long":106.79689,"station_name":"Palmerah","station_id":"PLM","distance":3737,"i_lat":-6.207404,"time":7,"line":6,"is_transit":false,"transit":false},{"transit":true,"station_name":"Tanah Abang","is_transit":true,"time":6,"station_id":"THB","distance":3191,"i_lat":-6.185545,"line":1,"i_long":106.811091},{"station_name":"Duri","distance":3632,"time":8,"line":1,"i_lat":-6.155215,"transit":true,"is_transit":true,"i_long":106.800832,"station_id":"DU"},{"station_name":"Grogol","i_long":106.788277,"line":5,"is_transit":false,"station_id":"GGL","time":3,"distance":1700,"i_lat":-6.162021,"transit":false},{"time":2,"station_id":"PSG","is_transit":false,"distance":2036,"i_lat":-6.161433,"line":5,"station_name":"Pesing","transit":false,"i_long":106.771379},{"station_id":"TKO","i_long":106.756522,"is_transit":false,"transit":false,"time":2,"distance":1614,"line":5,"station_name":"Taman Kota","i_lat":-6.1587309999999995},{"line":5,"station_name":"Bojongindah","station_id":"BOI","transit":false,"i_lat":-6.159876,"i_long":106.737035,"is_transit":false,"time":2,"distance":2334},{"station_id":"RW","is_transit":false,"i_long":106.723064,"distance":1152,"time":4,"i_lat":-6.162758,"line":5,"transit":false,"station_name":"Rawa Buaya"}],[{"is_transit":false,"i_lat":-6.352675,"i_long":106.250396,"station_id":"RK","distance":0,"line":3,"time":0,"transit":false,"station_name":"Rangkasbitung"},{"distance":9847,"i_long":106.332092,"transit":false,"i_lat":-6.334892,"station_name":"Citeras","line":3,"is_transit":false,"station_id":"CTR","time":13},{"station_id":"MJ","distance":7293,"line":6,"time":10,"is_transit":false,"station_name":"Maja","i_long":106.394373,"transit":false,"i_lat":-6.332307},{"distance":1853,"i_long":106.411216,"transit":false,"station_name":"Cikoya","i_lat":-6.33561,"is_transit":false,"line":3,"time":4,"station_id":"CKY"},{"transit":false,"station_id":"TGS","i_lat":-6.328533,"line":6,"i_long":106.425991,"time":3,"station_name":"Tigaraksa","distance":2651,"is_transit":false},{"line":6,"i_long":106.460812,"station_name":"Tenjo","distance":2974,"i_lat":-6.327251,"station_id":"TEJ","transit":false,"is_transit":false,"time":5},{"station_id":"DAR","transit":false,"line":0,"is_transit":false,"distance":3902,"i_lat":-6.338021,"i_long":106.491338,"station_name":"Daru","time":5},{"distance":2675,"i_lat":-6.354349,"i_long":106.508482,"station_name":"Cilejit","transit":false,"station_id":"CJT","time":6,"line":3,"is_transit":false},{"i_lat":-6.3441410000000005,"i_long":106.568863,"station_name":"Parung Panjang","station_id":"PRP","distance":7025,"is_transit":false,"transit":false,"line":6,"time":9},{"line":3,"station_id":"CC","i_lat":-6.329547,"distance":5968,"transit":false,"station_name":"Cicayur","is_transit":false,"time":8,"i_long":106.617853},{"transit":false,"station_id":"CSK","is_transit":false,"line":3,"i_lat":-6.32484,"station_name":"Cisauk","time":4,"i_long":106.640411,"distance":2519},{"time":4,"is_transit":false,"i_long":106.66566,"station_id":"SRP","station_name":"Serpong","i_lat":-6.319871,"line":6,"distance":1784,"transit":false},{"line":6,"station_id":"RU","i_lat":-6.314823,"station_name":"Rawa Buntu","i_long":106.675475,"distance":2413,"time":4,"transit":false,"is_transit":false},{"line":6,"time":6,"station_name":"Sudimara","station_id":"SDM","transit":false,"distance":4566,"i_lat":-6.296963,"is_transit":false,"i_long":106.712277},{"line":6,"station_name":"Jurangmangu","is_transit":false,"i_lat":-6.288927,"distance":1994,"i_long":106.728916,"transit":false,"station_id":"JMU","time":4},{"transit":false,"distance":2179,"time":3,"station_id":"PDJ","is_transit":false,"i_lat":-6.276362,"i_long":106.74273,"line":6,"station_name":"Pondokranji"},{"distance":6218,"line":6,"station_name":"Kebayoran","time":8,"station_id":"KBY","transit":false,"is_transit":false,"i_long":106.780334,"i_lat":-6.237242},{"distance":3737,"station_name":"Palmerah","i_long":106.79689,"transit":false,"is_transit":false,"time":7,"station_id":"PLM","i_lat":-6.207404,"line":6},{"time":6,"transit":true,"station_id":"THB","i_long":106.811091,"station_name":"Tanah Abang","distance":3191,"i_lat":-6.185545,"is_transit":true,"line":1},{"station_name":"Karet","is_transit":false,"i_lat":-6.20132,"i_long":106.816351,"station_id":"KAT","distance":2029,"transit":false,"time":5,"line":1},{"i_long":106.819881,"is_transit":false,"i_lat":-6.201433,"line":1,"transit":false,"time":1,"station_name":"Sudirman Baru","distance":471,"station_id":"SUDB"},{"distance":280,"i_long":106.822649,"i_lat":-6.202263,"station_name":"Sudirman","station_id":"SUD","is_transit":false,"time":1,"line":1,"transit":false},{"line":2,"station_id":"MRI","time":4,"i_long":106.84912,"is_transit":true,"station_name":"Manggarai","transit":true,"i_lat":-6.209883,"distance":3186},{"distance":1590,"station_id":"CKI","i_lat":-6.198556,"transit":false,"line":2,"is_transit":false,"time":4,"i_long":106.840169,"station_name":"Cikini"},{"distance":1750,"time":3,"line":2,"i_long":106.832183,"transit":false,"station_name":"Gondangdia","station_id":"GDD","is_transit":false,"i_lat":-6.186295},{"i_lat":-6.166716,"i_long":106.828284,"is_transit":false,"time":4,"distance":2015,"line":2,"transit":false,"station_name":"Juanda","station_id":"JUA"},{"station_id":"SW","distance":1149,"is_transit":false,"i_lat":-6.160725,"line":2,"station_name":"Sawah Besar","time":2,"transit":false,"i_long":106.827103},{"transit":false,"is_transit":false,"distance":906,"line":2,"station_name":"Manggabesar","time":2,"station_id":"MGB","i_long":106.82482,"i_lat":-6.149769},{"station_name":"Jayakarta","is_transit":false,"time":2,"station_id":"JAY","i_lat":-6.141205,"transit":false,"distance":1080,"i_long":106.820901,"line":2},{"station_name":"Jakarta Kota","station_id":"JAKK","i_lat":-6.137569,"time":4,"line":2,"is_transit":true,"transit":true,"distance":1264,"i_long":106.812439},{"is_transit":true,"time":3,"line":4,"station_name":"Kampung Bandan","transit":true,"i_lat":-6.132549,"station_id":"KPB","i_long":106.826365,"distance":1364},{"transit":false,"line":1,"distance":4102,"station_name":"Angke","station_id":"AK","time":9,"i_long":106.79867,"is_transit":false,"i_lat":-6.144674},{"i_long":106.800832,"time":4,"is_transit":true,"transit":true,"station_name":"Duri","distance":1230,"i_lat":-6.155215,"station_id":"DU","line":1},{"is_transit":false,"transit":false,"station_name":"Grogol","i_lat":-6.162021,"time":3,"line":5,"station_id":"GGL","i_long":106.788277,"distance":1700},{"is_transit":false,"transit":false,"station_id":"PSG","time":2,"i_long":106.771379,"line":5,"i_lat":-6.161433,"station_name":"Pesing","distance":2036},{"distance":1614,"is_transit":false,"time":2,"i_lat":-6.1587309999999995,"station_id":"TKO","i_long":106.756522,"transit":false,"station_name":"Taman Kota","line":5},{"i_lat":-6.159876,"line":5,"transit":false,"time":2,"distance":2334,"i_long":106.737035,"is_transit":false,"station_id":"BOI","station_name":"Bojongindah"},{"transit":false,"i_long":106.723064,"line":5,"station_id":"RW","distance":1152,"i_lat":-6.162758,"station_name":"Rawa Buaya","is_transit":false,"time":4}],[{"station_name":"Rangkasbitung","distance":0,"i_lat":-6.352675,"is_transit":false,"time":0,"line":3,"i_long":106.250396,"station_id":"RK","transit":false},{"station_name":"Citeras","i_lat":-6.334892,"i_long":106.332092,"is_transit":false,"distance":9847,"line":3,"time":13,"transit":false,"station_id":"CTR"},{"i_lat":-6.332307,"line":6,"transit":false,"station_name":"Maja","i_long":106.394373,"is_transit":false,"distance":7293,"station_id":"MJ","time":10},{"time":4,"line":3,"i_long":106.411216,"is_transit":false,"transit":false,"i_lat":-6.33561,"station_name":"Cikoya","station_id":"CKY","distance":1853},{"distance":2651,"is_transit":false,"i_long":106.425991,"station_id":"TGS","i_lat":-6.328533,"line":6,"station_name":"Tigaraksa","time":3,"transit":false},{"station_id":"TEJ","i_lat":-6.327251,"station_name":"Tenjo","is_transit":false,"transit":false,"distance":2974,"i_long":106.460812,"time":5,"line":6},{"time":5,"i_lat":-6.338021,"transit":false,"i_long":106.491338,"station_name":"Daru","line":0,"distance":3902,"station_id":"DAR","is_transit":false},{"line":3,"time":6,"transit":false,"station_name":"Cilejit","distance":2675,"i_long":106.508482,"station_id":"CJT","is_transit":false,"i_lat":-6.354349},{"is_transit":false,"i_lat":-6.3441410000000005,"line":6,"transit":false,"station_name":"Parung Panjang","station_id":"PRP","time":9,"distance":7025,"i_long":106.568863},{"line":3,"is_transit":false,"station_id":"CC","distance":5968,"time":8,"i_long":106.617853,"transit":false,"station_name":"Cicayur","i_lat":-6.329547},{"distance":2519,"is_transit":false,"transit":false,"station_name":"Cisauk","station_id":"CSK","i_lat":-6.32484,"i_long":106.640411,"line":3,"time":4},{"station_name":"Serpong","is_transit":false,"time":4,"distance":1784,"i_long":106.66566,"transit":false,"station_id":"SRP","i_lat":-6.319871,"line":6},{"line":6,"distance":2413,"i_long":106.675475,"is_transit":false,"station_name":"Rawa Buntu","transit":false,"i_lat":-6.314823,"time":4,"station_id":"RU"},{"station_id":"SDM","i_long":106.712277,"transit":false,"station_name":"Sudimara","is_transit":false,"i_lat":-6.296963,"line":6,"time":6,"distance":4566},{"line":6,"station_name":"Jurangmangu","i_long":106.728916,"time":4,"distance":1994,"is_transit":false,"i_lat":-6.288927,"station_id":"JMU","transit":false},{"distance":2179,"transit":false,"i_long":106.74273,"is_transit":false,"line":6,"station_name":"Pondokranji","station_id":"PDJ","time":3,"i_lat":-6.276362},{"station_name":"Kebayoran","distance":6218,"i_long":106.780334,"line":6,"i_lat":-6.237242,"is_transit":false,"time":8,"transit":false,"station_id":"KBY"},{"time":7,"is_transit":false,"distance":3737,"station_name":"Palmerah","i_long":106.79689,"transit":false,"station_id":"PLM","line":6,"i_lat":-6.207404},{"time":6,"transit":true,"station_name":"Tanah Abang","distance":3191,"i_lat":-6.185545,"line":1,"i_long":106.811091,"station_id":"THB","is_transit":true},{"station_name":"Karet","i_lat":-6.20132,"station_id":"KAT","transit":false,"is_transit":false,"time":5,"i_long":106.816351,"line":1,"distance":2029},{"transit":false,"station_name":"Sudirman Baru","line":1,"station_id":"SUDB","is_transit":false,"i_long":106.819881,"i_lat":-6.201433,"time":1,"distance":471},{"time":1,"distance":280,"line":1,"is_transit":false,"station_name":"Sudirman","transit":false,"station_id":"SUD","i_lat":-6.202263,"i_long":106.822649},{"line":2,"is_transit":false,"distance":3186,"station_id":"MRI","i_lat":-6.209883,"i_long":106.84912,"time":4,"station_name":"Manggarai","transit":false},{"station_id":"MTR","time":2,"station_name":"Matraman","i_lat":-6.212485,"distance":1275,"is_transit":false,"transit":false,"i_long":106.858896,"line":1},{"i_long":106.86807400000001,"is_transit":true,"line":1,"transit":true,"i_lat":-6.215091,"station_id":"JNG","time":8,"station_name":"Jatinegara","distance":1377},{"i_lat":-6.209188,"station_id":"POK","time":2,"i_long":106.861737,"transit":false,"station_name":"Pondok Jati","line":11,"distance":1236,"is_transit":false},{"line":11,"i_lat":-6.193792,"transit":false,"station_id":"KMT","station_name":"Kramat","time":2,"distance":1829,"is_transit":false,"i_long":106.855437},{"station_id":"GST","is_transit":false,"transit":false,"station_name":"Gang Sentiong","i_lat":-6.185975,"line":11,"time":1,"distance":973,"i_long":106.850107},{"i_lat":-6.174784,"line":11,"station_id":"PSE","station_name":"Pasar Senen","transit":false,"is_transit":false,"time":8,"i_long":106.84368,"distance":1567},{"transit":false,"line":11,"i_lat":-6.161728,"station_name":"Kemayoran","distance":1436,"station_id":"KMO","is_transit":false,"time":4,"i_long":106.839204},{"distance":1901,"station_name":"Rajawali","i_long":106.836569,"i_lat":-6.14505,"line":11,"transit":false,"is_transit":false,"station_id":"RJW","time":5},{"station_id":"KPB","is_transit":true,"i_long":106.826365,"line":4,"time":3,"transit":true,"station_name":"Kampung Bandan","distance":1444,"i_lat":-6.132549},{"time":9,"line":1,"distance":4102,"i_lat":-6.144674,"station_name":"Angke","is_transit":false,"i_long":106.79867,"station_id":"AK","transit":false},{"is_transit":true,"distance":1230,"i_long":106.800832,"station_id":"DU","transit":true,"i_lat":-6.155215,"station_name":"Duri","time":4,"line":1},{"i_lat":-6.162021,"i_long":106.788277,"distance":1700,"line":5,"transit":false,"is_transit":false,"time":3,"station_id":"GGL","station_name":"Grogol"},{"transit":false,"i_long":106.771379,"is_transit":false,"i_lat":-6.161433,"line":5,"station_name":"Pesing","station_id":"PSG","time":2,"distance":2036},{"station_name":"Taman Kota","transit":false,"station_id":"TKO","line":5,"is_transit":false,"time":2,"distance":1614,"i_lat":-6.1587309999999995,"i_long":106.756522},{"i_lat":-6.159876,"i_long":106.737035,"line":5,"distance":2334,"time":2,"is_transit":false,"transit":false,"station_name":"Bojongindah","station_id":"BOI"},{"transit":false,"line":5,"station_id":"RW","i_long":106.723064,"is_transit":false,"time":4,"i_lat":-6.162758,"distance":1152,"station_name":"Rawa Buaya"}]]}