{"data":[[{"i_lat":-6.352675,"transit":false,"line":3,"distance":0,"time":0,"station_name":"Rangkasbitung","station_id":"RK","is_transit":false,"i_long":106.250396},{"transit":false,"station_id":"CTR","distance":9847,"i_long":106.332092,"station_name":"Citeras","line":3,"i_lat":-6.334892,"time":13,"is_transit":false},{"transit":false,"station_name":"Maja","time":10,"i_lat":-6.332307,"station_id":"MJ","line":6,"is_transit":false,"i_long":106.394373,"distance":7293},{"station_id":"CKY","transit":false,"station_name":"Cikoya","time":4,"i_lat":-6.33561,"is_transit":false,"distance":1853,"i_long":106.411216,"line":3},{"transit":false,"is_transit":false,"distance":2651,"line":6,"station_id":"TGS","i_long":106.425991,"i_lat":-6.328533,"time":3,"station_name":"Tigaraksa"},{"station_id":"TEJ","time":5,"i_lat":-6.327251,"transit":false,"line":6,"distance":2974,"i_long":106.460812,"is_transit":false,"station_name":"Tenjo"},{"i_lat":-6.338021,"i_long":106.491338,"is_transit":false,"distance":3902,"station_name":"Daru","time":5,"transit":false,"station_id":"DAR","line":0},{"station_id":"CJT","i_long":106.508482,"transit":false,"station_name":"Cilejit","time":6,"is_transit":false,"i_lat":-6.354349,"line":3,"distance":2675},{"is_transit":false,"station_name":"Parung Panjang","distance":7025,"transit":false,"time":9,"i_long":106.568863,"station_id":"PRP","line":6,"i_lat":-6.3441410000000005},{"transit":false,"is_transit":false,"time":8,"i_lat":-6.329547,"station_id":"CC","line":3,"i_long":106.617853,"distance":5968,"station_name":"Cicayur"},{"i_lat":-6.32484,"line":3,"time":4,"distance":2519,"station_id":"CSK","station_name":"Cisauk","transit":false,"i_long":106.640411,"is_transit":false},{"time":4,"i_lat":-6.319871,"i_long":106.66566,"line":6,"is_transit":false,"distance":1784,"transit":false,"station_id":"SRP","station_name":"Serpong"},{"station_id":"RU","i_lat":-6.314823,"i_long":106.675475,"transit":false,"is_transit":false,"line":6,"time":4,"station_name":"Rawa Buntu","distance":2413}]]}