{"data":[[{"line":3,"i_lat":-6.352675,"is_transit":false,"station_name":"Rangkasbitung","distance":0,"i_long":106.250396,"station_id":"RK","time":0,"transit":false},{"time":13,"line":3,"is_transit":false,"i_long":106.332092,"transit":false,"station_name":"Citeras","station_id":"CTR","distance":9847,"i_lat":-6.334892},{"is_transit":false,"i_long":106.394373,"distance":7293,"i_lat":-6.332307,"time":10,"line":6,"station_name":"Maja","transit":false,"station_id":"MJ"},{"station_id":"CKY","distance":1853,"i_long":106.411216,"i_lat":-6.33561,"line":3,"is_transit":false,"station_name":"Cikoya","time":4,"transit":false},{"station_name":"Tigaraksa","station_id":"TGS","distance":2651,"i_lat":-6.328533,"time":3,"is_transit":false,"i_long":106.425991,"line":6,"transit":false},{"station_name":"Tenjo","distance":2974,"i_long":106.460812,"time":5,"i_lat":-6.327251,"is_transit":false,"line":6,"station_id":"TEJ","transit":false},{"transit":false,"i_long":106.491338,"line":0,"station_name":"Daru","distance":3902,"station_id":"DAR","is_transit":false,"time":5,"i_lat":-6.338021},{"station_name":"Cilejit","line":3,"distance":2675,"station_id":"CJT","time":6,"is_transit":false,"transit":false,"i_lat":-6.354349,"i_long":106.508482},{"i_long":106.568863,"station_name":"Parung Panjang","transit":false,"line":6,"time":9,"distance":7025,"station_id":"PRP","i_lat":-6.3441410000000005,"is_transit":false},{"i_lat":-6.329547,"is_transit":false,"transit":false,"line":3,"station_name":"Cicayur","i_long":106.617853,"time":8,"distance":5968,"station_id":"CC"},{"transit":false,"station_name":"Cisauk","i_lat":-6.32484,"distance":2519,"station_id":"CSK","time":4,"is_transit":false,"line":3,"i_long":106.640411},{"station_id":"SRP","i_lat":-6.319871,"line":6,"distance":1784,"station_name":"Serpong","time":4,"transit":false,"is_transit":false,"i_long":106.66566},{"line":6,"i_lat":-6.314823,"time":4,"is_transit":false,"transit":false,"station_id":"RU","distance":2413,"station_name":"Rawa Buntu","i_long":106.675475},{"i_lat":-6.296963,"station_name":"Sudimara","station_id":"SDM","is_transit":false,"line":6,"time":6,"i_long":106.712277,"distance":4566,"transit":false},{"station_name":"Jurangmangu","station_id":"JMU","transit":false,"is_transit":false,"i_lat":-6.288927,"distance":1994,"time":4,"i_long":106.728916,"line":6},{"i_lat":-6.276362,"line":6,"i_long":106.74273,"time":3,"station_name":"Pondokranji","station_id":"PDJ","transit":false,"distance":2179,"is_transit":false},{"is_transit":false,"transit":false,"i_lat":-6.237242,"time":8,"line":6,"distance":6218,"station_id":"KBY","station_name":"Kebayoran","i_long":106.780334},{"i_long":106.79689,"is_transit":false,"line":6,"transit":false,"station_name":"Palmerah","distance":3737,"station_id":"PLM","time":7,"i_lat":-6.207404},{"distance":3191,"transit":true,"i_long":106.811091,"line":1,"time":6,"is_transit":true,"i_lat":-6.185545,"station_id":"THB","station_name":"Tanah Abang"},{"station_name":"Karet","i_lat":-6.20132,"i_long":106.816351,"time":5,"distance":2029,"station_id":"KAT","is_transit":false,"transit":false,"line":1},{"i_lat":-6.201433,"transit":false,"time":1,"distance":471,"i_long":106.819881,"station_id":"SUDB","is_transit":false,"station_name":"Sudirman Baru","line":1}],[{"i_long":106.250396,"transit":false,"i_lat":-6.352675,"is_transit":false,"time":0,"station_id":"RK","distance":0,"station_name":"Rangkasbitung","line":3},{"i_long":106.332092,"station_id":"CTR","station_name":"Citeras","line":3,"transit":false,"is_transit":false,"distance":9847,"time":13,"i_lat":-6.334892},{"i_long":106.394373,"distance":7293,"line":6,"is_transit":false,"time":10,"station_id":"MJ","transit":false,"station_name":"Maja","i_lat":-6.332307},{"station_name":"Cikoya","distance":1853,"i_lat":-6.33561,"is_transit":false,"transit":false,"station_id":"CKY","time":4,"i_long":106.411216,"line":3},{"is_transit":false,"station_name":"Tigaraksa","line":6,"transit":false,"station_id":"TGS","i_lat":-6.328533,"i_long":106.425991,"distance":2651,"time":3},{"time":5,"is_transit":false,"line":6,"transit":false,"distance":2974,"station_name":"Tenjo","station_id":"TEJ","i_long":106.460812,"i_lat":-6.327251},{"time":5,"i_lat":-6.338021,"transit":false,"line":0,"distance":3902,"station_name":"Daru","is_transit":false,"i_long":106.491338,"station_id":"DAR"},{"time":6,"i_lat":-6.354349,"transit":false,"distance":2675,"station_id":"CJT","is_transit":false,"station_name":"Cilejit","i_long":106.508482,"line":3},{"station_id":"PRP","i_lat":-6.3441410000000005,"is_transit":false,"distance":7025,"i_long":106.568863,"station_name":"Parung Panjang","time":9,"line":6,"transit":false},{"distance":5968,"station_id":"CC","transit":false,"i_lat":-6.329547,"station_name":"Cicayur","i_long":106.617853,"time":8,"line":3,"is_transit":false},{"transit":false,"time":4,"line":3,"i_lat":-6.32484,"station_name":"Cisauk","station_id":"CSK","is_transit":false,"i_long":106.640411,"distance":2519},{"is_transit":false,"time":4,"i_long":106.66566,"transit":false,"station_id":"SRP","distance":1784,"line":6,"station_name":"Serpong","i_lat":-6.319871},{"station_id":"RU","station_name":"Rawa Buntu","is_transit":false,"distance":2413,"transit":false,"i_lat":-6.314823,"time":4,"i_long":106.675475,"line":6},{"is_transit":false,"transit":false,"distance":4566,"station_name":"Sudimara","i_lat":-6.296963,"station_id":"SDM","time":6,"line":6,"i_long":106.712277},{"transit":false,"distance":1994,"station_name":"Jurangmangu","line":6,"is_transit":false,"time":4,"station_id":"JMU","i_long":106.728916,"i_lat":-6.288927},{"station_id":"PDJ","is_transit":false,"line":6,"transit":false,"station_name":"Pondokranji","time":3,"distance":2179,"i_long":106.74273,"i_lat":-6.276362},{"time":8,"is_transit":false,"i_lat":-6.237242,"i_long":106.780334,"line":6,"station_name":"Kebayoran","station_id":"KBY","distance":6218,"transit":false},{"i_long":106.79689,"line":6,"is_transit":false,"i_lat":-6.207404,"distance":3737,"station_name":"Palmerah","transit":false,"time":7,"station_id":"PLM"},{"i_long":106.811091,"is_transit":true,"transit":true,"station_name":"Tanah Abang","distance":3191,"line":1,"time":6,"station_id":"THB","i_lat":-6.185545},{"line":1,"station_id":"DU","is_transit":false,"time":8,"i_long":106.800832,"station_name":"Duri","distance":3632,"transit":false,"i_lat":-6.155215},{"line":1,"transit":false,"i_long":106.79867,"distance":1230,"station_id":"AK","i_lat":-6.144674,"station_name":"Angke","time":4,"is_transit":false},{"transit":true,"station_id":"KPB","time":9,"i_lat":-6.132549,"line":4,"is_transit":true,"distance":4102,"station_name":"Kampung Bandan","i_long":106.826365},{"line":2,"station_name":"Jakarta Kota","time":3,"station_id":"JAKK","is_transit":true,"distance":1364,"transit":true,"i_long":106.812439,"i_lat":-6.137569},{"station_id":"JAY","distance":1264,"is_transit":false,"time":4,"i_long":106.820901,"station_name":"Jayakarta","i_lat":-6.141205,"line":2,"transit":false},{"is_transit":false,"i_lat":-6.149769,"station_name":"Manggabesar","i_long":106.82482,"station_id":"MGB","transit":false,"distance":1080,"time":2,"line":2},{"distance":906,"station_name":"Sawah Besar","i_lat":-6.160725,"transit":false,"i_long":106.827103,"line":2,"is_transit":false,"time":2,"station_id":"SW"},{"i_lat":-6.166716,"time":2,"is_transit":false,"transit":false,"i_long":106.828284,"line":2,"station_name":"Juanda","distance":1149,"station_id":"JUA"},{"station_name":"Gondangdia","station_id":"GDD","is_transit":false,"distance":2015,"i_long":106.832183,"transit":false,"time":4,"i_lat":-6.186295,"line":2},{"time":3,"transit":false,"distance":1750,"i_lat":-6.198556,"line":2,"station_id":"CKI","i_long":106.840169,"is_transit":false,"station_name":"Cikini"},{"transit":true,"station_id":"MRI","i_lat":-6.209883,"is_transit":true,"i_long":106.84912,"line":2,"distance":1590,"time":4,"station_name":"Manggarai"},{"transit":false,"line":1,"i_long":106.822649,"station_name":"Sudirman","distance":3186,"time":4,"is_transit":false,"station_id":"SUD","i_lat":-6.202263},{"i_long":106.819881,"distance":280,"station_name":"Sudirman Baru","is_transit":false,"line":1,"i_lat":-6.201433,"transit":false,"station_id":"SUDB","time":1}],[{"i_long":106.250396,"is_transit":false,"i_lat":-6.352675,"line":3,"transit":false,"time":0,"distance":0,"station_id":"RK","station_name":"Rangkasbitung"},{"line":3,"time":13,"is_transit":false,"station_id":"CTR","transit":false,"i_long":106.332092,"station_name":"Citeras","i_lat":-6.334892,"distance":9847},{"station_name":"Maja","transit":false,"i_lat":-6.332307,"distance":7293,"i_long":106.394373,"line":6,"station_id":"MJ","time":10,"is_transit":false},{"station_name":"Cikoya","i_long":106.411216,"station_id":"CKY","transit":false,"i_lat":-6.33561,"time":4,"line":3,"distance":1853,"is_transit":false},{"transit":false,"station_id":"TGS","time":3,"line":6,"i_long":106.425991,"station_name":"Tigaraksa","distance":2651,"i_lat":-6.328533,"is_transit":false},{"i_lat":-6.327251,"time":5,"distance":2974,"is_transit":false,"station_id":"TEJ","station_name":"Tenjo","i_long":106.460812,"line":6,"transit":false},{"line":0,"time":5,"station_id":"DAR","distance":3902,"station_name":"Daru","i_lat":-6.338021,"transit":false,"is_transit":false,"i_long":106.491338},{"time":6,"distance":2675,"line":3,"station_name":"Cilejit","transit":false,"is_transit":false,"station_id":"CJT","i_lat":-6.354349,"i_long":106.508482},{"distance":7025,"transit":false,"line":6,"i_lat":-6.3441410000000005,"i_long":106.568863,"station_id":"PRP","is_transit":false,"station_name":"Parung Panjang","time":9},{"i_long":106.617853,"i_lat":-6.329547,"distance":5968,"time":8,"transit":false,"is_transit":false,"station_name":"Cicayur","line":3,"station_id":"CC"},{"station_name":"Cisauk","line":3,"station_id":"CSK","time":4,"is_transit":false,"i_lat":-6.32484,"i_long":106.640411,"distance":2519,"transit":false},{"line":6,"transit":false,"station_name":"Serpong","distance":1784,"i_long":106.66566,"time":4,"i_lat":-6.319871,"station_id":"SRP","is_transit":false},{"line":6,"station_name":"Rawa Buntu","transit":false,"is_transit":false,"station_id":"RU","time":4,"i_long":106.675475,"i_lat":-6.314823,"distance":2413},{"time":6,"is_transit":false,"i_lat":-6.296963,"distance":4566,"station_name":"Sudimara","i_long":106.712277,"line":6,"station_id":"SDM","transit":false},{"i_long":106.728916,"time":4,"distance":1994,"line":6,"station_name":"Jurangmangu","i_lat":-6.288927,"is_transit":false,"transit":false,"station_id":"JMU"},{"transit":false,"is_transit":false,"i_lat":-6.276362,"distance":2179,"i_long":106.74273,"station_id":"PDJ","line":6,"station_name":"Pondokranji","time":3},{"station_id":"KBY","transit":false,"station_name":"Kebayoran","time":8,"i_long":106.780334,"distance":6218,"i_lat":-6.237242,"line":6,"is_transit":false},{"distance":3737,"i_lat":-6.207404,"i_long":106.79689,"transit":false,"is_transit":false,"station_name":"Palmerah","line":6,"station_id":"PLM","time":7},{"transit":true,"is_transit":true,"i_lat":-6.185545,"station_name":"Tanah Abang","station_id":"THB","time":6,"i_long":106.811091,"distance":3191,"line":1},{"station_id":"DU","station_name":"Duri","time":8,"line":1,"transit":false,"is_transit":false,"distance":3632,"i_long":106.800832,"i_lat":-6.155215},{"station_id":"AK","transit":false,"station_name":"Angke","distance":1230,"i_lat":-6.144674,"line":1,"is_transit":false,"i_long":106.79867,"time":4},{"i_long":106.826365,"line":4,"transit":true,"station_name":"Kampung Bandan","time":9,"distance":4102,"is_transit":true,"i_lat":-6.132549,"station_id":"KPB"},{"distance":1444,"i_lat":-6.14505,"i_long":106.836569,"line":11,"station_name":"Rajawali","is_transit":false,"time":3,"station_id":"RJW","transit":false},{"i_long":106.839204,"is_transit":false,"station_name":"Kemayoran","time":5,"distance":1901,"i_lat":-6.161728,"station_id":"KMO","transit":false,"line":11},{"time":4,"i_lat":-6.174784,"is_transit":false,"distance":1436,"i_long":106.84368,"station_name":"Pasar Senen","line":11,"station_id":"PSE","transit":false},{"transit":false,"station_name":"Gang Sentiong","distance":1567,"line":11,"station_id":"GST","is_transit":false,"time":8,"i_lat":-6.185975,"i_long":106.850107},{"i_lat":-6.193792,"station_id":"KMT","is_transit":false,"time":1,"distance":973,"transit":false,"i_long":106.855437,"station_name":"Kramat","line":11},{"line":11,"time":2,"transit":false,"is_transit":false,"distance":1829,"station_name":"Pondok Jati","i_lat":-6.209188,"station_id":"POK","i_long":106.861737},{"station_id":"JNG","i_lat":-6.215091,"is_transit":true,"transit":true,"station_name":"Jatinegara","time":9,"distance":1236,"line":1,"i_long":106.86807400000001},{"station_name":"Matraman","distance":1377,"i_lat":-6.212485,"line":1,"is_transit":false,"time":2,"i_long":106.858896,"transit":false,"station_id":"MTR"},{"time":2,"i_long":106.84912,"is_transit":false,"distance":1275,"transit":false,"line":2,"i_lat":-6.209883,"station_name":"Manggarai","station_id":"MRI"},{"station_name":"Sudirman","time":4,"i_long":106.822649,"distance":3186,"i_lat":-6.202263,"line":1,"transit":false,"station_id":"SUD","is_transit":false},{"time":1,"station_name":"Sudirman Baru","transit":false,"station_id":"SUDB","i_long":106.819881,"i_lat":-6.201433,"distance":280,"is_transit":false,"line":1}]]}