{"data":[[{"i_lat":-6.352675,"i_long":106.250396,"is_transit":false,"station_id":"RK","transit":false,"time":0,"line":3,"distance":0,"station_name":"Rangkasbitung"},{"i_long":106.332092,"is_transit":false,"station_id":"CTR","transit":false,"station_name":"Citeras","distance":9847,"i_lat":-6.334892,"time":13,"line":3},{"line":6,"station_name":"Maja","time":10,"transit":false,"station_id":"MJ","is_transit":false,"distance":7293,"i_long":106.394373,"i_lat":-6.332307},{"transit":false,"i_lat":-6.33561,"i_long":106.411216,"line":3,"station_id":"CKY","station_name":"Cikoya","time":4,"distance":1853,"is_transit":false},{"time":3,"is_transit":false,"i_long":106.425991,"transit":false,"distance":2651,"station_name":"Tigaraksa","i_lat":-6.328533,"line":6,"station_id":"TGS"},{"line":6,"i_long":106.460812,"time":5,"station_id":"TEJ","transit":false,"distance":2974,"i_lat":-6.327251,"is_transit":false,"station_name":"Tenjo"},{"transit":false,"i_lat":-6.338021,"distance":3902,"station_id":"DAR","line":0,"time":5,"is_transit":false,"station_name":"Daru","i_long":106.491338},{"is_transit":false,"transit":false,"i_lat":-6.354349,"station_name":"Cilejit","line":3,"station_id":"CJT","i_long":106.508482,"distance":2675,"time":6},{"is_transit":false,"station_name":"Parung Panjang","time":9,"i_long":106.568863,"i_lat":-6.3441410000000005,"transit":false,"line":6,"station_id":"PRP","distance":7025},{"time":8,"station_name":"Cicayur","i_long":106.617853,"is_transit":false,"i_lat":-6.329547,"transit":false,"distance":5968,"station_id":"CC","line":3},{"time":4,"station_id":"CSK","transit":false,"distance":2519,"i_lat":-6.32484,"is_transit":false,"i_long":106.640411,"station_name":"Cisauk","line":3},{"station_id":"SRP","line":6,"i_lat":-6.319871,"is_transit":false,"i_long":106.66566,"time":4,"transit":false,"distance":1784,"station_name":"Serpong"},{"i_lat":-6.314823,"line":6,"time":4,"station_id":"RU","transit":false,"i_long":106.675475,"station_name":"Rawa Buntu","is_transit":false,"distance":2413},{"distance":4566,"is_transit":false,"transit":false,"station_name":"Sudimara","line":6,"time":6,"station_id":"SDM","i_lat":-6.296963,"i_long":106.712277},{"line":6,"is_transit":false,"i_long":106.728916,"distance":1994,"station_id":"JMU","station_name":"Jurangmangu","i_lat":-6.288927,"transit":false,"time":4},{"i_lat":-6.276362,"transit":false,"i_long":106.74273,"distance":2179,"is_transit":false,"line":6,"station_id":"PDJ","time":3,"station_name":"Pondokranji"},{"i_long":106.780334,"is_transit":false,"line":6,"distance":6218,"transit":false,"i_lat":-6.237242,"station_id":"KBY","time":8,"station_name":"Kebayoran"},{"station_name":"Palmerah","station_id":"PLM","i_lat":-6.207404,"line":6,"transit":false,"i_long":106.79689,"is_transit":false,"distance":3737,"time":7},{"i_long":106.811091,"station_name":"Tanah Abang","distance":3191,"is_transit":true,"time":6,"line":1,"transit":true,"station_id":"THB","i_lat":-6.185545},{"station_id":"KAT","i_long":106.816351,"line":1,"station_name":"Karet","distance":2029,"is_transit":false,"transit":false,"time":5,"i_lat":-6.20132},{"distance":471,"is_transit":false,"transit":false,"time":1,"station_id":"SUDB","i_lat":-6.201433,"line":1,"station_name":"Sudirman Baru","i_long":106.819881}],[{"time":0,"transit":false,"i_long":106.250396,"is_transit":false,"distance":0,"station_id":"RK","station_name":"Rangkasbitung","i_lat":-6.352675,"line":3},{"i_long":106.332092,"distance":9847,"is_transit":false,"station_id":"CTR","station_name":"Citeras","i_lat":-6.334892,"transit":false,"time":13,"line":3},{"transit":false,"is_transit":false,"time":10,"station_id":"MJ","distance":7293,"station_name":"Maja","i_lat":-6.332307,"i_long":106.394373,"line":6},{"station_id":"CKY","line":3,"is_transit":false,"time":4,"station_name":"Cikoya","transit":false,"i_lat":-6.33561,"distance":1853,"i_long":106.411216},{"is_transit":false,"time":3,"station_name":"Tigaraksa","i_lat":-6.328533,"station_id":"TGS","line":6,"distance":2651,"i_long":106.425991,"transit":false},{"is_transit":false,"i_long":106.460812,"distance":2974,"i_lat":-6.327251,"station_name":"Tenjo","line":6,"time":5,"transit":false,"station_id":"TEJ"},{"time":5,"station_id":"DAR","station_name":"Daru","line":0,"transit":false,"i_lat":-6.338021,"distance":3902,"i_long":106.491338,"is_transit":false},{"i_long":106.508482,"is_transit":false,"i_lat":-6.354349,"time":6,"transit":false,"line":3,"station_name":"Cilejit","station_id":"CJT","distance":2675},{"distance":7025,"station_id":"PRP","i_lat":-6.3441410000000005,"is_transit":false,"line":6,"time":9,"i_long":106.568863,"station_name":"Parung Panjang","transit":false},{"distance":5968,"transit":false,"station_name":"Cicayur","line":3,"is_transit":false,"station_id":"CC","i_long":106.617853,"i_lat":-6.329547,"time":8},{"time":4,"transit":false,"station_id":"CSK","distance":2519,"line":3,"i_lat":-6.32484,"is_transit":false,"station_name":"Cisauk","i_long":106.640411},{"i_lat":-6.319871,"time":4,"is_transit":false,"station_name":"Serpong","distance":1784,"line":6,"station_id":"SRP","i_long":106.66566,"transit":false},{"transit":false,"station_id":"RU","station_name":"Rawa Buntu","line":6,"i_long":106.675475,"i_lat":-6.314823,"is_transit":false,"distance":2413,"time":4},{"time":6,"distance":4566,"is_transit":false,"i_lat":-6.296963,"i_long":106.712277,"line":6,"station_id":"SDM","transit":false,"station_name":"Sudimara"},{"transit":false,"distance":1994,"i_lat":-6.288927,"i_long":106.728916,"station_id":"JMU","time":4,"station_name":"Jurangmangu","line":6,"is_transit":false},{"is_transit":false,"time":3,"distance":2179,"i_lat":-6.276362,"station_id":"PDJ","transit":false,"station_name":"Pondokranji","i_long":106.74273,"line":6},{"is_transit":false,"i_long":106.780334,"transit":false,"line":6,"station_name":"Kebayoran","station_id":"KBY","i_lat":-6.237242,"distance":6218,"time":8},{"distance":3737,"i_long":106.79689,"i_lat":-6.207404,"is_transit":false,"station_name":"Palmerah","time":7,"station_id":"PLM","transit":false,"line":6},{"station_name":"Tanah Abang","i_lat":-6.185545,"distance":3191,"is_transit":true,"i_long":106.811091,"line":1,"time":6,"transit":true,"station_id":"THB"},{"transit":false,"is_transit":false,"i_lat":-6.155215,"line":1,"station_id":"DU","station_name":"Duri","i_long":106.800832,"time":8,"distance":3632},{"is_transit":false,"distance":1230,"station_name":"Angke","station_id":"AK","line":1,"time":4,"i_lat":-6.144674,"transit":false,"i_long":106.79867},{"station_id":"KPB","time":9,"line":4,"transit":true,"is_transit":true,"i_long":106.826365,"i_lat":-6.132549,"station_name":"Kampung Bandan","distance":4102},{"i_lat":-6.137569,"i_long":106.812439,"line":2,"time":3,"distance":1364,"is_transit":true,"transit":true,"station_id":"JAKK","station_name":"Jakarta Kota"},{"station_name":"Jayakarta","is_transit":false,"line":2,"i_lat":-6.141205,"i_long":106.820901,"distance":1264,"transit":false,"time":4,"station_id":"JAY"},{"distance":1080,"i_lat":-6.149769,"is_transit":false,"transit":false,"station_name":"Manggabesar","station_id":"MGB","time":2,"i_long":106.82482,"line":2},{"station_id":"SW","distance":906,"i_long":106.827103,"station_name":"Sawah Besar","time":2,"transit":false,"i_lat":-6.160725,"is_transit":false,"line":2},{"i_lat":-6.166716,"time":2,"is_transit":false,"station_name":"Juanda","line":2,"i_long":106.828284,"station_id":"JUA","distance":1149,"transit":false},{"transit":false,"station_id":"GDD","line":2,"is_transit":false,"distance":2015,"station_name":"Gondangdia","i_lat":-6.186295,"i_long":106.832183,"time":4},{"distance":1750,"transit":false,"station_name":"Cikini","station_id":"CKI","time":3,"i_long":106.840169,"i_lat":-6.198556,"line":2,"is_transit":false},{"i_lat":-6.209883,"station_name":"Manggarai","i_long":106.84912,"station_id":"MRI","transit":true,"is_transit":true,"distance":1590,"line":2,"time":4},{"station_id":"SUD","is_transit":false,"distance":3186,"transit":false,"station_name":"Sudirman","line":1,"time":4,"i_lat":-6.202263,"i_long":106.822649},{"time":1,"station_name":"Sudirman Baru","station_id":"SUDB","i_lat":-6.201433,"line":1,"distance":280,"i_long":106.819881,"is_transit":false,"transit":false}],[{"i_lat":-6.352675,"station_id":"RK","station_name":"Rangkasbitung","time":0,"transit":false,"is_transit":false,"i_long":106.250396,"distance":0,"line":3},{"time":13,"transit":false,"station_name":"Citeras","station_id":"CTR","i_lat":-6.334892,"i_long":106.332092,"distance":9847,"is_transit":false,"line":3},{"i_lat":-6.332307,"i_long":106.394373,"line":6,"station_name":"Maja","transit":false,"distance":7293,"station_id":"MJ","is_transit":false,"time":10},{"distance":1853,"is_transit":false,"time":4,"station_name":"Cikoya","transit":false,"station_id":"CKY","i_lat":-6.33561,"i_long":106.411216,"line":3},{"i_lat":-6.328533,"i_long":106.425991,"time":3,"station_name":"Tigaraksa","line":6,"station_id":"TGS","transit":false,"distance":2651,"is_transit":false},{"distance":2974,"line":6,"time":5,"station_name":"Tenjo","i_lat":-6.327251,"is_transit":false,"transit":false,"station_id":"TEJ","i_long":106.460812},{"is_transit":false,"i_lat":-6.338021,"line":0,"distance":3902,"transit":false,"station_id":"DAR","i_long":106.491338,"time":5,"station_name":"Daru"},{"i_lat":-6.354349,"transit":false,"distance":2675,"i_long":106.508482,"line":3,"station_id":"CJT","is_transit":false,"station_name":"Cilejit","time":6},{"station_id":"PRP","i_lat":-6.3441410000000005,"is_transit":false,"station_name":"Parung Panjang","line":6,"time":9,"distance":7025,"transit":false,"i_long":106.568863},{"line":3,"station_name":"Cicayur","i_lat":-6.329547,"distance":5968,"time":8,"is_transit":false,"i_long":106.617853,"transit":false,"station_id":"CC"},{"time":4,"station_name":"Cisauk","distance":2519,"i_lat":-6.32484,"i_long":106.640411,"transit":false,"is_transit":false,"line":3,"station_id":"CSK"},{"distance":1784,"is_transit":false,"i_long":106.66566,"line":6,"station_id":"SRP","transit":false,"time":4,"station_name":"Serpong","i_lat":-6.319871},{"line":6,"station_name":"Rawa Buntu","i_long":106.675475,"time":4,"distance":2413,"transit":false,"station_id":"RU","is_transit":false,"i_lat":-6.314823},{"distance":4566,"i_long":106.712277,"is_transit":false,"line":6,"time":6,"station_name":"Sudimara","station_id":"SDM","i_lat":-6.296963,"transit":false},{"station_name":"Jurangmangu","transit":false,"station_id":"JMU","line":6,"is_transit":false,"time":4,"distance":1994,"i_lat":-6.288927,"i_long":106.728916},{"i_long":106.74273,"time":3,"transit":false,"i_lat":-6.276362,"station_id":"PDJ","is_transit":false,"line":6,"distance":2179,"station_name":"Pondokranji"},{"time":8,"is_transit":false,"i_lat":-6.237242,"distance":6218,"transit":false,"station_id":"KBY","line":6,"station_name":"Kebayoran","i_long":106.780334},{"transit":false,"line":6,"station_id":"PLM","is_transit":false,"i_lat":-6.207404,"time":7,"i_long":106.79689,"distance":3737,"station_name":"Palmerah"},{"time":6,"station_name":"Tanah Abang","distance":3191,"transit":true,"station_id":"THB","i_lat":-6.185545,"i_long":106.811091,"is_transit":true,"line":1},{"is_transit":false,"i_long":106.800832,"station_id":"DU","i_lat":-6.155215,"line":1,"time":8,"transit":false,"distance":3632,"station_name":"Duri"},{"distance":1230,"station_id":"AK","is_transit":false,"station_name":"Angke","i_lat":-6.144674,"line":1,"transit":false,"i_long":106.79867,"time":4},{"i_long":106.826365,"i_lat":-6.132549,"distance":4102,"time":9,"station_name":"Kampung Bandan","station_id":"KPB","transit":true,"is_transit":true,"line":4},{"station_id":"RJW","i_lat":-6.14505,"distance":1444,"i_long":106.836569,"time":3,"station_name":"Rajawali","line":11,"is_transit":false,"transit":false},{"i_long":106.839204,"distance":1901,"line":11,"transit":false,"station_name":"Kemayoran","time":5,"is_transit":false,"station_id":"KMO","i_lat":-6.161728},{"time":4,"station_name":"Pasar Senen","line":11,"distance":1436,"is_transit":false,"station_id":"PSE","i_lat":-6.174784,"transit":false,"i_long":106.84368},{"transit":false,"time":8,"station_name":"Gang Sentiong","is_transit":false,"i_long":106.850107,"line":11,"station_id":"GST","i_lat":-6.185975,"distance":1567},{"i_long":106.855437,"line":11,"time":1,"transit":false,"station_name":"Kramat","is_transit":false,"distance":973,"i_lat":-6.193792,"station_id":"KMT"},{"i_long":106.861737,"i_lat":-6.209188,"is_transit":false,"time":2,"distance":1829,"transit":false,"station_id":"POK","station_name":"Pondok Jati","line":11},{"station_id":"JNG","i_lat":-6.215091,"transit":true,"line":1,"distance":1236,"time":9,"is_transit":true,"station_name":"Jatinegara","i_long":106.86807400000001},{"is_transit":false,"time":2,"line":1,"i_long":106.858896,"station_name":"Matraman","distance":1377,"transit":false,"station_id":"MTR","i_lat":-6.212485},{"time":2,"station_id":"MRI","distance":1275,"line":2,"station_name":"Manggarai","i_long":106.84912,"i_lat":-6.209883,"is_transit":false,"transit":false},{"station_id":"SUD","distance":3186,"transit":false,"i_lat":-6.202263,"line":1,"is_transit":false,"i_long":106.822649,"station_name":"Sudirman","time":4},{"station_name":"Sudirman Baru","distance":280,"time":1,"station_id":"SUDB","i_long":106.819881,"line":1,"is_transit":false,"i_lat":-6.201433,"transit":false}]]}