{"data":[[{"distance":0,"station_id":"RK","station_name":"Rangkasbitung","is_transit":true,"i_long":106.250396,"line":0,"i_lat":-6.352675,"transit":false,"time":0},{"transit":false,"distance":9847,"station_id":"CTR","station_name":"Citeras","i_long":106.332092,"time":13,"is_transit":false,"i_lat":-6.334892,"line":0},{"transit":false,"station_name":"Maja","i_lat":-6.332307,"is_transit":false,"station_id":"MJ","i_long":106.394373,"line":6,"distance":7293,"time":10},{"station_id":"CKY","time":4,"is_transit":false,"station_name":"Cikoya","transit":false,"i_lat":-6.33561,"i_long":106.411216,"line":0,"distance":1853},{"i_long":106.425991,"i_lat":-6.328533,"time":3,"station_id":"TGS","line":6,"is_transit":false,"distance":2651,"transit":false,"station_name":"Tigaraksa"},{"distance":2974,"is_transit":false,"i_long":106.460812,"station_id":"TEJ","time":5,"transit":false,"i_lat":-6.327251,"station_name":"Tenjo","line":6},{"time":5,"i_lat":-6.338021,"station_name":"Daru","transit":false,"i_long":106.491338,"station_id":"DAR","is_transit":false,"line":0,"distance":3902},{"distance":2675,"station_id":"CJT","line":0,"time":6,"is_transit":false,"station_name":"Cilejit","transit":false,"i_lat":-6.354349,"i_long":106.508482},{"i_long":106.568863,"distance":7025,"i_lat":-6.3441410000000005,"transit":false,"is_transit":false,"station_name":"Parung Panjang","line":6,"station_id":"PRP","time":9},{"line":0,"station_id":"CC","is_transit":false,"transit":false,"station_name":"Cicayur","distance":5968,"i_long":106.617853,"time":8,"i_lat":-6.329547},{"line":0,"distance":2519,"station_name":"Cisauk","transit":false,"is_transit":false,"i_lat":-6.32484,"station_id":"CSK","i_long":106.640411,"time":4},{"line":6,"time":4,"is_transit":false,"i_lat":-6.319871,"distance":1784,"station_id":"SRP","i_long":106.66566,"station_name":"Serpong","transit":false},{"station_name":"Rawa Buntu","time":4,"i_lat":-6.314823,"line":6,"transit":false,"distance":2413,"is_transit":false,"i_long":106.675475,"station_id":"RU"},{"i_long":106.712277,"transit":false,"line":6,"i_lat":-6.296963,"time":6,"is_transit":false,"station_id":"SDM","station_name":"Sudimara","distance":4566},{"transit":false,"i_lat":-6.288927,"station_id":"JMU","time":4,"station_name":"Jurangmangu","i_long":106.728916,"distance":1994,"line":6,"is_transit":false},{"is_transit":false,"distance":2179,"line":6,"time":3,"station_name":"Pondokranji","station_id":"PDJ","transit":false,"i_lat":-6.276362,"i_long":106.74273},{"station_name":"Kebayoran","distance":6218,"is_transit":false,"i_lat":-6.237242,"station_id":"KBY","line":6,"i_long":106.780334,"time":8,"transit":false},{"is_transit":false,"station_name":"Palmerah","i_lat":-6.207404,"line":6,"distance":3737,"station_id":"PLM","transit":false,"time":7,"i_long":106.79689},{"time":6,"station_name":"Tanah Abang","transit":true,"is_transit":true,"i_long":106.811091,"line":1,"station_id":"THB","i_lat":-6.185545,"distance":3191},{"line":1,"station_name":"Karet","is_transit":false,"distance":2029,"time":5,"i_lat":-6.20132,"station_id":"KAT","transit":false,"i_long":106.816351},{"distance":471,"line":1,"transit":false,"station_id":"SUDB","time":1,"i_lat":-6.201433,"i_long":106.819881,"station_name":"Sudirman Baru","is_transit":false}],[{"is_transit":true,"transit":false,"time":0,"i_lat":-6.352675,"station_id":"RK","distance":0,"i_long":106.250396,"line":0,"station_name":"Rangkasbitung"},{"station_name":"Citeras","line":0,"station_id":"CTR","time":13,"distance":9847,"transit":false,"i_long":106.332092,"i_lat":-6.334892,"is_transit":false},{"i_long":106.394373,"time":10,"distance":7293,"is_transit":false,"station_id":"MJ","transit":false,"line":6,"station_name":"Maja","i_lat":-6.332307},{"station_name":"Cikoya","distance":1853,"line":0,"time":4,"transit":false,"station_id":"CKY","i_lat":-6.33561,"is_transit":false,"i_long":106.411216},{"time":3,"distance":2651,"station_name":"Tigaraksa","station_id":"TGS","is_transit":false,"i_lat":-6.328533,"line":6,"i_long":106.425991,"transit":false},{"line":6,"transit":false,"station_name":"Tenjo","is_transit":false,"i_lat":-6.327251,"station_id":"TEJ","time":5,"i_long":106.460812,"distance":2974},{"time":5,"transit":false,"i_lat":-6.338021,"station_id":"DAR","station_name":"Daru","is_transit":false,"i_long":106.491338,"distance":3902,"line":0},{"station_name":"Cilejit","time":6,"distance":2675,"i_lat":-6.354349,"i_long":106.508482,"station_id":"CJT","is_transit":false,"transit":false,"line":0},{"time":9,"station_name":"Parung Panjang","line":6,"distance":7025,"is_transit":false,"i_long":106.568863,"i_lat":-6.3441410000000005,"station_id":"PRP","transit":false},{"station_name":"Cicayur","line":0,"i_long":106.617853,"time":8,"is_transit":false,"i_lat":-6.329547,"station_id":"CC","distance":5968,"transit":false},{"station_id":"CSK","line":0,"time":4,"transit":false,"distance":2519,"i_long":106.640411,"is_transit":false,"station_name":"Cisauk","i_lat":-6.32484},{"station_name":"Serpong","distance":1784,"time":4,"i_lat":-6.319871,"line":6,"transit":false,"station_id":"SRP","is_transit":false,"i_long":106.66566},{"i_long":106.675475,"time":4,"i_lat":-6.314823,"line":6,"transit":false,"distance":2413,"is_transit":false,"station_name":"Rawa Buntu","station_id":"RU"},{"station_id":"SDM","line":6,"is_transit":false,"time":6,"i_lat":-6.296963,"distance":4566,"station_name":"Sudimara","transit":false,"i_long":106.712277},{"line":6,"time":4,"distance":1994,"is_transit":false,"i_long":106.728916,"transit":false,"station_id":"JMU","i_lat":-6.288927,"station_name":"Jurangmangu"},{"i_long":106.74273,"station_id":"PDJ","station_name":"Pondokranji","i_lat":-6.276362,"line":6,"distance":2179,"transit":false,"is_transit":false,"time":3},{"station_name":"Kebayoran","station_id":"KBY","distance":6218,"i_lat":-6.237242,"line":6,"transit":false,"time":8,"is_transit":false,"i_long":106.780334},{"is_transit":false,"line":6,"transit":false,"station_id":"PLM","time":7,"distance":3737,"station_name":"Palmerah","i_lat":-6.207404,"i_long":106.79689},{"station_name":"Tanah Abang","i_long":106.811091,"line":1,"distance":3191,"station_id":"THB","transit":true,"i_lat":-6.185545,"time":6,"is_transit":true},{"transit":true,"i_lat":-6.155215,"station_id":"DU","i_long":106.800832,"distance":3632,"line":1,"is_transit":true,"station_name":"Duri","time":8},{"i_long":106.79867,"station_id":"AK","distance":1230,"is_transit":false,"transit":false,"station_name":"Angke","line":0,"i_lat":-6.144674,"time":4},{"is_transit":true,"i_long":106.826365,"line":0,"transit":false,"i_lat":-6.132549,"station_name":"Kampung Bandan","station_id":"KPB","time":9,"distance":4102},{"is_transit":true,"i_lat":-6.137569,"station_id":"JAKK","distance":1364,"time":3,"transit":true,"i_long":106.812439,"line":0,"station_name":"Jakarta Kota"},{"station_name":"Jayakarta","station_id":"JAY","distance":1264,"transit":false,"time":4,"i_lat":-6.141205,"i_long":106.820901,"line":7,"is_transit":false},{"i_long":106.82482,"distance":1080,"station_name":"Manggabesar","is_transit":false,"line":2,"time":2,"i_lat":-6.149769,"station_id":"MGB","transit":false},{"transit":false,"i_long":106.827103,"line":2,"time":2,"station_name":"Sawah Besar","i_lat":-6.160725,"station_id":"SW","is_transit":false,"distance":906},{"distance":1149,"transit":false,"station_name":"Juanda","time":2,"station_id":"JUA","i_lat":-6.166716,"is_transit":false,"i_long":106.828284,"line":2},{"i_lat":-6.186295,"station_id":"GDD","time":4,"line":2,"station_name":"Gondangdia","distance":2015,"transit":false,"i_long":106.832183,"is_transit":false},{"is_transit":false,"transit":false,"i_lat":-6.198556,"station_id":"CKI","distance":1750,"station_name":"Cikini","i_long":106.840169,"line":0,"time":3},{"line":0,"is_transit":true,"station_name":"Manggarai","i_long":106.84912,"station_id":"MRI","time":4,"transit":true,"distance":1590,"i_lat":-6.209883},{"station_name":"Sudirman","station_id":"SUD","i_lat":-6.202263,"transit":false,"time":4,"distance":3186,"is_transit":false,"i_long":106.822649,"line":1},{"distance":280,"time":1,"station_name":"Sudirman Baru","station_id":"SUDB","is_transit":false,"transit":false,"i_lat":-6.201433,"i_long":106.819881,"line":1}],[{"station_id":"RK","transit":false,"line":0,"time":0,"i_long":106.250396,"i_lat":-6.352675,"is_transit":true,"distance":0,"station_name":"Rangkasbitung"},{"is_transit":false,"transit":false,"i_long":106.332092,"distance":9847,"station_name":"Citeras","station_id":"CTR","i_lat":-6.334892,"line":0,"time":13},{"station_name":"Maja","station_id":"MJ","distance":7293,"is_transit":false,"i_long":106.394373,"transit":false,"i_lat":-6.332307,"line":6,"time":10},{"time":4,"station_name":"Cikoya","distance":1853,"transit":false,"is_transit":false,"i_long":106.411216,"station_id":"CKY","i_lat":-6.33561,"line":0},{"time":3,"line":6,"i_long":106.425991,"station_id":"TGS","station_name":"Tigaraksa","is_transit":false,"transit":false,"i_lat":-6.328533,"distance":2651},{"i_long":106.460812,"line":6,"station_id":"TEJ","i_lat":-6.327251,"distance":2974,"is_transit":false,"time":5,"station_name":"Tenjo","transit":false},{"line":0,"station_id":"DAR","time":5,"station_name":"Daru","distance":3902,"i_lat":-6.338021,"is_transit":false,"i_long":106.491338,"transit":false},{"i_lat":-6.354349,"station_name":"Cilejit","transit":false,"line":0,"station_id":"CJT","is_transit":false,"i_long":106.508482,"time":6,"distance":2675},{"distance":7025,"station_name":"Parung Panjang","transit":false,"i_long":106.568863,"station_id":"PRP","time":9,"is_transit":false,"i_lat":-6.3441410000000005,"line":6},{"time":8,"i_long":106.617853,"distance":5968,"transit":false,"is_transit":false,"station_id":"CC","station_name":"Cicayur","i_lat":-6.329547,"line":0},{"i_long":106.640411,"time":4,"station_id":"CSK","line":0,"station_name":"Cisauk","distance":2519,"is_transit":false,"i_lat":-6.32484,"transit":false},{"time":4,"is_transit":false,"line":6,"station_id":"SRP","distance":1784,"station_name":"Serpong","i_lat":-6.319871,"i_long":106.66566,"transit":false},{"is_transit":false,"station_id":"RU","distance":2413,"transit":false,"time":4,"station_name":"Rawa Buntu","i_lat":-6.314823,"i_long":106.675475,"line":6},{"time":6,"station_name":"Sudimara","station_id":"SDM","transit":false,"i_long":106.712277,"is_transit":false,"line":6,"i_lat":-6.296963,"distance":4566},{"time":4,"i_long":106.728916,"station_name":"Jurangmangu","distance":1994,"i_lat":-6.288927,"transit":false,"is_transit":false,"station_id":"JMU","line":6},{"line":6,"station_name":"Pondokranji","transit":false,"i_long":106.74273,"is_transit":false,"i_lat":-6.276362,"time":3,"station_id":"PDJ","distance":2179},{"station_id":"KBY","time":8,"transit":false,"station_name":"Kebayoran","i_long":106.780334,"i_lat":-6.237242,"distance":6218,"line":6,"is_transit":false},{"i_long":106.79689,"time":7,"i_lat":-6.207404,"station_name":"Palmerah","line":6,"is_transit":false,"station_id":"PLM","distance":3737,"transit":false},{"is_transit":true,"i_lat":-6.185545,"time":6,"i_long":106.811091,"line":1,"distance":3191,"station_id":"THB","transit":true,"station_name":"Tanah Abang"},{"is_transit":true,"distance":3632,"station_id":"DU","transit":true,"line":1,"i_long":106.800832,"station_name":"Duri","time":8,"i_lat":-6.155215},{"line":0,"time":4,"is_transit":false,"i_long":106.79867,"station_name":"Angke","transit":false,"station_id":"AK","distance":1230,"i_lat":-6.144674},{"i_lat":-6.132549,"station_name":"Kampung Bandan","station_id":"KPB","is_transit":true,"i_long":106.826365,"time":9,"line":0,"distance":4102,"transit":true},{"i_lat":-6.14505,"station_name":"Rajawali","i_long":106.836569,"line":11,"distance":1444,"transit":false,"time":3,"station_id":"RJW","is_transit":false},{"i_lat":-6.161728,"i_long":106.839204,"time":5,"is_transit":false,"station_id":"KMO","station_name":"Kemayoran","line":11,"transit":false,"distance":1901},{"is_transit":false,"time":4,"station_name":"Pasar Senen","distance":1436,"transit":false,"i_lat":-6.174784,"station_id":"PSE","i_long":106.84368,"line":11},{"time":8,"is_transit":false,"station_name":"Gang Sentiong","distance":1567,"i_lat":-6.185975,"line":11,"station_id":"GST","transit":false,"i_long":106.850107},{"time":1,"line":11,"station_id":"KMT","transit":false,"i_long":106.855437,"station_name":"Kramat","i_lat":-6.193792,"distance":973,"is_transit":false},{"station_name":"Pondok Jati","distance":1829,"time":2,"is_transit":false,"transit":false,"i_lat":-6.209188,"i_long":106.861737,"station_id":"POK","line":11},{"distance":1236,"is_transit":true,"time":9,"transit":true,"station_name":"Jatinegara","station_id":"JNG","line":0,"i_lat":-6.215091,"i_long":106.86807400000001},{"station_id":"MTR","line":1,"distance":1377,"transit":false,"station_name":"Matraman","time":2,"i_lat":-6.212485,"i_long":106.858896,"is_transit":false},{"station_name":"Manggarai","i_long":106.84912,"station_id":"MRI","i_lat":-6.209883,"time":2,"distance":1275,"line":0,"transit":false,"is_transit":true},{"station_id":"SUD","transit":false,"is_transit":false,"i_lat":-6.202263,"line":1,"station_name":"Sudirman","distance":3186,"i_long":106.822649,"time":4},{"line":1,"is_transit":false,"station_id":"SUDB","distance":280,"time":1,"i_lat":-6.201433,"i_long":106.819881,"transit":false,"station_name":"Sudirman Baru"}]]}