{"data":[[{"transit":false,"i_lat":-6.352675,"i_long":106.250396,"line":0,"is_transit":true,"station_id":"RK","station_name":"Rangkasbitung","time":0,"distance":0},{"is_transit":false,"i_lat":-6.334892,"line":0,"transit":false,"station_id":"CTR","station_name":"Citeras","i_long":106.332092,"distance":9847,"time":13},{"i_long":106.394373,"i_lat":-6.332307,"line":6,"station_id":"MJ","distance":7293,"transit":false,"is_transit":false,"time":10,"station_name":"Maja"},{"transit":false,"station_id":"CKY","i_long":106.411216,"line":0,"station_name":"Cikoya","i_lat":-6.33561,"time":4,"distance":1853,"is_transit":false},{"station_name":"Tigaraksa","station_id":"TGS","is_transit":false,"distance":2651,"time":3,"i_lat":-6.328533,"i_long":106.425991,"transit":false,"line":6},{"is_transit":false,"line":6,"time":5,"station_name":"Tenjo","i_long":106.460812,"distance":2974,"station_id":"TEJ","transit":false,"i_lat":-6.327251},{"distance":3902,"transit":false,"station_id":"DAR","line":0,"station_name":"Daru","is_transit":false,"i_long":106.491338,"i_lat":-6.338021,"time":5},{"i_long":106.508482,"station_name":"Cilejit","line":0,"distance":2675,"time":6,"station_id":"CJT","i_lat":-6.354349,"transit":false,"is_transit":false},{"time":9,"station_id":"PRP","station_name":"Parung Panjang","is_transit":false,"i_lat":-6.3441410000000005,"line":6,"i_long":106.568863,"distance":7025,"transit":false},{"distance":5968,"line":0,"is_transit":false,"i_long":106.617853,"transit":false,"station_name":"Cicayur","station_id":"CC","time":8,"i_lat":-6.329547},{"time":4,"i_lat":-6.32484,"line":0,"i_long":106.640411,"is_transit":false,"distance":2519,"station_id":"CSK","transit":false,"station_name":"Cisauk"},{"station_id":"SRP","time":4,"distance":1784,"i_lat":-6.319871,"i_long":106.66566,"is_transit":false,"transit":false,"line":6,"station_name":"Serpong"},{"distance":2413,"station_name":"Rawa Buntu","line":6,"is_transit":false,"time":4,"station_id":"RU","transit":false,"i_lat":-6.314823,"i_long":106.675475},{"transit":false,"i_long":106.712277,"line":6,"station_id":"SDM","i_lat":-6.296963,"time":6,"station_name":"Sudimara","distance":4566,"is_transit":false},{"station_id":"JMU","i_lat":-6.288927,"transit":false,"i_long":106.728916,"line":6,"station_name":"Jurangmangu","time":4,"distance":1994,"is_transit":false},{"is_transit":false,"station_name":"Pondokranji","station_id":"PDJ","transit":false,"distance":2179,"i_lat":-6.276362,"line":6,"i_long":106.74273,"time":3},{"i_long":106.780334,"line":6,"time":8,"transit":false,"distance":6218,"station_id":"KBY","station_name":"Kebayoran","is_transit":false,"i_lat":-6.237242},{"is_transit":false,"station_name":"Palmerah","station_id":"PLM","i_long":106.79689,"line":6,"transit":false,"time":7,"i_lat":-6.207404,"distance":3737},{"transit":true,"station_id":"THB","i_lat":-6.185545,"i_long":106.811091,"is_transit":true,"time":6,"station_name":"Tanah Abang","distance":3191,"line":1},{"transit":true,"is_transit":true,"time":8,"line":1,"station_id":"DU","i_lat":-6.155215,"i_long":106.800832,"station_name":"Duri","distance":3632},{"time":4,"distance":1230,"i_lat":-6.144674,"line":0,"station_id":"AK","station_name":"Angke","is_transit":false,"transit":false,"i_long":106.79867},{"transit":false,"is_transit":true,"distance":4102,"i_long":106.826365,"i_lat":-6.132549,"time":9,"station_name":"Kampung Bandan","station_id":"KPB","line":0},{"station_name":"Ancol","station_id":"AC","is_transit":false,"i_lat":-6.128023,"i_long":106.84464,"transit":false,"distance":2185,"line":0,"time":4},{"transit":false,"is_transit":false,"line":4,"station_name":"Tanjung Priuk","time":9,"i_lat":-6.1109480000000005,"i_long":106.880089,"distance":4566,"station_id":"TPK"}],[{"i_lat":-6.352675,"i_long":106.250396,"station_name":"Rangkasbitung","is_transit":true,"time":0,"distance":0,"station_id":"RK","line":0,"transit":false},{"i_long":106.332092,"is_transit":false,"line":0,"distance":9847,"station_name":"Citeras","transit":false,"station_id":"CTR","i_lat":-6.334892,"time":13},{"station_id":"MJ","line":6,"is_transit":false,"distance":7293,"transit":false,"station_name":"Maja","time":10,"i_lat":-6.332307,"i_long":106.394373},{"is_transit":false,"i_long":106.411216,"time":4,"i_lat":-6.33561,"station_id":"CKY","station_name":"Cikoya","transit":false,"distance":1853,"line":0},{"distance":2651,"transit":false,"is_transit":false,"i_lat":-6.328533,"time":3,"station_name":"Tigaraksa","i_long":106.425991,"station_id":"TGS","line":6},{"i_long":106.460812,"time":5,"station_name":"Tenjo","i_lat":-6.327251,"line":6,"is_transit":false,"station_id":"TEJ","distance":2974,"transit":false},{"distance":3902,"is_transit":false,"station_id":"DAR","transit":false,"i_lat":-6.338021,"i_long":106.491338,"time":5,"line":0,"station_name":"Daru"},{"station_id":"CJT","distance":2675,"line":0,"is_transit":false,"station_name":"Cilejit","transit":false,"time":6,"i_long":106.508482,"i_lat":-6.354349},{"station_id":"PRP","transit":false,"station_name":"Parung Panjang","is_transit":false,"i_lat":-6.3441410000000005,"i_long":106.568863,"line":6,"distance":7025,"time":9},{"line":0,"is_transit":false,"transit":false,"distance":5968,"time":8,"station_name":"Cicayur","station_id":"CC","i_lat":-6.329547,"i_long":106.617853},{"line":0,"i_long":106.640411,"time":4,"is_transit":false,"station_id":"CSK","distance":2519,"station_name":"Cisauk","i_lat":-6.32484,"transit":false},{"distance":1784,"is_transit":false,"transit":false,"line":6,"station_id":"SRP","station_name":"Serpong","time":4,"i_lat":-6.319871,"i_long":106.66566},{"distance":2413,"is_transit":false,"time":4,"station_id":"RU","i_long":106.675475,"station_name":"Rawa Buntu","transit":false,"i_lat":-6.314823,"line":6},{"transit":false,"distance":4566,"station_name":"Sudimara","i_long":106.712277,"time":6,"station_id":"SDM","is_transit":false,"i_lat":-6.296963,"line":6},{"transit":false,"is_transit":false,"station_name":"Jurangmangu","time":4,"distance":1994,"line":6,"station_id":"JMU","i_long":106.728916,"i_lat":-6.288927},{"station_id":"PDJ","line":6,"distance":2179,"i_long":106.74273,"i_lat":-6.276362,"station_name":"Pondokranji","is_transit":false,"transit":false,"time":3},{"is_transit":false,"transit":false,"line":6,"station_id":"KBY","i_lat":-6.237242,"time":8,"i_long":106.780334,"distance":6218,"station_name":"Kebayoran"},{"station_name":"Palmerah","is_transit":false,"time":7,"distance":3737,"i_lat":-6.207404,"transit":false,"line":6,"i_long":106.79689,"station_id":"PLM"},{"time":6,"distance":3191,"station_name":"Tanah Abang","station_id":"THB","transit":true,"is_transit":true,"i_long":106.811091,"line":1,"i_lat":-6.185545},{"transit":false,"i_lat":-6.20132,"station_id":"KAT","is_transit":false,"time":5,"i_long":106.816351,"distance":2029,"station_name":"Karet","line":1},{"is_transit":false,"time":1,"station_id":"SUDB","i_lat":-6.201433,"line":1,"station_name":"Sudirman Baru","transit":false,"i_long":106.819881,"distance":471},{"distance":280,"is_transit":false,"time":1,"transit":false,"line":1,"station_name":"Sudirman","station_id":"SUD","i_long":106.822649,"i_lat":-6.202263},{"is_transit":true,"distance":3186,"station_name":"Manggarai","time":4,"line":0,"i_long":106.84912,"station_id":"MRI","transit":true,"i_lat":-6.209883},{"i_long":106.840169,"line":0,"is_transit":false,"i_lat":-6.198556,"station_name":"Cikini","station_id":"CKI","time":4,"transit":false,"distance":1590},{"station_id":"GDD","line":2,"i_lat":-6.186295,"station_name":"Gondangdia","distance":1750,"transit":false,"is_transit":false,"time":3,"i_long":106.832183},{"line":2,"i_lat":-6.166716,"is_transit":false,"station_id":"JUA","i_long":106.828284,"transit":false,"distance":2015,"station_name":"Juanda","time":4},{"transit":false,"is_transit":false,"time":2,"station_id":"SW","i_lat":-6.160725,"i_long":106.827103,"line":2,"station_name":"Sawah Besar","distance":1149},{"line":2,"station_name":"Manggabesar","time":2,"i_long":106.82482,"station_id":"MGB","is_transit":false,"i_lat":-6.149769,"transit":false,"distance":906},{"is_transit":false,"station_id":"JAY","i_lat":-6.141205,"distance":1080,"station_name":"Jayakarta","time":2,"i_long":106.820901,"line":7,"transit":false},{"station_name":"Jakarta Kota","station_id":"JAKK","line":0,"time":4,"distance":1264,"transit":true,"i_lat":-6.137569,"i_long":106.812439,"is_transit":true},{"line":0,"is_transit":true,"time":3,"transit":false,"distance":1364,"i_long":106.826365,"i_lat":-6.132549,"station_id":"KPB","station_name":"Kampung Bandan"},{"line":0,"time":4,"station_name":"Ancol","i_long":106.84464,"transit":false,"distance":2185,"station_id":"AC","i_lat":-6.128023,"is_transit":false},{"i_long":106.880089,"i_lat":-6.1109480000000005,"distance":4566,"transit":false,"time":9,"station_id":"TPK","is_transit":false,"line":4,"station_name":"Tanjung Priuk"}],[{"station_id":"RK","i_lat":-6.352675,"i_long":106.250396,"transit":false,"time":0,"is_transit":true,"line":0,"distance":0,"station_name":"Rangkasbitung"},{"station_id":"CTR","line":0,"time":13,"station_name":"Citeras","i_long":106.332092,"transit":false,"distance":9847,"i_lat":-6.334892,"is_transit":false},{"i_lat":-6.332307,"station_name":"Maja","station_id":"MJ","transit":false,"line":6,"i_long":106.394373,"is_transit":false,"time":10,"distance":7293},{"transit":false,"is_transit":false,"line":0,"station_id":"CKY","i_long":106.411216,"station_name":"Cikoya","time":4,"distance":1853,"i_lat":-6.33561},{"i_lat":-6.328533,"line":6,"distance":2651,"station_name":"Tigaraksa","transit":false,"i_long":106.425991,"time":3,"station_id":"TGS","is_transit":false},{"is_transit":false,"time":5,"station_name":"Tenjo","i_long":106.460812,"station_id":"TEJ","transit":false,"line":6,"distance":2974,"i_lat":-6.327251},{"station_id":"DAR","i_long":106.491338,"transit":false,"time":5,"i_lat":-6.338021,"is_transit":false,"station_name":"Daru","distance":3902,"line":0},{"distance":2675,"is_transit":false,"station_name":"Cilejit","station_id":"CJT","time":6,"i_lat":-6.354349,"line":0,"i_long":106.508482,"transit":false},{"line":6,"time":9,"distance":7025,"is_transit":false,"transit":false,"station_name":"Parung Panjang","station_id":"PRP","i_lat":-6.3441410000000005,"i_long":106.568863},{"i_long":106.617853,"i_lat":-6.329547,"station_name":"Cicayur","is_transit":false,"transit":false,"station_id":"CC","line":0,"distance":5968,"time":8},{"transit":false,"is_transit":false,"i_lat":-6.32484,"time":4,"station_name":"Cisauk","line":0,"distance":2519,"station_id":"CSK","i_long":106.640411},{"i_long":106.66566,"i_lat":-6.319871,"time":4,"distance":1784,"station_name":"Serpong","line":6,"station_id":"SRP","is_transit":false,"transit":false},{"i_long":106.675475,"station_id":"RU","distance":2413,"time":4,"station_name":"Rawa Buntu","transit":false,"is_transit":false,"line":6,"i_lat":-6.314823},{"distance":4566,"transit":false,"i_lat":-6.296963,"station_name":"Sudimara","line":6,"is_transit":false,"time":6,"station_id":"SDM","i_long":106.712277},{"line":6,"station_id":"JMU","station_name":"Jurangmangu","i_lat":-6.288927,"i_long":106.728916,"distance":1994,"is_transit":false,"transit":false,"time":4},{"is_transit":false,"station_name":"Pondokranji","line":6,"i_long":106.74273,"station_id":"PDJ","transit":false,"time":3,"i_lat":-6.276362,"distance":2179},{"is_transit":false,"station_id":"KBY","distance":6218,"time":8,"i_lat":-6.237242,"transit":false,"line":6,"station_name":"Kebayoran","i_long":106.780334},{"is_transit":false,"distance":3737,"station_name":"Palmerah","i_lat":-6.207404,"i_long":106.79689,"line":6,"transit":false,"station_id":"PLM","time":7},{"distance":3191,"station_name":"Tanah Abang","i_long":106.811091,"is_transit":true,"transit":true,"time":6,"station_id":"THB","i_lat":-6.185545,"line":1},{"i_lat":-6.20132,"station_name":"Karet","is_transit":false,"i_long":106.816351,"line":1,"transit":false,"station_id":"KAT","distance":2029,"time":5},{"is_transit":false,"transit":false,"station_id":"SUDB","i_long":106.819881,"i_lat":-6.201433,"time":1,"distance":471,"line":1,"station_name":"Sudirman Baru"},{"distance":280,"i_lat":-6.202263,"time":1,"line":1,"is_transit":false,"station_name":"Sudirman","i_long":106.822649,"station_id":"SUD","transit":false},{"time":4,"station_name":"Manggarai","distance":3186,"transit":false,"is_transit":true,"i_lat":-6.209883,"station_id":"MRI","i_long":106.84912,"line":0},{"station_name":"Matraman","line":1,"i_long":106.858896,"i_lat":-6.212485,"time":2,"transit":false,"station_id":"MTR","distance":1275,"is_transit":false},{"transit":true,"station_name":"Jatinegara","is_transit":true,"distance":1377,"i_lat":-6.215091,"line":0,"time":8,"station_id":"JNG","i_long":106.86807400000001},{"is_transit":false,"time":2,"station_id":"POK","i_lat":-6.209188,"transit":false,"line":11,"distance":1236,"station_name":"Pondok Jati","i_long":106.861737},{"i_long":106.855437,"transit":false,"is_transit":false,"i_lat":-6.193792,"station_name":"Kramat","distance":1829,"station_id":"KMT","line":11,"time":2},{"distance":973,"station_id":"GST","i_lat":-6.185975,"line":11,"transit":false,"i_long":106.850107,"is_transit":false,"station_name":"Gang Sentiong","time":1},{"station_id":"PSE","i_lat":-6.174784,"line":11,"distance":1567,"transit":false,"time":8,"station_name":"Pasar Senen","is_transit":false,"i_long":106.84368},{"transit":false,"i_long":106.839204,"station_id":"KMO","time":4,"station_name":"Kemayoran","i_lat":-6.161728,"line":11,"is_transit":false,"distance":1436},{"is_transit":false,"i_long":106.836569,"time":5,"line":11,"distance":1901,"station_id":"RJW","i_lat":-6.14505,"transit":false,"station_name":"Rajawali"},{"time":3,"station_id":"KPB","transit":true,"i_lat":-6.132549,"is_transit":true,"i_long":106.826365,"distance":1444,"line":0,"station_name":"Kampung Bandan"},{"time":4,"i_long":106.84464,"line":0,"is_transit":false,"distance":2185,"transit":false,"i_lat":-6.128023,"station_name":"Ancol","station_id":"AC"},{"line":4,"is_transit":false,"distance":4566,"station_id":"TPK","time":9,"i_lat":-6.1109480000000005,"i_long":106.880089,"transit":false,"station_name":"Tanjung Priuk"}]]}