{"data":[[{"transit":false,"station_name":"Rangkasbitung","line":3,"is_transit":false,"station_id":"RK","i_lat":-6.352675,"distance":0,"time":0,"i_long":106.250396},{"line":3,"is_transit":false,"i_lat":-6.334892,"transit":false,"station_name":"Citeras","distance":9847,"time":13,"station_id":"CTR","i_long":106.332092},{"i_long":106.394373,"time":10,"station_id":"MJ","line":6,"distance":7293,"is_transit":false,"station_name":"Maja","transit":false,"i_lat":-6.332307},{"is_transit":false,"time":4,"i_lat":-6.33561,"station_id":"CKY","station_name":"Cikoya","distance":1853,"line":3,"i_long":106.411216,"transit":false},{"is_transit":false,"i_lat":-6.328533,"i_long":106.425991,"station_name":"Tigaraksa","line":6,"transit":false,"distance":2651,"time":3,"station_id":"TGS"},{"i_long":106.460812,"distance":2974,"is_transit":false,"station_id":"TEJ","transit":false,"station_name":"Tenjo","i_lat":-6.327251,"line":6,"time":5},{"station_name":"Daru","line":0,"time":5,"station_id":"DAR","is_transit":false,"transit":false,"i_long":106.491338,"i_lat":-6.338021,"distance":3902},{"distance":2675,"station_name":"Cilejit","i_lat":-6.354349,"line":3,"station_id":"CJT","is_transit":false,"time":6,"transit":false,"i_long":106.508482},{"station_id":"PRP","is_transit":false,"distance":7025,"i_long":106.568863,"i_lat":-6.3441410000000005,"line":6,"station_name":"Parung Panjang","transit":false,"time":9},{"i_long":106.617853,"is_transit":false,"transit":false,"station_name":"Cicayur","time":8,"line":3,"distance":5968,"station_id":"CC","i_lat":-6.329547},{"i_long":106.640411,"i_lat":-6.32484,"transit":false,"station_name":"Cisauk","distance":2519,"line":3,"station_id":"CSK","time":4,"is_transit":false},{"i_long":106.66566,"station_name":"Serpong","distance":1784,"transit":false,"station_id":"SRP","is_transit":false,"i_lat":-6.319871,"line":6,"time":4},{"i_long":106.675475,"is_transit":false,"time":4,"line":6,"station_id":"RU","distance":2413,"i_lat":-6.314823,"station_name":"Rawa Buntu","transit":false},{"i_lat":-6.296963,"distance":4566,"line":6,"time":6,"transit":false,"station_name":"Sudimara","is_transit":false,"station_id":"SDM","i_long":106.712277},{"station_id":"JMU","i_long":106.728916,"is_transit":false,"time":4,"line":6,"station_name":"Jurangmangu","distance":1994,"i_lat":-6.288927,"transit":false},{"distance":2179,"i_lat":-6.276362,"i_long":106.74273,"line":6,"transit":false,"station_name":"Pondokranji","is_transit":false,"time":3,"station_id":"PDJ"},{"is_transit":false,"station_id":"KBY","transit":false,"time":8,"i_long":106.780334,"station_name":"Kebayoran","distance":6218,"i_lat":-6.237242,"line":6},{"transit":false,"line":6,"i_lat":-6.207404,"i_long":106.79689,"time":7,"station_name":"Palmerah","station_id":"PLM","distance":3737,"is_transit":false},{"is_transit":true,"line":1,"station_id":"THB","i_long":106.811091,"i_lat":-6.185545,"transit":true,"distance":3191,"station_name":"Tanah Abang","time":6},{"distance":3632,"station_id":"DU","is_transit":true,"transit":true,"i_long":106.800832,"station_name":"Duri","line":1,"time":8,"i_lat":-6.155215},{"station_id":"GGL","is_transit":false,"time":3,"station_name":"Grogol","distance":1700,"transit":false,"i_lat":-6.162021,"i_long":106.788277,"line":5},{"station_id":"PSG","is_transit":false,"line":5,"time":2,"station_name":"Pesing","distance":2036,"transit":false,"i_lat":-6.161433,"i_long":106.771379},{"i_lat":-6.1587309999999995,"is_transit":false,"i_long":106.756522,"line":5,"station_name":"Taman Kota","distance":1614,"time":2,"station_id":"TKO","transit":false},{"is_transit":false,"transit":false,"i_long":106.737035,"station_id":"BOI","station_name":"Bojongindah","line":5,"i_lat":-6.159876,"distance":2334,"time":2},{"station_id":"RW","time":4,"i_lat":-6.162758,"transit":false,"is_transit":false,"station_name":"Rawa Buaya","distance":1152,"line":5,"i_long":106.723064},{"time":3,"distance":2504,"station_id":"KDS","line":5,"i_long":106.701612,"i_lat":-6.166068,"transit":false,"is_transit":false,"station_name":"Kalideres"},{"line":5,"transit":false,"time":3,"i_long":106.679458,"is_transit":false,"station_id":"PI","distance":2548,"i_lat":-6.169933,"station_name":"Poris"},{"i_long":106.665036,"i_lat":-6.171811,"station_name":"Batuceper","time":3,"transit":false,"line":5,"is_transit":false,"station_id":"BPR","distance":1834},{"distance":2028,"time":3,"line":5,"is_transit":false,"transit":false,"station_name":"Tanah Tinggi","i_lat":-6.17331,"i_long":106.64657,"station_id":"TTI"},{"transit":false,"is_transit":false,"i_long":106.632761,"distance":1547,"line":5,"time":3,"station_name":"Tangerang","station_id":"TNG","i_lat":-6.176583}],[{"station_id":"RK","time":0,"i_long":106.250396,"station_name":"Rangkasbitung","is_transit":false,"transit":false,"line":3,"distance":0,"i_lat":-6.352675},{"transit":false,"time":13,"i_lat":-6.334892,"is_transit":false,"i_long":106.332092,"line":3,"station_name":"Citeras","distance":9847,"station_id":"CTR"},{"time":10,"station_name":"Maja","distance":7293,"station_id":"MJ","i_lat":-6.332307,"i_long":106.394373,"line":6,"transit":false,"is_transit":false},{"is_transit":false,"distance":1853,"transit":false,"i_lat":-6.33561,"line":3,"station_name":"Cikoya","station_id":"CKY","i_long":106.411216,"time":4},{"station_name":"Tigaraksa","is_transit":false,"distance":2651,"station_id":"TGS","i_lat":-6.328533,"line":6,"transit":false,"i_long":106.425991,"time":3},{"i_long":106.460812,"time":5,"line":6,"is_transit":false,"distance":2974,"i_lat":-6.327251,"station_id":"TEJ","station_name":"Tenjo","transit":false},{"i_lat":-6.338021,"time":5,"transit":false,"i_long":106.491338,"station_id":"DAR","line":0,"is_transit":false,"station_name":"Daru","distance":3902},{"station_name":"Cilejit","is_transit":false,"station_id":"CJT","i_lat":-6.354349,"distance":2675,"time":6,"i_long":106.508482,"transit":false,"line":3},{"station_name":"Parung Panjang","is_transit":false,"i_long":106.568863,"station_id":"PRP","distance":7025,"transit":false,"time":9,"line":6,"i_lat":-6.3441410000000005},{"station_id":"CC","time":8,"station_name":"Cicayur","distance":5968,"is_transit":false,"line":3,"i_long":106.617853,"transit":false,"i_lat":-6.329547},{"transit":false,"time":4,"station_name":"Cisauk","distance":2519,"station_id":"CSK","i_long":106.640411,"line":3,"i_lat":-6.32484,"is_transit":false},{"time":4,"station_name":"Serpong","i_lat":-6.319871,"transit":false,"is_transit":false,"station_id":"SRP","line":6,"i_long":106.66566,"distance":1784},{"is_transit":false,"station_name":"Rawa Buntu","transit":false,"time":4,"line":6,"distance":2413,"i_lat":-6.314823,"station_id":"RU","i_long":106.675475},{"i_long":106.712277,"i_lat":-6.296963,"station_id":"SDM","transit":false,"line":6,"station_name":"Sudimara","time":6,"is_transit":false,"distance":4566},{"is_transit":false,"transit":false,"line":6,"station_name":"Jurangmangu","distance":1994,"station_id":"JMU","time":4,"i_lat":-6.288927,"i_long":106.728916},{"station_name":"Pondokranji","station_id":"PDJ","is_transit":false,"distance":2179,"transit":false,"i_long":106.74273,"line":6,"i_lat":-6.276362,"time":3},{"is_transit":false,"time":8,"distance":6218,"i_long":106.780334,"station_name":"Kebayoran","station_id":"KBY","line":6,"transit":false,"i_lat":-6.237242},{"time":7,"station_id":"PLM","distance":3737,"station_name":"Palmerah","i_long":106.79689,"is_transit":false,"i_lat":-6.207404,"line":6,"transit":false},{"is_transit":true,"time":6,"distance":3191,"station_name":"Tanah Abang","i_long":106.811091,"transit":true,"i_lat":-6.185545,"line":1,"station_id":"THB"},{"i_long":106.816351,"station_name":"Karet","time":5,"station_id":"KAT","distance":2029,"i_lat":-6.20132,"line":1,"transit":false,"is_transit":false},{"distance":471,"station_id":"SUDB","line":1,"is_transit":false,"transit":false,"station_name":"Sudirman Baru","time":1,"i_lat":-6.201433,"i_long":106.819881},{"station_id":"SUD","i_long":106.822649,"line":1,"i_lat":-6.202263,"time":1,"transit":false,"is_transit":false,"station_name":"Sudirman","distance":280},{"time":4,"is_transit":true,"transit":true,"station_name":"Manggarai","i_lat":-6.209883,"i_long":106.84912,"line":2,"station_id":"MRI","distance":3186},{"distance":1590,"time":4,"i_lat":-6.198556,"i_long":106.840169,"line":2,"transit":false,"station_name":"Cikini","station_id":"CKI","is_transit":false},{"distance":1750,"time":3,"transit":false,"i_lat":-6.186295,"is_transit":false,"i_long":106.832183,"station_name":"Gondangdia","line":2,"station_id":"GDD"},{"line":2,"station_name":"Juanda","is_transit":false,"transit":false,"distance":2015,"station_id":"JUA","i_long":106.828284,"time":4,"i_lat":-6.166716},{"time":2,"i_lat":-6.160725,"is_transit":false,"station_id":"SW","station_name":"Sawah Besar","transit":false,"distance":1149,"line":2,"i_long":106.827103},{"is_transit":false,"transit":false,"time":2,"line":2,"station_name":"Manggabesar","distance":906,"station_id":"MGB","i_lat":-6.149769,"i_long":106.82482},{"distance":1080,"is_transit":false,"transit":false,"time":2,"station_id":"JAY","i_lat":-6.141205,"line":2,"i_long":106.820901,"station_name":"Jayakarta"},{"time":4,"is_transit":true,"line":2,"station_name":"Jakarta Kota","transit":true,"i_long":106.812439,"distance":1264,"station_id":"JAKK","i_lat":-6.137569},{"distance":1364,"i_long":106.826365,"time":3,"transit":true,"station_name":"Kampung Bandan","i_lat":-6.132549,"station_id":"KPB","line":4,"is_transit":true},{"is_transit":false,"transit":false,"time":9,"station_name":"Angke","distance":4102,"station_id":"AK","i_long":106.79867,"line":1,"i_lat":-6.144674},{"i_lat":-6.155215,"distance":1230,"station_id":"DU","station_name":"Duri","transit":true,"i_long":106.800832,"line":1,"time":4,"is_transit":true},{"transit":false,"is_transit":false,"distance":1700,"station_id":"GGL","i_lat":-6.162021,"station_name":"Grogol","i_long":106.788277,"time":3,"line":5},{"i_long":106.771379,"time":2,"line":5,"i_lat":-6.161433,"station_name":"Pesing","is_transit":false,"distance":2036,"transit":false,"station_id":"PSG"},{"i_lat":-6.1587309999999995,"station_name":"Taman Kota","distance":1614,"station_id":"TKO","i_long":106.756522,"line":5,"time":2,"is_transit":false,"transit":false},{"line":5,"station_id":"BOI","transit":false,"i_lat":-6.159876,"time":2,"i_long":106.737035,"station_name":"Bojongindah","distance":2334,"is_transit":false},{"distance":1152,"station_name":"Rawa Buaya","transit":false,"time":4,"station_id":"RW","is_transit":false,"i_long":106.723064,"line":5,"i_lat":-6.162758},{"time":3,"i_long":106.701612,"line":5,"is_transit":false,"station_id":"KDS","transit":false,"station_name":"Kalideres","distance":2504,"i_lat":-6.166068},{"i_long":106.679458,"line":5,"station_name":"Poris","time":3,"is_transit":false,"transit":false,"distance":2548,"station_id":"PI","i_lat":-6.169933},{"i_lat":-6.171811,"line":5,"is_transit":false,"station_id":"BPR","i_long":106.665036,"time":3,"distance":1834,"transit":false,"station_name":"Batuceper"},{"station_name":"Tanah Tinggi","distance":2028,"transit":false,"time":3,"i_lat":-6.17331,"i_long":106.64657,"station_id":"TTI","line":5,"is_transit":false},{"time":3,"i_lat":-6.176583,"line":5,"station_name":"Tangerang","i_long":106.632761,"station_id":"TNG","is_transit":false,"distance":1547,"transit":false}],[{"line":3,"is_transit":false,"i_lat":-6.352675,"i_long":106.250396,"time":0,"distance":0,"station_name":"Rangkasbitung","station_id":"RK","transit":false},{"station_id":"CTR","time":13,"i_lat":-6.334892,"transit":false,"line":3,"i_long":106.332092,"is_transit":false,"distance":9847,"station_name":"Citeras"},{"transit":false,"station_name":"Maja","i_lat":-6.332307,"i_long":106.394373,"line":6,"is_transit":false,"time":10,"station_id":"MJ","distance":7293},{"line":3,"distance":1853,"is_transit":false,"i_lat":-6.33561,"i_long":106.411216,"station_id":"CKY","time":4,"transit":false,"station_name":"Cikoya"},{"i_long":106.425991,"distance":2651,"is_transit":false,"station_name":"Tigaraksa","line":6,"transit":false,"time":3,"i_lat":-6.328533,"station_id":"TGS"},{"transit":false,"i_long":106.460812,"station_name":"Tenjo","distance":2974,"i_lat":-6.327251,"time":5,"station_id":"TEJ","is_transit":false,"line":6},{"transit":false,"i_long":106.491338,"time":5,"station_id":"DAR","station_name":"Daru","distance":3902,"is_transit":false,"line":0,"i_lat":-6.338021},{"distance":2675,"line":3,"is_transit":false,"station_name":"Cilejit","station_id":"CJT","i_lat":-6.354349,"i_long":106.508482,"transit":false,"time":6},{"station_id":"PRP","is_transit":false,"station_name":"Parung Panjang","distance":7025,"time":9,"i_long":106.568863,"line":6,"transit":false,"i_lat":-6.3441410000000005},{"line":3,"station_name":"Cicayur","station_id":"CC","is_transit":false,"transit":false,"i_long":106.617853,"distance":5968,"time":8,"i_lat":-6.329547},{"line":3,"time":4,"transit":false,"distance":2519,"i_lat":-6.32484,"i_long":106.640411,"station_name":"Cisauk","station_id":"CSK","is_transit":false},{"distance":1784,"line":6,"time":4,"station_name":"Serpong","transit":false,"is_transit":false,"i_long":106.66566,"i_lat":-6.319871,"station_id":"SRP"},{"i_lat":-6.314823,"i_long":106.675475,"is_transit":false,"station_name":"Rawa Buntu","distance":2413,"time":4,"station_id":"RU","line":6,"transit":false},{"station_name":"Sudimara","transit":false,"i_lat":-6.296963,"station_id":"SDM","distance":4566,"i_long":106.712277,"is_transit":false,"line":6,"time":6},{"time":4,"is_transit":false,"distance":1994,"line":6,"transit":false,"station_id":"JMU","i_long":106.728916,"i_lat":-6.288927,"station_name":"Jurangmangu"},{"transit":false,"station_name":"Pondokranji","i_lat":-6.276362,"is_transit":false,"station_id":"PDJ","line":6,"time":3,"distance":2179,"i_long":106.74273},{"line":6,"i_lat":-6.237242,"i_long":106.780334,"is_transit":false,"time":8,"station_id":"KBY","transit":false,"station_name":"Kebayoran","distance":6218},{"i_long":106.79689,"transit":false,"time":7,"i_lat":-6.207404,"station_name":"Palmerah","station_id":"PLM","distance":3737,"line":6,"is_transit":false},{"time":6,"station_name":"Tanah Abang","is_transit":true,"station_id":"THB","i_lat":-6.185545,"distance":3191,"i_long":106.811091,"transit":true,"line":1},{"i_long":106.816351,"is_transit":false,"i_lat":-6.20132,"station_id":"KAT","transit":false,"time":5,"station_name":"Karet","line":1,"distance":2029},{"transit":false,"line":1,"station_name":"Sudirman Baru","i_lat":-6.201433,"distance":471,"is_transit":false,"time":1,"i_long":106.819881,"station_id":"SUDB"},{"distance":280,"transit":false,"i_lat":-6.202263,"i_long":106.822649,"is_transit":false,"station_id":"SUD","line":1,"station_name":"Sudirman","time":1},{"time":4,"line":2,"is_transit":false,"station_id":"MRI","i_long":106.84912,"station_name":"Manggarai","transit":false,"distance":3186,"i_lat":-6.209883},{"station_id":"MTR","transit":false,"is_transit":false,"line":1,"time":2,"station_name":"Matraman","distance":1275,"i_lat":-6.212485,"i_long":106.858896},{"line":1,"station_id":"JNG","transit":true,"distance":1377,"i_long":106.86807400000001,"station_name":"Jatinegara","i_lat":-6.215091,"is_transit":true,"time":8},{"is_transit":false,"i_long":106.861737,"time":2,"station_id":"POK","distance":1236,"line":11,"station_name":"Pondok Jati","i_lat":-6.209188,"transit":false},{"station_id":"KMT","line":11,"station_name":"Kramat","is_transit":false,"time":2,"transit":false,"distance":1829,"i_long":106.855437,"i_lat":-6.193792},{"transit":false,"station_name":"Gang Sentiong","is_transit":false,"i_lat":-6.185975,"i_long":106.850107,"time":1,"distance":973,"station_id":"GST","line":11},{"i_lat":-6.174784,"distance":1567,"station_id":"PSE","is_transit":false,"time":8,"line":11,"station_name":"Pasar Senen","i_long":106.84368,"transit":false},{"time":4,"station_id":"KMO","line":11,"station_name":"Kemayoran","distance":1436,"is_transit":false,"i_lat":-6.161728,"i_long":106.839204,"transit":false},{"transit":false,"i_long":106.836569,"time":5,"line":11,"distance":1901,"station_id":"RJW","station_name":"Rajawali","is_transit":false,"i_lat":-6.14505},{"station_name":"Kampung Bandan","transit":true,"station_id":"KPB","distance":1444,"i_lat":-6.132549,"time":3,"is_transit":true,"i_long":106.826365,"line":4},{"station_name":"Angke","station_id":"AK","i_long":106.79867,"time":9,"line":1,"i_lat":-6.144674,"is_transit":false,"distance":4102,"transit":false},{"i_lat":-6.155215,"line":1,"transit":true,"time":4,"is_transit":true,"distance":1230,"i_long":106.800832,"station_id":"DU","station_name":"Duri"},{"time":3,"distance":1700,"station_id":"GGL","is_transit":false,"i_lat":-6.162021,"station_name":"Grogol","i_long":106.788277,"transit":false,"line":5},{"line":5,"time":2,"station_id":"PSG","station_name":"Pesing","distance":2036,"is_transit":false,"i_lat":-6.161433,"i_long":106.771379,"transit":false},{"station_name":"Taman Kota","i_long":106.756522,"time":2,"transit":false,"is_transit":false,"station_id":"TKO","i_lat":-6.1587309999999995,"distance":1614,"line":5},{"station_id":"BOI","transit":false,"i_long":106.737035,"time":2,"is_transit":false,"station_name":"Bojongindah","line":5,"distance":2334,"i_lat":-6.159876},{"is_transit":false,"time":4,"i_lat":-6.162758,"transit":false,"distance":1152,"i_long":106.723064,"station_name":"Rawa Buaya","station_id":"RW","line":5},{"station_name":"Kalideres","i_lat":-6.166068,"is_transit":false,"distance":2504,"line":5,"time":3,"transit":false,"i_long":106.701612,"station_id":"KDS"},{"transit":false,"time":3,"i_long":106.679458,"station_name":"Poris","line":5,"i_lat":-6.169933,"station_id":"PI","distance":2548,"is_transit":false},{"i_lat":-6.171811,"transit":false,"time":3,"is_transit":false,"station_name":"Batuceper","station_id":"BPR","i_long":106.665036,"line":5,"distance":1834},{"station_id":"TTI","is_transit":false,"transit":false,"station_name":"Tanah Tinggi","i_lat":-6.17331,"i_long":106.64657,"time":3,"line":5,"distance":2028},{"station_name":"Tangerang","station_id":"TNG","i_lat":-6.176583,"distance":1547,"is_transit":false,"time":3,"line":5,"i_long":106.632761,"transit":false}]]}