{"data":[[{"i_long":106.250396,"distance":0,"i_lat":-6.352675,"is_transit":false,"time":0,"transit":false,"line":3,"station_name":"Rangkasbitung","station_id":"RK"},{"transit":false,"is_transit":false,"station_id":"CTR","i_lat":-6.334892,"i_long":106.332092,"station_name":"Citeras","distance":9847,"line":3,"time":13},{"is_transit":false,"station_id":"MJ","distance":7293,"transit":false,"station_name":"Maja","time":10,"i_long":106.394373,"i_lat":-6.332307,"line":6},{"line":3,"station_id":"CKY","i_long":106.411216,"transit":false,"station_name":"Cikoya","is_transit":false,"time":4,"distance":1853,"i_lat":-6.33561},{"station_name":"Tigaraksa","i_long":106.425991,"distance":2651,"i_lat":-6.328533,"line":6,"station_id":"TGS","is_transit":false,"time":3,"transit":false},{"line":6,"station_id":"TEJ","is_transit":false,"i_lat":-6.327251,"distance":2974,"transit":false,"station_name":"Tenjo","time":5,"i_long":106.460812},{"i_lat":-6.338021,"station_id":"DAR","transit":false,"is_transit":false,"i_long":106.491338,"distance":3902,"station_name":"Daru","line":0,"time":5},{"is_transit":false,"i_lat":-6.354349,"line":3,"transit":false,"station_id":"CJT","time":6,"i_long":106.508482,"distance":2675,"station_name":"Cilejit"},{"line":6,"station_id":"PRP","transit":false,"time":9,"distance":7025,"i_long":106.568863,"station_name":"Parung Panjang","i_lat":-6.3441410000000005,"is_transit":false},{"station_name":"Cicayur","i_lat":-6.329547,"line":3,"time":8,"is_transit":false,"station_id":"CC","i_long":106.617853,"distance":5968,"transit":false},{"i_long":106.640411,"station_id":"CSK","line":3,"station_name":"Cisauk","transit":false,"time":4,"distance":2519,"i_lat":-6.32484,"is_transit":false},{"station_id":"SRP","distance":1784,"is_transit":false,"i_long":106.66566,"transit":false,"station_name":"Serpong","line":6,"i_lat":-6.319871,"time":4},{"station_name":"Rawa Buntu","transit":false,"time":4,"i_lat":-6.314823,"station_id":"RU","is_transit":false,"distance":2413,"i_long":106.675475,"line":6},{"time":6,"station_id":"SDM","i_long":106.712277,"transit":false,"station_name":"Sudimara","i_lat":-6.296963,"is_transit":false,"distance":4566,"line":6},{"i_lat":-6.288927,"is_transit":false,"time":4,"transit":false,"station_name":"Jurangmangu","station_id":"JMU","distance":1994,"i_long":106.728916,"line":6},{"time":3,"i_lat":-6.276362,"line":6,"i_long":106.74273,"station_name":"Pondokranji","is_transit":false,"station_id":"PDJ","distance":2179,"transit":false},{"distance":6218,"station_id":"KBY","station_name":"Kebayoran","transit":false,"i_long":106.780334,"time":8,"i_lat":-6.237242,"line":6,"is_transit":false},{"is_transit":false,"time":7,"transit":false,"distance":3737,"i_long":106.79689,"station_id":"PLM","station_name":"Palmerah","i_lat":-6.207404,"line":6},{"station_name":"Tanah Abang","i_long":106.811091,"station_id":"THB","distance":3191,"i_lat":-6.185545,"line":1,"transit":true,"time":6,"is_transit":true},{"transit":false,"is_transit":false,"line":1,"i_long":106.800832,"station_id":"DU","distance":3632,"i_lat":-6.155215,"station_name":"Duri","time":8},{"line":1,"is_transit":false,"transit":false,"station_name":"Angke","i_long":106.79867,"time":4,"station_id":"AK","i_lat":-6.144674,"distance":1230},{"time":9,"distance":4102,"i_lat":-6.132549,"station_id":"KPB","is_transit":true,"station_name":"Kampung Bandan","i_long":106.826365,"line":4,"transit":true},{"is_transit":false,"station_name":"Ancol","distance":2185,"transit":false,"i_long":106.84464,"line":4,"station_id":"AC","i_lat":-6.128023,"time":4},{"is_transit":false,"i_lat":-6.1109480000000005,"i_long":106.880089,"station_id":"TPK","station_name":"Tanjung Priuk","time":9,"distance":4566,"line":4,"transit":false}],[{"station_name":"Rangkasbitung","station_id":"RK","line":3,"transit":false,"is_transit":false,"i_long":106.250396,"distance":0,"i_lat":-6.352675,"time":0},{"time":13,"distance":9847,"line":3,"i_lat":-6.334892,"i_long":106.332092,"station_id":"CTR","transit":false,"station_name":"Citeras","is_transit":false},{"station_name":"Maja","station_id":"MJ","distance":7293,"transit":false,"line":6,"i_lat":-6.332307,"time":10,"i_long":106.394373,"is_transit":false},{"distance":1853,"i_lat":-6.33561,"station_name":"Cikoya","is_transit":false,"station_id":"CKY","line":3,"time":4,"i_long":106.411216,"transit":false},{"i_long":106.425991,"i_lat":-6.328533,"line":6,"station_id":"TGS","transit":false,"station_name":"Tigaraksa","distance":2651,"is_transit":false,"time":3},{"distance":2974,"transit":false,"time":5,"i_long":106.460812,"i_lat":-6.327251,"station_id":"TEJ","station_name":"Tenjo","line":6,"is_transit":false},{"transit":false,"station_name":"Daru","is_transit":false,"distance":3902,"station_id":"DAR","i_lat":-6.338021,"time":5,"i_long":106.491338,"line":0},{"time":6,"station_id":"CJT","distance":2675,"station_name":"Cilejit","is_transit":false,"transit":false,"i_long":106.508482,"line":3,"i_lat":-6.354349},{"i_long":106.568863,"time":9,"is_transit":false,"distance":7025,"station_id":"PRP","station_name":"Parung Panjang","transit":false,"i_lat":-6.3441410000000005,"line":6},{"line":3,"station_name":"Cicayur","transit":false,"i_lat":-6.329547,"time":8,"i_long":106.617853,"is_transit":false,"distance":5968,"station_id":"CC"},{"station_id":"CSK","is_transit":false,"distance":2519,"line":3,"i_lat":-6.32484,"transit":false,"station_name":"Cisauk","time":4,"i_long":106.640411},{"transit":false,"station_name":"Serpong","is_transit":false,"time":4,"distance":1784,"i_long":106.66566,"station_id":"SRP","i_lat":-6.319871,"line":6},{"distance":2413,"i_lat":-6.314823,"line":6,"time":4,"i_long":106.675475,"station_name":"Rawa Buntu","transit":false,"station_id":"RU","is_transit":false},{"distance":4566,"line":6,"station_name":"Sudimara","time":6,"i_lat":-6.296963,"transit":false,"station_id":"SDM","i_long":106.712277,"is_transit":false},{"line":6,"i_long":106.728916,"transit":false,"station_id":"JMU","time":4,"distance":1994,"i_lat":-6.288927,"is_transit":false,"station_name":"Jurangmangu"},{"i_lat":-6.276362,"transit":false,"station_name":"Pondokranji","station_id":"PDJ","distance":2179,"is_transit":false,"line":6,"time":3,"i_long":106.74273},{"station_id":"KBY","is_transit":false,"i_lat":-6.237242,"transit":false,"distance":6218,"time":8,"line":6,"station_name":"Kebayoran","i_long":106.780334},{"distance":3737,"is_transit":false,"time":7,"i_lat":-6.207404,"station_id":"PLM","i_long":106.79689,"transit":false,"station_name":"Palmerah","line":6},{"i_lat":-6.185545,"line":1,"transit":true,"time":6,"distance":3191,"i_long":106.811091,"is_transit":true,"station_id":"THB","station_name":"Tanah Abang"},{"transit":false,"i_long":106.816351,"line":1,"station_id":"KAT","distance":2029,"i_lat":-6.20132,"station_name":"Karet","is_transit":false,"time":5},{"station_name":"Sudirman Baru","distance":471,"i_lat":-6.201433,"is_transit":false,"time":1,"line":1,"i_long":106.819881,"station_id":"SUDB","transit":false},{"station_name":"Sudirman","i_lat":-6.202263,"i_long":106.822649,"is_transit":false,"distance":280,"line":1,"time":1,"transit":false,"station_id":"SUD"},{"i_lat":-6.209883,"line":2,"transit":true,"station_name":"Manggarai","i_long":106.84912,"is_transit":true,"distance":3186,"station_id":"MRI","time":4},{"time":4,"line":2,"i_long":106.840169,"is_transit":false,"transit":false,"i_lat":-6.198556,"station_name":"Cikini","station_id":"CKI","distance":1590},{"distance":1750,"is_transit":false,"i_long":106.832183,"station_id":"GDD","i_lat":-6.186295,"line":2,"station_name":"Gondangdia","time":3,"transit":false},{"station_id":"JUA","i_lat":-6.166716,"station_name":"Juanda","is_transit":false,"transit":false,"distance":2015,"i_long":106.828284,"time":4,"line":2},{"time":2,"i_lat":-6.160725,"transit":false,"i_long":106.827103,"station_name":"Sawah Besar","line":2,"distance":1149,"station_id":"SW","is_transit":false},{"line":2,"time":2,"transit":false,"station_name":"Manggabesar","distance":906,"i_long":106.82482,"station_id":"MGB","is_transit":false,"i_lat":-6.149769},{"is_transit":false,"i_lat":-6.141205,"line":2,"transit":false,"station_name":"Jayakarta","station_id":"JAY","time":2,"distance":1080,"i_long":106.820901},{"line":2,"is_transit":true,"station_id":"JAKK","distance":1264,"time":4,"i_long":106.812439,"transit":true,"station_name":"Jakarta Kota","i_lat":-6.137569},{"distance":1364,"is_transit":true,"transit":true,"station_name":"Kampung Bandan","station_id":"KPB","i_lat":-6.132549,"i_long":106.826365,"line":4,"time":3},{"station_name":"Ancol","is_transit":false,"time":4,"distance":2185,"i_long":106.84464,"transit":false,"station_id":"AC","i_lat":-6.128023,"line":4},{"line":4,"distance":4566,"i_long":106.880089,"is_transit":false,"station_name":"Tanjung Priuk","transit":false,"i_lat":-6.1109480000000005,"time":9,"station_id":"TPK"}],[{"distance":0,"station_id":"RK","station_name":"Rangkasbitung","time":0,"i_long":106.250396,"transit":false,"i_lat":-6.352675,"line":3,"is_transit":false},{"line":3,"distance":9847,"time":13,"is_transit":false,"i_lat":-6.334892,"station_id":"CTR","transit":false,"station_name":"Citeras","i_long":106.332092},{"station_id":"MJ","is_transit":false,"i_lat":-6.332307,"transit":false,"distance":7293,"station_name":"Maja","time":10,"line":6,"i_long":106.394373},{"line":3,"transit":false,"station_name":"Cikoya","station_id":"CKY","i_long":106.411216,"i_lat":-6.33561,"distance":1853,"is_transit":false,"time":4},{"is_transit":false,"distance":2651,"transit":false,"time":3,"i_lat":-6.328533,"i_long":106.425991,"line":6,"station_name":"Tigaraksa","station_id":"TGS"},{"station_id":"TEJ","time":5,"i_lat":-6.327251,"is_transit":false,"i_long":106.460812,"station_name":"Tenjo","distance":2974,"line":6,"transit":false},{"station_name":"Daru","time":5,"distance":3902,"i_lat":-6.338021,"i_long":106.491338,"line":0,"transit":false,"is_transit":false,"station_id":"DAR"},{"i_long":106.508482,"i_lat":-6.354349,"is_transit":false,"line":3,"transit":false,"station_name":"Cilejit","station_id":"CJT","time":6,"distance":2675},{"transit":false,"station_id":"PRP","distance":7025,"i_long":106.568863,"line":6,"is_transit":false,"time":9,"i_lat":-6.3441410000000005,"station_name":"Parung Panjang"},{"line":3,"time":8,"transit":false,"distance":5968,"i_lat":-6.329547,"i_long":106.617853,"station_name":"Cicayur","station_id":"CC","is_transit":false},{"line":3,"i_long":106.640411,"distance":2519,"i_lat":-6.32484,"transit":false,"station_id":"CSK","is_transit":false,"station_name":"Cisauk","time":4},{"distance":1784,"station_id":"SRP","is_transit":false,"line":6,"transit":false,"station_name":"Serpong","time":4,"i_lat":-6.319871,"i_long":106.66566},{"line":6,"i_lat":-6.314823,"is_transit":false,"transit":false,"station_name":"Rawa Buntu","distance":2413,"time":4,"station_id":"RU","i_long":106.675475},{"transit":false,"is_transit":false,"i_long":106.712277,"station_id":"SDM","line":6,"i_lat":-6.296963,"station_name":"Sudimara","distance":4566,"time":6},{"station_name":"Jurangmangu","is_transit":false,"time":4,"i_lat":-6.288927,"line":6,"station_id":"JMU","distance":1994,"transit":false,"i_long":106.728916},{"transit":false,"station_name":"Pondokranji","station_id":"PDJ","is_transit":false,"line":6,"distance":2179,"time":3,"i_long":106.74273,"i_lat":-6.276362},{"line":6,"i_lat":-6.237242,"is_transit":false,"transit":false,"time":8,"distance":6218,"i_long":106.780334,"station_name":"Kebayoran","station_id":"KBY"},{"station_name":"Palmerah","transit":false,"station_id":"PLM","is_transit":false,"time":7,"distance":3737,"i_long":106.79689,"i_lat":-6.207404,"line":6},{"i_lat":-6.185545,"i_long":106.811091,"is_transit":true,"transit":true,"time":6,"line":1,"station_name":"Tanah Abang","station_id":"THB","distance":3191},{"distance":2029,"i_long":106.816351,"line":1,"station_name":"Karet","transit":false,"i_lat":-6.20132,"is_transit":false,"station_id":"KAT","time":5},{"is_transit":false,"distance":471,"i_long":106.819881,"station_id":"SUDB","transit":false,"i_lat":-6.201433,"station_name":"Sudirman Baru","time":1,"line":1},{"i_lat":-6.202263,"i_long":106.822649,"distance":280,"line":1,"transit":false,"is_transit":false,"time":1,"station_id":"SUD","station_name":"Sudirman"},{"transit":false,"i_long":106.84912,"is_transit":false,"i_lat":-6.209883,"line":2,"station_name":"Manggarai","station_id":"MRI","time":4,"distance":3186},{"station_name":"Matraman","transit":false,"station_id":"MTR","line":1,"is_transit":false,"time":2,"distance":1275,"i_lat":-6.212485,"i_long":106.858896},{"i_lat":-6.215091,"i_long":106.86807400000001,"line":1,"distance":1377,"time":8,"is_transit":true,"transit":true,"station_name":"Jatinegara","station_id":"JNG"},{"transit":false,"line":11,"station_id":"POK","i_long":106.861737,"is_transit":false,"time":2,"i_lat":-6.209188,"distance":1236,"station_name":"Pondok Jati"},{"time":2,"line":11,"is_transit":false,"i_lat":-6.193792,"station_name":"Kramat","transit":false,"station_id":"KMT","distance":1829,"i_long":106.855437},{"station_id":"GST","i_lat":-6.185975,"line":11,"is_transit":false,"station_name":"Gang Sentiong","time":1,"distance":973,"i_long":106.850107,"transit":false},{"is_transit":false,"distance":1567,"line":11,"station_id":"PSE","station_name":"Pasar Senen","i_lat":-6.174784,"transit":false,"i_long":106.84368,"time":8},{"i_long":106.839204,"transit":false,"station_id":"KMO","i_lat":-6.161728,"station_name":"Kemayoran","time":4,"distance":1436,"is_transit":false,"line":11},{"is_transit":false,"distance":1901,"i_long":106.836569,"station_name":"Rajawali","station_id":"RJW","transit":false,"time":5,"i_lat":-6.14505,"line":11},{"station_name":"Kampung Bandan","station_id":"KPB","transit":true,"is_transit":true,"distance":1444,"i_lat":-6.132549,"time":3,"i_long":106.826365,"line":4},{"station_name":"Ancol","is_transit":false,"distance":2185,"i_long":106.84464,"i_lat":-6.128023,"time":4,"transit":false,"station_id":"AC","line":4},{"station_id":"TPK","line":4,"transit":false,"station_name":"Tanjung Priuk","distance":4566,"i_lat":-6.1109480000000005,"i_long":106.880089,"is_transit":false,"time":9}]]}