{"data":[[{"station_id":"RK","time":0,"distance":0,"station_name":"Rangkasbitung","is_transit":false,"i_lat":-6.352675,"transit":false,"line":3,"i_long":106.250396},{"station_id":"CTR","transit":false,"time":13,"i_lat":-6.334892,"i_long":106.332092,"station_name":"Citeras","is_transit":false,"distance":9847,"line":3},{"distance":7293,"station_id":"MJ","is_transit":false,"i_lat":-6.332307,"station_name":"Maja","transit":false,"i_long":106.394373,"line":6,"time":10},{"station_id":"CKY","is_transit":false,"i_lat":-6.33561,"i_long":106.411216,"distance":1853,"line":3,"time":4,"station_name":"Cikoya","transit":false},{"distance":2651,"station_name":"Tigaraksa","transit":false,"is_transit":false,"time":3,"station_id":"TGS","i_lat":-6.328533,"i_long":106.425991,"line":6},{"time":5,"station_id":"TEJ","i_lat":-6.327251,"i_long":106.460812,"line":6,"transit":false,"is_transit":false,"station_name":"Tenjo","distance":2974},{"station_id":"DAR","distance":3902,"is_transit":false,"line":0,"time":5,"transit":false,"station_name":"Daru","i_lat":-6.338021,"i_long":106.491338},{"i_long":106.508482,"is_transit":false,"distance":2675,"time":6,"line":3,"station_name":"Cilejit","i_lat":-6.354349,"transit":false,"station_id":"CJT"},{"station_name":"Parung Panjang","line":6,"station_id":"PRP","is_transit":false,"time":9,"transit":false,"distance":7025,"i_long":106.568863,"i_lat":-6.3441410000000005},{"i_long":106.617853,"time":8,"line":3,"is_transit":false,"station_id":"CC","distance":5968,"transit":false,"station_name":"Cicayur","i_lat":-6.329547},{"is_transit":false,"station_name":"Cisauk","time":4,"station_id":"CSK","i_lat":-6.32484,"transit":false,"line":3,"distance":2519,"i_long":106.640411},{"station_id":"SRP","i_long":106.66566,"transit":false,"line":6,"distance":1784,"station_name":"Serpong","i_lat":-6.319871,"is_transit":false,"time":4},{"is_transit":false,"distance":2413,"line":6,"station_name":"Rawa Buntu","time":4,"i_long":106.675475,"i_lat":-6.314823,"transit":false,"station_id":"RU"},{"station_id":"SDM","i_long":106.712277,"transit":false,"time":6,"distance":4566,"i_lat":-6.296963,"line":6,"is_transit":false,"station_name":"Sudimara"},{"i_lat":-6.288927,"distance":1994,"time":4,"i_long":106.728916,"station_name":"Jurangmangu","is_transit":false,"line":6,"station_id":"JMU","transit":false},{"station_name":"Pondokranji","time":3,"i_lat":-6.276362,"line":6,"distance":2179,"is_transit":false,"i_long":106.74273,"station_id":"PDJ","transit":false},{"distance":6218,"i_lat":-6.237242,"i_long":106.780334,"station_name":"Kebayoran","is_transit":false,"station_id":"KBY","line":6,"time":8,"transit":false},{"station_id":"PLM","line":6,"i_long":106.79689,"distance":3737,"transit":false,"time":7,"station_name":"Palmerah","is_transit":false,"i_lat":-6.207404},{"time":6,"i_lat":-6.185545,"is_transit":true,"station_id":"THB","distance":3191,"station_name":"Tanah Abang","i_long":106.811091,"transit":true,"line":1},{"is_transit":true,"transit":true,"distance":3632,"station_id":"DU","station_name":"Duri","line":1,"time":8,"i_long":106.800832,"i_lat":-6.155215},{"station_name":"Grogol","is_transit":false,"line":5,"distance":1700,"i_lat":-6.162021,"i_long":106.788277,"transit":false,"station_id":"GRG","time":3},{"is_transit":false,"time":2,"i_long":106.771379,"line":5,"distance":2036,"station_id":"PSG","station_name":"Pesing","i_lat":-6.161433,"transit":false},{"time":2,"i_long":106.756522,"station_id":"TKO","i_lat":-6.1587309999999995,"station_name":"Taman Kota","is_transit":false,"distance":1614,"transit":false,"line":5},{"time":2,"i_lat":-6.159876,"station_name":"Bojongindah","i_long":106.737035,"line":5,"transit":false,"station_id":"BOI","distance":2334,"is_transit":false},{"station_id":"RW","is_transit":false,"station_name":"Rawa Buaya","time":4,"i_lat":-6.162758,"i_long":106.723064,"transit":false,"line":5,"distance":1152},{"station_id":"KDS","is_transit":false,"i_lat":-6.166068,"station_name":"Kalideres","distance":2504,"time":3,"i_long":106.701612,"line":5,"transit":false},{"i_long":106.679458,"distance":2548,"station_id":"PI","station_name":"Poris","transit":false,"line":5,"i_lat":-6.169933,"is_transit":false,"time":3},{"time":3,"station_name":"Batuceper","distance":1834,"transit":false,"i_lat":-6.171811,"station_id":"BPR","i_long":106.665036,"line":5,"is_transit":false},{"station_id":"TTI","i_long":106.64657,"distance":2028,"line":5,"is_transit":false,"i_lat":-6.17331,"station_name":"Tanah Tinggi","transit":false,"time":3},{"time":3,"station_name":"Tangerang","is_transit":false,"station_id":"TNG","distance":1547,"i_lat":-6.176583,"transit":false,"i_long":106.632761,"line":5}],[{"station_id":"RK","i_lat":-6.352675,"time":0,"station_name":"Rangkasbitung","i_long":106.250396,"is_transit":false,"line":3,"distance":0,"transit":false},{"is_transit":false,"distance":9847,"time":13,"line":3,"i_lat":-6.334892,"station_id":"CTR","transit":false,"station_name":"Citeras","i_long":106.332092},{"i_lat":-6.332307,"transit":false,"station_id":"MJ","is_transit":false,"i_long":106.394373,"time":10,"distance":7293,"station_name":"Maja","line":6},{"is_transit":false,"i_long":106.411216,"station_id":"CKY","i_lat":-6.33561,"station_name":"Cikoya","distance":1853,"transit":false,"time":4,"line":3},{"transit":false,"i_lat":-6.328533,"line":6,"i_long":106.425991,"station_id":"TGS","station_name":"Tigaraksa","time":3,"is_transit":false,"distance":2651},{"distance":2974,"is_transit":false,"transit":false,"station_name":"Tenjo","time":5,"i_long":106.460812,"i_lat":-6.327251,"line":6,"station_id":"TEJ"},{"station_name":"Daru","is_transit":false,"i_long":106.491338,"line":0,"i_lat":-6.338021,"distance":3902,"time":5,"station_id":"DAR","transit":false},{"transit":false,"time":6,"station_name":"Cilejit","distance":2675,"line":3,"i_long":106.508482,"is_transit":false,"i_lat":-6.354349,"station_id":"CJT"},{"station_name":"Parung Panjang","transit":false,"station_id":"PRP","is_transit":false,"i_lat":-6.3441410000000005,"distance":7025,"line":6,"time":9,"i_long":106.568863},{"i_long":106.617853,"transit":false,"station_name":"Cicayur","is_transit":false,"line":3,"i_lat":-6.329547,"distance":5968,"time":8,"station_id":"CC"},{"station_id":"CSK","station_name":"Cisauk","transit":false,"time":4,"line":3,"i_long":106.640411,"is_transit":false,"distance":2519,"i_lat":-6.32484},{"station_id":"SRP","time":4,"station_name":"Serpong","i_long":106.66566,"transit":false,"line":6,"distance":1784,"is_transit":false,"i_lat":-6.319871},{"i_lat":-6.314823,"line":6,"is_transit":false,"transit":false,"time":4,"station_name":"Rawa Buntu","i_long":106.675475,"station_id":"RU","distance":2413},{"transit":false,"is_transit":false,"i_lat":-6.296963,"station_id":"SDM","distance":4566,"time":6,"station_name":"Sudimara","i_long":106.712277,"line":6},{"station_id":"JMU","i_long":106.728916,"time":4,"i_lat":-6.288927,"line":6,"distance":1994,"is_transit":false,"transit":false,"station_name":"Jurangmangu"},{"time":3,"i_lat":-6.276362,"i_long":106.74273,"transit":false,"line":6,"station_id":"PDJ","station_name":"Pondokranji","distance":2179,"is_transit":false},{"station_id":"KBY","is_transit":false,"distance":6218,"i_long":106.780334,"transit":false,"line":6,"i_lat":-6.237242,"station_name":"Kebayoran","time":8},{"station_name":"Palmerah","i_lat":-6.207404,"transit":false,"is_transit":false,"distance":3737,"i_long":106.79689,"time":7,"station_id":"PLM","line":6},{"time":6,"line":1,"i_lat":-6.185545,"distance":3191,"station_id":"THB","is_transit":true,"transit":true,"i_long":106.811091,"station_name":"Tanah Abang"},{"station_id":"KAT","i_lat":-6.20132,"time":5,"line":1,"station_name":"Karet","is_transit":false,"transit":false,"distance":2029,"i_long":106.816351},{"is_transit":false,"line":1,"i_long":106.819881,"station_id":"SUDB","i_lat":-6.201433,"station_name":"Sudirman Baru","time":1,"distance":471,"transit":false},{"i_lat":-6.202263,"line":1,"time":1,"station_id":"SUD","i_long":106.822649,"station_name":"Sudirman","is_transit":false,"transit":false,"distance":280},{"line":2,"is_transit":true,"distance":3186,"time":4,"station_id":"MRI","i_lat":-6.209883,"transit":true,"i_long":106.84912,"station_name":"Manggarai"},{"station_id":"CKI","station_name":"Cikini","transit":false,"time":4,"i_lat":-6.198556,"i_long":106.840169,"is_transit":false,"distance":1590,"line":2},{"transit":false,"i_lat":-6.186295,"i_long":106.832183,"time":3,"is_transit":false,"station_name":"Gondangdia","line":2,"station_id":"GDD","distance":1750},{"time":4,"station_name":"Juanda","i_lat":-6.166716,"station_id":"JUA","transit":false,"line":2,"distance":2015,"i_long":106.828284,"is_transit":false},{"time":2,"i_lat":-6.160725,"station_id":"SW","station_name":"Sawah Besar","transit":false,"distance":1149,"line":2,"i_long":106.827103,"is_transit":false},{"line":2,"i_long":106.82482,"is_transit":false,"station_name":"Manggabesar","distance":906,"time":2,"station_id":"MGB","i_lat":-6.149769,"transit":false},{"distance":1080,"time":2,"station_id":"JAY","transit":false,"i_lat":-6.141205,"i_long":106.820901,"line":2,"station_name":"Jayakarta","is_transit":false},{"station_id":"JAKK","time":4,"transit":true,"is_transit":true,"distance":1264,"station_name":"Jakarta Kota","line":2,"i_lat":-6.137569,"i_long":106.812439},{"distance":1364,"transit":true,"is_transit":true,"i_lat":-6.132549,"time":3,"station_name":"Kampung Bandan","station_id":"KPB","i_long":106.826365,"line":4},{"station_name":"Angke","time":9,"transit":false,"line":1,"distance":4102,"station_id":"AK","i_long":106.79867,"is_transit":false,"i_lat":-6.144674},{"station_name":"Duri","line":1,"i_lat":-6.155215,"is_transit":true,"time":4,"transit":true,"distance":1230,"station_id":"DU","i_long":106.800832},{"transit":false,"distance":1700,"i_long":106.788277,"line":5,"station_name":"Grogol","is_transit":false,"time":3,"station_id":"GRG","i_lat":-6.162021},{"i_lat":-6.161433,"station_id":"PSG","is_transit":false,"distance":2036,"station_name":"Pesing","i_long":106.771379,"line":5,"transit":false,"time":2},{"station_name":"Taman Kota","line":5,"distance":1614,"transit":false,"time":2,"station_id":"TKO","is_transit":false,"i_lat":-6.1587309999999995,"i_long":106.756522},{"station_id":"BOI","i_lat":-6.159876,"line":5,"i_long":106.737035,"is_transit":false,"distance":2334,"time":2,"station_name":"Bojongindah","transit":false},{"station_id":"RW","i_lat":-6.162758,"is_transit":false,"distance":1152,"line":5,"transit":false,"i_long":106.723064,"station_name":"Rawa Buaya","time":4},{"is_transit":false,"line":5,"station_id":"KDS","time":3,"i_lat":-6.166068,"station_name":"Kalideres","i_long":106.701612,"distance":2504,"transit":false},{"time":3,"line":5,"station_name":"Poris","transit":false,"station_id":"PI","i_long":106.679458,"i_lat":-6.169933,"distance":2548,"is_transit":false},{"i_long":106.665036,"station_id":"BPR","is_transit":false,"line":5,"station_name":"Batuceper","time":3,"i_lat":-6.171811,"distance":1834,"transit":false},{"i_long":106.64657,"time":3,"distance":2028,"is_transit":false,"transit":false,"station_name":"Tanah Tinggi","line":5,"station_id":"TTI","i_lat":-6.17331},{"time":3,"is_transit":false,"i_long":106.632761,"line":5,"station_id":"TNG","distance":1547,"station_name":"Tangerang","transit":false,"i_lat":-6.176583}],[{"transit":false,"distance":0,"time":0,"i_long":106.250396,"station_id":"RK","station_name":"Rangkasbitung","is_transit":false,"i_lat":-6.352675,"line":3},{"station_id":"CTR","line":3,"distance":9847,"is_transit":false,"time":13,"station_name":"Citeras","transit":false,"i_long":106.332092,"i_lat":-6.334892},{"station_id":"MJ","i_lat":-6.332307,"transit":false,"i_long":106.394373,"line":6,"is_transit":false,"distance":7293,"station_name":"Maja","time":10},{"i_long":106.411216,"i_lat":-6.33561,"line":3,"time":4,"distance":1853,"is_transit":false,"station_id":"CKY","transit":false,"station_name":"Cikoya"},{"station_id":"TGS","distance":2651,"line":6,"transit":false,"i_long":106.425991,"time":3,"station_name":"Tigaraksa","is_transit":false,"i_lat":-6.328533},{"station_id":"TEJ","line":6,"time":5,"distance":2974,"is_transit":false,"i_lat":-6.327251,"station_name":"Tenjo","i_long":106.460812,"transit":false},{"time":5,"distance":3902,"line":0,"is_transit":false,"station_name":"Daru","i_lat":-6.338021,"station_id":"DAR","transit":false,"i_long":106.491338},{"station_name":"Cilejit","is_transit":false,"i_lat":-6.354349,"station_id":"CJT","time":6,"i_long":106.508482,"transit":false,"line":3,"distance":2675},{"time":9,"i_lat":-6.3441410000000005,"is_transit":false,"distance":7025,"station_id":"PRP","line":6,"transit":false,"station_name":"Parung Panjang","i_long":106.568863},{"station_name":"Cicayur","transit":false,"station_id":"CC","distance":5968,"time":8,"i_long":106.617853,"line":3,"is_transit":false,"i_lat":-6.329547},{"transit":false,"line":3,"is_transit":false,"station_name":"Cisauk","distance":2519,"station_id":"CSK","time":4,"i_long":106.640411,"i_lat":-6.32484},{"time":4,"i_long":106.66566,"is_transit":false,"distance":1784,"line":6,"station_name":"Serpong","transit":false,"i_lat":-6.319871,"station_id":"SRP"},{"i_lat":-6.314823,"station_id":"RU","time":4,"is_transit":false,"i_long":106.675475,"station_name":"Rawa Buntu","distance":2413,"line":6,"transit":false},{"transit":false,"station_name":"Sudimara","distance":4566,"time":6,"is_transit":false,"i_lat":-6.296963,"line":6,"i_long":106.712277,"station_id":"SDM"},{"transit":false,"station_id":"JMU","distance":1994,"station_name":"Jurangmangu","i_lat":-6.288927,"time":4,"i_long":106.728916,"line":6,"is_transit":false},{"station_id":"PDJ","time":3,"is_transit":false,"line":6,"i_lat":-6.276362,"i_long":106.74273,"station_name":"Pondokranji","distance":2179,"transit":false},{"i_lat":-6.237242,"is_transit":false,"i_long":106.780334,"line":6,"transit":false,"station_name":"Kebayoran","station_id":"KBY","time":8,"distance":6218},{"station_name":"Palmerah","transit":false,"i_long":106.79689,"station_id":"PLM","is_transit":false,"time":7,"distance":3737,"line":6,"i_lat":-6.207404},{"time":6,"i_lat":-6.185545,"distance":3191,"station_name":"Tanah Abang","i_long":106.811091,"line":1,"station_id":"THB","transit":true,"is_transit":true},{"time":5,"line":1,"station_name":"Karet","distance":2029,"transit":false,"i_long":106.816351,"is_transit":false,"station_id":"KAT","i_lat":-6.20132},{"transit":false,"line":1,"is_transit":false,"station_name":"Sudirman Baru","i_long":106.819881,"distance":471,"time":1,"i_lat":-6.201433,"station_id":"SUDB"},{"is_transit":false,"time":1,"i_long":106.822649,"station_id":"SUD","i_lat":-6.202263,"distance":280,"station_name":"Sudirman","transit":false,"line":1},{"station_name":"Manggarai","is_transit":false,"time":4,"station_id":"MRI","distance":3186,"i_lat":-6.209883,"line":2,"i_long":106.84912,"transit":false},{"is_transit":false,"distance":1275,"station_id":"MTR","time":2,"i_long":106.858896,"station_name":"Matraman","transit":false,"i_lat":-6.212485,"line":1},{"station_name":"Jatinegara","station_id":"JNG","time":8,"line":1,"is_transit":true,"transit":true,"i_long":106.86807400000001,"distance":1377,"i_lat":-6.215091},{"station_name":"Pondok Jati","transit":false,"i_long":106.861737,"distance":1236,"line":11,"i_lat":-6.209188,"is_transit":false,"station_id":"POK","time":2},{"station_id":"KMT","time":2,"line":11,"station_name":"Kramat","i_long":106.855437,"is_transit":false,"distance":1829,"i_lat":-6.193792,"transit":false},{"station_id":"GST","line":11,"station_name":"Gang Sentiong","distance":973,"transit":false,"time":1,"i_lat":-6.185975,"is_transit":false,"i_long":106.850107},{"station_name":"Pasar Senen","station_id":"PSE","i_lat":-6.174784,"transit":false,"i_long":106.84368,"is_transit":false,"time":8,"distance":1567,"line":11},{"i_long":106.839204,"station_name":"Kemayoran","line":11,"time":4,"distance":1436,"is_transit":false,"station_id":"KMO","transit":false,"i_lat":-6.161728},{"time":5,"i_lat":-6.14505,"i_long":106.836569,"distance":1901,"is_transit":false,"station_name":"Rajawali","station_id":"RJW","transit":false,"line":11},{"line":4,"is_transit":true,"station_name":"Kampung Bandan","distance":1444,"transit":true,"time":3,"i_lat":-6.132549,"station_id":"KPB","i_long":106.826365},{"time":9,"i_long":106.79867,"is_transit":false,"line":1,"i_lat":-6.144674,"distance":4102,"station_id":"AK","station_name":"Angke","transit":false},{"station_id":"DU","distance":1230,"i_long":106.800832,"time":4,"is_transit":true,"line":1,"station_name":"Duri","i_lat":-6.155215,"transit":true},{"distance":1700,"is_transit":false,"station_name":"Grogol","i_long":106.788277,"transit":false,"line":5,"i_lat":-6.162021,"time":3,"station_id":"GRG"},{"time":2,"distance":2036,"transit":false,"i_lat":-6.161433,"is_transit":false,"line":5,"i_long":106.771379,"station_id":"PSG","station_name":"Pesing"},{"i_lat":-6.1587309999999995,"i_long":106.756522,"time":2,"line":5,"is_transit":false,"distance":1614,"transit":false,"station_id":"TKO","station_name":"Taman Kota"},{"line":5,"transit":false,"station_id":"BOI","distance":2334,"time":2,"is_transit":false,"i_lat":-6.159876,"station_name":"Bojongindah","i_long":106.737035},{"time":4,"station_name":"Rawa Buaya","station_id":"RW","i_long":106.723064,"transit":false,"line":5,"distance":1152,"is_transit":false,"i_lat":-6.162758},{"line":5,"distance":2504,"transit":false,"i_lat":-6.166068,"station_id":"KDS","i_long":106.701612,"station_name":"Kalideres","is_transit":false,"time":3},{"station_name":"Poris","station_id":"PI","transit":false,"time":3,"i_lat":-6.169933,"i_long":106.679458,"distance":2548,"is_transit":false,"line":5},{"i_long":106.665036,"transit":false,"station_id":"BPR","time":3,"distance":1834,"i_lat":-6.171811,"station_name":"Batuceper","line":5,"is_transit":false},{"i_lat":-6.17331,"station_name":"Tanah Tinggi","time":3,"is_transit":false,"line":5,"station_id":"TTI","transit":false,"i_long":106.64657,"distance":2028},{"station_id":"TNG","station_name":"Tangerang","is_transit":false,"time":3,"distance":1547,"i_lat":-6.176583,"i_long":106.632761,"transit":false,"line":5}]]}