{"data":[[{"i_long":106.250396,"line":3,"station_id":"RK","station_name":"Rangkasbitung","is_transit":false,"time":0,"distance":0,"transit":false,"i_lat":-6.352675},{"is_transit":false,"time":13,"i_lat":-6.334892,"transit":false,"i_long":106.332092,"distance":9847,"station_id":"CTR","station_name":"Citeras","line":3},{"time":10,"i_lat":-6.332307,"station_id":"MJ","transit":false,"distance":7293,"i_long":106.394373,"line":6,"is_transit":false,"station_name":"Maja"},{"station_id":"CKY","i_lat":-6.33561,"line":3,"is_transit":false,"transit":false,"time":4,"i_long":106.411216,"distance":1853,"station_name":"Cikoya"},{"station_name":"Tigaraksa","time":3,"distance":2651,"transit":false,"is_transit":false,"i_long":106.425991,"station_id":"TGS","i_lat":-6.328533,"line":6},{"transit":false,"time":5,"is_transit":false,"i_lat":-6.327251,"distance":2974,"station_id":"TEJ","station_name":"Tenjo","i_long":106.460812,"line":6},{"transit":false,"time":5,"station_id":"DAR","distance":3902,"station_name":"Daru","is_transit":false,"i_lat":-6.338021,"i_long":106.491338,"line":0},{"transit":false,"line":3,"station_name":"Cilejit","station_id":"CJT","distance":2675,"i_lat":-6.354349,"is_transit":false,"i_long":106.508482,"time":6},{"transit":false,"station_name":"Parung Panjang","i_lat":-6.3441410000000005,"i_long":106.568863,"station_id":"PRP","is_transit":false,"distance":7025,"time":9,"line":6},{"i_lat":-6.329547,"distance":5968,"i_long":106.617853,"station_id":"CC","transit":false,"line":3,"is_transit":false,"time":8,"station_name":"Cicayur"},{"i_long":106.640411,"transit":false,"station_id":"CSK","time":4,"line":3,"distance":2519,"i_lat":-6.32484,"station_name":"Cisauk","is_transit":false},{"i_lat":-6.319871,"station_id":"SRP","line":6,"transit":false,"time":4,"i_long":106.66566,"station_name":"Serpong","is_transit":false,"distance":1784},{"i_long":106.675475,"time":4,"line":6,"i_lat":-6.314823,"is_transit":false,"station_name":"Rawa Buntu","distance":2413,"station_id":"RU","transit":false},{"is_transit":false,"transit":false,"station_id":"SDM","line":6,"time":6,"distance":4566,"i_long":106.712277,"i_lat":-6.296963,"station_name":"Sudimara"},{"station_id":"JMU","is_transit":false,"transit":false,"i_lat":-6.288927,"station_name":"Jurangmangu","time":4,"line":6,"i_long":106.728916,"distance":1994},{"transit":false,"i_lat":-6.276362,"i_long":106.74273,"is_transit":false,"station_name":"Pondokranji","station_id":"PDJ","line":6,"time":3,"distance":2179},{"i_long":106.780334,"is_transit":false,"transit":false,"station_id":"KBY","station_name":"Kebayoran","time":8,"line":6,"distance":6218,"i_lat":-6.237242},{"i_long":106.79689,"distance":3737,"i_lat":-6.207404,"line":6,"station_id":"PLM","station_name":"Palmerah","is_transit":false,"time":7,"transit":false},{"transit":true,"distance":3191,"is_transit":true,"station_name":"Tanah Abang","station_id":"THB","time":6,"i_lat":-6.185545,"i_long":106.811091,"line":1},{"i_lat":-6.155215,"station_id":"DU","transit":true,"station_name":"Duri","time":8,"line":1,"i_long":106.800832,"is_transit":true,"distance":3632},{"line":5,"is_transit":false,"station_name":"Grogol","distance":1700,"station_id":"GGL","time":3,"transit":false,"i_lat":-6.162021,"i_long":106.788277},{"is_transit":false,"distance":2036,"line":5,"station_name":"Pesing","station_id":"PSG","time":2,"i_lat":-6.161433,"i_long":106.771379,"transit":false},{"is_transit":false,"distance":1614,"station_name":"Taman Kota","station_id":"TKO","time":2,"transit":false,"i_lat":-6.1587309999999995,"line":5,"i_long":106.756522},{"is_transit":false,"i_lat":-6.159876,"line":5,"station_id":"BOI","i_long":106.737035,"distance":2334,"transit":false,"station_name":"Bojongindah","time":2},{"line":5,"transit":false,"is_transit":false,"station_name":"Rawa Buaya","i_long":106.723064,"distance":1152,"time":4,"station_id":"RW","i_lat":-6.162758},{"is_transit":false,"transit":false,"station_id":"KDS","time":3,"i_lat":-6.166068,"station_name":"Kalideres","distance":2504,"i_long":106.701612,"line":5},{"distance":2548,"time":3,"i_long":106.679458,"i_lat":-6.169933,"station_name":"Poris","is_transit":false,"line":5,"station_id":"PI","transit":false},{"transit":false,"station_name":"Batuceper","i_lat":-6.171811,"line":5,"station_id":"BPR","time":3,"is_transit":false,"distance":1834,"i_long":106.665036},{"time":3,"station_id":"TTI","transit":false,"station_name":"Tanah Tinggi","distance":2028,"line":5,"i_lat":-6.17331,"i_long":106.64657,"is_transit":false},{"station_id":"TNG","is_transit":false,"time":3,"i_lat":-6.176583,"station_name":"Tangerang","i_long":106.632761,"line":5,"transit":false,"distance":1547}],[{"is_transit":false,"station_name":"Rangkasbitung","station_id":"RK","transit":false,"time":0,"i_long":106.250396,"line":3,"i_lat":-6.352675,"distance":0},{"i_long":106.332092,"time":13,"is_transit":false,"transit":false,"station_name":"Citeras","station_id":"CTR","i_lat":-6.334892,"line":3,"distance":9847},{"is_transit":false,"i_lat":-6.332307,"i_long":106.394373,"station_name":"Maja","time":10,"line":6,"transit":false,"station_id":"MJ","distance":7293},{"line":3,"station_id":"CKY","transit":false,"station_name":"Cikoya","is_transit":false,"i_long":106.411216,"time":4,"distance":1853,"i_lat":-6.33561},{"station_name":"Tigaraksa","is_transit":false,"i_lat":-6.328533,"transit":false,"time":3,"distance":2651,"i_long":106.425991,"line":6,"station_id":"TGS"},{"transit":false,"i_long":106.460812,"station_id":"TEJ","distance":2974,"i_lat":-6.327251,"time":5,"is_transit":false,"station_name":"Tenjo","line":6},{"transit":false,"station_id":"DAR","distance":3902,"i_lat":-6.338021,"is_transit":false,"line":0,"station_name":"Daru","i_long":106.491338,"time":5},{"transit":false,"station_id":"CJT","is_transit":false,"i_lat":-6.354349,"time":6,"distance":2675,"i_long":106.508482,"line":3,"station_name":"Cilejit"},{"line":6,"i_lat":-6.3441410000000005,"station_name":"Parung Panjang","station_id":"PRP","transit":false,"is_transit":false,"distance":7025,"i_long":106.568863,"time":9},{"time":8,"is_transit":false,"i_lat":-6.329547,"i_long":106.617853,"distance":5968,"line":3,"station_name":"Cicayur","transit":false,"station_id":"CC"},{"station_id":"CSK","station_name":"Cisauk","transit":false,"is_transit":false,"i_lat":-6.32484,"time":4,"i_long":106.640411,"line":3,"distance":2519},{"i_lat":-6.319871,"time":4,"station_id":"SRP","distance":1784,"line":6,"transit":false,"station_name":"Serpong","i_long":106.66566,"is_transit":false},{"is_transit":false,"i_lat":-6.314823,"station_id":"RU","time":4,"i_long":106.675475,"line":6,"transit":false,"distance":2413,"station_name":"Rawa Buntu"},{"i_long":106.712277,"line":6,"transit":false,"is_transit":false,"station_id":"SDM","station_name":"Sudimara","distance":4566,"time":6,"i_lat":-6.296963},{"i_lat":-6.288927,"station_id":"JMU","time":4,"station_name":"Jurangmangu","i_long":106.728916,"distance":1994,"transit":false,"is_transit":false,"line":6},{"i_lat":-6.276362,"transit":false,"time":3,"i_long":106.74273,"distance":2179,"is_transit":false,"station_id":"PDJ","line":6,"station_name":"Pondokranji"},{"station_name":"Kebayoran","time":8,"i_long":106.780334,"station_id":"KBY","is_transit":false,"distance":6218,"transit":false,"line":6,"i_lat":-6.237242},{"station_id":"PLM","distance":3737,"station_name":"Palmerah","i_long":106.79689,"transit":false,"is_transit":false,"i_lat":-6.207404,"line":6,"time":7},{"time":6,"i_lat":-6.185545,"station_id":"THB","i_long":106.811091,"line":1,"distance":3191,"is_transit":true,"transit":true,"station_name":"Tanah Abang"},{"station_id":"KAT","i_lat":-6.20132,"i_long":106.816351,"station_name":"Karet","is_transit":false,"line":1,"distance":2029,"time":5,"transit":false},{"line":1,"transit":false,"station_name":"Sudirman Baru","is_transit":false,"time":1,"i_lat":-6.201433,"station_id":"SUDB","i_long":106.819881,"distance":471},{"time":1,"station_name":"Sudirman","station_id":"SUD","distance":280,"i_long":106.822649,"transit":false,"is_transit":false,"i_lat":-6.202263,"line":1},{"station_name":"Manggarai","i_lat":-6.209883,"is_transit":true,"i_long":106.84912,"station_id":"MRI","time":4,"distance":3186,"line":2,"transit":true},{"station_name":"Cikini","transit":false,"is_transit":false,"line":2,"distance":1590,"time":4,"station_id":"CKI","i_lat":-6.198556,"i_long":106.840169},{"station_name":"Gondangdia","station_id":"GDD","is_transit":false,"i_long":106.832183,"distance":1750,"line":2,"transit":false,"time":3,"i_lat":-6.186295},{"i_lat":-6.166716,"transit":false,"time":4,"distance":2015,"line":2,"station_id":"JUA","i_long":106.828284,"station_name":"Juanda","is_transit":false},{"i_lat":-6.160725,"is_transit":false,"transit":false,"time":2,"distance":1149,"i_long":106.827103,"station_id":"SW","station_name":"Sawah Besar","line":2},{"is_transit":false,"distance":906,"line":2,"i_long":106.82482,"time":2,"station_name":"Manggabesar","i_lat":-6.149769,"transit":false,"station_id":"MGB"},{"distance":1080,"time":2,"line":2,"station_id":"JAY","is_transit":false,"station_name":"Jayakarta","i_long":106.820901,"i_lat":-6.141205,"transit":false},{"transit":true,"station_name":"Jakarta Kota","station_id":"JAKK","time":4,"distance":1264,"i_lat":-6.137569,"line":2,"is_transit":true,"i_long":106.812439},{"station_name":"Kampung Bandan","is_transit":true,"distance":1364,"i_long":106.826365,"line":4,"station_id":"KPB","transit":true,"time":3,"i_lat":-6.132549},{"i_long":106.79867,"time":9,"line":1,"distance":4102,"station_name":"Angke","transit":false,"is_transit":false,"i_lat":-6.144674,"station_id":"AK"},{"i_lat":-6.155215,"distance":1230,"is_transit":true,"station_name":"Duri","station_id":"DU","i_long":106.800832,"time":4,"line":1,"transit":true},{"transit":false,"distance":1700,"is_transit":false,"station_name":"Grogol","i_long":106.788277,"line":5,"station_id":"GGL","i_lat":-6.162021,"time":3},{"station_name":"Pesing","station_id":"PSG","time":2,"transit":false,"distance":2036,"i_lat":-6.161433,"line":5,"is_transit":false,"i_long":106.771379},{"time":2,"line":5,"station_id":"TKO","i_lat":-6.1587309999999995,"station_name":"Taman Kota","is_transit":false,"distance":1614,"transit":false,"i_long":106.756522},{"line":5,"is_transit":false,"station_id":"BOI","distance":2334,"i_lat":-6.159876,"i_long":106.737035,"station_name":"Bojongindah","transit":false,"time":2},{"time":4,"is_transit":false,"station_id":"RW","i_long":106.723064,"distance":1152,"line":5,"transit":false,"station_name":"Rawa Buaya","i_lat":-6.162758},{"transit":false,"distance":2504,"i_long":106.701612,"station_name":"Kalideres","is_transit":false,"time":3,"station_id":"KDS","line":5,"i_lat":-6.166068},{"is_transit":false,"station_name":"Poris","time":3,"station_id":"PI","distance":2548,"i_lat":-6.169933,"transit":false,"i_long":106.679458,"line":5},{"distance":1834,"i_long":106.665036,"station_id":"BPR","station_name":"Batuceper","i_lat":-6.171811,"is_transit":false,"time":3,"line":5,"transit":false},{"i_long":106.64657,"line":5,"is_transit":false,"time":3,"station_id":"TTI","distance":2028,"transit":false,"i_lat":-6.17331,"station_name":"Tanah Tinggi"},{"time":3,"line":5,"i_lat":-6.176583,"is_transit":false,"i_long":106.632761,"distance":1547,"station_name":"Tangerang","station_id":"TNG","transit":false}],[{"distance":0,"time":0,"is_transit":false,"line":3,"station_name":"Rangkasbitung","transit":false,"i_lat":-6.352675,"i_long":106.250396,"station_id":"RK"},{"i_long":106.332092,"distance":9847,"station_id":"CTR","is_transit":false,"line":3,"transit":false,"station_name":"Citeras","time":13,"i_lat":-6.334892},{"station_id":"MJ","is_transit":false,"transit":false,"i_lat":-6.332307,"i_long":106.394373,"distance":7293,"line":6,"time":10,"station_name":"Maja"},{"is_transit":false,"distance":1853,"station_name":"Cikoya","time":4,"i_long":106.411216,"i_lat":-6.33561,"line":3,"station_id":"CKY","transit":false},{"station_id":"TGS","line":6,"station_name":"Tigaraksa","is_transit":false,"i_lat":-6.328533,"time":3,"i_long":106.425991,"distance":2651,"transit":false},{"station_id":"TEJ","is_transit":false,"distance":2974,"station_name":"Tenjo","i_lat":-6.327251,"line":6,"transit":false,"i_long":106.460812,"time":5},{"station_id":"DAR","transit":false,"i_lat":-6.338021,"is_transit":false,"i_long":106.491338,"station_name":"Daru","distance":3902,"time":5,"line":0},{"line":3,"distance":2675,"i_long":106.508482,"is_transit":false,"station_name":"Cilejit","station_id":"CJT","transit":false,"time":6,"i_lat":-6.354349},{"time":9,"i_lat":-6.3441410000000005,"line":6,"station_id":"PRP","is_transit":false,"i_long":106.568863,"transit":false,"station_name":"Parung Panjang","distance":7025},{"station_id":"CC","i_lat":-6.329547,"line":3,"time":8,"is_transit":false,"i_long":106.617853,"distance":5968,"transit":false,"station_name":"Cicayur"},{"distance":2519,"station_name":"Cisauk","station_id":"CSK","i_lat":-6.32484,"line":3,"transit":false,"i_long":106.640411,"is_transit":false,"time":4},{"transit":false,"is_transit":false,"time":4,"line":6,"distance":1784,"station_id":"SRP","station_name":"Serpong","i_lat":-6.319871,"i_long":106.66566},{"i_lat":-6.314823,"line":6,"distance":2413,"i_long":106.675475,"station_id":"RU","station_name":"Rawa Buntu","time":4,"is_transit":false,"transit":false},{"transit":false,"line":6,"time":6,"distance":4566,"i_long":106.712277,"is_transit":false,"station_id":"SDM","station_name":"Sudimara","i_lat":-6.296963},{"line":6,"i_lat":-6.288927,"is_transit":false,"time":4,"transit":false,"distance":1994,"station_name":"Jurangmangu","i_long":106.728916,"station_id":"JMU"},{"station_name":"Pondokranji","time":3,"is_transit":false,"distance":2179,"i_long":106.74273,"line":6,"transit":false,"i_lat":-6.276362,"station_id":"PDJ"},{"transit":false,"i_lat":-6.237242,"station_name":"Kebayoran","is_transit":false,"i_long":106.780334,"line":6,"time":8,"station_id":"KBY","distance":6218},{"i_lat":-6.207404,"distance":3737,"is_transit":false,"station_name":"Palmerah","time":7,"line":6,"station_id":"PLM","i_long":106.79689,"transit":false},{"station_id":"THB","distance":3191,"is_transit":true,"line":1,"transit":true,"station_name":"Tanah Abang","i_lat":-6.185545,"i_long":106.811091,"time":6},{"transit":false,"line":1,"time":5,"distance":2029,"is_transit":false,"i_lat":-6.20132,"i_long":106.816351,"station_name":"Karet","station_id":"KAT"},{"distance":471,"transit":false,"i_lat":-6.201433,"station_id":"SUDB","i_long":106.819881,"line":1,"time":1,"is_transit":false,"station_name":"Sudirman Baru"},{"time":1,"i_lat":-6.202263,"i_long":106.822649,"is_transit":false,"station_name":"Sudirman","station_id":"SUD","transit":false,"distance":280,"line":1},{"transit":false,"station_name":"Manggarai","station_id":"MRI","time":4,"distance":3186,"is_transit":false,"i_lat":-6.209883,"i_long":106.84912,"line":2},{"transit":false,"time":2,"station_id":"MTR","station_name":"Matraman","i_lat":-6.212485,"distance":1275,"line":1,"i_long":106.858896,"is_transit":false},{"transit":true,"i_lat":-6.215091,"i_long":106.86807400000001,"station_name":"Jatinegara","distance":1377,"station_id":"JNG","is_transit":true,"time":8,"line":1},{"transit":false,"station_id":"POK","i_long":106.861737,"line":11,"distance":1236,"is_transit":false,"station_name":"Pondok Jati","time":2,"i_lat":-6.209188},{"i_lat":-6.193792,"i_long":106.855437,"station_name":"Kramat","transit":false,"time":2,"is_transit":false,"station_id":"KMT","distance":1829,"line":11},{"transit":false,"station_name":"Gang Sentiong","i_long":106.850107,"line":11,"is_transit":false,"distance":973,"time":1,"station_id":"GST","i_lat":-6.185975},{"station_name":"Pasar Senen","time":8,"i_long":106.84368,"distance":1567,"i_lat":-6.174784,"station_id":"PSE","is_transit":false,"line":11,"transit":false},{"line":11,"is_transit":false,"station_id":"KMO","i_long":106.839204,"time":4,"transit":false,"distance":1436,"station_name":"Kemayoran","i_lat":-6.161728},{"distance":1901,"station_name":"Rajawali","station_id":"RJW","transit":false,"i_lat":-6.14505,"time":5,"line":11,"is_transit":false,"i_long":106.836569},{"station_name":"Kampung Bandan","time":3,"station_id":"KPB","i_lat":-6.132549,"i_long":106.826365,"line":4,"transit":true,"is_transit":true,"distance":1444},{"is_transit":false,"line":1,"i_lat":-6.144674,"i_long":106.79867,"transit":false,"station_name":"Angke","distance":4102,"station_id":"AK","time":9},{"line":1,"station_id":"DU","transit":true,"i_lat":-6.155215,"distance":1230,"i_long":106.800832,"is_transit":true,"time":4,"station_name":"Duri"},{"station_id":"GGL","distance":1700,"i_long":106.788277,"station_name":"Grogol","i_lat":-6.162021,"is_transit":false,"transit":false,"time":3,"line":5},{"is_transit":false,"station_name":"Pesing","station_id":"PSG","transit":false,"i_long":106.771379,"line":5,"distance":2036,"i_lat":-6.161433,"time":2},{"i_long":106.756522,"station_id":"TKO","distance":1614,"line":5,"time":2,"i_lat":-6.1587309999999995,"is_transit":false,"transit":false,"station_name":"Taman Kota"},{"station_name":"Bojongindah","i_long":106.737035,"distance":2334,"line":5,"station_id":"BOI","is_transit":false,"i_lat":-6.159876,"time":2,"transit":false},{"i_long":106.723064,"line":5,"distance":1152,"transit":false,"station_id":"RW","time":4,"station_name":"Rawa Buaya","is_transit":false,"i_lat":-6.162758},{"station_name":"Kalideres","line":5,"i_lat":-6.166068,"station_id":"KDS","time":3,"is_transit":false,"i_long":106.701612,"distance":2504,"transit":false},{"distance":2548,"station_id":"PI","station_name":"Poris","transit":false,"i_lat":-6.169933,"line":5,"is_transit":false,"i_long":106.679458,"time":3},{"distance":1834,"i_lat":-6.171811,"time":3,"i_long":106.665036,"line":5,"station_name":"Batuceper","transit":false,"station_id":"BPR","is_transit":false},{"time":3,"station_id":"TTI","i_long":106.64657,"line":5,"i_lat":-6.17331,"station_name":"Tanah Tinggi","transit":false,"is_transit":false,"distance":2028},{"station_name":"Tangerang","distance":1547,"transit":false,"is_transit":false,"station_id":"TNG","i_lat":-6.176583,"i_long":106.632761,"line":5,"time":3}]]}