{"data":[[{"i_lat":-6.352675,"is_transit":true,"station_name":"Rangkasbitung","line":0,"i_long":106.250396,"distance":0,"time":0,"station_id":"RK","transit":false},{"i_lat":-6.334892,"station_name":"Citeras","line":0,"time":13,"station_id":"CTR","transit":false,"i_long":106.332092,"is_transit":false,"distance":9847},{"station_name":"Maja","line":6,"time":10,"is_transit":false,"transit":false,"distance":7293,"i_lat":-6.332307,"i_long":106.394373,"station_id":"MJ"},{"distance":1853,"station_name":"Cikoya","time":4,"line":0,"transit":false,"i_lat":-6.33561,"is_transit":false,"station_id":"CKY","i_long":106.411216},{"station_id":"TGS","i_lat":-6.328533,"i_long":106.425991,"is_transit":false,"transit":false,"line":6,"distance":2651,"station_name":"Tigaraksa","time":3},{"station_id":"TEJ","i_long":106.460812,"line":6,"i_lat":-6.327251,"time":5,"distance":2974,"is_transit":false,"transit":false,"station_name":"Tenjo"},{"station_id":"DAR","transit":false,"line":0,"i_long":106.491338,"i_lat":-6.338021,"time":5,"is_transit":false,"distance":3902,"station_name":"Daru"},{"line":0,"station_id":"CJT","i_lat":-6.354349,"distance":2675,"is_transit":false,"transit":false,"i_long":106.508482,"station_name":"Cilejit","time":6},{"i_long":106.568863,"i_lat":-6.3441410000000005,"is_transit":false,"station_name":"Parung Panjang","distance":7025,"station_id":"PRP","transit":false,"line":6,"time":9},{"i_long":106.617853,"station_name":"Cicayur","is_transit":false,"transit":false,"i_lat":-6.329547,"time":8,"line":0,"distance":5968,"station_id":"CC"},{"transit":false,"line":0,"distance":2519,"is_transit":false,"time":4,"i_long":106.640411,"i_lat":-6.32484,"station_name":"Cisauk","station_id":"CSK"},{"station_name":"Serpong","i_lat":-6.319871,"line":6,"station_id":"SRP","distance":1784,"i_long":106.66566,"time":4,"transit":false,"is_transit":false},{"station_name":"Rawa Buntu","station_id":"RU","distance":2413,"line":6,"time":4,"i_long":106.675475,"i_lat":-6.314823,"is_transit":false,"transit":false},{"line":6,"station_name":"Sudimara","is_transit":false,"distance":4566,"time":6,"i_long":106.712277,"i_lat":-6.296963,"station_id":"SDM","transit":false},{"distance":1994,"time":4,"line":6,"i_lat":-6.288927,"i_long":106.728916,"transit":false,"station_id":"JMU","is_transit":false,"station_name":"Jurangmangu"},{"i_long":106.74273,"time":3,"distance":2179,"station_id":"PDJ","i_lat":-6.276362,"transit":false,"station_name":"Pondokranji","is_transit":false,"line":6},{"time":8,"i_lat":-6.237242,"line":6,"transit":false,"i_long":106.780334,"distance":6218,"station_id":"KBY","station_name":"Kebayoran","is_transit":false},{"distance":3737,"time":7,"i_long":106.79689,"is_transit":false,"transit":false,"i_lat":-6.207404,"station_name":"Palmerah","line":6,"station_id":"PLM"},{"distance":3191,"is_transit":true,"station_name":"Tanah Abang","time":6,"i_lat":-6.185545,"transit":true,"i_long":106.811091,"line":1,"station_id":"THB"},{"time":8,"line":1,"transit":true,"station_id":"DU","distance":3632,"station_name":"Duri","is_transit":true,"i_long":106.800832,"i_lat":-6.155215},{"i_lat":-6.162021,"distance":1700,"transit":false,"line":5,"time":3,"i_long":106.788277,"is_transit":false,"station_id":"GGL","station_name":"Grogol"},{"time":2,"station_id":"PSG","i_lat":-6.161433,"station_name":"Pesing","line":5,"transit":false,"is_transit":false,"i_long":106.771379,"distance":2036},{"distance":1614,"transit":false,"time":2,"line":5,"station_name":"Taman Kota","is_transit":false,"station_id":"TKO","i_lat":-6.1587309999999995,"i_long":106.756522},{"i_long":106.737035,"time":2,"station_id":"BOI","transit":false,"station_name":"Bojongindah","distance":2334,"line":0,"i_lat":-6.159876,"is_transit":false},{"station_id":"RW","transit":false,"is_transit":false,"distance":1152,"time":4,"i_long":106.723064,"line":5,"i_lat":-6.162758,"station_name":"Rawa Buaya"},{"station_id":"KDS","transit":false,"i_long":106.701612,"distance":2504,"time":3,"station_name":"Kalideres","i_lat":-6.166068,"is_transit":false,"line":5},{"line":5,"station_id":"PI","i_lat":-6.169933,"i_long":106.679458,"distance":2548,"is_transit":false,"transit":false,"station_name":"Poris","time":3},{"is_transit":false,"time":3,"line":0,"station_name":"Batuceper","distance":1834,"i_lat":-6.171811,"i_long":106.665036,"transit":false,"station_id":"BPR"},{"i_long":106.64657,"station_id":"TTI","is_transit":false,"i_lat":-6.17331,"station_name":"Tanah Tinggi","transit":false,"line":5,"time":3,"distance":2028},{"station_name":"Tangerang","transit":false,"time":3,"station_id":"TNG","i_long":106.632761,"line":5,"is_transit":false,"distance":1547,"i_lat":-6.176583}],[{"line":0,"distance":0,"is_transit":true,"transit":false,"i_lat":-6.352675,"station_id":"RK","time":0,"i_long":106.250396,"station_name":"Rangkasbitung"},{"i_lat":-6.334892,"station_name":"Citeras","line":0,"distance":9847,"is_transit":false,"station_id":"CTR","i_long":106.332092,"time":13,"transit":false},{"line":6,"distance":7293,"station_id":"MJ","time":10,"i_long":106.394373,"i_lat":-6.332307,"station_name":"Maja","is_transit":false,"transit":false},{"i_lat":-6.33561,"time":4,"i_long":106.411216,"line":0,"is_transit":false,"station_name":"Cikoya","transit":false,"distance":1853,"station_id":"CKY"},{"i_long":106.425991,"station_name":"Tigaraksa","transit":false,"line":6,"i_lat":-6.328533,"distance":2651,"time":3,"station_id":"TGS","is_transit":false},{"station_name":"Tenjo","time":5,"station_id":"TEJ","i_lat":-6.327251,"is_transit":false,"i_long":106.460812,"line":6,"transit":false,"distance":2974},{"line":0,"station_name":"Daru","i_long":106.491338,"time":5,"transit":false,"station_id":"DAR","distance":3902,"i_lat":-6.338021,"is_transit":false},{"transit":false,"distance":2675,"i_lat":-6.354349,"i_long":106.508482,"line":0,"station_name":"Cilejit","is_transit":false,"station_id":"CJT","time":6},{"i_long":106.568863,"line":6,"station_id":"PRP","transit":false,"time":9,"i_lat":-6.3441410000000005,"distance":7025,"is_transit":false,"station_name":"Parung Panjang"},{"station_id":"CC","station_name":"Cicayur","transit":false,"line":0,"distance":5968,"time":8,"i_long":106.617853,"is_transit":false,"i_lat":-6.329547},{"station_name":"Cisauk","transit":false,"i_long":106.640411,"distance":2519,"station_id":"CSK","line":0,"is_transit":false,"time":4,"i_lat":-6.32484},{"distance":1784,"time":4,"i_lat":-6.319871,"i_long":106.66566,"station_name":"Serpong","is_transit":false,"line":6,"station_id":"SRP","transit":false},{"time":4,"distance":2413,"station_id":"RU","i_long":106.675475,"transit":false,"line":6,"i_lat":-6.314823,"is_transit":false,"station_name":"Rawa Buntu"},{"transit":false,"station_id":"SDM","time":6,"i_lat":-6.296963,"i_long":106.712277,"is_transit":false,"distance":4566,"station_name":"Sudimara","line":6},{"distance":1994,"i_lat":-6.288927,"station_name":"Jurangmangu","is_transit":false,"time":4,"i_long":106.728916,"transit":false,"line":6,"station_id":"JMU"},{"station_id":"PDJ","station_name":"Pondokranji","distance":2179,"i_lat":-6.276362,"is_transit":false,"line":6,"transit":false,"i_long":106.74273,"time":3},{"i_long":106.780334,"line":6,"distance":6218,"station_id":"KBY","transit":false,"station_name":"Kebayoran","time":8,"i_lat":-6.237242,"is_transit":false},{"i_lat":-6.207404,"is_transit":false,"line":6,"distance":3737,"time":7,"i_long":106.79689,"station_id":"PLM","transit":false,"station_name":"Palmerah"},{"transit":true,"station_id":"THB","line":1,"time":6,"i_lat":-6.185545,"distance":3191,"station_name":"Tanah Abang","i_long":106.811091,"is_transit":true},{"line":1,"station_name":"Karet","is_transit":false,"time":5,"i_lat":-6.20132,"distance":2029,"station_id":"KAT","i_long":106.816351,"transit":false},{"station_id":"SUDB","distance":471,"is_transit":false,"transit":false,"i_lat":-6.201433,"line":1,"station_name":"Sudirman Baru","time":1,"i_long":106.819881},{"line":1,"transit":false,"distance":280,"station_name":"Sudirman","station_id":"SUD","i_lat":-6.202263,"time":1,"i_long":106.822649,"is_transit":false},{"transit":true,"time":4,"station_name":"Manggarai","i_lat":-6.209883,"line":0,"distance":3186,"station_id":"MRI","is_transit":true,"i_long":106.84912},{"i_lat":-6.198556,"i_long":106.840169,"distance":1590,"is_transit":false,"station_id":"CKI","transit":false,"station_name":"Cikini","time":4,"line":0},{"transit":false,"line":2,"station_id":"GDD","i_lat":-6.186295,"station_name":"Gondangdia","distance":1750,"time":3,"i_long":106.832183,"is_transit":false},{"distance":2015,"is_transit":false,"time":4,"station_id":"JUA","station_name":"Juanda","i_long":106.828284,"transit":false,"line":2,"i_lat":-6.166716},{"transit":false,"is_transit":false,"time":2,"line":2,"distance":1149,"i_lat":-6.160725,"station_id":"SW","station_name":"Sawah Besar","i_long":106.827103},{"transit":false,"i_long":106.82482,"is_transit":false,"distance":906,"line":2,"station_name":"Manggabesar","time":2,"i_lat":-6.149769,"station_id":"MGB"},{"distance":1080,"station_name":"Jayakarta","time":2,"i_lat":-6.141205,"is_transit":false,"transit":false,"station_id":"JAY","i_long":106.820901,"line":7},{"station_name":"Jakarta Kota","i_long":106.812439,"time":4,"is_transit":true,"station_id":"JAKK","transit":true,"i_lat":-6.137569,"distance":1264,"line":0},{"distance":1364,"i_long":106.826365,"line":0,"transit":false,"i_lat":-6.132549,"station_id":"KPB","is_transit":true,"station_name":"Kampung Bandan","time":3},{"station_id":"AK","station_name":"Angke","time":9,"i_lat":-6.144674,"line":0,"transit":false,"distance":4102,"i_long":106.79867,"is_transit":false},{"time":4,"is_transit":true,"station_name":"Duri","transit":true,"line":1,"distance":1230,"i_lat":-6.155215,"i_long":106.800832,"station_id":"DU"},{"station_name":"Grogol","i_long":106.788277,"line":5,"i_lat":-6.162021,"station_id":"GGL","transit":false,"time":3,"distance":1700,"is_transit":false},{"i_lat":-6.161433,"time":2,"distance":2036,"i_long":106.771379,"line":5,"transit":false,"station_name":"Pesing","station_id":"PSG","is_transit":false},{"time":2,"station_id":"TKO","distance":1614,"line":5,"i_lat":-6.1587309999999995,"transit":false,"i_long":106.756522,"station_name":"Taman Kota","is_transit":false},{"i_long":106.737035,"station_name":"Bojongindah","distance":2334,"time":2,"i_lat":-6.159876,"is_transit":false,"transit":false,"station_id":"BOI","line":0},{"is_transit":false,"transit":false,"line":5,"station_id":"RW","station_name":"Rawa Buaya","time":4,"i_lat":-6.162758,"distance":1152,"i_long":106.723064},{"i_lat":-6.166068,"is_transit":false,"distance":2504,"time":3,"i_long":106.701612,"station_name":"Kalideres","transit":false,"line":5,"station_id":"KDS"},{"time":3,"station_id":"PI","transit":false,"distance":2548,"line":5,"station_name":"Poris","is_transit":false,"i_lat":-6.169933,"i_long":106.679458},{"station_name":"Batuceper","station_id":"BPR","i_lat":-6.171811,"is_transit":false,"distance":1834,"i_long":106.665036,"transit":false,"time":3,"line":0},{"is_transit":false,"time":3,"i_lat":-6.17331,"transit":false,"station_id":"TTI","line":5,"station_name":"Tanah Tinggi","distance":2028,"i_long":106.64657},{"time":3,"is_transit":false,"i_lat":-6.176583,"distance":1547,"i_long":106.632761,"line":5,"station_id":"TNG","station_name":"Tangerang","transit":false}],[{"distance":0,"time":0,"is_transit":true,"i_long":106.250396,"i_lat":-6.352675,"line":0,"station_name":"Rangkasbitung","station_id":"RK","transit":false},{"is_transit":false,"line":0,"station_id":"CTR","i_lat":-6.334892,"station_name":"Citeras","distance":9847,"i_long":106.332092,"transit":false,"time":13},{"transit":false,"line":6,"station_id":"MJ","station_name":"Maja","i_long":106.394373,"time":10,"distance":7293,"is_transit":false,"i_lat":-6.332307},{"i_long":106.411216,"station_id":"CKY","time":4,"station_name":"Cikoya","i_lat":-6.33561,"is_transit":false,"line":0,"distance":1853,"transit":false},{"i_long":106.425991,"transit":false,"distance":2651,"is_transit":false,"station_id":"TGS","station_name":"Tigaraksa","i_lat":-6.328533,"line":6,"time":3},{"i_lat":-6.327251,"line":6,"is_transit":false,"station_name":"Tenjo","distance":2974,"transit":false,"station_id":"TEJ","time":5,"i_long":106.460812},{"i_long":106.491338,"distance":3902,"i_lat":-6.338021,"is_transit":false,"station_id":"DAR","transit":false,"time":5,"station_name":"Daru","line":0},{"is_transit":false,"transit":false,"time":6,"i_long":106.508482,"i_lat":-6.354349,"station_name":"Cilejit","distance":2675,"station_id":"CJT","line":0},{"station_id":"PRP","line":6,"i_long":106.568863,"station_name":"Parung Panjang","is_transit":false,"transit":false,"distance":7025,"time":9,"i_lat":-6.3441410000000005},{"time":8,"station_name":"Cicayur","transit":false,"i_long":106.617853,"is_transit":false,"station_id":"CC","i_lat":-6.329547,"line":0,"distance":5968},{"i_lat":-6.32484,"distance":2519,"i_long":106.640411,"station_name":"Cisauk","transit":false,"line":0,"station_id":"CSK","time":4,"is_transit":false},{"time":4,"distance":1784,"station_id":"SRP","i_lat":-6.319871,"i_long":106.66566,"is_transit":false,"transit":false,"line":6,"station_name":"Serpong"},{"station_name":"Rawa Buntu","transit":false,"time":4,"is_transit":false,"i_lat":-6.314823,"i_long":106.675475,"distance":2413,"line":6,"station_id":"RU"},{"is_transit":false,"time":6,"i_long":106.712277,"distance":4566,"station_id":"SDM","station_name":"Sudimara","transit":false,"line":6,"i_lat":-6.296963},{"i_lat":-6.288927,"distance":1994,"station_id":"JMU","station_name":"Jurangmangu","is_transit":false,"transit":false,"i_long":106.728916,"line":6,"time":4},{"i_lat":-6.276362,"time":3,"is_transit":false,"station_id":"PDJ","station_name":"Pondokranji","i_long":106.74273,"line":6,"distance":2179,"transit":false},{"time":8,"line":6,"station_name":"Kebayoran","i_long":106.780334,"is_transit":false,"transit":false,"station_id":"KBY","i_lat":-6.237242,"distance":6218},{"transit":false,"station_id":"PLM","distance":3737,"i_long":106.79689,"time":7,"line":6,"i_lat":-6.207404,"is_transit":false,"station_name":"Palmerah"},{"is_transit":true,"i_lat":-6.185545,"distance":3191,"transit":true,"station_id":"THB","station_name":"Tanah Abang","time":6,"i_long":106.811091,"line":1},{"transit":false,"time":5,"station_id":"KAT","distance":2029,"station_name":"Karet","is_transit":false,"line":1,"i_long":106.816351,"i_lat":-6.20132},{"is_transit":false,"transit":false,"station_id":"SUDB","distance":471,"time":1,"i_long":106.819881,"station_name":"Sudirman Baru","i_lat":-6.201433,"line":1},{"transit":false,"station_id":"SUD","station_name":"Sudirman","is_transit":false,"i_lat":-6.202263,"i_long":106.822649,"distance":280,"line":1,"time":1},{"station_id":"MRI","station_name":"Manggarai","distance":3186,"transit":false,"i_long":106.84912,"time":4,"i_lat":-6.209883,"line":0,"is_transit":true},{"i_long":106.858896,"i_lat":-6.212485,"station_name":"Matraman","station_id":"MTR","transit":false,"line":1,"distance":1275,"is_transit":false,"time":2},{"distance":1377,"station_name":"Jatinegara","i_lat":-6.215091,"is_transit":true,"line":0,"time":8,"transit":true,"i_long":106.86807400000001,"station_id":"JNG"},{"line":11,"transit":false,"station_name":"Pondok Jati","is_transit":false,"time":2,"station_id":"POK","i_lat":-6.209188,"distance":1236,"i_long":106.861737},{"time":2,"station_name":"Kramat","is_transit":false,"distance":1829,"station_id":"KMT","transit":false,"i_lat":-6.193792,"i_long":106.855437,"line":11},{"line":11,"distance":973,"i_lat":-6.185975,"i_long":106.850107,"transit":false,"is_transit":false,"station_id":"GST","time":1,"station_name":"Gang Sentiong"},{"time":8,"i_long":106.84368,"line":11,"i_lat":-6.174784,"station_id":"PSE","distance":1567,"is_transit":false,"station_name":"Pasar Senen","transit":false},{"distance":1436,"station_name":"Kemayoran","line":11,"station_id":"KMO","time":4,"transit":false,"i_lat":-6.161728,"i_long":106.839204,"is_transit":false},{"station_name":"Rajawali","is_transit":false,"line":11,"transit":false,"i_long":106.836569,"distance":1901,"i_lat":-6.14505,"station_id":"RJW","time":5},{"distance":1444,"i_long":106.826365,"is_transit":true,"transit":true,"line":0,"time":3,"station_name":"Kampung Bandan","station_id":"KPB","i_lat":-6.132549},{"i_long":106.79867,"station_id":"AK","transit":false,"i_lat":-6.144674,"distance":4102,"time":9,"station_name":"Angke","line":0,"is_transit":false},{"transit":true,"is_transit":true,"i_long":106.800832,"i_lat":-6.155215,"station_name":"Duri","distance":1230,"line":1,"station_id":"DU","time":4},{"is_transit":false,"station_name":"Grogol","transit":false,"i_lat":-6.162021,"station_id":"GGL","i_long":106.788277,"distance":1700,"time":3,"line":5},{"is_transit":false,"distance":2036,"line":5,"transit":false,"i_long":106.771379,"station_id":"PSG","i_lat":-6.161433,"time":2,"station_name":"Pesing"},{"transit":false,"i_lat":-6.1587309999999995,"line":5,"time":2,"i_long":106.756522,"station_name":"Taman Kota","distance":1614,"is_transit":false,"station_id":"TKO"},{"station_name":"Bojongindah","distance":2334,"time":2,"line":0,"is_transit":false,"transit":false,"i_lat":-6.159876,"i_long":106.737035,"station_id":"BOI"},{"is_transit":false,"i_long":106.723064,"station_name":"Rawa Buaya","line":5,"station_id":"RW","transit":false,"time":4,"i_lat":-6.162758,"distance":1152},{"i_lat":-6.166068,"line":5,"station_name":"Kalideres","is_transit":false,"station_id":"KDS","distance":2504,"time":3,"i_long":106.701612,"transit":false},{"transit":false,"station_id":"PI","i_lat":-6.169933,"station_name":"Poris","time":3,"line":5,"is_transit":false,"distance":2548,"i_long":106.679458},{"line":0,"distance":1834,"station_name":"Batuceper","time":3,"transit":false,"is_transit":false,"i_lat":-6.171811,"i_long":106.665036,"station_id":"BPR"},{"station_name":"Tanah Tinggi","i_lat":-6.17331,"i_long":106.64657,"line":5,"time":3,"is_transit":false,"distance":2028,"station_id":"TTI","transit":false},{"transit":false,"i_long":106.632761,"distance":1547,"is_transit":false,"i_lat":-6.176583,"station_name":"Tangerang","line":5,"time":3,"station_id":"TNG"}]]}