{"data":[[{"distance":0,"i_lat":-6.352675,"line":3,"i_long":106.250396,"time":0,"station_id":"RK","is_transit":false,"station_name":"Rangkasbitung","transit":false},{"i_long":106.332092,"line":3,"is_transit":false,"distance":9847,"station_id":"CTR","i_lat":-6.334892,"time":13,"station_name":"Citeras","transit":false},{"time":10,"i_long":106.394373,"i_lat":-6.332307,"distance":7293,"station_id":"MJ","line":6,"is_transit":false,"transit":false,"station_name":"Maja"},{"i_lat":-6.33561,"i_long":106.411216,"distance":1853,"station_id":"CKY","is_transit":false,"line":3,"time":4,"transit":false,"station_name":"Cikoya"},{"station_name":"Tigaraksa","i_long":106.425991,"line":6,"i_lat":-6.328533,"is_transit":false,"distance":2651,"time":3,"station_id":"TGS","transit":false},{"station_id":"TEJ","distance":2974,"i_lat":-6.327251,"line":6,"station_name":"Tenjo","i_long":106.460812,"time":5,"is_transit":false,"transit":false},{"i_lat":-6.338021,"transit":false,"time":5,"distance":3902,"i_long":106.491338,"station_name":"Daru","station_id":"DAR","line":0,"is_transit":false},{"transit":false,"i_lat":-6.354349,"station_name":"Cilejit","is_transit":false,"i_long":106.508482,"time":6,"line":3,"station_id":"CJT","distance":2675},{"line":6,"time":9,"i_lat":-6.3441410000000005,"station_name":"Parung Panjang","transit":false,"station_id":"PRP","is_transit":false,"i_long":106.568863,"distance":7025},{"i_lat":-6.329547,"transit":false,"distance":5968,"line":3,"is_transit":false,"station_name":"Cicayur","time":8,"i_long":106.617853,"station_id":"CC"},{"i_long":106.640411,"station_id":"CSK","station_name":"Cisauk","line":3,"distance":2519,"time":4,"is_transit":false,"transit":false,"i_lat":-6.32484},{"station_id":"SRP","is_transit":false,"station_name":"Serpong","distance":1784,"transit":false,"line":6,"i_lat":-6.319871,"time":4,"i_long":106.66566},{"station_name":"Rawa Buntu","time":4,"station_id":"RU","is_transit":false,"line":6,"distance":2413,"i_lat":-6.314823,"i_long":106.675475,"transit":false},{"transit":false,"station_name":"Sudimara","i_lat":-6.296963,"is_transit":false,"time":6,"station_id":"SDM","line":6,"distance":4566,"i_long":106.712277},{"i_lat":-6.288927,"station_name":"Jurangmangu","i_long":106.728916,"is_transit":false,"line":6,"transit":false,"station_id":"JMU","distance":1994,"time":4},{"i_long":106.74273,"line":6,"station_name":"Pondokranji","transit":false,"distance":2179,"time":3,"is_transit":false,"i_lat":-6.276362,"station_id":"PDJ"},{"i_lat":-6.237242,"station_id":"KBY","station_name":"Kebayoran","time":8,"distance":6218,"line":6,"transit":false,"is_transit":false,"i_long":106.780334},{"distance":3737,"station_id":"PLM","i_long":106.79689,"time":7,"i_lat":-6.207404,"transit":false,"is_transit":false,"line":6,"station_name":"Palmerah"},{"i_long":106.811091,"i_lat":-6.185545,"station_name":"Tanah Abang","station_id":"THB","distance":3191,"transit":true,"line":1,"is_transit":true,"time":6},{"time":8,"distance":3632,"i_lat":-6.155215,"station_id":"DU","transit":false,"station_name":"Duri","line":1,"i_long":106.800832,"is_transit":false},{"time":4,"distance":1230,"line":1,"i_lat":-6.144674,"transit":false,"station_name":"Angke","i_long":106.79867,"station_id":"AK","is_transit":false},{"i_long":106.826365,"station_id":"KPB","is_transit":true,"distance":4102,"i_lat":-6.132549,"station_name":"Kampung Bandan","line":4,"time":9,"transit":true},{"time":4,"station_name":"Ancol","distance":2185,"line":4,"i_lat":-6.128023,"station_id":"AC","i_long":106.84464,"transit":false,"is_transit":false},{"transit":false,"i_long":106.880089,"is_transit":false,"distance":4566,"i_lat":-6.1109480000000005,"station_name":"Tanjung Priuk","line":4,"time":9,"station_id":"TPK"}],[{"line":3,"station_name":"Rangkasbitung","station_id":"RK","is_transit":false,"transit":false,"distance":0,"i_lat":-6.352675,"time":0,"i_long":106.250396},{"station_id":"CTR","transit":false,"distance":9847,"is_transit":false,"line":3,"time":13,"i_long":106.332092,"i_lat":-6.334892,"station_name":"Citeras"},{"station_id":"MJ","is_transit":false,"distance":7293,"i_lat":-6.332307,"line":6,"i_long":106.394373,"time":10,"transit":false,"station_name":"Maja"},{"i_lat":-6.33561,"line":3,"i_long":106.411216,"station_name":"Cikoya","transit":false,"distance":1853,"is_transit":false,"time":4,"station_id":"CKY"},{"transit":false,"i_lat":-6.328533,"i_long":106.425991,"line":6,"station_name":"Tigaraksa","time":3,"station_id":"TGS","is_transit":false,"distance":2651},{"station_name":"Tenjo","is_transit":false,"transit":false,"i_lat":-6.327251,"i_long":106.460812,"station_id":"TEJ","distance":2974,"time":5,"line":6},{"station_name":"Daru","transit":false,"station_id":"DAR","line":0,"time":5,"i_lat":-6.338021,"i_long":106.491338,"is_transit":false,"distance":3902},{"distance":2675,"station_name":"Cilejit","line":3,"time":6,"station_id":"CJT","i_long":106.508482,"transit":false,"is_transit":false,"i_lat":-6.354349},{"i_long":106.568863,"time":9,"distance":7025,"station_name":"Parung Panjang","line":6,"station_id":"PRP","transit":false,"i_lat":-6.3441410000000005,"is_transit":false},{"distance":5968,"time":8,"line":3,"i_lat":-6.329547,"station_id":"CC","i_long":106.617853,"station_name":"Cicayur","is_transit":false,"transit":false},{"i_lat":-6.32484,"line":3,"transit":false,"station_name":"Cisauk","distance":2519,"i_long":106.640411,"time":4,"station_id":"CSK","is_transit":false},{"transit":false,"station_id":"SRP","line":6,"station_name":"Serpong","time":4,"distance":1784,"is_transit":false,"i_lat":-6.319871,"i_long":106.66566},{"distance":2413,"i_lat":-6.314823,"is_transit":false,"time":4,"station_id":"RU","transit":false,"line":6,"station_name":"Rawa Buntu","i_long":106.675475},{"i_long":106.712277,"i_lat":-6.296963,"distance":4566,"station_id":"SDM","is_transit":false,"line":6,"transit":false,"time":6,"station_name":"Sudimara"},{"distance":1994,"transit":false,"station_name":"Jurangmangu","i_lat":-6.288927,"i_long":106.728916,"line":6,"time":4,"is_transit":false,"station_id":"JMU"},{"i_lat":-6.276362,"station_name":"Pondokranji","time":3,"station_id":"PDJ","is_transit":false,"transit":false,"distance":2179,"i_long":106.74273,"line":6},{"time":8,"is_transit":false,"distance":6218,"transit":false,"i_lat":-6.237242,"line":6,"station_name":"Kebayoran","i_long":106.780334,"station_id":"KBY"},{"station_id":"PLM","i_long":106.79689,"line":6,"distance":3737,"station_name":"Palmerah","time":7,"is_transit":false,"transit":false,"i_lat":-6.207404},{"line":1,"i_lat":-6.185545,"station_name":"Tanah Abang","distance":3191,"is_transit":true,"transit":true,"time":6,"station_id":"THB","i_long":106.811091},{"i_long":106.816351,"line":1,"is_transit":false,"station_id":"KAT","time":5,"distance":2029,"transit":false,"i_lat":-6.20132,"station_name":"Karet"},{"i_long":106.819881,"line":1,"i_lat":-6.201433,"is_transit":false,"station_name":"Sudirman Baru","station_id":"SUDB","time":1,"distance":471,"transit":false},{"transit":false,"time":1,"i_lat":-6.202263,"i_long":106.822649,"station_name":"Sudirman","distance":280,"line":1,"station_id":"SUD","is_transit":false},{"station_name":"Manggarai","time":4,"station_id":"MRI","i_lat":-6.209883,"i_long":106.84912,"line":2,"is_transit":true,"transit":true,"distance":3186},{"is_transit":false,"distance":1590,"i_long":106.840169,"station_id":"CKI","transit":false,"time":4,"line":2,"station_name":"Cikini","i_lat":-6.198556},{"i_long":106.832183,"station_id":"GDD","is_transit":false,"time":3,"i_lat":-6.186295,"line":2,"station_name":"Gondangdia","transit":false,"distance":1750},{"transit":false,"station_name":"Juanda","i_long":106.828284,"line":2,"is_transit":false,"time":4,"distance":2015,"i_lat":-6.166716,"station_id":"JUA"},{"i_long":106.827103,"time":2,"station_id":"SW","is_transit":false,"distance":1149,"i_lat":-6.160725,"station_name":"Sawah Besar","transit":false,"line":2},{"transit":false,"station_id":"MGB","is_transit":false,"time":2,"line":2,"i_lat":-6.149769,"i_long":106.82482,"station_name":"Manggabesar","distance":906},{"station_name":"Jayakarta","i_lat":-6.141205,"line":2,"distance":1080,"i_long":106.820901,"station_id":"JAY","transit":false,"is_transit":false,"time":2},{"station_id":"JAKK","i_long":106.812439,"transit":true,"line":2,"station_name":"Jakarta Kota","i_lat":-6.137569,"is_transit":true,"distance":1264,"time":4},{"transit":true,"i_lat":-6.132549,"i_long":106.826365,"is_transit":true,"distance":1364,"station_name":"Kampung Bandan","time":3,"line":4,"station_id":"KPB"},{"is_transit":false,"time":4,"station_name":"Ancol","station_id":"AC","transit":false,"i_long":106.84464,"i_lat":-6.128023,"line":4,"distance":2185},{"transit":false,"i_long":106.880089,"station_name":"Tanjung Priuk","line":4,"i_lat":-6.1109480000000005,"station_id":"TPK","time":9,"is_transit":false,"distance":4566}],[{"is_transit":false,"time":0,"line":3,"transit":false,"i_long":106.250396,"distance":0,"station_name":"Rangkasbitung","station_id":"RK","i_lat":-6.352675},{"transit":false,"station_id":"CTR","time":13,"i_long":106.332092,"i_lat":-6.334892,"station_name":"Citeras","is_transit":false,"line":3,"distance":9847},{"station_name":"Maja","is_transit":false,"station_id":"MJ","transit":false,"time":10,"distance":7293,"i_lat":-6.332307,"i_long":106.394373,"line":6},{"station_id":"CKY","is_transit":false,"distance":1853,"transit":false,"time":4,"line":3,"station_name":"Cikoya","i_long":106.411216,"i_lat":-6.33561},{"time":3,"i_long":106.425991,"distance":2651,"station_name":"Tigaraksa","station_id":"TGS","is_transit":false,"i_lat":-6.328533,"transit":false,"line":6},{"distance":2974,"transit":false,"i_long":106.460812,"station_id":"TEJ","station_name":"Tenjo","time":5,"i_lat":-6.327251,"line":6,"is_transit":false},{"i_long":106.491338,"station_name":"Daru","distance":3902,"transit":false,"line":0,"time":5,"station_id":"DAR","is_transit":false,"i_lat":-6.338021},{"is_transit":false,"time":6,"i_long":106.508482,"station_id":"CJT","i_lat":-6.354349,"line":3,"transit":false,"station_name":"Cilejit","distance":2675},{"i_long":106.568863,"is_transit":false,"distance":7025,"transit":false,"time":9,"line":6,"station_name":"Parung Panjang","i_lat":-6.3441410000000005,"station_id":"PRP"},{"station_id":"CC","distance":5968,"is_transit":false,"time":8,"station_name":"Cicayur","transit":false,"i_lat":-6.329547,"i_long":106.617853,"line":3},{"time":4,"i_long":106.640411,"is_transit":false,"i_lat":-6.32484,"transit":false,"station_name":"Cisauk","line":3,"distance":2519,"station_id":"CSK"},{"station_name":"Serpong","i_lat":-6.319871,"is_transit":false,"line":6,"time":4,"distance":1784,"transit":false,"i_long":106.66566,"station_id":"SRP"},{"i_long":106.675475,"station_name":"Rawa Buntu","i_lat":-6.314823,"time":4,"station_id":"RU","distance":2413,"transit":false,"line":6,"is_transit":false},{"i_lat":-6.296963,"line":6,"station_name":"Sudimara","is_transit":false,"transit":false,"distance":4566,"i_long":106.712277,"time":6,"station_id":"SDM"},{"transit":false,"i_long":106.728916,"distance":1994,"line":6,"station_id":"JMU","i_lat":-6.288927,"is_transit":false,"station_name":"Jurangmangu","time":4},{"station_id":"PDJ","distance":2179,"transit":false,"line":6,"is_transit":false,"i_lat":-6.276362,"station_name":"Pondokranji","i_long":106.74273,"time":3},{"station_id":"KBY","is_transit":false,"distance":6218,"transit":false,"i_lat":-6.237242,"i_long":106.780334,"line":6,"station_name":"Kebayoran","time":8},{"is_transit":false,"i_long":106.79689,"line":6,"time":7,"distance":3737,"transit":false,"i_lat":-6.207404,"station_name":"Palmerah","station_id":"PLM"},{"station_id":"THB","distance":3191,"i_long":106.811091,"transit":true,"is_transit":true,"station_name":"Tanah Abang","time":6,"line":1,"i_lat":-6.185545},{"time":5,"i_lat":-6.20132,"i_long":106.816351,"station_id":"KAT","station_name":"Karet","distance":2029,"is_transit":false,"transit":false,"line":1},{"time":1,"transit":false,"line":1,"distance":471,"station_name":"Sudirman Baru","is_transit":false,"station_id":"SUDB","i_lat":-6.201433,"i_long":106.819881},{"time":1,"line":1,"transit":false,"i_lat":-6.202263,"i_long":106.822649,"is_transit":false,"station_name":"Sudirman","distance":280,"station_id":"SUD"},{"station_id":"MRI","transit":false,"i_long":106.84912,"i_lat":-6.209883,"distance":3186,"line":2,"station_name":"Manggarai","is_transit":false,"time":4},{"i_lat":-6.212485,"time":2,"line":1,"is_transit":false,"transit":false,"station_name":"Matraman","distance":1275,"station_id":"MTR","i_long":106.858896},{"transit":true,"i_lat":-6.215091,"line":1,"station_name":"Jatinegara","i_long":106.86807400000001,"distance":1377,"time":8,"station_id":"JNG","is_transit":true},{"is_transit":false,"i_long":106.861737,"station_name":"Pondok Jati","distance":1236,"station_id":"POK","transit":false,"time":2,"i_lat":-6.209188,"line":11},{"i_long":106.855437,"i_lat":-6.193792,"transit":false,"station_id":"KMT","time":2,"line":11,"station_name":"Kramat","is_transit":false,"distance":1829},{"time":1,"transit":false,"station_name":"Gang Sentiong","i_lat":-6.185975,"i_long":106.850107,"is_transit":false,"distance":973,"station_id":"GST","line":11},{"station_name":"Pasar Senen","time":8,"transit":false,"distance":1567,"station_id":"PSE","i_lat":-6.174784,"is_transit":false,"i_long":106.84368,"line":11},{"station_id":"KMO","time":4,"transit":false,"distance":1436,"i_lat":-6.161728,"i_long":106.839204,"station_name":"Kemayoran","line":11,"is_transit":false},{"distance":1901,"transit":false,"i_long":106.836569,"station_id":"RJW","is_transit":false,"i_lat":-6.14505,"time":5,"line":11,"station_name":"Rajawali"},{"transit":true,"distance":1444,"station_name":"Kampung Bandan","i_lat":-6.132549,"line":4,"i_long":106.826365,"station_id":"KPB","is_transit":true,"time":3},{"station_id":"AC","station_name":"Ancol","transit":false,"is_transit":false,"i_lat":-6.128023,"i_long":106.84464,"time":4,"line":4,"distance":2185},{"transit":false,"distance":4566,"station_id":"TPK","time":9,"i_long":106.880089,"line":4,"is_transit":false,"i_lat":-6.1109480000000005,"station_name":"Tanjung Priuk"}]]}