{"data":[[{"line":0,"transit":false,"i_lat":-6.352675,"distance":0,"station_id":"RK","station_name":"Rangkasbitung","time":0,"i_long":106.250396,"is_transit":true},{"is_transit":false,"distance":9847,"station_id":"CTR","transit":false,"time":13,"i_long":106.332092,"line":0,"i_lat":-6.334892,"station_name":"Citeras"},{"station_id":"MJ","line":6,"distance":7293,"station_name":"Maja","i_long":106.394373,"time":10,"is_transit":false,"i_lat":-6.332307,"transit":false},{"line":0,"station_name":"Cikoya","i_long":106.411216,"distance":1853,"transit":false,"station_id":"CKY","is_transit":false,"time":4,"i_lat":-6.33561},{"is_transit":false,"time":3,"station_name":"Tigaraksa","i_lat":-6.328533,"distance":2651,"line":6,"transit":false,"i_long":106.425991,"station_id":"TGS"},{"line":6,"station_id":"TEJ","i_lat":-6.327251,"distance":2974,"station_name":"Tenjo","transit":false,"time":5,"is_transit":false,"i_long":106.460812},{"transit":false,"line":0,"station_name":"Daru","time":5,"station_id":"DAR","distance":3902,"is_transit":false,"i_lat":-6.338021,"i_long":106.491338},{"station_id":"CJT","is_transit":false,"time":6,"i_long":106.508482,"line":0,"station_name":"Cilejit","i_lat":-6.354349,"distance":2675,"transit":false},{"i_lat":-6.3441410000000005,"is_transit":false,"i_long":106.568863,"line":6,"distance":7025,"station_name":"Parung Panjang","station_id":"PRP","time":9,"transit":false},{"line":0,"station_id":"CC","time":8,"i_lat":-6.329547,"i_long":106.617853,"distance":5968,"is_transit":false,"transit":false,"station_name":"Cicayur"},{"is_transit":false,"station_id":"CSK","distance":2519,"i_lat":-6.32484,"i_long":106.640411,"time":4,"line":0,"station_name":"Cisauk","transit":false},{"station_name":"Serpong","transit":false,"distance":1784,"station_id":"SRP","is_transit":false,"time":4,"i_lat":-6.319871,"i_long":106.66566,"line":6},{"transit":false,"line":6,"station_name":"Rawa Buntu","is_transit":false,"i_lat":-6.314823,"station_id":"RU","distance":2413,"i_long":106.675475,"time":4},{"station_id":"SDM","line":6,"time":6,"station_name":"Sudimara","transit":false,"i_lat":-6.296963,"i_long":106.712277,"is_transit":false,"distance":4566},{"is_transit":false,"station_id":"JMU","i_lat":-6.288927,"transit":false,"station_name":"Jurangmangu","time":4,"i_long":106.728916,"distance":1994,"line":6},{"line":6,"station_name":"Pondokranji","transit":false,"station_id":"PDJ","time":3,"i_lat":-6.276362,"i_long":106.74273,"distance":2179,"is_transit":false},{"station_name":"Kebayoran","transit":false,"i_lat":-6.237242,"distance":6218,"i_long":106.780334,"is_transit":false,"station_id":"KBY","line":6,"time":8},{"time":7,"is_transit":false,"distance":3737,"line":6,"station_id":"PLM","transit":false,"i_lat":-6.207404,"i_long":106.79689,"station_name":"Palmerah"},{"i_long":106.811091,"line":1,"station_name":"Tanah Abang","station_id":"THB","i_lat":-6.185545,"transit":true,"distance":3191,"is_transit":true,"time":6},{"transit":false,"station_id":"KAT","distance":2029,"time":5,"i_lat":-6.20132,"is_transit":false,"station_name":"Karet","i_long":106.816351,"line":1},{"is_transit":false,"i_long":106.819881,"line":1,"station_name":"Sudirman Baru","station_id":"SUDB","transit":false,"distance":471,"time":1,"i_lat":-6.201433},{"line":1,"is_transit":false,"i_lat":-6.202263,"station_name":"Sudirman","station_id":"SUD","transit":false,"i_long":106.822649,"distance":280,"time":1},{"station_id":"MRI","transit":false,"time":4,"line":0,"i_long":106.84912,"station_name":"Manggarai","i_lat":-6.209883,"is_transit":true,"distance":3186},{"transit":false,"line":1,"time":2,"distance":1275,"station_id":"MTR","is_transit":false,"station_name":"Matraman","i_lat":-6.212485,"i_long":106.858896},{"station_name":"Jatinegara","line":0,"transit":false,"i_long":106.86807400000001,"distance":1377,"is_transit":true,"station_id":"JNG","time":8,"i_lat":-6.215091},{"station_id":"KLD","i_lat":-6.2135,"line":1,"station_name":"Klender","transit":false,"distance":3395,"i_long":106.899548,"is_transit":false,"time":3},{"i_long":106.922662,"station_id":"BUA","i_lat":-6.215568,"distance":3100,"is_transit":false,"transit":false,"time":2,"station_name":"Buaran","line":0},{"line":1,"transit":false,"time":1,"distance":1305,"is_transit":false,"i_lat":-6.217455,"station_name":"Klenderbaru","station_id":"KLDB","i_long":106.939679},{"station_name":"Cakung","i_lat":-6.219053,"station_id":"CUK","line":0,"distance":1385,"transit":false,"i_long":106.951283,"is_transit":false,"time":8},{"i_lat":-6.224515,"line":1,"station_name":"Kranji","transit":false,"i_long":106.977657,"distance":3097,"time":3,"is_transit":false,"station_id":"KRI"},{"i_long":106.997013,"i_lat":-6.236616,"distance":2520,"time":4,"line":0,"station_id":"BKS","is_transit":false,"station_name":"Bekasi","transit":false},{"time":2,"i_lat":-6.248029,"i_long":107.016735,"distance":2368,"line":0,"station_name":"Bekasi Timur","station_id":"BKST","transit":false,"is_transit":false},{"distance":4460,"transit":false,"i_lat":-6.258864,"station_id":"TB","time":7,"is_transit":false,"i_long":107.055722,"line":1,"station_name":"Tambun"}],[{"line":0,"is_transit":true,"station_name":"Rangkasbitung","i_lat":-6.352675,"distance":0,"time":0,"transit":false,"i_long":106.250396,"station_id":"RK"},{"distance":9847,"is_transit":false,"station_id":"CTR","time":13,"transit":false,"i_long":106.332092,"station_name":"Citeras","line":0,"i_lat":-6.334892},{"time":10,"is_transit":false,"distance":7293,"station_name":"Maja","transit":false,"line":6,"station_id":"MJ","i_long":106.394373,"i_lat":-6.332307},{"station_name":"Cikoya","time":4,"i_long":106.411216,"station_id":"CKY","transit":false,"line":0,"is_transit":false,"i_lat":-6.33561,"distance":1853},{"station_id":"TGS","i_lat":-6.328533,"line":6,"time":3,"i_long":106.425991,"is_transit":false,"station_name":"Tigaraksa","transit":false,"distance":2651},{"i_long":106.460812,"line":6,"is_transit":false,"time":5,"transit":false,"station_name":"Tenjo","station_id":"TEJ","i_lat":-6.327251,"distance":2974},{"is_transit":false,"transit":false,"i_long":106.491338,"station_name":"Daru","time":5,"distance":3902,"i_lat":-6.338021,"station_id":"DAR","line":0},{"station_name":"Cilejit","line":0,"station_id":"CJT","i_long":106.508482,"i_lat":-6.354349,"distance":2675,"is_transit":false,"transit":false,"time":6},{"i_long":106.568863,"station_id":"PRP","distance":7025,"station_name":"Parung Panjang","i_lat":-6.3441410000000005,"transit":false,"line":6,"time":9,"is_transit":false},{"is_transit":false,"station_name":"Cicayur","time":8,"i_lat":-6.329547,"i_long":106.617853,"distance":5968,"station_id":"CC","transit":false,"line":0},{"i_lat":-6.32484,"station_name":"Cisauk","transit":false,"is_transit":false,"distance":2519,"line":0,"time":4,"i_long":106.640411,"station_id":"CSK"},{"i_lat":-6.319871,"transit":false,"is_transit":false,"time":4,"station_id":"SRP","distance":1784,"station_name":"Serpong","line":6,"i_long":106.66566},{"station_id":"RU","is_transit":false,"line":6,"distance":2413,"i_long":106.675475,"station_name":"Rawa Buntu","i_lat":-6.314823,"transit":false,"time":4},{"station_name":"Sudimara","time":6,"i_long":106.712277,"station_id":"SDM","transit":false,"i_lat":-6.296963,"distance":4566,"line":6,"is_transit":false},{"is_transit":false,"station_name":"Jurangmangu","line":6,"station_id":"JMU","transit":false,"i_lat":-6.288927,"distance":1994,"time":4,"i_long":106.728916},{"is_transit":false,"station_name":"Pondokranji","transit":false,"line":6,"time":3,"i_lat":-6.276362,"distance":2179,"i_long":106.74273,"station_id":"PDJ"},{"i_long":106.780334,"transit":false,"time":8,"distance":6218,"line":6,"station_name":"Kebayoran","is_transit":false,"i_lat":-6.237242,"station_id":"KBY"},{"is_transit":false,"station_id":"PLM","station_name":"Palmerah","time":7,"transit":false,"line":6,"i_lat":-6.207404,"i_long":106.79689,"distance":3737},{"i_long":106.811091,"transit":true,"line":1,"distance":3191,"station_id":"THB","time":6,"station_name":"Tanah Abang","i_lat":-6.185545,"is_transit":true},{"is_transit":true,"transit":true,"time":8,"i_long":106.800832,"station_id":"DU","station_name":"Duri","line":1,"i_lat":-6.155215,"distance":3632},{"is_transit":false,"line":0,"station_name":"Angke","transit":false,"station_id":"AK","i_lat":-6.144674,"i_long":106.79867,"distance":1230,"time":4},{"transit":true,"i_lat":-6.132549,"time":9,"is_transit":true,"line":0,"station_id":"KPB","distance":4102,"station_name":"Kampung Bandan","i_long":106.826365},{"i_long":106.836569,"station_name":"Rajawali","i_lat":-6.14505,"is_transit":false,"time":3,"distance":1444,"station_id":"RJW","transit":false,"line":11},{"i_lat":-6.161728,"i_long":106.839204,"is_transit":false,"station_name":"Kemayoran","line":11,"station_id":"KMO","time":5,"transit":false,"distance":1901},{"station_name":"Pasar Senen","i_lat":-6.174784,"distance":1436,"is_transit":false,"transit":false,"station_id":"PSE","time":4,"line":11,"i_long":106.84368},{"is_transit":false,"transit":false,"time":8,"line":11,"distance":1567,"i_long":106.850107,"i_lat":-6.185975,"station_name":"Gang Sentiong","station_id":"GST"},{"transit":false,"time":1,"i_lat":-6.193792,"i_long":106.855437,"station_name":"Kramat","line":11,"station_id":"KMT","distance":973,"is_transit":false},{"station_name":"Pondok Jati","time":2,"line":11,"transit":false,"distance":1829,"i_lat":-6.209188,"is_transit":false,"i_long":106.861737,"station_id":"POK"},{"time":9,"i_lat":-6.215091,"is_transit":true,"transit":true,"station_name":"Jatinegara","station_id":"JNG","i_long":106.86807400000001,"line":0,"distance":1236},{"is_transit":false,"station_id":"KLD","station_name":"Klender","i_lat":-6.2135,"line":1,"transit":false,"i_long":106.899548,"distance":3395,"time":3},{"distance":3100,"time":2,"station_name":"Buaran","is_transit":false,"i_lat":-6.215568,"line":0,"i_long":106.922662,"transit":false,"station_id":"BUA"},{"time":1,"transit":false,"is_transit":false,"station_name":"Klenderbaru","i_long":106.939679,"station_id":"KLDB","i_lat":-6.217455,"line":1,"distance":1305},{"i_lat":-6.219053,"transit":false,"station_name":"Cakung","time":8,"line":0,"is_transit":false,"station_id":"CUK","distance":1385,"i_long":106.951283},{"line":1,"station_id":"KRI","time":3,"is_transit":false,"distance":3097,"transit":false,"i_lat":-6.224515,"station_name":"Kranji","i_long":106.977657},{"transit":false,"station_id":"BKS","i_lat":-6.236616,"distance":2520,"is_transit":false,"time":4,"line":0,"i_long":106.997013,"station_name":"Bekasi"},{"transit":false,"i_lat":-6.248029,"is_transit":false,"line":0,"distance":2368,"station_id":"BKST","time":2,"i_long":107.016735,"station_name":"Bekasi Timur"},{"station_name":"Tambun","station_id":"TB","i_lat":-6.258864,"transit":false,"distance":4460,"time":7,"line":1,"is_transit":false,"i_long":107.055722}],[{"is_transit":true,"i_long":106.250396,"transit":false,"station_id":"RK","time":0,"line":0,"i_lat":-6.352675,"distance":0,"station_name":"Rangkasbitung"},{"station_id":"CTR","line":0,"time":13,"is_transit":false,"i_long":106.332092,"distance":9847,"transit":false,"i_lat":-6.334892,"station_name":"Citeras"},{"time":10,"i_long":106.394373,"line":6,"distance":7293,"transit":false,"i_lat":-6.332307,"station_name":"Maja","station_id":"MJ","is_transit":false},{"station_id":"CKY","is_transit":false,"transit":false,"i_long":106.411216,"station_name":"Cikoya","i_lat":-6.33561,"distance":1853,"time":4,"line":0},{"station_name":"Tigaraksa","i_lat":-6.328533,"time":3,"station_id":"TGS","i_long":106.425991,"line":6,"is_transit":false,"transit":false,"distance":2651},{"station_name":"Tenjo","station_id":"TEJ","distance":2974,"transit":false,"i_long":106.460812,"i_lat":-6.327251,"time":5,"line":6,"is_transit":false},{"time":5,"i_lat":-6.338021,"is_transit":false,"station_id":"DAR","distance":3902,"transit":false,"i_long":106.491338,"station_name":"Daru","line":0},{"transit":false,"station_name":"Cilejit","time":6,"distance":2675,"station_id":"CJT","line":0,"i_lat":-6.354349,"is_transit":false,"i_long":106.508482},{"distance":7025,"time":9,"i_lat":-6.3441410000000005,"is_transit":false,"station_name":"Parung Panjang","i_long":106.568863,"line":6,"station_id":"PRP","transit":false},{"i_lat":-6.329547,"transit":false,"station_name":"Cicayur","is_transit":false,"i_long":106.617853,"time":8,"line":0,"distance":5968,"station_id":"CC"},{"station_id":"CSK","i_lat":-6.32484,"line":0,"i_long":106.640411,"distance":2519,"is_transit":false,"transit":false,"station_name":"Cisauk","time":4},{"station_name":"Serpong","time":4,"is_transit":false,"transit":false,"i_long":106.66566,"line":6,"distance":1784,"i_lat":-6.319871,"station_id":"SRP"},{"line":6,"distance":2413,"station_name":"Rawa Buntu","i_long":106.675475,"is_transit":false,"transit":false,"time":4,"i_lat":-6.314823,"station_id":"RU"},{"station_name":"Sudimara","station_id":"SDM","i_long":106.712277,"distance":4566,"line":6,"is_transit":false,"transit":false,"time":6,"i_lat":-6.296963},{"station_id":"JMU","line":6,"distance":1994,"is_transit":false,"transit":false,"time":4,"i_long":106.728916,"station_name":"Jurangmangu","i_lat":-6.288927},{"station_id":"PDJ","i_lat":-6.276362,"distance":2179,"transit":false,"is_transit":false,"station_name":"Pondokranji","time":3,"i_long":106.74273,"line":6},{"i_lat":-6.237242,"i_long":106.780334,"time":8,"station_id":"KBY","transit":false,"line":6,"is_transit":false,"distance":6218,"station_name":"Kebayoran"},{"i_lat":-6.207404,"line":6,"transit":false,"i_long":106.79689,"is_transit":false,"station_id":"PLM","station_name":"Palmerah","distance":3737,"time":7},{"time":6,"i_long":106.811091,"station_id":"THB","i_lat":-6.185545,"transit":true,"distance":3191,"is_transit":true,"station_name":"Tanah Abang","line":1},{"i_long":106.800832,"line":1,"time":8,"i_lat":-6.155215,"station_id":"DU","distance":3632,"is_transit":true,"station_name":"Duri","transit":true},{"is_transit":false,"station_name":"Angke","station_id":"AK","distance":1230,"i_lat":-6.144674,"time":4,"i_long":106.79867,"line":0,"transit":false},{"station_id":"KPB","line":0,"i_lat":-6.132549,"time":9,"i_long":106.826365,"transit":false,"is_transit":true,"station_name":"Kampung Bandan","distance":4102},{"transit":true,"time":3,"i_lat":-6.137569,"line":0,"station_name":"Jakarta Kota","is_transit":true,"station_id":"JAKK","i_long":106.812439,"distance":1364},{"time":4,"i_lat":-6.141205,"is_transit":false,"station_id":"JAY","line":7,"distance":1264,"transit":false,"i_long":106.820901,"station_name":"Jayakarta"},{"station_name":"Manggabesar","distance":1080,"i_long":106.82482,"line":2,"is_transit":false,"time":2,"i_lat":-6.149769,"station_id":"MGB","transit":false},{"i_long":106.827103,"i_lat":-6.160725,"line":2,"is_transit":false,"time":2,"station_id":"SW","station_name":"Sawah Besar","transit":false,"distance":906},{"distance":1149,"is_transit":false,"i_long":106.828284,"line":2,"transit":false,"station_name":"Juanda","station_id":"JUA","time":2,"i_lat":-6.166716},{"distance":2015,"transit":false,"station_name":"Gondangdia","time":4,"line":2,"i_long":106.832183,"is_transit":false,"station_id":"GDD","i_lat":-6.186295},{"station_name":"Cikini","is_transit":false,"distance":1750,"line":0,"station_id":"CKI","i_long":106.840169,"time":3,"transit":false,"i_lat":-6.198556},{"line":0,"distance":1590,"station_name":"Manggarai","time":4,"station_id":"MRI","i_long":106.84912,"is_transit":true,"transit":true,"i_lat":-6.209883},{"i_long":106.858896,"line":1,"is_transit":false,"i_lat":-6.212485,"time":2,"distance":1275,"station_id":"MTR","station_name":"Matraman","transit":false},{"is_transit":true,"distance":1377,"station_name":"Jatinegara","time":8,"station_id":"JNG","line":0,"transit":false,"i_lat":-6.215091,"i_long":106.86807400000001},{"station_name":"Klender","time":3,"transit":false,"is_transit":false,"distance":3395,"i_long":106.899548,"line":1,"i_lat":-6.2135,"station_id":"KLD"},{"station_name":"Buaran","station_id":"BUA","is_transit":false,"time":2,"transit":false,"distance":3100,"line":0,"i_lat":-6.215568,"i_long":106.922662},{"i_lat":-6.217455,"distance":1305,"i_long":106.939679,"time":1,"station_id":"KLDB","line":1,"station_name":"Klenderbaru","transit":false,"is_transit":false},{"time":8,"line":0,"i_lat":-6.219053,"i_long":106.951283,"is_transit":false,"station_name":"Cakung","transit":false,"distance":1385,"station_id":"CUK"},{"line":1,"distance":3097,"transit":false,"i_long":106.977657,"is_transit":false,"station_name":"Kranji","station_id":"KRI","i_lat":-6.224515,"time":3},{"station_name":"Bekasi","distance":2520,"is_transit":false,"station_id":"BKS","transit":false,"i_long":106.997013,"time":4,"i_lat":-6.236616,"line":0},{"i_long":107.016735,"distance":2368,"line":0,"is_transit":false,"transit":false,"station_id":"BKST","i_lat":-6.248029,"station_name":"Bekasi Timur","time":2},{"i_long":107.055722,"is_transit":false,"station_id":"TB","station_name":"Tambun","time":7,"i_lat":-6.258864,"transit":false,"line":1,"distance":4460}],[{"i_lat":-6.352675,"station_id":"RK","transit":false,"time":0,"distance":0,"i_long":106.250396,"line":0,"is_transit":true,"station_name":"Rangkasbitung"},{"station_name":"Citeras","time":13,"transit":false,"distance":9847,"i_long":106.332092,"line":0,"station_id":"CTR","i_lat":-6.334892,"is_transit":false},{"station_name":"Maja","transit":false,"time":10,"distance":7293,"line":6,"is_transit":false,"station_id":"MJ","i_lat":-6.332307,"i_long":106.394373},{"time":4,"i_lat":-6.33561,"distance":1853,"is_transit":false,"line":0,"i_long":106.411216,"station_name":"Cikoya","station_id":"CKY","transit":false},{"station_id":"TGS","station_name":"Tigaraksa","line":6,"transit":false,"distance":2651,"time":3,"i_long":106.425991,"is_transit":false,"i_lat":-6.328533},{"line":6,"is_transit":false,"transit":false,"distance":2974,"time":5,"i_lat":-6.327251,"i_long":106.460812,"station_id":"TEJ","station_name":"Tenjo"},{"i_long":106.491338,"transit":false,"i_lat":-6.338021,"station_id":"DAR","distance":3902,"time":5,"station_name":"Daru","is_transit":false,"line":0},{"transit":false,"i_long":106.508482,"i_lat":-6.354349,"station_name":"Cilejit","distance":2675,"station_id":"CJT","is_transit":false,"time":6,"line":0},{"line":6,"time":9,"station_name":"Parung Panjang","distance":7025,"station_id":"PRP","i_lat":-6.3441410000000005,"transit":false,"i_long":106.568863,"is_transit":false},{"distance":5968,"station_name":"Cicayur","station_id":"CC","line":0,"i_long":106.617853,"is_transit":false,"i_lat":-6.329547,"time":8,"transit":false},{"station_name":"Cisauk","line":0,"station_id":"CSK","time":4,"i_long":106.640411,"distance":2519,"i_lat":-6.32484,"is_transit":false,"transit":false},{"station_id":"SRP","i_lat":-6.319871,"i_long":106.66566,"distance":1784,"line":6,"is_transit":false,"station_name":"Serpong","transit":false,"time":4},{"station_id":"RU","distance":2413,"transit":false,"station_name":"Rawa Buntu","time":4,"i_long":106.675475,"is_transit":false,"line":6,"i_lat":-6.314823},{"line":6,"distance":4566,"time":6,"station_name":"Sudimara","i_long":106.712277,"transit":false,"station_id":"SDM","i_lat":-6.296963,"is_transit":false},{"i_lat":-6.288927,"time":4,"line":6,"station_id":"JMU","station_name":"Jurangmangu","transit":false,"distance":1994,"is_transit":false,"i_long":106.728916},{"station_id":"PDJ","time":3,"transit":false,"is_transit":false,"station_name":"Pondokranji","i_lat":-6.276362,"i_long":106.74273,"line":6,"distance":2179},{"transit":false,"i_lat":-6.237242,"line":6,"station_id":"KBY","distance":6218,"station_name":"Kebayoran","is_transit":false,"i_long":106.780334,"time":8},{"distance":3737,"station_id":"PLM","i_long":106.79689,"line":6,"is_transit":false,"time":7,"i_lat":-6.207404,"transit":false,"station_name":"Palmerah"},{"i_long":106.811091,"line":1,"distance":3191,"station_id":"THB","i_lat":-6.185545,"time":6,"is_transit":true,"transit":true,"station_name":"Tanah Abang"},{"time":5,"line":1,"is_transit":false,"transit":false,"station_id":"KAT","i_lat":-6.20132,"station_name":"Karet","distance":2029,"i_long":106.816351},{"station_id":"SUDB","time":1,"distance":471,"is_transit":false,"station_name":"Sudirman Baru","transit":false,"i_lat":-6.201433,"line":1,"i_long":106.819881},{"station_name":"Sudirman","is_transit":false,"line":1,"distance":280,"transit":false,"time":1,"i_lat":-6.202263,"i_long":106.822649,"station_id":"SUD"},{"i_long":106.84912,"station_name":"Manggarai","distance":3186,"transit":true,"i_lat":-6.209883,"is_transit":true,"line":0,"time":4,"station_id":"MRI"},{"distance":1590,"i_long":106.840169,"line":0,"is_transit":false,"station_id":"CKI","station_name":"Cikini","time":4,"transit":false,"i_lat":-6.198556},{"station_id":"GDD","i_lat":-6.186295,"i_long":106.832183,"distance":1750,"line":2,"is_transit":false,"station_name":"Gondangdia","transit":false,"time":3},{"station_name":"Juanda","i_long":106.828284,"station_id":"JUA","time":4,"distance":2015,"i_lat":-6.166716,"line":2,"transit":false,"is_transit":false},{"station_name":"Sawah Besar","station_id":"SW","distance":1149,"transit":false,"is_transit":false,"i_long":106.827103,"i_lat":-6.160725,"line":2,"time":2},{"distance":906,"is_transit":false,"station_id":"MGB","station_name":"Manggabesar","i_lat":-6.149769,"line":2,"transit":false,"i_long":106.82482,"time":2},{"distance":1080,"i_long":106.820901,"transit":false,"station_id":"JAY","line":7,"is_transit":false,"i_lat":-6.141205,"time":2,"station_name":"Jayakarta"},{"station_name":"Jakarta Kota","line":0,"station_id":"JAKK","time":4,"transit":true,"is_transit":true,"distance":1264,"i_lat":-6.137569,"i_long":106.812439},{"i_long":106.826365,"transit":true,"time":3,"distance":1364,"station_id":"KPB","is_transit":true,"line":0,"station_name":"Kampung Bandan","i_lat":-6.132549},{"transit":false,"time":3,"i_long":106.836569,"line":11,"station_id":"RJW","is_transit":false,"station_name":"Rajawali","i_lat":-6.14505,"distance":1444},{"time":5,"is_transit":false,"station_name":"Kemayoran","transit":false,"station_id":"KMO","line":11,"distance":1901,"i_lat":-6.161728,"i_long":106.839204},{"is_transit":false,"station_id":"PSE","station_name":"Pasar Senen","time":4,"i_long":106.84368,"distance":1436,"transit":false,"i_lat":-6.174784,"line":11},{"line":11,"i_lat":-6.185975,"station_name":"Gang Sentiong","transit":false,"is_transit":false,"time":8,"distance":1567,"station_id":"GST","i_long":106.850107},{"line":11,"transit":false,"station_name":"Kramat","is_transit":false,"time":1,"distance":973,"i_lat":-6.193792,"i_long":106.855437,"station_id":"KMT"},{"is_transit":false,"line":11,"time":2,"distance":1829,"i_lat":-6.209188,"station_id":"POK","i_long":106.861737,"transit":false,"station_name":"Pondok Jati"},{"station_id":"JNG","time":9,"i_lat":-6.215091,"is_transit":true,"i_long":106.86807400000001,"line":0,"distance":1236,"station_name":"Jatinegara","transit":true},{"station_id":"KLD","is_transit":false,"station_name":"Klender","distance":3395,"line":1,"i_lat":-6.2135,"i_long":106.899548,"transit":false,"time":3},{"time":2,"station_name":"Buaran","i_long":106.922662,"distance":3100,"is_transit":false,"station_id":"BUA","transit":false,"line":0,"i_lat":-6.215568},{"is_transit":false,"i_long":106.939679,"i_lat":-6.217455,"distance":1305,"time":1,"station_id":"KLDB","station_name":"Klenderbaru","transit":false,"line":1},{"distance":1385,"transit":false,"i_long":106.951283,"is_transit":false,"station_name":"Cakung","line":0,"station_id":"CUK","i_lat":-6.219053,"time":8},{"transit":false,"is_transit":false,"station_name":"Kranji","line":1,"distance":3097,"i_lat":-6.224515,"i_long":106.977657,"station_id":"KRI","time":3},{"transit":false,"time":4,"line":0,"station_id":"BKS","i_long":106.997013,"station_name":"Bekasi","is_transit":false,"i_lat":-6.236616,"distance":2520},{"is_transit":false,"station_name":"Bekasi Timur","i_long":107.016735,"time":2,"station_id":"BKST","distance":2368,"transit":false,"i_lat":-6.248029,"line":0},{"i_long":107.055722,"is_transit":false,"line":1,"i_lat":-6.258864,"station_id":"TB","station_name":"Tambun","distance":4460,"transit":false,"time":7}]]}