{"data":[[{"i_long":106.250396,"distance":0,"is_transit":false,"time":0,"station_id":"RK","i_lat":-6.352675,"line":3,"transit":false,"station_name":"Rangkasbitung"},{"station_name":"Citeras","is_transit":false,"distance":9847,"i_long":106.332092,"transit":false,"time":13,"i_lat":-6.334892,"line":3,"station_id":"CTR"},{"is_transit":false,"i_long":106.394373,"distance":7293,"line":6,"time":10,"station_id":"MJ","station_name":"Maja","transit":false,"i_lat":-6.332307},{"line":3,"i_long":106.411216,"station_name":"Cikoya","distance":1853,"i_lat":-6.33561,"transit":false,"station_id":"CKY","time":4,"is_transit":false},{"distance":2651,"i_lat":-6.328533,"i_long":106.425991,"time":3,"line":6,"is_transit":false,"station_id":"TGS","station_name":"Tigaraksa","transit":false},{"station_id":"TEJ","line":6,"is_transit":false,"station_name":"Tenjo","distance":2974,"i_lat":-6.327251,"i_long":106.460812,"transit":false,"time":5},{"i_lat":-6.338021,"is_transit":false,"i_long":106.491338,"line":0,"transit":false,"station_name":"Daru","station_id":"DAR","distance":3902,"time":5},{"i_lat":-6.354349,"line":3,"distance":2675,"transit":false,"station_id":"CJT","is_transit":false,"station_name":"Cilejit","time":6,"i_long":106.508482},{"transit":false,"station_id":"PRP","station_name":"Parung Panjang","distance":7025,"i_long":106.568863,"line":6,"is_transit":false,"i_lat":-6.3441410000000005,"time":9},{"station_id":"CC","station_name":"Cicayur","distance":5968,"i_lat":-6.329547,"line":3,"transit":false,"is_transit":false,"i_long":106.617853,"time":8},{"i_lat":-6.32484,"i_long":106.640411,"transit":false,"line":3,"station_id":"CSK","time":4,"station_name":"Cisauk","is_transit":false,"distance":2519},{"is_transit":false,"i_lat":-6.319871,"transit":false,"station_id":"SRP","station_name":"Serpong","time":4,"distance":1784,"i_long":106.66566,"line":6},{"station_name":"Rawa Buntu","time":4,"transit":false,"station_id":"RU","line":6,"is_transit":false,"i_lat":-6.314823,"i_long":106.675475,"distance":2413},{"transit":false,"distance":4566,"i_long":106.712277,"time":6,"station_id":"SDM","line":6,"i_lat":-6.296963,"station_name":"Sudimara","is_transit":false},{"station_id":"JMU","transit":false,"distance":1994,"time":4,"i_lat":-6.288927,"line":6,"i_long":106.728916,"station_name":"Jurangmangu","is_transit":false},{"line":6,"time":3,"i_lat":-6.276362,"station_id":"PDJ","is_transit":false,"distance":2179,"i_long":106.74273,"station_name":"Pondokranji","transit":false},{"distance":6218,"time":8,"station_name":"Kebayoran","station_id":"KBY","i_lat":-6.237242,"is_transit":false,"i_long":106.780334,"transit":false,"line":6},{"line":6,"station_id":"PLM","transit":false,"time":7,"i_long":106.79689,"station_name":"Palmerah","is_transit":false,"distance":3737,"i_lat":-6.207404},{"distance":3191,"i_lat":-6.185545,"time":6,"i_long":106.811091,"line":1,"is_transit":true,"station_name":"Tanah Abang","station_id":"THB","transit":true},{"station_name":"Karet","time":5,"i_lat":-6.20132,"distance":2029,"i_long":106.816351,"line":1,"is_transit":false,"transit":false,"station_id":"KAT"},{"transit":false,"station_id":"SUDB","i_lat":-6.201433,"line":1,"is_transit":false,"i_long":106.819881,"distance":471,"time":1,"station_name":"Sudirman Baru"},{"is_transit":false,"line":1,"time":1,"distance":280,"i_lat":-6.202263,"station_name":"Sudirman","station_id":"SUD","transit":false,"i_long":106.822649},{"station_name":"Manggarai","i_long":106.84912,"transit":false,"time":4,"is_transit":false,"station_id":"MRI","i_lat":-6.209883,"line":2,"distance":3186},{"distance":1275,"station_name":"Matraman","is_transit":false,"station_id":"MTR","transit":false,"line":1,"i_long":106.858896,"time":2,"i_lat":-6.212485},{"station_id":"JNG","i_lat":-6.215091,"time":8,"transit":false,"distance":1377,"i_long":106.86807400000001,"line":1,"is_transit":false,"station_name":"Jatinegara"},{"station_id":"KLD","is_transit":false,"distance":3395,"station_name":"Klender","line":1,"time":3,"i_lat":-6.2135,"i_long":106.899548,"transit":false},{"i_lat":-6.215568,"transit":false,"station_name":"Buaran","distance":3100,"time":2,"station_id":"BUA","i_long":106.922662,"line":1,"is_transit":false},{"transit":false,"time":1,"i_long":106.939679,"is_transit":false,"station_id":"KLDB","station_name":"Klenderbaru","distance":1305,"i_lat":-6.217455,"line":1},{"station_name":"Cakung","is_transit":false,"distance":1385,"transit":false,"i_long":106.951283,"time":8,"station_id":"CUK","i_lat":-6.219053,"line":1},{"distance":3097,"station_name":"Kranji","transit":false,"i_lat":-6.224515,"is_transit":false,"station_id":"KRI","line":1,"time":3,"i_long":106.977657},{"station_name":"Bekasi","distance":2520,"is_transit":false,"time":4,"station_id":"BKS","i_lat":-6.236616,"transit":false,"i_long":106.997013,"line":1},{"distance":2368,"transit":false,"time":2,"is_transit":false,"station_id":"BKST","i_lat":-6.248029,"i_long":107.016735,"station_name":"Bekasi Timur","line":1},{"distance":4460,"time":7,"is_transit":false,"line":1,"station_id":"TB","station_name":"Tambun","transit":false,"i_lat":-6.258864,"i_long":107.055722}],[{"i_lat":-6.352675,"station_name":"Rangkasbitung","i_long":106.250396,"distance":0,"is_transit":false,"station_id":"RK","line":3,"transit":false,"time":0},{"station_name":"Citeras","line":3,"station_id":"CTR","distance":9847,"i_lat":-6.334892,"transit":false,"is_transit":false,"i_long":106.332092,"time":13},{"station_name":"Maja","i_long":106.394373,"time":10,"transit":false,"is_transit":false,"distance":7293,"station_id":"MJ","i_lat":-6.332307,"line":6},{"distance":1853,"station_name":"Cikoya","time":4,"transit":false,"i_lat":-6.33561,"i_long":106.411216,"line":3,"station_id":"CKY","is_transit":false},{"transit":false,"line":6,"distance":2651,"time":3,"station_id":"TGS","i_lat":-6.328533,"is_transit":false,"station_name":"Tigaraksa","i_long":106.425991},{"time":5,"line":6,"station_id":"TEJ","transit":false,"distance":2974,"i_lat":-6.327251,"i_long":106.460812,"station_name":"Tenjo","is_transit":false},{"station_name":"Daru","transit":false,"i_lat":-6.338021,"distance":3902,"i_long":106.491338,"station_id":"DAR","is_transit":false,"time":5,"line":0},{"is_transit":false,"station_name":"Cilejit","distance":2675,"time":6,"transit":false,"i_lat":-6.354349,"i_long":106.508482,"line":3,"station_id":"CJT"},{"distance":7025,"is_transit":false,"i_lat":-6.3441410000000005,"station_id":"PRP","transit":false,"station_name":"Parung Panjang","i_long":106.568863,"time":9,"line":6},{"station_id":"CC","is_transit":false,"i_long":106.617853,"time":8,"distance":5968,"station_name":"Cicayur","line":3,"i_lat":-6.329547,"transit":false},{"is_transit":false,"transit":false,"time":4,"station_name":"Cisauk","distance":2519,"i_long":106.640411,"line":3,"station_id":"CSK","i_lat":-6.32484},{"i_lat":-6.319871,"transit":false,"distance":1784,"time":4,"is_transit":false,"line":6,"i_long":106.66566,"station_id":"SRP","station_name":"Serpong"},{"i_lat":-6.314823,"distance":2413,"station_name":"Rawa Buntu","i_long":106.675475,"transit":false,"is_transit":false,"time":4,"line":6,"station_id":"RU"},{"i_lat":-6.296963,"line":6,"time":6,"i_long":106.712277,"station_name":"Sudimara","transit":false,"is_transit":false,"distance":4566,"station_id":"SDM"},{"station_id":"JMU","i_long":106.728916,"line":6,"transit":false,"time":4,"is_transit":false,"i_lat":-6.288927,"distance":1994,"station_name":"Jurangmangu"},{"station_name":"Pondokranji","is_transit":false,"transit":false,"station_id":"PDJ","time":3,"distance":2179,"i_lat":-6.276362,"i_long":106.74273,"line":6},{"station_id":"KBY","is_transit":false,"i_lat":-6.237242,"station_name":"Kebayoran","line":6,"transit":false,"i_long":106.780334,"distance":6218,"time":8},{"i_long":106.79689,"is_transit":false,"i_lat":-6.207404,"station_name":"Palmerah","line":6,"distance":3737,"time":7,"station_id":"PLM","transit":false},{"station_name":"Tanah Abang","transit":true,"i_lat":-6.185545,"is_transit":true,"distance":3191,"station_id":"THB","line":1,"i_long":106.811091,"time":6},{"station_name":"Duri","is_transit":false,"i_lat":-6.155215,"transit":false,"i_long":106.800832,"line":1,"distance":3632,"station_id":"DU","time":8},{"transit":false,"is_transit":false,"i_lat":-6.144674,"time":4,"distance":1230,"line":1,"station_name":"Angke","station_id":"AK","i_long":106.79867},{"i_long":106.826365,"station_id":"KPB","station_name":"Kampung Bandan","is_transit":true,"transit":true,"line":4,"distance":4102,"time":9,"i_lat":-6.132549},{"time":3,"station_id":"RJW","station_name":"Rajawali","transit":false,"i_lat":-6.14505,"is_transit":false,"i_long":106.836569,"line":11,"distance":1444},{"transit":false,"time":5,"i_long":106.839204,"station_id":"KMO","line":11,"distance":1901,"is_transit":false,"station_name":"Kemayoran","i_lat":-6.161728},{"line":11,"distance":1436,"i_lat":-6.174784,"is_transit":false,"station_name":"Pasar Senen","time":4,"station_id":"PSE","i_long":106.84368,"transit":false},{"time":8,"station_name":"Gang Sentiong","i_long":106.850107,"station_id":"GST","is_transit":false,"transit":false,"distance":1567,"i_lat":-6.185975,"line":11},{"station_id":"KMT","is_transit":false,"distance":973,"time":1,"i_lat":-6.193792,"transit":false,"station_name":"Kramat","line":11,"i_long":106.855437},{"i_long":106.861737,"station_name":"Pondok Jati","is_transit":false,"station_id":"POK","line":11,"time":2,"distance":1829,"i_lat":-6.209188,"transit":false},{"distance":1236,"i_long":106.86807400000001,"is_transit":true,"transit":true,"station_name":"Jatinegara","station_id":"JNG","time":9,"line":1,"i_lat":-6.215091},{"station_id":"KLD","time":3,"i_long":106.899548,"distance":3395,"transit":false,"station_name":"Klender","line":1,"is_transit":false,"i_lat":-6.2135},{"transit":false,"i_long":106.922662,"station_id":"BUA","time":2,"station_name":"Buaran","is_transit":false,"i_lat":-6.215568,"line":1,"distance":3100},{"station_id":"KLDB","station_name":"Klenderbaru","is_transit":false,"i_long":106.939679,"time":1,"distance":1305,"i_lat":-6.217455,"line":1,"transit":false},{"time":8,"station_name":"Cakung","transit":false,"is_transit":false,"i_long":106.951283,"station_id":"CUK","line":1,"i_lat":-6.219053,"distance":1385},{"line":1,"time":3,"i_lat":-6.224515,"distance":3097,"i_long":106.977657,"transit":false,"station_id":"KRI","is_transit":false,"station_name":"Kranji"},{"distance":2520,"station_id":"BKS","i_lat":-6.236616,"i_long":106.997013,"is_transit":false,"line":1,"transit":false,"station_name":"Bekasi","time":4},{"line":1,"station_name":"Bekasi Timur","distance":2368,"i_long":107.016735,"is_transit":false,"station_id":"BKST","time":2,"transit":false,"i_lat":-6.248029},{"i_long":107.055722,"station_name":"Tambun","time":7,"line":1,"station_id":"TB","i_lat":-6.258864,"is_transit":false,"distance":4460,"transit":false}],[{"i_long":106.250396,"is_transit":false,"transit":false,"station_id":"RK","distance":0,"time":0,"i_lat":-6.352675,"station_name":"Rangkasbitung","line":3},{"station_name":"Citeras","distance":9847,"station_id":"CTR","line":3,"i_long":106.332092,"i_lat":-6.334892,"transit":false,"is_transit":false,"time":13},{"station_name":"Maja","time":10,"is_transit":false,"i_long":106.394373,"line":6,"transit":false,"distance":7293,"station_id":"MJ","i_lat":-6.332307},{"station_name":"Cikoya","i_long":106.411216,"transit":false,"station_id":"CKY","distance":1853,"time":4,"i_lat":-6.33561,"line":3,"is_transit":false},{"transit":false,"time":3,"distance":2651,"is_transit":false,"line":6,"station_name":"Tigaraksa","i_lat":-6.328533,"station_id":"TGS","i_long":106.425991},{"station_name":"Tenjo","is_transit":false,"distance":2974,"station_id":"TEJ","transit":false,"i_lat":-6.327251,"i_long":106.460812,"line":6,"time":5},{"transit":false,"station_name":"Daru","time":5,"is_transit":false,"station_id":"DAR","i_long":106.491338,"line":0,"i_lat":-6.338021,"distance":3902},{"distance":2675,"station_name":"Cilejit","i_long":106.508482,"transit":false,"line":3,"time":6,"station_id":"CJT","i_lat":-6.354349,"is_transit":false},{"time":9,"is_transit":false,"i_long":106.568863,"line":6,"distance":7025,"transit":false,"station_name":"Parung Panjang","i_lat":-6.3441410000000005,"station_id":"PRP"},{"i_long":106.617853,"station_id":"CC","is_transit":false,"distance":5968,"line":3,"i_lat":-6.329547,"transit":false,"station_name":"Cicayur","time":8},{"i_lat":-6.32484,"transit":false,"station_id":"CSK","time":4,"i_long":106.640411,"distance":2519,"is_transit":false,"station_name":"Cisauk","line":3},{"distance":1784,"i_long":106.66566,"time":4,"line":6,"transit":false,"station_id":"SRP","station_name":"Serpong","is_transit":false,"i_lat":-6.319871},{"time":4,"i_lat":-6.314823,"i_long":106.675475,"transit":false,"is_transit":false,"station_name":"Rawa Buntu","distance":2413,"station_id":"RU","line":6},{"is_transit":false,"i_lat":-6.296963,"time":6,"i_long":106.712277,"line":6,"distance":4566,"transit":false,"station_name":"Sudimara","station_id":"SDM"},{"distance":1994,"is_transit":false,"i_long":106.728916,"transit":false,"line":6,"station_id":"JMU","time":4,"station_name":"Jurangmangu","i_lat":-6.288927},{"time":3,"transit":false,"station_id":"PDJ","line":6,"distance":2179,"station_name":"Pondokranji","i_lat":-6.276362,"i_long":106.74273,"is_transit":false},{"time":8,"line":6,"station_id":"KBY","transit":false,"is_transit":false,"distance":6218,"station_name":"Kebayoran","i_lat":-6.237242,"i_long":106.780334},{"station_name":"Palmerah","i_lat":-6.207404,"is_transit":false,"distance":3737,"station_id":"PLM","time":7,"i_long":106.79689,"line":6,"transit":false},{"station_id":"THB","distance":3191,"line":1,"transit":true,"station_name":"Tanah Abang","is_transit":true,"i_lat":-6.185545,"time":6,"i_long":106.811091},{"station_name":"Duri","transit":false,"time":8,"station_id":"DU","i_lat":-6.155215,"is_transit":false,"i_long":106.800832,"distance":3632,"line":1},{"time":4,"is_transit":false,"line":1,"station_name":"Angke","transit":false,"i_lat":-6.144674,"i_long":106.79867,"station_id":"AK","distance":1230},{"line":4,"station_name":"Kampung Bandan","time":9,"distance":4102,"transit":true,"is_transit":true,"i_lat":-6.132549,"station_id":"KPB","i_long":106.826365},{"transit":true,"i_long":106.812439,"station_name":"Jakarta Kota","line":2,"distance":1364,"is_transit":true,"i_lat":-6.137569,"time":3,"station_id":"JAKK"},{"i_long":106.820901,"is_transit":false,"transit":false,"station_id":"JAY","line":2,"distance":1264,"i_lat":-6.141205,"station_name":"Jayakarta","time":4},{"time":2,"i_lat":-6.149769,"station_id":"MGB","station_name":"Manggabesar","i_long":106.82482,"distance":1080,"line":2,"transit":false,"is_transit":false},{"is_transit":false,"line":2,"distance":906,"station_name":"Sawah Besar","i_lat":-6.160725,"station_id":"SW","i_long":106.827103,"transit":false,"time":2},{"transit":false,"line":2,"station_name":"Juanda","i_long":106.828284,"time":2,"is_transit":false,"station_id":"JUA","distance":1149,"i_lat":-6.166716},{"is_transit":false,"transit":false,"station_id":"GDD","station_name":"Gondangdia","time":4,"distance":2015,"i_lat":-6.186295,"i_long":106.832183,"line":2},{"line":2,"is_transit":false,"transit":false,"station_name":"Cikini","time":3,"i_long":106.840169,"distance":1750,"i_lat":-6.198556,"station_id":"CKI"},{"i_long":106.84912,"line":2,"station_id":"MRI","time":4,"distance":1590,"is_transit":true,"transit":true,"i_lat":-6.209883,"station_name":"Manggarai"},{"line":1,"station_id":"MTR","station_name":"Matraman","is_transit":false,"i_lat":-6.212485,"i_long":106.858896,"distance":1275,"time":2,"transit":false},{"distance":1377,"time":8,"station_id":"JNG","i_lat":-6.215091,"station_name":"Jatinegara","transit":false,"line":1,"is_transit":false,"i_long":106.86807400000001},{"line":1,"station_name":"Klender","distance":3395,"station_id":"KLD","time":3,"is_transit":false,"transit":false,"i_long":106.899548,"i_lat":-6.2135},{"time":2,"i_lat":-6.215568,"distance":3100,"i_long":106.922662,"is_transit":false,"line":1,"transit":false,"station_name":"Buaran","station_id":"BUA"},{"distance":1305,"is_transit":false,"transit":false,"time":1,"i_long":106.939679,"station_id":"KLDB","station_name":"Klenderbaru","i_lat":-6.217455,"line":1},{"line":1,"station_name":"Cakung","distance":1385,"time":8,"i_long":106.951283,"i_lat":-6.219053,"station_id":"CUK","transit":false,"is_transit":false},{"line":1,"i_long":106.977657,"time":3,"distance":3097,"i_lat":-6.224515,"station_name":"Kranji","is_transit":false,"transit":false,"station_id":"KRI"},{"line":1,"transit":false,"i_lat":-6.236616,"station_name":"Bekasi","distance":2520,"is_transit":false,"i_long":106.997013,"station_id":"BKS","time":4},{"line":1,"is_transit":false,"transit":false,"distance":2368,"time":2,"station_id":"BKST","i_long":107.016735,"i_lat":-6.248029,"station_name":"Bekasi Timur"},{"time":7,"distance":4460,"is_transit":false,"line":1,"station_id":"TB","station_name":"Tambun","i_long":107.055722,"transit":false,"i_lat":-6.258864}],[{"time":0,"is_transit":false,"station_id":"RK","distance":0,"i_long":106.250396,"station_name":"Rangkasbitung","i_lat":-6.352675,"transit":false,"line":3},{"time":13,"station_name":"Citeras","i_lat":-6.334892,"line":3,"is_transit":false,"distance":9847,"station_id":"CTR","transit":false,"i_long":106.332092},{"is_transit":false,"distance":7293,"i_lat":-6.332307,"i_long":106.394373,"time":10,"station_name":"Maja","line":6,"station_id":"MJ","transit":false},{"time":4,"transit":false,"i_long":106.411216,"is_transit":false,"line":3,"distance":1853,"i_lat":-6.33561,"station_name":"Cikoya","station_id":"CKY"},{"station_name":"Tigaraksa","station_id":"TGS","time":3,"i_long":106.425991,"is_transit":false,"i_lat":-6.328533,"transit":false,"distance":2651,"line":6},{"time":5,"station_name":"Tenjo","is_transit":false,"distance":2974,"transit":false,"station_id":"TEJ","i_lat":-6.327251,"line":6,"i_long":106.460812},{"station_id":"DAR","i_long":106.491338,"transit":false,"line":0,"station_name":"Daru","i_lat":-6.338021,"time":5,"distance":3902,"is_transit":false},{"i_lat":-6.354349,"i_long":106.508482,"time":6,"station_id":"CJT","station_name":"Cilejit","distance":2675,"is_transit":false,"line":3,"transit":false},{"line":6,"transit":false,"station_name":"Parung Panjang","time":9,"station_id":"PRP","distance":7025,"i_long":106.568863,"is_transit":false,"i_lat":-6.3441410000000005},{"i_lat":-6.329547,"distance":5968,"time":8,"is_transit":false,"line":3,"station_name":"Cicayur","transit":false,"station_id":"CC","i_long":106.617853},{"station_id":"CSK","i_long":106.640411,"line":3,"transit":false,"station_name":"Cisauk","distance":2519,"is_transit":false,"time":4,"i_lat":-6.32484},{"line":6,"station_name":"Serpong","i_lat":-6.319871,"is_transit":false,"distance":1784,"station_id":"SRP","i_long":106.66566,"transit":false,"time":4},{"line":6,"station_name":"Rawa Buntu","i_long":106.675475,"time":4,"i_lat":-6.314823,"transit":false,"is_transit":false,"distance":2413,"station_id":"RU"},{"time":6,"i_long":106.712277,"transit":false,"distance":4566,"i_lat":-6.296963,"station_id":"SDM","line":6,"station_name":"Sudimara","is_transit":false},{"time":4,"distance":1994,"i_long":106.728916,"station_id":"JMU","transit":false,"line":6,"is_transit":false,"i_lat":-6.288927,"station_name":"Jurangmangu"},{"station_name":"Pondokranji","i_long":106.74273,"distance":2179,"station_id":"PDJ","line":6,"transit":false,"i_lat":-6.276362,"time":3,"is_transit":false},{"distance":6218,"line":6,"transit":false,"time":8,"station_id":"KBY","i_lat":-6.237242,"station_name":"Kebayoran","i_long":106.780334,"is_transit":false},{"station_name":"Palmerah","transit":false,"time":7,"i_lat":-6.207404,"is_transit":false,"distance":3737,"i_long":106.79689,"station_id":"PLM","line":6},{"is_transit":true,"station_name":"Tanah Abang","i_long":106.811091,"station_id":"THB","line":1,"time":6,"i_lat":-6.185545,"distance":3191,"transit":true},{"is_transit":false,"transit":false,"time":5,"line":1,"station_name":"Karet","distance":2029,"station_id":"KAT","i_lat":-6.20132,"i_long":106.816351},{"transit":false,"distance":471,"station_id":"SUDB","i_lat":-6.201433,"is_transit":false,"line":1,"station_name":"Sudirman Baru","time":1,"i_long":106.819881},{"distance":280,"station_id":"SUD","i_lat":-6.202263,"line":1,"i_long":106.822649,"time":1,"station_name":"Sudirman","is_transit":false,"transit":false},{"time":4,"station_id":"MRI","i_long":106.84912,"line":2,"is_transit":true,"transit":true,"distance":3186,"i_lat":-6.209883,"station_name":"Manggarai"},{"i_lat":-6.198556,"line":2,"is_transit":false,"station_id":"CKI","transit":false,"distance":1590,"time":4,"station_name":"Cikini","i_long":106.840169},{"i_lat":-6.186295,"distance":1750,"i_long":106.832183,"station_name":"Gondangdia","transit":false,"station_id":"GDD","time":3,"line":2,"is_transit":false},{"time":4,"station_name":"Juanda","is_transit":false,"station_id":"JUA","i_lat":-6.166716,"line":2,"transit":false,"distance":2015,"i_long":106.828284},{"line":2,"i_lat":-6.160725,"time":2,"transit":false,"is_transit":false,"i_long":106.827103,"station_name":"Sawah Besar","station_id":"SW","distance":1149},{"transit":false,"line":2,"distance":906,"time":2,"is_transit":false,"station_name":"Manggabesar","i_long":106.82482,"station_id":"MGB","i_lat":-6.149769},{"station_id":"JAY","i_lat":-6.141205,"transit":false,"i_long":106.820901,"station_name":"Jayakarta","is_transit":false,"time":2,"line":2,"distance":1080},{"line":2,"distance":1264,"i_long":106.812439,"is_transit":true,"transit":true,"station_name":"Jakarta Kota","time":4,"station_id":"JAKK","i_lat":-6.137569},{"time":3,"is_transit":true,"distance":1364,"i_lat":-6.132549,"i_long":106.826365,"line":4,"station_name":"Kampung Bandan","station_id":"KPB","transit":true},{"is_transit":false,"i_lat":-6.14505,"station_name":"Rajawali","distance":1444,"i_long":106.836569,"line":11,"station_id":"RJW","transit":false,"time":3},{"transit":false,"time":5,"i_long":106.839204,"distance":1901,"i_lat":-6.161728,"is_transit":false,"line":11,"station_name":"Kemayoran","station_id":"KMO"},{"station_id":"PSE","station_name":"Pasar Senen","i_lat":-6.174784,"distance":1436,"i_long":106.84368,"line":11,"is_transit":false,"transit":false,"time":4},{"station_id":"GST","line":11,"i_long":106.850107,"transit":false,"station_name":"Gang Sentiong","i_lat":-6.185975,"distance":1567,"time":8,"is_transit":false},{"distance":973,"time":1,"station_id":"KMT","i_long":106.855437,"i_lat":-6.193792,"transit":false,"line":11,"is_transit":false,"station_name":"Kramat"},{"station_name":"Pondok Jati","distance":1829,"is_transit":false,"time":2,"i_lat":-6.209188,"transit":false,"station_id":"POK","line":11,"i_long":106.861737},{"station_name":"Jatinegara","i_long":106.86807400000001,"transit":true,"station_id":"JNG","is_transit":true,"i_lat":-6.215091,"distance":1236,"time":9,"line":1},{"transit":false,"line":1,"station_name":"Klender","distance":3395,"i_long":106.899548,"is_transit":false,"time":3,"station_id":"KLD","i_lat":-6.2135},{"station_name":"Buaran","is_transit":false,"distance":3100,"station_id":"BUA","line":1,"transit":false,"i_lat":-6.215568,"i_long":106.922662,"time":2},{"station_name":"Klenderbaru","time":1,"i_long":106.939679,"station_id":"KLDB","line":1,"is_transit":false,"transit":false,"distance":1305,"i_lat":-6.217455},{"station_id":"CUK","is_transit":false,"station_name":"Cakung","i_long":106.951283,"transit":false,"distance":1385,"i_lat":-6.219053,"time":8,"line":1},{"time":3,"station_id":"KRI","distance":3097,"is_transit":false,"i_long":106.977657,"station_name":"Kranji","i_lat":-6.224515,"line":1,"transit":false},{"station_id":"BKS","line":1,"i_lat":-6.236616,"station_name":"Bekasi","distance":2520,"is_transit":false,"time":4,"transit":false,"i_long":106.997013},{"station_name":"Bekasi Timur","distance":2368,"transit":false,"i_long":107.016735,"time":2,"station_id":"BKST","i_lat":-6.248029,"is_transit":false,"line":1},{"station_name":"Tambun","time":7,"i_lat":-6.258864,"i_long":107.055722,"station_id":"TB","transit":false,"distance":4460,"is_transit":false,"line":1}]]}