{"data":[[{"time":0,"station_id":"RK","is_transit":false,"distance":0,"i_lat":-6.352675,"station_name":"Rangkasbitung","line":3,"transit":false,"i_long":106.250396},{"transit":false,"station_name":"Citeras","is_transit":false,"i_lat":-6.334892,"distance":9847,"station_id":"CTR","i_long":106.332092,"time":13,"line":3},{"is_transit":false,"distance":7293,"line":6,"time":10,"i_lat":-6.332307,"i_long":106.394373,"transit":false,"station_name":"Maja","station_id":"MJ"},{"distance":1853,"i_lat":-6.33561,"station_id":"CKY","station_name":"Cikoya","i_long":106.411216,"is_transit":false,"transit":false,"time":4,"line":3},{"i_lat":-6.328533,"i_long":106.425991,"transit":false,"station_id":"TGS","station_name":"Tigaraksa","is_transit":false,"distance":2651,"line":6,"time":3},{"i_lat":-6.327251,"transit":false,"station_name":"Tenjo","time":5,"i_long":106.460812,"line":6,"is_transit":false,"station_id":"TEJ","distance":2974},{"transit":false,"station_id":"DAR","i_lat":-6.338021,"station_name":"Daru","i_long":106.491338,"is_transit":false,"line":0,"distance":3902,"time":5},{"i_lat":-6.354349,"station_id":"CJT","distance":2675,"transit":false,"i_long":106.508482,"is_transit":false,"line":3,"station_name":"Cilejit","time":6},{"i_long":106.568863,"is_transit":false,"station_id":"PRP","station_name":"Parung Panjang","transit":false,"line":6,"time":9,"distance":7025,"i_lat":-6.3441410000000005},{"transit":false,"station_id":"CC","i_long":106.617853,"line":3,"station_name":"Cicayur","is_transit":false,"distance":5968,"time":8,"i_lat":-6.329547},{"transit":false,"station_id":"CSK","is_transit":false,"i_lat":-6.32484,"line":3,"time":4,"station_name":"Cisauk","i_long":106.640411,"distance":2519},{"transit":false,"i_lat":-6.319871,"time":4,"line":6,"station_id":"SRP","is_transit":false,"station_name":"Serpong","distance":1784,"i_long":106.66566},{"station_id":"RU","time":4,"line":6,"i_lat":-6.314823,"transit":false,"distance":2413,"i_long":106.675475,"station_name":"Rawa Buntu","is_transit":false},{"station_id":"SDM","i_long":106.712277,"i_lat":-6.296963,"line":6,"transit":false,"distance":4566,"time":6,"is_transit":false,"station_name":"Sudimara"},{"station_id":"JMU","line":6,"i_long":106.728916,"is_transit":false,"distance":1994,"transit":false,"station_name":"Jurangmangu","time":4,"i_lat":-6.288927},{"distance":2179,"is_transit":false,"transit":false,"i_lat":-6.276362,"station_id":"PDJ","station_name":"Pondokranji","i_long":106.74273,"line":6,"time":3},{"transit":false,"distance":6218,"i_long":106.780334,"station_id":"KBY","station_name":"Kebayoran","time":8,"i_lat":-6.237242,"is_transit":false,"line":6},{"distance":3737,"station_id":"PLM","time":7,"i_lat":-6.207404,"is_transit":false,"station_name":"Palmerah","i_long":106.79689,"line":6,"transit":false},{"i_lat":-6.185545,"is_transit":true,"station_id":"THB","time":6,"station_name":"Tanah Abang","transit":true,"i_long":106.811091,"line":1,"distance":3191},{"i_long":106.800832,"distance":3632,"station_name":"Duri","is_transit":false,"i_lat":-6.155215,"time":8,"line":1,"station_id":"DU","transit":false},{"line":1,"is_transit":false,"transit":false,"time":4,"i_lat":-6.144674,"distance":1230,"i_long":106.79867,"station_name":"Angke","station_id":"AK"},{"station_id":"KPB","i_lat":-6.132549,"is_transit":true,"i_long":106.826365,"time":9,"transit":true,"distance":4102,"line":4,"station_name":"Kampung Bandan"},{"is_transit":false,"station_name":"Ancol","station_id":"AC","i_lat":-6.128023,"i_long":106.84464,"line":4,"time":4,"transit":false,"distance":2185},{"i_lat":-6.1109480000000005,"i_long":106.880089,"is_transit":false,"time":9,"station_id":"TPK","line":4,"transit":false,"station_name":"Tanjung Priuk","distance":4566}],[{"station_id":"RK","i_lat":-6.352675,"transit":false,"time":0,"is_transit":false,"station_name":"Rangkasbitung","distance":0,"i_long":106.250396,"line":3},{"distance":9847,"i_lat":-6.334892,"station_id":"CTR","station_name":"Citeras","i_long":106.332092,"line":3,"time":13,"transit":false,"is_transit":false},{"station_id":"MJ","i_long":106.394373,"distance":7293,"i_lat":-6.332307,"is_transit":false,"station_name":"Maja","time":10,"transit":false,"line":6},{"line":3,"i_lat":-6.33561,"time":4,"transit":false,"distance":1853,"i_long":106.411216,"station_name":"Cikoya","station_id":"CKY","is_transit":false},{"time":3,"station_id":"TGS","station_name":"Tigaraksa","transit":false,"i_long":106.425991,"is_transit":false,"i_lat":-6.328533,"distance":2651,"line":6},{"is_transit":false,"station_name":"Tenjo","time":5,"station_id":"TEJ","i_lat":-6.327251,"transit":false,"i_long":106.460812,"distance":2974,"line":6},{"distance":3902,"transit":false,"i_lat":-6.338021,"is_transit":false,"i_long":106.491338,"line":0,"time":5,"station_name":"Daru","station_id":"DAR"},{"station_id":"CJT","time":6,"is_transit":false,"i_long":106.508482,"transit":false,"distance":2675,"i_lat":-6.354349,"line":3,"station_name":"Cilejit"},{"station_name":"Parung Panjang","station_id":"PRP","time":9,"distance":7025,"i_lat":-6.3441410000000005,"is_transit":false,"i_long":106.568863,"line":6,"transit":false},{"i_long":106.617853,"is_transit":false,"station_name":"Cicayur","station_id":"CC","transit":false,"distance":5968,"i_lat":-6.329547,"time":8,"line":3},{"transit":false,"is_transit":false,"station_id":"CSK","i_lat":-6.32484,"station_name":"Cisauk","i_long":106.640411,"distance":2519,"line":3,"time":4},{"is_transit":false,"i_long":106.66566,"line":6,"i_lat":-6.319871,"station_id":"SRP","transit":false,"station_name":"Serpong","distance":1784,"time":4},{"line":6,"time":4,"station_id":"RU","station_name":"Rawa Buntu","distance":2413,"i_lat":-6.314823,"transit":false,"i_long":106.675475,"is_transit":false},{"is_transit":false,"i_lat":-6.296963,"transit":false,"line":6,"time":6,"distance":4566,"station_name":"Sudimara","station_id":"SDM","i_long":106.712277},{"transit":false,"i_long":106.728916,"line":6,"time":4,"station_name":"Jurangmangu","is_transit":false,"station_id":"JMU","distance":1994,"i_lat":-6.288927},{"station_name":"Pondokranji","transit":false,"distance":2179,"station_id":"PDJ","is_transit":false,"i_lat":-6.276362,"i_long":106.74273,"line":6,"time":3},{"time":8,"station_id":"KBY","station_name":"Kebayoran","transit":false,"is_transit":false,"i_long":106.780334,"i_lat":-6.237242,"distance":6218,"line":6},{"station_id":"PLM","transit":false,"is_transit":false,"station_name":"Palmerah","i_lat":-6.207404,"time":7,"line":6,"i_long":106.79689,"distance":3737},{"i_lat":-6.185545,"time":6,"i_long":106.811091,"station_id":"THB","transit":true,"line":1,"station_name":"Tanah Abang","distance":3191,"is_transit":true},{"station_name":"Karet","i_lat":-6.20132,"station_id":"KAT","time":5,"transit":false,"is_transit":false,"distance":2029,"i_long":106.816351,"line":1},{"station_id":"SUDB","time":1,"station_name":"Sudirman Baru","i_lat":-6.201433,"transit":false,"is_transit":false,"distance":471,"i_long":106.819881,"line":1},{"i_lat":-6.202263,"time":1,"transit":false,"i_long":106.822649,"is_transit":false,"station_name":"Sudirman","line":1,"station_id":"SUD","distance":280},{"station_id":"MRI","is_transit":true,"i_long":106.84912,"distance":3186,"transit":true,"time":4,"station_name":"Manggarai","line":2,"i_lat":-6.209883},{"transit":false,"i_lat":-6.198556,"is_transit":false,"station_id":"CKI","distance":1590,"i_long":106.840169,"line":2,"station_name":"Cikini","time":4},{"transit":false,"time":3,"is_transit":false,"distance":1750,"station_id":"GDD","station_name":"Gondangdia","i_lat":-6.186295,"line":2,"i_long":106.832183},{"time":4,"i_long":106.828284,"is_transit":false,"transit":false,"distance":2015,"station_id":"JUA","station_name":"Juanda","i_lat":-6.166716,"line":2},{"station_id":"SW","time":2,"distance":1149,"i_lat":-6.160725,"i_long":106.827103,"transit":false,"line":2,"is_transit":false,"station_name":"Sawah Besar"},{"i_long":106.82482,"station_name":"Manggabesar","station_id":"MGB","transit":false,"is_transit":false,"line":2,"i_lat":-6.149769,"time":2,"distance":906},{"distance":1080,"time":2,"station_name":"Jayakarta","i_long":106.820901,"is_transit":false,"station_id":"JAY","transit":false,"i_lat":-6.141205,"line":2},{"transit":true,"distance":1264,"station_name":"Jakarta Kota","station_id":"JAKK","time":4,"line":2,"is_transit":true,"i_lat":-6.137569,"i_long":106.812439},{"time":3,"station_name":"Kampung Bandan","i_lat":-6.132549,"station_id":"KPB","transit":true,"i_long":106.826365,"is_transit":true,"distance":1364,"line":4},{"station_name":"Ancol","distance":2185,"station_id":"AC","i_lat":-6.128023,"line":4,"transit":false,"is_transit":false,"i_long":106.84464,"time":4},{"i_long":106.880089,"line":4,"time":9,"is_transit":false,"transit":false,"distance":4566,"station_name":"Tanjung Priuk","i_lat":-6.1109480000000005,"station_id":"TPK"}],[{"station_name":"Rangkasbitung","distance":0,"transit":false,"i_lat":-6.352675,"station_id":"RK","i_long":106.250396,"is_transit":false,"time":0,"line":3},{"i_long":106.332092,"line":3,"transit":false,"time":13,"station_id":"CTR","is_transit":false,"i_lat":-6.334892,"station_name":"Citeras","distance":9847},{"line":6,"station_name":"Maja","station_id":"MJ","transit":false,"time":10,"i_long":106.394373,"distance":7293,"i_lat":-6.332307,"is_transit":false},{"is_transit":false,"time":4,"i_long":106.411216,"i_lat":-6.33561,"distance":1853,"line":3,"station_id":"CKY","transit":false,"station_name":"Cikoya"},{"is_transit":false,"i_long":106.425991,"line":6,"station_id":"TGS","i_lat":-6.328533,"time":3,"station_name":"Tigaraksa","distance":2651,"transit":false},{"distance":2974,"transit":false,"is_transit":false,"line":6,"station_id":"TEJ","i_lat":-6.327251,"i_long":106.460812,"station_name":"Tenjo","time":5},{"transit":false,"station_name":"Daru","is_transit":false,"time":5,"i_long":106.491338,"station_id":"DAR","i_lat":-6.338021,"distance":3902,"line":0},{"time":6,"i_long":106.508482,"station_name":"Cilejit","transit":false,"station_id":"CJT","is_transit":false,"distance":2675,"line":3,"i_lat":-6.354349},{"i_lat":-6.3441410000000005,"time":9,"distance":7025,"line":6,"is_transit":false,"i_long":106.568863,"station_name":"Parung Panjang","station_id":"PRP","transit":false},{"station_name":"Cicayur","station_id":"CC","transit":false,"is_transit":false,"distance":5968,"time":8,"i_lat":-6.329547,"i_long":106.617853,"line":3},{"i_long":106.640411,"i_lat":-6.32484,"time":4,"distance":2519,"line":3,"station_name":"Cisauk","is_transit":false,"transit":false,"station_id":"CSK"},{"i_long":106.66566,"transit":false,"i_lat":-6.319871,"time":4,"distance":1784,"is_transit":false,"station_name":"Serpong","station_id":"SRP","line":6},{"is_transit":false,"transit":false,"distance":2413,"line":6,"time":4,"i_lat":-6.314823,"station_name":"Rawa Buntu","i_long":106.675475,"station_id":"RU"},{"transit":false,"is_transit":false,"distance":4566,"station_id":"SDM","line":6,"station_name":"Sudimara","i_long":106.712277,"i_lat":-6.296963,"time":6},{"i_long":106.728916,"station_id":"JMU","is_transit":false,"distance":1994,"line":6,"time":4,"station_name":"Jurangmangu","transit":false,"i_lat":-6.288927},{"is_transit":false,"line":6,"transit":false,"distance":2179,"time":3,"station_name":"Pondokranji","station_id":"PDJ","i_lat":-6.276362,"i_long":106.74273},{"time":8,"station_id":"KBY","transit":false,"distance":6218,"station_name":"Kebayoran","line":6,"i_long":106.780334,"is_transit":false,"i_lat":-6.237242},{"station_name":"Palmerah","transit":false,"i_lat":-6.207404,"is_transit":false,"time":7,"distance":3737,"line":6,"station_id":"PLM","i_long":106.79689},{"i_long":106.811091,"station_name":"Tanah Abang","is_transit":true,"transit":true,"station_id":"THB","time":6,"distance":3191,"i_lat":-6.185545,"line":1},{"station_id":"KAT","station_name":"Karet","is_transit":false,"i_long":106.816351,"distance":2029,"time":5,"transit":false,"i_lat":-6.20132,"line":1},{"line":1,"i_lat":-6.201433,"is_transit":false,"time":1,"station_name":"Sudirman Baru","station_id":"SUDB","transit":false,"distance":471,"i_long":106.819881},{"is_transit":false,"transit":false,"station_id":"SUD","station_name":"Sudirman","i_lat":-6.202263,"line":1,"time":1,"distance":280,"i_long":106.822649},{"time":4,"transit":false,"is_transit":false,"station_name":"Manggarai","i_lat":-6.209883,"i_long":106.84912,"line":2,"station_id":"MRI","distance":3186},{"time":2,"station_id":"MTR","transit":false,"line":1,"distance":1275,"station_name":"Matraman","i_long":106.858896,"is_transit":false,"i_lat":-6.212485},{"station_id":"JNG","i_lat":-6.215091,"line":1,"station_name":"Jatinegara","distance":1377,"transit":true,"is_transit":true,"i_long":106.86807400000001,"time":8},{"time":2,"transit":false,"is_transit":false,"i_lat":-6.209188,"i_long":106.861737,"station_name":"Pondok Jati","distance":1236,"station_id":"POK","line":11},{"station_id":"KMT","transit":false,"i_lat":-6.193792,"distance":1829,"is_transit":false,"i_long":106.855437,"line":11,"time":2,"station_name":"Kramat"},{"i_lat":-6.185975,"line":11,"i_long":106.850107,"time":1,"station_id":"GST","transit":false,"distance":973,"is_transit":false,"station_name":"Gang Sentiong"},{"i_long":106.84368,"line":11,"is_transit":false,"time":8,"station_id":"PSE","distance":1567,"station_name":"Pasar Senen","i_lat":-6.174784,"transit":false},{"station_name":"Kemayoran","line":11,"time":4,"i_long":106.839204,"is_transit":false,"distance":1436,"station_id":"KMO","i_lat":-6.161728,"transit":false},{"station_name":"Rajawali","line":11,"station_id":"RJW","is_transit":false,"transit":false,"i_long":106.836569,"distance":1901,"i_lat":-6.14505,"time":5},{"distance":1444,"line":4,"i_lat":-6.132549,"time":3,"station_id":"KPB","station_name":"Kampung Bandan","is_transit":true,"transit":true,"i_long":106.826365},{"is_transit":false,"i_long":106.84464,"station_name":"Ancol","time":4,"distance":2185,"station_id":"AC","transit":false,"i_lat":-6.128023,"line":4},{"i_lat":-6.1109480000000005,"line":4,"station_name":"Tanjung Priuk","i_long":106.880089,"is_transit":false,"distance":4566,"station_id":"TPK","transit":false,"time":9}]]}