{"data":[[{"time":0,"distance":0,"is_transit":false,"i_lat":-6.314823,"line":6,"i_long":106.675475,"station_name":"Rawa Buntu","station_id":"RU","transit":false},{"is_transit":false,"station_name":"Sudimara","time":6,"distance":4566,"transit":false,"i_long":106.712277,"station_id":"SDM","i_lat":-6.296963,"line":6},{"station_name":"Jurangmangu","distance":1994,"i_lat":-6.288927,"transit":false,"station_id":"JMU","is_transit":false,"time":4,"line":6,"i_long":106.728916},{"transit":false,"distance":2179,"is_transit":false,"line":6,"station_name":"Pondokranji","station_id":"PDJ","time":3,"i_lat":-6.276362,"i_long":106.74273},{"station_id":"KBY","transit":false,"line":6,"i_lat":-6.237242,"time":8,"distance":6218,"i_long":106.780334,"station_name":"Kebayoran","is_transit":false},{"station_name":"Palmerah","line":6,"time":7,"transit":false,"distance":3737,"i_lat":-6.207404,"i_long":106.79689,"is_transit":false,"station_id":"PLM"},{"i_lat":-6.185545,"transit":true,"time":6,"station_name":"Tanah Abang","distance":3191,"station_id":"THB","i_long":106.811091,"is_transit":true,"line":1},{"time":8,"transit":false,"station_name":"Duri","i_long":106.800832,"line":1,"is_transit":false,"station_id":"DU","distance":3632,"i_lat":-6.155215},{"i_lat":-6.144674,"station_id":"AK","is_transit":false,"distance":1230,"i_long":106.79867,"transit":false,"station_name":"Angke","line":1,"time":4}],[{"station_name":"Rawa Buntu","time":0,"i_long":106.675475,"station_id":"RU","is_transit":false,"distance":0,"i_lat":-6.314823,"transit":false,"line":6},{"station_id":"SDM","i_long":106.712277,"line":6,"station_name":"Sudimara","i_lat":-6.296963,"transit":false,"time":6,"is_transit":false,"distance":4566},{"time":4,"distance":1994,"transit":false,"is_transit":false,"i_lat":-6.288927,"station_name":"Jurangmangu","station_id":"JMU","i_long":106.728916,"line":6},{"is_transit":false,"station_name":"Pondokranji","station_id":"PDJ","time":3,"distance":2179,"i_lat":-6.276362,"i_long":106.74273,"line":6,"transit":false},{"station_id":"KBY","time":8,"i_lat":-6.237242,"i_long":106.780334,"is_transit":false,"line":6,"station_name":"Kebayoran","distance":6218,"transit":false},{"distance":3737,"transit":false,"time":7,"is_transit":false,"station_name":"Palmerah","station_id":"PLM","line":6,"i_lat":-6.207404,"i_long":106.79689},{"is_transit":true,"i_long":106.811091,"i_lat":-6.185545,"station_id":"THB","station_name":"Tanah Abang","time":6,"transit":true,"distance":3191,"line":1},{"time":5,"distance":2029,"station_id":"KAT","i_long":106.816351,"transit":false,"line":1,"i_lat":-6.20132,"station_name":"Karet","is_transit":false},{"i_long":106.819881,"station_name":"Sudirman Baru","transit":false,"is_transit":false,"time":1,"i_lat":-6.201433,"line":1,"distance":471,"station_id":"SUDB"},{"i_long":106.822649,"time":1,"distance":280,"station_name":"Sudirman","station_id":"SUD","transit":false,"i_lat":-6.202263,"is_transit":false,"line":1},{"i_lat":-6.209883,"time":4,"i_long":106.84912,"line":2,"transit":true,"is_transit":true,"station_name":"Manggarai","distance":3186,"station_id":"MRI"},{"time":4,"distance":1590,"i_long":106.840169,"line":2,"station_name":"Cikini","i_lat":-6.198556,"transit":false,"station_id":"CKI","is_transit":false},{"distance":1750,"i_lat":-6.186295,"line":2,"i_long":106.832183,"station_name":"Gondangdia","transit":false,"is_transit":false,"station_id":"GDD","time":3},{"transit":false,"i_lat":-6.166716,"i_long":106.828284,"station_id":"JUA","time":4,"station_name":"Juanda","line":2,"is_transit":false,"distance":2015},{"distance":1149,"station_id":"SW","i_lat":-6.160725,"line":2,"transit":false,"time":2,"station_name":"Sawah Besar","i_long":106.827103,"is_transit":false},{"i_lat":-6.149769,"station_id":"MGB","line":2,"is_transit":false,"i_long":106.82482,"station_name":"Manggabesar","time":2,"transit":false,"distance":906},{"time":2,"i_lat":-6.141205,"station_name":"Jayakarta","transit":false,"distance":1080,"station_id":"JAY","i_long":106.820901,"line":2,"is_transit":false},{"distance":1264,"is_transit":true,"station_name":"Jakarta Kota","transit":true,"time":4,"i_long":106.812439,"line":2,"station_id":"JAKK","i_lat":-6.137569},{"transit":true,"station_name":"Kampung Bandan","is_transit":true,"i_long":106.826365,"i_lat":-6.132549,"station_id":"KPB","distance":1364,"line":4,"time":3},{"time":9,"station_id":"AK","is_transit":false,"i_long":106.79867,"i_lat":-6.144674,"distance":4102,"transit":false,"line":1,"station_name":"Angke"}],[{"time":0,"line":6,"i_long":106.675475,"station_id":"RU","station_name":"Rawa Buntu","is_transit":false,"transit":false,"i_lat":-6.314823,"distance":0},{"station_name":"Sudimara","i_lat":-6.296963,"transit":false,"time":6,"i_long":106.712277,"is_transit":false,"station_id":"SDM","line":6,"distance":4566},{"line":6,"station_id":"JMU","is_transit":false,"transit":false,"i_lat":-6.288927,"i_long":106.728916,"time":4,"station_name":"Jurangmangu","distance":1994},{"station_id":"PDJ","station_name":"Pondokranji","line":6,"i_lat":-6.276362,"distance":2179,"is_transit":false,"time":3,"i_long":106.74273,"transit":false},{"time":8,"distance":6218,"station_id":"KBY","is_transit":false,"transit":false,"i_lat":-6.237242,"i_long":106.780334,"line":6,"station_name":"Kebayoran"},{"line":6,"is_transit":false,"station_id":"PLM","distance":3737,"station_name":"Palmerah","time":7,"i_lat":-6.207404,"transit":false,"i_long":106.79689},{"is_transit":true,"time":6,"i_long":106.811091,"distance":3191,"station_id":"THB","i_lat":-6.185545,"transit":true,"station_name":"Tanah Abang","line":1},{"i_long":106.816351,"line":1,"i_lat":-6.20132,"station_name":"Karet","is_transit":false,"distance":2029,"transit":false,"time":5,"station_id":"KAT"},{"station_name":"Sudirman Baru","i_long":106.819881,"station_id":"SUDB","i_lat":-6.201433,"transit":false,"line":1,"is_transit":false,"time":1,"distance":471},{"i_long":106.822649,"line":1,"transit":false,"i_lat":-6.202263,"station_id":"SUD","time":1,"distance":280,"station_name":"Sudirman","is_transit":false},{"i_long":106.84912,"distance":3186,"station_name":"Manggarai","transit":false,"line":2,"time":4,"i_lat":-6.209883,"station_id":"MRI","is_transit":false},{"i_long":106.858896,"station_name":"Matraman","i_lat":-6.212485,"time":2,"transit":false,"station_id":"MTR","line":1,"is_transit":false,"distance":1275},{"time":8,"station_name":"Jatinegara","i_lat":-6.215091,"distance":1377,"station_id":"JNG","line":1,"transit":true,"i_long":106.86807400000001,"is_transit":true},{"line":11,"time":2,"is_transit":false,"station_name":"Pondok Jati","station_id":"POK","i_long":106.861737,"i_lat":-6.209188,"transit":false,"distance":1236},{"time":2,"station_id":"KMT","i_lat":-6.193792,"line":11,"is_transit":false,"transit":false,"distance":1829,"i_long":106.855437,"station_name":"Kramat"},{"i_long":106.850107,"time":1,"line":11,"station_name":"Gang Sentiong","i_lat":-6.185975,"station_id":"GST","is_transit":false,"distance":973,"transit":false},{"is_transit":false,"i_long":106.84368,"transit":false,"station_name":"Pasar Senen","station_id":"PSE","time":8,"distance":1567,"line":11,"i_lat":-6.174784},{"time":4,"station_id":"KMO","i_lat":-6.161728,"is_transit":false,"distance":1436,"transit":false,"i_long":106.839204,"station_name":"Kemayoran","line":11},{"transit":false,"distance":1901,"time":5,"i_long":106.836569,"i_lat":-6.14505,"station_name":"Rajawali","is_transit":false,"station_id":"RJW","line":11},{"station_id":"KPB","is_transit":true,"i_lat":-6.132549,"i_long":106.826365,"line":4,"station_name":"Kampung Bandan","time":3,"distance":1444,"transit":true},{"station_id":"AK","time":9,"is_transit":false,"station_name":"Angke","i_lat":-6.144674,"line":1,"i_long":106.79867,"distance":4102,"transit":false}]]}