{"data":[[{"time":0,"i_long":106.675475,"distance":0,"i_lat":-6.314823,"transit":false,"line":6,"station_id":"RU","station_name":"Rawa Buntu","is_transit":false},{"line":6,"transit":false,"i_lat":-6.296963,"station_id":"SDM","station_name":"Sudimara","distance":4566,"is_transit":false,"i_long":106.712277,"time":6},{"distance":1994,"station_name":"Jurangmangu","time":4,"i_lat":-6.288927,"is_transit":false,"transit":false,"station_id":"JMU","i_long":106.728916,"line":6},{"distance":2179,"transit":false,"time":3,"i_lat":-6.276362,"i_long":106.74273,"line":6,"is_transit":false,"station_name":"Pondokranji","station_id":"PDJ"},{"station_name":"Kebayoran","is_transit":false,"line":6,"transit":false,"time":8,"distance":6218,"i_lat":-6.237242,"i_long":106.780334,"station_id":"KBY"},{"station_id":"PLM","transit":false,"station_name":"Palmerah","is_transit":false,"time":7,"i_lat":-6.207404,"distance":3737,"i_long":106.79689,"line":6},{"station_name":"Tanah Abang","i_lat":-6.185545,"line":1,"is_transit":true,"distance":3191,"i_long":106.811091,"time":6,"transit":true,"station_id":"THB"},{"station_id":"DU","i_lat":-6.155215,"i_long":106.800832,"station_name":"Duri","time":8,"transit":false,"is_transit":false,"distance":3632,"line":1},{"station_name":"Angke","i_long":106.79867,"i_lat":-6.144674,"line":1,"station_id":"AK","is_transit":false,"time":4,"distance":1230,"transit":false}],[{"line":6,"time":0,"i_long":106.675475,"transit":false,"i_lat":-6.314823,"station_name":"Rawa Buntu","station_id":"RU","is_transit":false,"distance":0},{"station_id":"SDM","line":6,"i_long":106.712277,"transit":false,"distance":4566,"station_name":"Sudimara","is_transit":false,"time":6,"i_lat":-6.296963},{"time":4,"i_lat":-6.288927,"line":6,"i_long":106.728916,"transit":false,"distance":1994,"station_name":"Jurangmangu","is_transit":false,"station_id":"JMU"},{"station_name":"Pondokranji","time":3,"i_lat":-6.276362,"i_long":106.74273,"line":6,"distance":2179,"transit":false,"station_id":"PDJ","is_transit":false},{"i_lat":-6.237242,"is_transit":false,"station_name":"Kebayoran","station_id":"KBY","line":6,"transit":false,"i_long":106.780334,"time":8,"distance":6218},{"distance":3737,"transit":false,"station_name":"Palmerah","i_lat":-6.207404,"line":6,"is_transit":false,"i_long":106.79689,"station_id":"PLM","time":7},{"i_long":106.811091,"distance":3191,"i_lat":-6.185545,"station_id":"THB","is_transit":true,"transit":true,"station_name":"Tanah Abang","time":6,"line":1},{"station_id":"KAT","time":5,"i_lat":-6.20132,"is_transit":false,"distance":2029,"station_name":"Karet","i_long":106.816351,"line":1,"transit":false},{"line":1,"i_long":106.819881,"station_name":"Sudirman Baru","is_transit":false,"time":1,"station_id":"SUDB","distance":471,"i_lat":-6.201433,"transit":false},{"transit":false,"i_lat":-6.202263,"line":1,"station_id":"SUD","distance":280,"station_name":"Sudirman","is_transit":false,"time":1,"i_long":106.822649},{"station_id":"MRI","line":2,"is_transit":true,"transit":true,"i_long":106.84912,"distance":3186,"time":4,"i_lat":-6.209883,"station_name":"Manggarai"},{"station_id":"CKI","station_name":"Cikini","distance":1590,"i_long":106.840169,"i_lat":-6.198556,"transit":false,"is_transit":false,"time":4,"line":2},{"station_id":"GDD","i_lat":-6.186295,"distance":1750,"line":2,"time":3,"transit":false,"i_long":106.832183,"is_transit":false,"station_name":"Gondangdia"},{"time":4,"line":2,"station_id":"JUA","i_lat":-6.166716,"station_name":"Juanda","is_transit":false,"distance":2015,"i_long":106.828284,"transit":false},{"i_long":106.827103,"line":2,"i_lat":-6.160725,"station_id":"SW","station_name":"Sawah Besar","is_transit":false,"time":2,"distance":1149,"transit":false},{"transit":false,"i_long":106.82482,"station_name":"Manggabesar","station_id":"MGB","is_transit":false,"distance":906,"line":2,"time":2,"i_lat":-6.149769},{"line":2,"station_name":"Jayakarta","station_id":"JAY","transit":false,"is_transit":false,"time":2,"distance":1080,"i_lat":-6.141205,"i_long":106.820901},{"is_transit":true,"line":2,"station_id":"JAKK","station_name":"Jakarta Kota","transit":true,"time":4,"distance":1264,"i_long":106.812439,"i_lat":-6.137569},{"transit":true,"is_transit":true,"distance":1364,"i_lat":-6.132549,"station_id":"KPB","i_long":106.826365,"station_name":"Kampung Bandan","line":4,"time":3},{"station_id":"AK","time":9,"i_long":106.79867,"distance":4102,"station_name":"Angke","line":1,"i_lat":-6.144674,"is_transit":false,"transit":false}],[{"station_id":"RU","i_long":106.675475,"is_transit":false,"line":6,"station_name":"Rawa Buntu","transit":false,"i_lat":-6.314823,"time":0,"distance":0},{"line":6,"transit":false,"i_long":106.712277,"station_name":"Sudimara","station_id":"SDM","is_transit":false,"distance":4566,"time":6,"i_lat":-6.296963},{"distance":1994,"transit":false,"station_name":"Jurangmangu","station_id":"JMU","is_transit":false,"i_lat":-6.288927,"i_long":106.728916,"line":6,"time":4},{"i_lat":-6.276362,"line":6,"station_id":"PDJ","transit":false,"distance":2179,"is_transit":false,"station_name":"Pondokranji","i_long":106.74273,"time":3},{"i_long":106.780334,"distance":6218,"line":6,"station_id":"KBY","is_transit":false,"transit":false,"station_name":"Kebayoran","time":8,"i_lat":-6.237242},{"time":7,"i_long":106.79689,"is_transit":false,"distance":3737,"transit":false,"line":6,"i_lat":-6.207404,"station_id":"PLM","station_name":"Palmerah"},{"time":6,"station_id":"THB","is_transit":true,"line":1,"i_lat":-6.185545,"station_name":"Tanah Abang","distance":3191,"transit":true,"i_long":106.811091},{"is_transit":false,"i_lat":-6.20132,"station_name":"Karet","i_long":106.816351,"line":1,"transit":false,"station_id":"KAT","time":5,"distance":2029},{"is_transit":false,"distance":471,"i_lat":-6.201433,"station_id":"SUDB","line":1,"time":1,"i_long":106.819881,"station_name":"Sudirman Baru","transit":false},{"i_lat":-6.202263,"transit":false,"station_id":"SUD","is_transit":false,"time":1,"line":1,"i_long":106.822649,"station_name":"Sudirman","distance":280},{"distance":3186,"time":4,"station_id":"MRI","is_transit":false,"i_long":106.84912,"line":2,"transit":false,"station_name":"Manggarai","i_lat":-6.209883},{"i_lat":-6.212485,"station_id":"MTR","station_name":"Matraman","is_transit":false,"transit":false,"line":1,"distance":1275,"time":2,"i_long":106.858896},{"transit":true,"station_id":"JNG","is_transit":true,"i_lat":-6.215091,"line":1,"distance":1377,"station_name":"Jatinegara","time":8,"i_long":106.86807400000001},{"is_transit":false,"station_name":"Pondok Jati","distance":1236,"time":2,"i_lat":-6.209188,"line":11,"i_long":106.861737,"transit":false,"station_id":"POK"},{"i_lat":-6.193792,"transit":false,"is_transit":false,"time":2,"line":11,"station_name":"Kramat","i_long":106.855437,"distance":1829,"station_id":"KMT"},{"distance":973,"i_long":106.850107,"station_id":"GST","is_transit":false,"transit":false,"i_lat":-6.185975,"line":11,"time":1,"station_name":"Gang Sentiong"},{"i_long":106.84368,"line":11,"time":8,"transit":false,"station_id":"PSE","i_lat":-6.174784,"is_transit":false,"distance":1567,"station_name":"Pasar Senen"},{"distance":1436,"time":4,"transit":false,"is_transit":false,"i_lat":-6.161728,"i_long":106.839204,"station_name":"Kemayoran","station_id":"KMO","line":11},{"transit":false,"station_id":"RJW","line":11,"time":5,"i_long":106.836569,"station_name":"Rajawali","is_transit":false,"distance":1901,"i_lat":-6.14505},{"is_transit":true,"time":3,"i_long":106.826365,"distance":1444,"i_lat":-6.132549,"line":4,"transit":true,"station_name":"Kampung Bandan","station_id":"KPB"},{"transit":false,"i_lat":-6.144674,"time":9,"distance":4102,"line":1,"station_id":"AK","i_long":106.79867,"station_name":"Angke","is_transit":false}]]}