{"data":[[{"distance":0,"line":6,"i_long":106.675475,"time":0,"is_transit":false,"station_id":"RU","station_name":"Rawa Buntu","transit":false,"i_lat":-6.314823},{"i_long":106.712277,"i_lat":-6.296963,"is_transit":false,"station_name":"Sudimara","distance":4566,"time":6,"line":6,"station_id":"SDM","transit":false},{"line":6,"distance":1994,"station_name":"Jurangmangu","time":4,"station_id":"JMU","is_transit":false,"transit":false,"i_lat":-6.288927,"i_long":106.728916},{"line":6,"station_id":"PDJ","is_transit":false,"i_lat":-6.276362,"i_long":106.74273,"transit":false,"time":3,"distance":2179,"station_name":"Pondokranji"},{"line":6,"is_transit":false,"i_lat":-6.237242,"i_long":106.780334,"distance":6218,"station_id":"KBY","transit":false,"station_name":"Kebayoran","time":8},{"transit":false,"distance":3737,"is_transit":false,"i_long":106.79689,"time":7,"line":6,"i_lat":-6.207404,"station_id":"PLM","station_name":"Palmerah"},{"line":1,"transit":true,"time":6,"station_id":"THB","i_long":106.811091,"distance":3191,"i_lat":-6.185545,"is_transit":true,"station_name":"Tanah Abang"},{"time":8,"distance":3632,"transit":true,"is_transit":true,"station_id":"DU","i_long":106.800832,"station_name":"Duri","i_lat":-6.155215,"line":1},{"is_transit":false,"i_long":106.79867,"station_id":"AK","time":4,"i_lat":-6.144674,"distance":1230,"line":0,"station_name":"Angke","transit":false}],[{"line":6,"station_name":"Rawa Buntu","i_long":106.675475,"transit":false,"time":0,"station_id":"RU","is_transit":false,"distance":0,"i_lat":-6.314823},{"i_long":106.712277,"station_id":"SDM","transit":false,"time":6,"line":6,"station_name":"Sudimara","i_lat":-6.296963,"distance":4566,"is_transit":false},{"time":4,"line":6,"i_long":106.728916,"station_name":"Jurangmangu","is_transit":false,"station_id":"JMU","transit":false,"i_lat":-6.288927,"distance":1994},{"is_transit":false,"time":3,"transit":false,"station_id":"PDJ","station_name":"Pondokranji","i_lat":-6.276362,"distance":2179,"i_long":106.74273,"line":6},{"transit":false,"station_id":"KBY","i_long":106.780334,"distance":6218,"i_lat":-6.237242,"station_name":"Kebayoran","is_transit":false,"line":6,"time":8},{"station_name":"Palmerah","distance":3737,"is_transit":false,"station_id":"PLM","transit":false,"time":7,"i_lat":-6.207404,"line":6,"i_long":106.79689},{"transit":true,"distance":3191,"station_name":"Tanah Abang","is_transit":true,"i_lat":-6.185545,"i_long":106.811091,"station_id":"THB","time":6,"line":1},{"time":5,"transit":false,"i_lat":-6.20132,"is_transit":false,"station_name":"Karet","i_long":106.816351,"station_id":"KAT","line":1,"distance":2029},{"i_lat":-6.201433,"i_long":106.819881,"station_id":"SUDB","transit":false,"time":1,"station_name":"Sudirman Baru","is_transit":false,"distance":471,"line":1},{"i_long":106.822649,"is_transit":false,"i_lat":-6.202263,"distance":280,"station_id":"SUD","station_name":"Sudirman","time":1,"line":1,"transit":false},{"distance":3186,"is_transit":true,"time":4,"station_id":"MRI","transit":true,"station_name":"Manggarai","i_lat":-6.209883,"i_long":106.84912,"line":0},{"transit":false,"i_long":106.840169,"station_name":"Cikini","i_lat":-6.198556,"line":0,"station_id":"CKI","time":4,"distance":1590,"is_transit":false},{"time":3,"i_long":106.832183,"station_id":"GDD","transit":false,"line":2,"distance":1750,"station_name":"Gondangdia","is_transit":false,"i_lat":-6.186295},{"i_long":106.828284,"line":2,"station_id":"JUA","is_transit":false,"transit":false,"i_lat":-6.166716,"distance":2015,"time":4,"station_name":"Juanda"},{"is_transit":false,"distance":1149,"time":2,"station_name":"Sawah Besar","i_long":106.827103,"line":2,"i_lat":-6.160725,"transit":false,"station_id":"SW"},{"transit":false,"distance":906,"i_lat":-6.149769,"line":2,"is_transit":false,"station_id":"MGB","station_name":"Manggabesar","time":2,"i_long":106.82482},{"station_name":"Jayakarta","transit":false,"is_transit":false,"distance":1080,"time":2,"i_long":106.820901,"line":7,"station_id":"JAY","i_lat":-6.141205},{"time":4,"transit":true,"distance":1264,"i_long":106.812439,"i_lat":-6.137569,"is_transit":true,"line":0,"station_name":"Jakarta Kota","station_id":"JAKK"},{"station_id":"KPB","transit":false,"station_name":"Kampung Bandan","i_lat":-6.132549,"is_transit":true,"distance":1364,"line":0,"time":3,"i_long":106.826365},{"station_id":"AK","is_transit":false,"time":9,"transit":false,"i_lat":-6.144674,"station_name":"Angke","i_long":106.79867,"line":0,"distance":4102}],[{"distance":0,"transit":false,"is_transit":false,"i_lat":-6.314823,"line":6,"time":0,"station_name":"Rawa Buntu","i_long":106.675475,"station_id":"RU"},{"transit":false,"line":6,"station_name":"Sudimara","distance":4566,"i_long":106.712277,"is_transit":false,"time":6,"i_lat":-6.296963,"station_id":"SDM"},{"distance":1994,"station_name":"Jurangmangu","transit":false,"i_long":106.728916,"i_lat":-6.288927,"is_transit":false,"time":4,"station_id":"JMU","line":6},{"is_transit":false,"distance":2179,"station_name":"Pondokranji","i_long":106.74273,"line":6,"time":3,"station_id":"PDJ","transit":false,"i_lat":-6.276362},{"time":8,"i_lat":-6.237242,"transit":false,"is_transit":false,"station_id":"KBY","distance":6218,"station_name":"Kebayoran","line":6,"i_long":106.780334},{"is_transit":false,"line":6,"time":7,"i_long":106.79689,"station_id":"PLM","station_name":"Palmerah","distance":3737,"transit":false,"i_lat":-6.207404},{"time":6,"station_name":"Tanah Abang","i_lat":-6.185545,"distance":3191,"i_long":106.811091,"line":1,"transit":true,"station_id":"THB","is_transit":true},{"station_name":"Karet","transit":false,"i_lat":-6.20132,"line":1,"distance":2029,"is_transit":false,"station_id":"KAT","time":5,"i_long":106.816351},{"i_lat":-6.201433,"station_id":"SUDB","is_transit":false,"time":1,"i_long":106.819881,"distance":471,"line":1,"station_name":"Sudirman Baru","transit":false},{"distance":280,"time":1,"station_name":"Sudirman","station_id":"SUD","line":1,"transit":false,"is_transit":false,"i_lat":-6.202263,"i_long":106.822649},{"i_lat":-6.209883,"is_transit":true,"transit":false,"time":4,"station_id":"MRI","i_long":106.84912,"distance":3186,"line":0,"station_name":"Manggarai"},{"station_id":"MTR","transit":false,"line":1,"i_long":106.858896,"station_name":"Matraman","time":2,"distance":1275,"i_lat":-6.212485,"is_transit":false},{"distance":1377,"transit":true,"line":0,"time":8,"station_name":"Jatinegara","i_long":106.86807400000001,"is_transit":true,"i_lat":-6.215091,"station_id":"JNG"},{"is_transit":false,"i_lat":-6.209188,"line":11,"station_name":"Pondok Jati","distance":1236,"station_id":"POK","time":2,"i_long":106.861737,"transit":false},{"transit":false,"i_lat":-6.193792,"line":11,"time":2,"is_transit":false,"i_long":106.855437,"station_id":"KMT","station_name":"Kramat","distance":1829},{"station_id":"GST","station_name":"Gang Sentiong","is_transit":false,"i_lat":-6.185975,"transit":false,"distance":973,"i_long":106.850107,"time":1,"line":11},{"is_transit":false,"station_id":"PSE","i_lat":-6.174784,"i_long":106.84368,"station_name":"Pasar Senen","time":8,"line":11,"transit":false,"distance":1567},{"distance":1436,"i_long":106.839204,"i_lat":-6.161728,"station_id":"KMO","time":4,"is_transit":false,"line":11,"transit":false,"station_name":"Kemayoran"},{"i_lat":-6.14505,"is_transit":false,"station_id":"RJW","i_long":106.836569,"line":11,"distance":1901,"station_name":"Rajawali","transit":false,"time":5},{"station_id":"KPB","time":3,"station_name":"Kampung Bandan","transit":true,"i_lat":-6.132549,"line":0,"distance":1444,"is_transit":true,"i_long":106.826365},{"i_long":106.79867,"station_id":"AK","transit":false,"time":9,"station_name":"Angke","i_lat":-6.144674,"is_transit":false,"line":0,"distance":4102}]]}