{"data":[[{"distance":0,"line":6,"transit":false,"i_long":106.675475,"i_lat":-6.314823,"station_id":"RU","station_name":"Rawa Buntu","is_transit":false,"time":0},{"station_id":"SDM","station_name":"Sudimara","i_lat":-6.296963,"is_transit":false,"time":6,"transit":false,"i_long":106.712277,"line":6,"distance":4566},{"line":6,"i_lat":-6.288927,"station_name":"Jurangmangu","is_transit":false,"i_long":106.728916,"time":4,"station_id":"JMU","distance":1994,"transit":false},{"i_lat":-6.276362,"line":6,"station_id":"PDJ","is_transit":false,"distance":2179,"transit":false,"time":3,"station_name":"Pondokranji","i_long":106.74273},{"is_transit":false,"station_name":"Kebayoran","station_id":"KBY","i_lat":-6.237242,"distance":6218,"transit":false,"i_long":106.780334,"time":8,"line":6},{"time":7,"station_id":"PLM","distance":3737,"transit":false,"is_transit":false,"i_lat":-6.207404,"i_long":106.79689,"station_name":"Palmerah","line":6},{"time":6,"station_name":"Tanah Abang","line":1,"is_transit":true,"i_long":106.811091,"station_id":"THB","i_lat":-6.185545,"distance":3191,"transit":true},{"i_long":106.800832,"i_lat":-6.155215,"transit":false,"line":1,"distance":3632,"station_id":"DU","time":8,"is_transit":false,"station_name":"Duri"},{"distance":1230,"is_transit":false,"i_lat":-6.144674,"line":1,"station_name":"Angke","time":4,"transit":false,"station_id":"AK","i_long":106.79867}],[{"line":6,"transit":false,"is_transit":false,"station_id":"RU","i_lat":-6.314823,"i_long":106.675475,"time":0,"distance":0,"station_name":"Rawa Buntu"},{"time":6,"is_transit":false,"transit":false,"i_lat":-6.296963,"i_long":106.712277,"line":6,"station_id":"SDM","station_name":"Sudimara","distance":4566},{"is_transit":false,"station_id":"JMU","time":4,"distance":1994,"station_name":"Jurangmangu","line":6,"i_lat":-6.288927,"i_long":106.728916,"transit":false},{"time":3,"transit":false,"station_name":"Pondokranji","line":6,"station_id":"PDJ","i_long":106.74273,"is_transit":false,"i_lat":-6.276362,"distance":2179},{"transit":false,"i_long":106.780334,"line":6,"station_name":"Kebayoran","station_id":"KBY","time":8,"distance":6218,"i_lat":-6.237242,"is_transit":false},{"i_long":106.79689,"line":6,"i_lat":-6.207404,"distance":3737,"time":7,"station_name":"Palmerah","is_transit":false,"transit":false,"station_id":"PLM"},{"is_transit":true,"line":1,"station_name":"Tanah Abang","transit":true,"distance":3191,"i_long":106.811091,"time":6,"i_lat":-6.185545,"station_id":"THB"},{"is_transit":false,"station_id":"KAT","station_name":"Karet","i_long":106.816351,"distance":2029,"transit":false,"i_lat":-6.20132,"time":5,"line":1},{"line":1,"station_name":"Sudirman Baru","time":1,"station_id":"SUDB","distance":471,"is_transit":false,"i_long":106.819881,"transit":false,"i_lat":-6.201433},{"station_id":"SUD","distance":280,"i_lat":-6.202263,"line":1,"is_transit":false,"station_name":"Sudirman","transit":false,"i_long":106.822649,"time":1},{"station_id":"MRI","is_transit":true,"i_long":106.84912,"line":2,"time":4,"station_name":"Manggarai","distance":3186,"transit":true,"i_lat":-6.209883},{"i_long":106.840169,"time":4,"distance":1590,"station_id":"CKI","transit":false,"is_transit":false,"i_lat":-6.198556,"station_name":"Cikini","line":2},{"is_transit":false,"line":2,"transit":false,"distance":1750,"station_name":"Gondangdia","i_lat":-6.186295,"time":3,"i_long":106.832183,"station_id":"GDD"},{"distance":2015,"is_transit":false,"transit":false,"i_long":106.828284,"time":4,"station_id":"JUA","station_name":"Juanda","i_lat":-6.166716,"line":2},{"is_transit":false,"distance":1149,"transit":false,"station_name":"Sawah Besar","i_long":106.827103,"station_id":"SW","i_lat":-6.160725,"line":2,"time":2},{"is_transit":false,"i_lat":-6.149769,"transit":false,"i_long":106.82482,"distance":906,"station_name":"Manggabesar","time":2,"station_id":"MGB","line":2},{"i_lat":-6.141205,"i_long":106.820901,"time":2,"station_id":"JAY","distance":1080,"is_transit":false,"station_name":"Jayakarta","transit":false,"line":2},{"i_lat":-6.137569,"station_name":"Jakarta Kota","i_long":106.812439,"is_transit":true,"time":4,"station_id":"JAKK","transit":true,"line":2,"distance":1264},{"station_id":"KPB","line":4,"is_transit":true,"time":3,"distance":1364,"transit":true,"station_name":"Kampung Bandan","i_lat":-6.132549,"i_long":106.826365},{"i_lat":-6.144674,"is_transit":false,"time":9,"transit":false,"line":1,"station_id":"AK","i_long":106.79867,"distance":4102,"station_name":"Angke"}],[{"transit":false,"station_id":"RU","is_transit":false,"i_long":106.675475,"distance":0,"station_name":"Rawa Buntu","time":0,"i_lat":-6.314823,"line":6},{"is_transit":false,"station_name":"Sudimara","time":6,"i_lat":-6.296963,"i_long":106.712277,"transit":false,"station_id":"SDM","distance":4566,"line":6},{"time":4,"i_long":106.728916,"distance":1994,"i_lat":-6.288927,"line":6,"station_name":"Jurangmangu","is_transit":false,"station_id":"JMU","transit":false},{"is_transit":false,"station_id":"PDJ","transit":false,"i_lat":-6.276362,"time":3,"station_name":"Pondokranji","i_long":106.74273,"distance":2179,"line":6},{"distance":6218,"i_long":106.780334,"is_transit":false,"time":8,"transit":false,"station_name":"Kebayoran","station_id":"KBY","line":6,"i_lat":-6.237242},{"line":6,"distance":3737,"station_name":"Palmerah","station_id":"PLM","time":7,"transit":false,"i_lat":-6.207404,"is_transit":false,"i_long":106.79689},{"time":6,"transit":true,"i_long":106.811091,"station_name":"Tanah Abang","is_transit":true,"station_id":"THB","i_lat":-6.185545,"distance":3191,"line":1},{"distance":2029,"time":5,"is_transit":false,"station_id":"KAT","i_long":106.816351,"transit":false,"line":1,"station_name":"Karet","i_lat":-6.20132},{"i_lat":-6.201433,"i_long":106.819881,"time":1,"transit":false,"is_transit":false,"distance":471,"station_name":"Sudirman Baru","line":1,"station_id":"SUDB"},{"i_long":106.822649,"is_transit":false,"station_id":"SUD","station_name":"Sudirman","time":1,"transit":false,"i_lat":-6.202263,"distance":280,"line":1},{"time":4,"station_id":"MRI","is_transit":false,"distance":3186,"transit":false,"line":2,"i_long":106.84912,"i_lat":-6.209883,"station_name":"Manggarai"},{"is_transit":false,"i_long":106.858896,"i_lat":-6.212485,"station_id":"MTR","line":1,"station_name":"Matraman","time":2,"distance":1275,"transit":false},{"is_transit":true,"time":8,"i_lat":-6.215091,"i_long":106.86807400000001,"station_id":"JNG","line":1,"station_name":"Jatinegara","transit":true,"distance":1377},{"distance":1236,"i_lat":-6.209188,"is_transit":false,"i_long":106.861737,"station_id":"POK","line":11,"time":2,"transit":false,"station_name":"Pondok Jati"},{"station_name":"Kramat","line":11,"i_long":106.855437,"distance":1829,"i_lat":-6.193792,"is_transit":false,"station_id":"KMT","time":2,"transit":false},{"is_transit":false,"station_id":"GST","i_lat":-6.185975,"line":11,"station_name":"Gang Sentiong","distance":973,"transit":false,"i_long":106.850107,"time":1},{"is_transit":false,"i_lat":-6.174784,"station_id":"PSE","line":11,"time":8,"distance":1567,"transit":false,"i_long":106.84368,"station_name":"Pasar Senen"},{"is_transit":false,"distance":1436,"i_lat":-6.161728,"transit":false,"time":4,"i_long":106.839204,"line":11,"station_id":"KMO","station_name":"Kemayoran"},{"time":5,"is_transit":false,"transit":false,"distance":1901,"station_name":"Rajawali","i_lat":-6.14505,"i_long":106.836569,"line":11,"station_id":"RJW"},{"station_name":"Kampung Bandan","transit":true,"i_long":106.826365,"line":4,"distance":1444,"i_lat":-6.132549,"is_transit":true,"station_id":"KPB","time":3},{"time":9,"station_name":"Angke","station_id":"AK","i_long":106.79867,"transit":false,"i_lat":-6.144674,"distance":4102,"line":1,"is_transit":false}]]}