{"data":[[{"transit":false,"distance":0,"is_transit":false,"station_name":"Rawa Buntu","station_id":"RU","time":0,"i_lat":-6.314823,"i_long":106.675475,"line":6},{"i_lat":-6.296963,"station_id":"SDM","transit":false,"station_name":"Sudimara","time":6,"line":6,"i_long":106.712277,"is_transit":false,"distance":4566},{"line":6,"is_transit":false,"station_name":"Jurangmangu","distance":1994,"station_id":"JMU","time":4,"transit":false,"i_lat":-6.288927,"i_long":106.728916},{"is_transit":false,"distance":2179,"line":6,"station_name":"Pondokranji","station_id":"PDJ","time":3,"i_lat":-6.276362,"i_long":106.74273,"transit":false},{"is_transit":false,"distance":6218,"station_name":"Kebayoran","station_id":"KBY","time":8,"transit":false,"i_lat":-6.237242,"line":6,"i_long":106.780334},{"is_transit":false,"i_lat":-6.207404,"line":6,"station_id":"PLM","i_long":106.79689,"distance":3737,"transit":false,"station_name":"Palmerah","time":7},{"line":1,"transit":true,"is_transit":true,"station_name":"Tanah Abang","i_long":106.811091,"distance":3191,"time":6,"station_id":"THB","i_lat":-6.185545},{"is_transit":false,"transit":false,"station_id":"KAT","time":5,"i_lat":-6.20132,"station_name":"Karet","distance":2029,"i_long":106.816351,"line":1},{"distance":471,"time":1,"i_long":106.819881,"i_lat":-6.201433,"station_name":"Sudirman Baru","is_transit":false,"line":1,"station_id":"SUDB","transit":false},{"transit":false,"station_name":"Sudirman","i_lat":-6.202263,"line":1,"station_id":"SUD","time":1,"is_transit":false,"distance":280,"i_long":106.822649},{"time":4,"station_id":"MRI","transit":false,"station_name":"Manggarai","distance":3186,"line":2,"i_lat":-6.209883,"i_long":106.84912,"is_transit":false},{"station_id":"MTR","is_transit":false,"time":2,"i_lat":-6.212485,"station_name":"Matraman","i_long":106.858896,"line":1,"transit":false,"distance":1275},{"is_transit":false,"station_name":"Jatinegara","station_id":"JNG","transit":false,"time":8,"i_long":106.86807400000001,"line":1,"i_lat":-6.215091,"distance":1377},{"i_long":106.899548,"time":3,"is_transit":false,"transit":false,"station_name":"Klender","station_id":"KLD","i_lat":-6.2135,"line":1,"distance":3395},{"is_transit":false,"i_lat":-6.215568,"i_long":106.922662,"station_name":"Buaran","time":2,"line":1,"transit":false,"station_id":"BUA","distance":3100},{"line":1,"station_id":"KLDB","transit":false,"station_name":"Klenderbaru","is_transit":false,"i_long":106.939679,"time":1,"distance":1305,"i_lat":-6.217455},{"station_name":"Cakung","is_transit":false,"i_lat":-6.219053,"transit":false,"time":8,"distance":1385,"i_long":106.951283,"line":1,"station_id":"CUK"},{"time":3,"i_lat":-6.224515,"line":1,"distance":3097,"station_id":"KRI","i_long":106.977657,"station_name":"Kranji","is_transit":false,"transit":false},{"station_id":"BKS","distance":2520,"i_lat":-6.236616,"time":4,"i_long":106.997013,"line":1,"is_transit":false,"transit":false,"station_name":"Bekasi"}],[{"station_name":"Rawa Buntu","station_id":"RU","line":6,"transit":false,"is_transit":false,"distance":0,"i_lat":-6.314823,"i_long":106.675475,"time":0},{"time":6,"transit":false,"is_transit":false,"distance":4566,"station_name":"Sudimara","i_lat":-6.296963,"i_long":106.712277,"line":6,"station_id":"SDM"},{"station_name":"Jurangmangu","line":6,"distance":1994,"transit":false,"is_transit":false,"station_id":"JMU","time":4,"i_lat":-6.288927,"i_long":106.728916},{"station_name":"Pondokranji","i_lat":-6.276362,"line":6,"transit":false,"time":3,"station_id":"PDJ","i_long":106.74273,"distance":2179,"is_transit":false},{"is_transit":false,"time":8,"i_lat":-6.237242,"station_name":"Kebayoran","station_id":"KBY","distance":6218,"line":6,"transit":false,"i_long":106.780334},{"i_long":106.79689,"line":6,"time":7,"is_transit":false,"distance":3737,"i_lat":-6.207404,"station_id":"PLM","transit":false,"station_name":"Palmerah"},{"is_transit":true,"station_name":"Tanah Abang","time":6,"distance":3191,"i_lat":-6.185545,"i_long":106.811091,"station_id":"THB","transit":true,"line":1},{"line":1,"station_id":"DU","is_transit":false,"station_name":"Duri","transit":false,"time":8,"distance":3632,"i_lat":-6.155215,"i_long":106.800832},{"transit":false,"i_long":106.79867,"is_transit":false,"station_name":"Angke","station_id":"AK","time":4,"distance":1230,"i_lat":-6.144674,"line":1},{"i_long":106.826365,"station_name":"Kampung Bandan","transit":true,"time":9,"i_lat":-6.132549,"line":4,"is_transit":true,"distance":4102,"station_id":"KPB"},{"station_id":"RJW","distance":1444,"station_name":"Rajawali","i_long":106.836569,"transit":false,"is_transit":false,"i_lat":-6.14505,"line":11,"time":3},{"time":5,"i_lat":-6.161728,"station_id":"KMO","i_long":106.839204,"line":11,"distance":1901,"is_transit":false,"transit":false,"station_name":"Kemayoran"},{"station_id":"PSE","i_lat":-6.174784,"i_long":106.84368,"station_name":"Pasar Senen","is_transit":false,"line":11,"distance":1436,"time":4,"transit":false},{"line":11,"transit":false,"station_name":"Gang Sentiong","is_transit":false,"time":8,"i_lat":-6.185975,"station_id":"GST","i_long":106.850107,"distance":1567},{"time":1,"station_name":"Kramat","station_id":"KMT","distance":973,"i_long":106.855437,"transit":false,"is_transit":false,"i_lat":-6.193792,"line":11},{"station_name":"Pondok Jati","i_lat":-6.209188,"is_transit":false,"i_long":106.861737,"station_id":"POK","time":2,"distance":1829,"line":11,"transit":false},{"station_name":"Jatinegara","transit":true,"is_transit":true,"line":1,"distance":1236,"time":9,"station_id":"JNG","i_lat":-6.215091,"i_long":106.86807400000001},{"i_lat":-6.2135,"transit":false,"time":3,"station_name":"Klender","distance":3395,"station_id":"KLD","is_transit":false,"i_long":106.899548,"line":1},{"is_transit":false,"line":1,"i_long":106.922662,"i_lat":-6.215568,"station_id":"BUA","distance":3100,"transit":false,"station_name":"Buaran","time":2},{"station_id":"KLDB","i_lat":-6.217455,"station_name":"Klenderbaru","transit":false,"distance":1305,"i_long":106.939679,"line":1,"is_transit":false,"time":1},{"is_transit":false,"station_name":"Cakung","station_id":"CUK","line":1,"distance":1385,"transit":false,"i_long":106.951283,"time":8,"i_lat":-6.219053},{"station_name":"Kranji","station_id":"KRI","transit":false,"i_lat":-6.224515,"i_long":106.977657,"line":1,"is_transit":false,"time":3,"distance":3097},{"transit":false,"time":4,"is_transit":false,"distance":2520,"line":1,"station_id":"BKS","station_name":"Bekasi","i_lat":-6.236616,"i_long":106.997013}],[{"line":6,"transit":false,"is_transit":false,"i_lat":-6.314823,"station_name":"Rawa Buntu","i_long":106.675475,"distance":0,"station_id":"RU","time":0},{"station_name":"Sudimara","is_transit":false,"distance":4566,"i_lat":-6.296963,"station_id":"SDM","i_long":106.712277,"time":6,"transit":false,"line":6},{"line":6,"station_id":"JMU","is_transit":false,"i_long":106.728916,"time":4,"station_name":"Jurangmangu","distance":1994,"i_lat":-6.288927,"transit":false},{"is_transit":false,"station_name":"Pondokranji","distance":2179,"i_long":106.74273,"line":6,"transit":false,"i_lat":-6.276362,"time":3,"station_id":"PDJ"},{"is_transit":false,"time":8,"station_name":"Kebayoran","line":6,"i_long":106.780334,"distance":6218,"i_lat":-6.237242,"station_id":"KBY","transit":false},{"time":7,"distance":3737,"i_lat":-6.207404,"i_long":106.79689,"station_id":"PLM","line":6,"station_name":"Palmerah","transit":false,"is_transit":false},{"i_lat":-6.185545,"line":1,"time":6,"station_id":"THB","is_transit":true,"distance":3191,"i_long":106.811091,"station_name":"Tanah Abang","transit":true},{"station_id":"DU","distance":3632,"line":1,"transit":false,"i_lat":-6.155215,"time":8,"station_name":"Duri","i_long":106.800832,"is_transit":false},{"is_transit":false,"distance":1230,"i_lat":-6.144674,"time":4,"station_name":"Angke","transit":false,"station_id":"AK","i_long":106.79867,"line":1},{"time":9,"station_name":"Kampung Bandan","distance":4102,"i_long":106.826365,"line":4,"is_transit":true,"transit":true,"i_lat":-6.132549,"station_id":"KPB"},{"distance":1364,"time":3,"line":2,"i_lat":-6.137569,"is_transit":true,"i_long":106.812439,"transit":true,"station_name":"Jakarta Kota","station_id":"JAKK"},{"time":4,"station_name":"Jayakarta","is_transit":false,"i_lat":-6.141205,"station_id":"JAY","distance":1264,"i_long":106.820901,"line":2,"transit":false},{"transit":false,"distance":1080,"line":2,"time":2,"i_long":106.82482,"station_name":"Manggabesar","i_lat":-6.149769,"station_id":"MGB","is_transit":false},{"i_lat":-6.160725,"i_long":106.827103,"station_name":"Sawah Besar","distance":906,"station_id":"SW","time":2,"line":2,"transit":false,"is_transit":false},{"time":2,"i_lat":-6.166716,"i_long":106.828284,"line":2,"station_id":"JUA","transit":false,"distance":1149,"station_name":"Juanda","is_transit":false},{"line":2,"is_transit":false,"i_long":106.832183,"time":4,"transit":false,"station_name":"Gondangdia","i_lat":-6.186295,"distance":2015,"station_id":"GDD"},{"is_transit":false,"time":3,"transit":false,"station_id":"CKI","station_name":"Cikini","distance":1750,"i_long":106.840169,"line":2,"i_lat":-6.198556},{"time":4,"station_name":"Manggarai","i_lat":-6.209883,"distance":1590,"i_long":106.84912,"is_transit":true,"line":2,"transit":true,"station_id":"MRI"},{"station_id":"MTR","station_name":"Matraman","time":2,"distance":1275,"i_lat":-6.212485,"is_transit":false,"i_long":106.858896,"transit":false,"line":1},{"time":8,"i_long":106.86807400000001,"distance":1377,"station_id":"JNG","station_name":"Jatinegara","i_lat":-6.215091,"transit":false,"is_transit":false,"line":1},{"transit":false,"i_long":106.899548,"line":1,"distance":3395,"i_lat":-6.2135,"station_id":"KLD","station_name":"Klender","is_transit":false,"time":3},{"time":2,"i_long":106.922662,"station_id":"BUA","transit":false,"station_name":"Buaran","distance":3100,"i_lat":-6.215568,"line":1,"is_transit":false},{"line":1,"time":1,"station_name":"Klenderbaru","i_long":106.939679,"distance":1305,"i_lat":-6.217455,"transit":false,"station_id":"KLDB","is_transit":false},{"line":1,"transit":false,"station_id":"CUK","station_name":"Cakung","time":8,"i_lat":-6.219053,"is_transit":false,"distance":1385,"i_long":106.951283},{"transit":false,"distance":3097,"i_long":106.977657,"time":3,"is_transit":false,"i_lat":-6.224515,"station_name":"Kranji","station_id":"KRI","line":1},{"transit":false,"time":4,"distance":2520,"line":1,"i_long":106.997013,"is_transit":false,"station_name":"Bekasi","i_lat":-6.236616,"station_id":"BKS"}],[{"time":0,"i_lat":-6.314823,"transit":false,"i_long":106.675475,"line":6,"station_name":"Rawa Buntu","station_id":"RU","is_transit":false,"distance":0},{"station_name":"Sudimara","is_transit":false,"i_long":106.712277,"transit":false,"line":6,"i_lat":-6.296963,"time":6,"station_id":"SDM","distance":4566},{"transit":false,"station_id":"JMU","time":4,"station_name":"Jurangmangu","is_transit":false,"i_long":106.728916,"i_lat":-6.288927,"distance":1994,"line":6},{"station_id":"PDJ","i_long":106.74273,"time":3,"i_lat":-6.276362,"station_name":"Pondokranji","transit":false,"distance":2179,"line":6,"is_transit":false},{"i_long":106.780334,"is_transit":false,"i_lat":-6.237242,"station_name":"Kebayoran","time":8,"distance":6218,"station_id":"KBY","line":6,"transit":false},{"transit":false,"distance":3737,"station_name":"Palmerah","is_transit":false,"station_id":"PLM","time":7,"i_lat":-6.207404,"i_long":106.79689,"line":6},{"line":1,"time":6,"distance":3191,"i_lat":-6.185545,"is_transit":true,"station_name":"Tanah Abang","transit":true,"station_id":"THB","i_long":106.811091},{"distance":2029,"i_long":106.816351,"line":1,"time":5,"station_name":"Karet","is_transit":false,"i_lat":-6.20132,"station_id":"KAT","transit":false},{"i_long":106.819881,"i_lat":-6.201433,"station_name":"Sudirman Baru","time":1,"line":1,"distance":471,"transit":false,"is_transit":false,"station_id":"SUDB"},{"distance":280,"is_transit":false,"station_id":"SUD","i_lat":-6.202263,"station_name":"Sudirman","transit":false,"i_long":106.822649,"time":1,"line":1},{"is_transit":true,"distance":3186,"i_long":106.84912,"transit":true,"station_id":"MRI","station_name":"Manggarai","i_lat":-6.209883,"time":4,"line":2},{"line":2,"station_name":"Cikini","distance":1590,"time":4,"station_id":"CKI","transit":false,"i_long":106.840169,"i_lat":-6.198556,"is_transit":false},{"line":2,"i_lat":-6.186295,"is_transit":false,"time":3,"station_id":"GDD","i_long":106.832183,"transit":false,"station_name":"Gondangdia","distance":1750},{"transit":false,"station_id":"JUA","is_transit":false,"time":4,"i_lat":-6.166716,"line":2,"distance":2015,"station_name":"Juanda","i_long":106.828284},{"distance":1149,"transit":false,"i_long":106.827103,"is_transit":false,"time":2,"station_id":"SW","station_name":"Sawah Besar","i_lat":-6.160725,"line":2},{"transit":false,"time":2,"i_lat":-6.149769,"station_id":"MGB","station_name":"Manggabesar","line":2,"is_transit":false,"distance":906,"i_long":106.82482},{"station_name":"Jayakarta","transit":false,"time":2,"distance":1080,"line":2,"is_transit":false,"i_long":106.820901,"station_id":"JAY","i_lat":-6.141205},{"distance":1264,"i_long":106.812439,"i_lat":-6.137569,"station_name":"Jakarta Kota","transit":true,"is_transit":true,"time":4,"line":2,"station_id":"JAKK"},{"time":3,"station_name":"Kampung Bandan","distance":1364,"i_lat":-6.132549,"station_id":"KPB","line":4,"is_transit":true,"transit":true,"i_long":106.826365},{"i_lat":-6.14505,"station_name":"Rajawali","station_id":"RJW","i_long":106.836569,"time":3,"line":11,"transit":false,"is_transit":false,"distance":1444},{"line":11,"station_name":"Kemayoran","transit":false,"station_id":"KMO","distance":1901,"i_long":106.839204,"is_transit":false,"time":5,"i_lat":-6.161728},{"line":11,"time":4,"i_lat":-6.174784,"is_transit":false,"station_name":"Pasar Senen","station_id":"PSE","distance":1436,"transit":false,"i_long":106.84368},{"i_long":106.850107,"line":11,"time":8,"station_name":"Gang Sentiong","station_id":"GST","distance":1567,"i_lat":-6.185975,"transit":false,"is_transit":false},{"i_lat":-6.193792,"line":11,"time":1,"i_long":106.855437,"is_transit":false,"distance":973,"transit":false,"station_id":"KMT","station_name":"Kramat"},{"transit":false,"i_long":106.861737,"station_id":"POK","station_name":"Pondok Jati","i_lat":-6.209188,"distance":1829,"line":11,"is_transit":false,"time":2},{"transit":true,"time":9,"i_lat":-6.215091,"is_transit":true,"distance":1236,"i_long":106.86807400000001,"line":1,"station_id":"JNG","station_name":"Jatinegara"},{"station_name":"Klender","distance":3395,"transit":false,"station_id":"KLD","is_transit":false,"i_long":106.899548,"i_lat":-6.2135,"time":3,"line":1},{"i_long":106.922662,"distance":3100,"station_name":"Buaran","line":1,"station_id":"BUA","time":2,"transit":false,"is_transit":false,"i_lat":-6.215568},{"station_id":"KLDB","distance":1305,"transit":false,"i_lat":-6.217455,"is_transit":false,"i_long":106.939679,"station_name":"Klenderbaru","line":1,"time":1},{"time":8,"i_lat":-6.219053,"station_id":"CUK","transit":false,"station_name":"Cakung","distance":1385,"is_transit":false,"line":1,"i_long":106.951283},{"station_name":"Kranji","time":3,"station_id":"KRI","is_transit":false,"distance":3097,"i_lat":-6.224515,"line":1,"transit":false,"i_long":106.977657},{"station_name":"Bekasi","i_long":106.997013,"station_id":"BKS","time":4,"is_transit":false,"i_lat":-6.236616,"line":1,"distance":2520,"transit":false}]]}