{"data":[[{"transit":false,"is_transit":false,"i_long":106.675475,"time":0,"station_name":"Rawa Buntu","line":6,"distance":0,"station_id":"RU","i_lat":-6.314823},{"station_name":"Sudimara","transit":false,"line":6,"distance":4566,"is_transit":false,"i_long":106.712277,"station_id":"SDM","time":6,"i_lat":-6.296963},{"station_name":"Jurangmangu","transit":false,"is_transit":false,"station_id":"JMU","i_lat":-6.288927,"i_long":106.728916,"line":6,"distance":1994,"time":4},{"station_name":"Pondokranji","i_lat":-6.276362,"time":3,"is_transit":false,"station_id":"PDJ","i_long":106.74273,"distance":2179,"line":6,"transit":false},{"station_id":"KBY","i_long":106.780334,"distance":6218,"transit":false,"i_lat":-6.237242,"line":6,"is_transit":false,"station_name":"Kebayoran","time":8},{"distance":3737,"is_transit":false,"time":7,"i_long":106.79689,"transit":false,"station_name":"Palmerah","station_id":"PLM","i_lat":-6.207404,"line":6},{"station_name":"Tanah Abang","is_transit":true,"i_long":106.811091,"distance":3191,"transit":true,"time":6,"i_lat":-6.185545,"line":1,"station_id":"THB"},{"line":1,"transit":false,"is_transit":false,"distance":2029,"station_id":"KAT","station_name":"Karet","i_long":106.816351,"i_lat":-6.20132,"time":5},{"is_transit":false,"station_id":"SUDB","i_long":106.819881,"distance":471,"transit":false,"i_lat":-6.201433,"time":1,"station_name":"Sudirman Baru","line":1},{"station_name":"Sudirman","i_lat":-6.202263,"time":1,"is_transit":false,"i_long":106.822649,"transit":false,"station_id":"SUD","distance":280,"line":1},{"is_transit":true,"station_id":"MRI","time":4,"i_lat":-6.209883,"distance":3186,"transit":false,"station_name":"Manggarai","i_long":106.84912,"line":0},{"i_long":106.858896,"station_id":"MTR","station_name":"Matraman","i_lat":-6.212485,"transit":false,"is_transit":false,"line":1,"time":2,"distance":1275},{"line":0,"station_name":"Jatinegara","i_long":106.86807400000001,"is_transit":true,"station_id":"JNG","transit":false,"i_lat":-6.215091,"time":8,"distance":1377},{"time":3,"station_name":"Klender","distance":3395,"is_transit":false,"i_lat":-6.2135,"i_long":106.899548,"line":1,"transit":false,"station_id":"KLD"},{"is_transit":false,"station_id":"BUA","transit":false,"line":0,"i_lat":-6.215568,"station_name":"Buaran","time":2,"i_long":106.922662,"distance":3100},{"transit":false,"distance":1305,"time":1,"is_transit":false,"station_name":"Klenderbaru","i_lat":-6.217455,"i_long":106.939679,"line":1,"station_id":"KLDB"},{"station_name":"Cakung","time":8,"is_transit":false,"distance":1385,"line":0,"i_long":106.951283,"transit":false,"station_id":"CUK","i_lat":-6.219053},{"i_long":106.977657,"i_lat":-6.224515,"transit":false,"time":3,"is_transit":false,"station_name":"Kranji","line":1,"station_id":"KRI","distance":3097},{"station_id":"BKS","is_transit":false,"i_long":106.997013,"line":0,"transit":false,"distance":2520,"station_name":"Bekasi","i_lat":-6.236616,"time":4}],[{"transit":false,"distance":0,"i_lat":-6.314823,"i_long":106.675475,"station_id":"RU","is_transit":false,"time":0,"station_name":"Rawa Buntu","line":6},{"transit":false,"distance":4566,"time":6,"i_lat":-6.296963,"line":6,"is_transit":false,"station_name":"Sudimara","station_id":"SDM","i_long":106.712277},{"station_id":"JMU","line":6,"station_name":"Jurangmangu","transit":false,"i_lat":-6.288927,"distance":1994,"is_transit":false,"i_long":106.728916,"time":4},{"distance":2179,"i_long":106.74273,"time":3,"station_id":"PDJ","is_transit":false,"station_name":"Pondokranji","i_lat":-6.276362,"line":6,"transit":false},{"is_transit":false,"distance":6218,"i_long":106.780334,"station_id":"KBY","transit":false,"station_name":"Kebayoran","i_lat":-6.237242,"time":8,"line":6},{"line":6,"distance":3737,"i_long":106.79689,"time":7,"is_transit":false,"transit":false,"station_id":"PLM","station_name":"Palmerah","i_lat":-6.207404},{"station_id":"THB","i_lat":-6.185545,"time":6,"distance":3191,"line":1,"i_long":106.811091,"station_name":"Tanah Abang","is_transit":true,"transit":true},{"distance":3632,"station_name":"Duri","is_transit":true,"transit":true,"i_long":106.800832,"line":1,"i_lat":-6.155215,"station_id":"DU","time":8},{"line":0,"i_lat":-6.144674,"is_transit":false,"station_name":"Angke","i_long":106.79867,"distance":1230,"transit":false,"station_id":"AK","time":4},{"i_long":106.826365,"time":9,"station_id":"KPB","is_transit":true,"i_lat":-6.132549,"line":0,"transit":true,"distance":4102,"station_name":"Kampung Bandan"},{"station_name":"Rajawali","distance":1444,"i_long":106.836569,"line":11,"is_transit":false,"time":3,"i_lat":-6.14505,"station_id":"RJW","transit":false},{"time":5,"station_id":"KMO","i_lat":-6.161728,"transit":false,"station_name":"Kemayoran","i_long":106.839204,"distance":1901,"line":11,"is_transit":false},{"line":11,"station_id":"PSE","time":4,"station_name":"Pasar Senen","i_lat":-6.174784,"i_long":106.84368,"transit":false,"distance":1436,"is_transit":false},{"is_transit":false,"i_long":106.850107,"time":8,"station_id":"GST","distance":1567,"station_name":"Gang Sentiong","transit":false,"i_lat":-6.185975,"line":11},{"is_transit":false,"i_long":106.855437,"station_name":"Kramat","transit":false,"time":1,"distance":973,"station_id":"KMT","line":11,"i_lat":-6.193792},{"time":2,"i_lat":-6.209188,"transit":false,"is_transit":false,"line":11,"distance":1829,"i_long":106.861737,"station_id":"POK","station_name":"Pondok Jati"},{"time":9,"line":0,"station_name":"Jatinegara","transit":true,"i_long":106.86807400000001,"distance":1236,"station_id":"JNG","i_lat":-6.215091,"is_transit":true},{"station_name":"Klender","distance":3395,"i_lat":-6.2135,"transit":false,"line":1,"is_transit":false,"station_id":"KLD","i_long":106.899548,"time":3},{"line":0,"station_name":"Buaran","transit":false,"time":2,"distance":3100,"station_id":"BUA","i_lat":-6.215568,"is_transit":false,"i_long":106.922662},{"line":1,"distance":1305,"transit":false,"station_name":"Klenderbaru","time":1,"is_transit":false,"station_id":"KLDB","i_lat":-6.217455,"i_long":106.939679},{"is_transit":false,"station_name":"Cakung","time":8,"line":0,"station_id":"CUK","i_lat":-6.219053,"distance":1385,"i_long":106.951283,"transit":false},{"i_long":106.977657,"line":1,"time":3,"station_name":"Kranji","distance":3097,"transit":false,"station_id":"KRI","is_transit":false,"i_lat":-6.224515},{"distance":2520,"line":0,"is_transit":false,"station_name":"Bekasi","i_long":106.997013,"time":4,"transit":false,"i_lat":-6.236616,"station_id":"BKS"}],[{"line":6,"distance":0,"is_transit":false,"time":0,"station_id":"RU","i_lat":-6.314823,"station_name":"Rawa Buntu","transit":false,"i_long":106.675475},{"i_long":106.712277,"station_name":"Sudimara","line":6,"i_lat":-6.296963,"time":6,"station_id":"SDM","distance":4566,"is_transit":false,"transit":false},{"is_transit":false,"station_name":"Jurangmangu","line":6,"i_lat":-6.288927,"transit":false,"distance":1994,"station_id":"JMU","i_long":106.728916,"time":4},{"i_long":106.74273,"transit":false,"station_id":"PDJ","distance":2179,"is_transit":false,"station_name":"Pondokranji","line":6,"time":3,"i_lat":-6.276362},{"i_long":106.780334,"transit":false,"time":8,"is_transit":false,"station_name":"Kebayoran","i_lat":-6.237242,"distance":6218,"station_id":"KBY","line":6},{"time":7,"station_name":"Palmerah","i_lat":-6.207404,"i_long":106.79689,"station_id":"PLM","distance":3737,"is_transit":false,"line":6,"transit":false},{"distance":3191,"is_transit":true,"station_id":"THB","time":6,"transit":true,"i_long":106.811091,"line":1,"station_name":"Tanah Abang","i_lat":-6.185545},{"line":1,"station_name":"Duri","time":8,"transit":true,"is_transit":true,"i_lat":-6.155215,"station_id":"DU","i_long":106.800832,"distance":3632},{"distance":1230,"time":4,"i_lat":-6.144674,"i_long":106.79867,"is_transit":false,"station_name":"Angke","station_id":"AK","transit":false,"line":0},{"time":9,"station_name":"Kampung Bandan","station_id":"KPB","distance":4102,"transit":false,"i_lat":-6.132549,"line":0,"is_transit":true,"i_long":106.826365},{"distance":1364,"transit":true,"is_transit":true,"station_id":"JAKK","i_lat":-6.137569,"line":0,"time":3,"station_name":"Jakarta Kota","i_long":106.812439},{"distance":1264,"time":4,"is_transit":false,"station_name":"Jayakarta","line":7,"i_lat":-6.141205,"i_long":106.820901,"transit":false,"station_id":"JAY"},{"is_transit":false,"i_long":106.82482,"line":2,"station_name":"Manggabesar","station_id":"MGB","time":2,"i_lat":-6.149769,"distance":1080,"transit":false},{"is_transit":false,"station_id":"SW","line":2,"i_lat":-6.160725,"transit":false,"distance":906,"station_name":"Sawah Besar","time":2,"i_long":106.827103},{"is_transit":false,"line":2,"transit":false,"distance":1149,"station_name":"Juanda","i_long":106.828284,"i_lat":-6.166716,"station_id":"JUA","time":2},{"time":4,"transit":false,"station_id":"GDD","station_name":"Gondangdia","i_long":106.832183,"is_transit":false,"i_lat":-6.186295,"line":2,"distance":2015},{"station_name":"Cikini","i_long":106.840169,"station_id":"CKI","time":3,"transit":false,"distance":1750,"is_transit":false,"i_lat":-6.198556,"line":0},{"distance":1590,"station_name":"Manggarai","i_lat":-6.209883,"i_long":106.84912,"transit":true,"station_id":"MRI","time":4,"line":0,"is_transit":true},{"time":2,"distance":1275,"is_transit":false,"line":1,"transit":false,"station_id":"MTR","station_name":"Matraman","i_lat":-6.212485,"i_long":106.858896},{"i_lat":-6.215091,"transit":false,"distance":1377,"station_id":"JNG","station_name":"Jatinegara","time":8,"is_transit":true,"line":0,"i_long":106.86807400000001},{"i_long":106.899548,"is_transit":false,"distance":3395,"station_name":"Klender","station_id":"KLD","transit":false,"line":1,"time":3,"i_lat":-6.2135},{"i_lat":-6.215568,"line":0,"station_name":"Buaran","is_transit":false,"i_long":106.922662,"transit":false,"distance":3100,"station_id":"BUA","time":2},{"station_name":"Klenderbaru","distance":1305,"time":1,"line":1,"is_transit":false,"transit":false,"i_lat":-6.217455,"i_long":106.939679,"station_id":"KLDB"},{"transit":false,"station_id":"CUK","is_transit":false,"station_name":"Cakung","i_lat":-6.219053,"i_long":106.951283,"time":8,"line":0,"distance":1385},{"distance":3097,"station_id":"KRI","line":1,"time":3,"is_transit":false,"transit":false,"station_name":"Kranji","i_long":106.977657,"i_lat":-6.224515},{"distance":2520,"i_lat":-6.236616,"time":4,"is_transit":false,"station_name":"Bekasi","i_long":106.997013,"line":0,"transit":false,"station_id":"BKS"}],[{"time":0,"station_name":"Rawa Buntu","station_id":"RU","i_lat":-6.314823,"distance":0,"line":6,"is_transit":false,"i_long":106.675475,"transit":false},{"time":6,"distance":4566,"i_lat":-6.296963,"transit":false,"i_long":106.712277,"is_transit":false,"station_id":"SDM","station_name":"Sudimara","line":6},{"distance":1994,"station_name":"Jurangmangu","i_long":106.728916,"line":6,"time":4,"station_id":"JMU","transit":false,"i_lat":-6.288927,"is_transit":false},{"time":3,"station_name":"Pondokranji","is_transit":false,"station_id":"PDJ","i_lat":-6.276362,"line":6,"distance":2179,"transit":false,"i_long":106.74273},{"station_id":"KBY","i_long":106.780334,"time":8,"i_lat":-6.237242,"transit":false,"is_transit":false,"line":6,"distance":6218,"station_name":"Kebayoran"},{"line":6,"i_lat":-6.207404,"transit":false,"i_long":106.79689,"station_id":"PLM","time":7,"is_transit":false,"distance":3737,"station_name":"Palmerah"},{"line":1,"i_lat":-6.185545,"i_long":106.811091,"distance":3191,"is_transit":true,"time":6,"station_name":"Tanah Abang","station_id":"THB","transit":true},{"is_transit":false,"line":1,"time":5,"i_lat":-6.20132,"i_long":106.816351,"transit":false,"station_id":"KAT","distance":2029,"station_name":"Karet"},{"i_long":106.819881,"time":1,"station_name":"Sudirman Baru","i_lat":-6.201433,"transit":false,"is_transit":false,"line":1,"distance":471,"station_id":"SUDB"},{"i_lat":-6.202263,"time":1,"distance":280,"station_id":"SUD","transit":false,"line":1,"station_name":"Sudirman","i_long":106.822649,"is_transit":false},{"station_name":"Manggarai","distance":3186,"line":0,"is_transit":true,"i_lat":-6.209883,"transit":true,"time":4,"i_long":106.84912,"station_id":"MRI"},{"i_lat":-6.198556,"station_name":"Cikini","transit":false,"is_transit":false,"distance":1590,"line":0,"station_id":"CKI","i_long":106.840169,"time":4},{"is_transit":false,"transit":false,"station_id":"GDD","time":3,"distance":1750,"i_long":106.832183,"line":2,"station_name":"Gondangdia","i_lat":-6.186295},{"line":2,"station_id":"JUA","transit":false,"time":4,"i_lat":-6.166716,"station_name":"Juanda","distance":2015,"is_transit":false,"i_long":106.828284},{"i_lat":-6.160725,"transit":false,"i_long":106.827103,"line":2,"is_transit":false,"time":2,"station_id":"SW","station_name":"Sawah Besar","distance":1149},{"i_lat":-6.149769,"i_long":106.82482,"line":2,"transit":false,"distance":906,"is_transit":false,"time":2,"station_id":"MGB","station_name":"Manggabesar"},{"i_lat":-6.141205,"distance":1080,"i_long":106.820901,"time":2,"transit":false,"station_id":"JAY","is_transit":false,"station_name":"Jayakarta","line":7},{"line":0,"transit":true,"distance":1264,"i_long":106.812439,"time":4,"i_lat":-6.137569,"is_transit":true,"station_id":"JAKK","station_name":"Jakarta Kota"},{"station_id":"KPB","transit":true,"distance":1364,"station_name":"Kampung Bandan","i_long":106.826365,"is_transit":true,"time":3,"i_lat":-6.132549,"line":0},{"time":3,"line":11,"transit":false,"is_transit":false,"i_long":106.836569,"station_id":"RJW","distance":1444,"station_name":"Rajawali","i_lat":-6.14505},{"is_transit":false,"station_id":"KMO","i_lat":-6.161728,"line":11,"time":5,"transit":false,"distance":1901,"station_name":"Kemayoran","i_long":106.839204},{"line":11,"distance":1436,"i_lat":-6.174784,"station_name":"Pasar Senen","station_id":"PSE","is_transit":false,"transit":false,"i_long":106.84368,"time":4},{"station_name":"Gang Sentiong","distance":1567,"i_long":106.850107,"station_id":"GST","transit":false,"time":8,"line":11,"i_lat":-6.185975,"is_transit":false},{"i_long":106.855437,"station_id":"KMT","time":1,"distance":973,"line":11,"is_transit":false,"i_lat":-6.193792,"station_name":"Kramat","transit":false},{"is_transit":false,"distance":1829,"transit":false,"i_long":106.861737,"line":11,"time":2,"i_lat":-6.209188,"station_name":"Pondok Jati","station_id":"POK"},{"distance":1236,"is_transit":true,"station_name":"Jatinegara","i_lat":-6.215091,"station_id":"JNG","line":0,"time":9,"i_long":106.86807400000001,"transit":true},{"transit":false,"is_transit":false,"station_name":"Klender","i_lat":-6.2135,"time":3,"distance":3395,"i_long":106.899548,"line":1,"station_id":"KLD"},{"is_transit":false,"station_name":"Buaran","i_long":106.922662,"line":0,"time":2,"station_id":"BUA","distance":3100,"i_lat":-6.215568,"transit":false},{"transit":false,"is_transit":false,"i_long":106.939679,"distance":1305,"line":1,"i_lat":-6.217455,"station_id":"KLDB","time":1,"station_name":"Klenderbaru"},{"transit":false,"station_id":"CUK","distance":1385,"station_name":"Cakung","line":0,"time":8,"is_transit":false,"i_lat":-6.219053,"i_long":106.951283},{"is_transit":false,"line":1,"distance":3097,"transit":false,"time":3,"station_id":"KRI","station_name":"Kranji","i_long":106.977657,"i_lat":-6.224515},{"time":4,"is_transit":false,"distance":2520,"station_id":"BKS","i_lat":-6.236616,"line":0,"transit":false,"i_long":106.997013,"station_name":"Bekasi"}]]}