{"data":[[{"station_id":"RU","is_transit":false,"distance":0,"transit":false,"i_lat":-6.314823,"time":0,"station_name":"Rawa Buntu","line":6,"i_long":106.675475},{"transit":false,"distance":4566,"i_long":106.712277,"is_transit":false,"station_name":"Sudimara","line":6,"station_id":"SDM","i_lat":-6.296963,"time":6},{"is_transit":false,"transit":false,"i_lat":-6.288927,"line":6,"i_long":106.728916,"station_name":"Jurangmangu","station_id":"JMU","distance":1994,"time":4},{"transit":false,"is_transit":false,"line":6,"time":3,"station_id":"PDJ","station_name":"Pondokranji","i_lat":-6.276362,"i_long":106.74273,"distance":2179},{"i_long":106.780334,"transit":false,"station_name":"Kebayoran","line":6,"time":8,"i_lat":-6.237242,"distance":6218,"station_id":"KBY","is_transit":false},{"time":7,"distance":3737,"i_lat":-6.207404,"station_id":"PLM","i_long":106.79689,"transit":false,"is_transit":false,"station_name":"Palmerah","line":6},{"distance":3191,"station_id":"THB","line":1,"i_long":106.811091,"station_name":"Tanah Abang","transit":true,"is_transit":true,"i_lat":-6.185545,"time":6},{"time":5,"station_name":"Karet","distance":2029,"i_lat":-6.20132,"is_transit":false,"i_long":106.816351,"transit":false,"line":1,"station_id":"KAT"},{"distance":471,"is_transit":false,"i_lat":-6.201433,"station_name":"Sudirman Baru","line":1,"time":1,"station_id":"SUDB","transit":false,"i_long":106.819881},{"station_name":"Sudirman","station_id":"SUD","i_long":106.822649,"i_lat":-6.202263,"is_transit":false,"line":1,"time":1,"transit":false,"distance":280},{"station_name":"Manggarai","is_transit":false,"line":2,"time":4,"station_id":"MRI","i_long":106.84912,"i_lat":-6.209883,"distance":3186,"transit":false},{"distance":1275,"line":1,"station_id":"MTR","i_lat":-6.212485,"time":2,"i_long":106.858896,"is_transit":false,"transit":false,"station_name":"Matraman"},{"line":1,"transit":false,"is_transit":false,"time":8,"distance":1377,"station_name":"Jatinegara","station_id":"JNG","i_lat":-6.215091,"i_long":106.86807400000001},{"is_transit":false,"time":3,"line":1,"distance":3395,"station_id":"KLD","station_name":"Klender","i_lat":-6.2135,"i_long":106.899548,"transit":false},{"station_id":"BUA","station_name":"Buaran","is_transit":false,"i_lat":-6.215568,"i_long":106.922662,"line":1,"distance":3100,"transit":false,"time":2},{"transit":false,"i_lat":-6.217455,"station_name":"Klenderbaru","distance":1305,"station_id":"KLDB","i_long":106.939679,"time":1,"line":1,"is_transit":false},{"station_name":"Cakung","station_id":"CUK","is_transit":false,"line":1,"time":8,"transit":false,"i_lat":-6.219053,"i_long":106.951283,"distance":1385},{"is_transit":false,"time":3,"distance":3097,"station_id":"KRI","line":1,"i_lat":-6.224515,"i_long":106.977657,"station_name":"Kranji","transit":false},{"distance":2520,"station_id":"BKS","is_transit":false,"i_lat":-6.236616,"station_name":"Bekasi","transit":false,"time":4,"i_long":106.997013,"line":1}],[{"station_id":"RU","i_lat":-6.314823,"line":6,"station_name":"Rawa Buntu","i_long":106.675475,"is_transit":false,"time":0,"distance":0,"transit":false},{"station_id":"SDM","transit":false,"is_transit":false,"distance":4566,"time":6,"i_lat":-6.296963,"station_name":"Sudimara","line":6,"i_long":106.712277},{"time":4,"line":6,"distance":1994,"station_name":"Jurangmangu","i_long":106.728916,"i_lat":-6.288927,"is_transit":false,"transit":false,"station_id":"JMU"},{"station_id":"PDJ","time":3,"line":6,"i_lat":-6.276362,"transit":false,"station_name":"Pondokranji","is_transit":false,"i_long":106.74273,"distance":2179},{"line":6,"station_id":"KBY","time":8,"station_name":"Kebayoran","i_lat":-6.237242,"i_long":106.780334,"distance":6218,"transit":false,"is_transit":false},{"distance":3737,"is_transit":false,"time":7,"transit":false,"i_lat":-6.207404,"i_long":106.79689,"line":6,"station_name":"Palmerah","station_id":"PLM"},{"time":6,"transit":true,"i_long":106.811091,"station_name":"Tanah Abang","station_id":"THB","line":1,"is_transit":true,"distance":3191,"i_lat":-6.185545},{"is_transit":false,"transit":false,"station_id":"DU","station_name":"Duri","i_long":106.800832,"line":1,"time":8,"distance":3632,"i_lat":-6.155215},{"i_long":106.79867,"is_transit":false,"time":4,"i_lat":-6.144674,"station_id":"AK","station_name":"Angke","distance":1230,"line":1,"transit":false},{"distance":4102,"is_transit":true,"station_id":"KPB","time":9,"line":4,"i_long":106.826365,"transit":true,"i_lat":-6.132549,"station_name":"Kampung Bandan"},{"time":3,"station_name":"Rajawali","distance":1444,"transit":false,"station_id":"RJW","i_lat":-6.14505,"line":11,"is_transit":false,"i_long":106.836569},{"is_transit":false,"distance":1901,"i_lat":-6.161728,"time":5,"station_id":"KMO","station_name":"Kemayoran","line":11,"transit":false,"i_long":106.839204},{"is_transit":false,"station_name":"Pasar Senen","transit":false,"station_id":"PSE","i_long":106.84368,"time":4,"line":11,"distance":1436,"i_lat":-6.174784},{"station_name":"Gang Sentiong","distance":1567,"time":8,"i_lat":-6.185975,"i_long":106.850107,"station_id":"GST","is_transit":false,"transit":false,"line":11},{"transit":false,"i_lat":-6.193792,"time":1,"i_long":106.855437,"is_transit":false,"station_name":"Kramat","line":11,"distance":973,"station_id":"KMT"},{"line":11,"is_transit":false,"time":2,"i_long":106.861737,"distance":1829,"transit":false,"station_name":"Pondok Jati","i_lat":-6.209188,"station_id":"POK"},{"i_lat":-6.215091,"line":1,"i_long":106.86807400000001,"station_name":"Jatinegara","is_transit":true,"transit":true,"time":9,"station_id":"JNG","distance":1236},{"is_transit":false,"transit":false,"line":1,"distance":3395,"i_lat":-6.2135,"i_long":106.899548,"time":3,"station_id":"KLD","station_name":"Klender"},{"i_long":106.922662,"time":2,"distance":3100,"is_transit":false,"line":1,"i_lat":-6.215568,"station_id":"BUA","station_name":"Buaran","transit":false},{"station_id":"KLDB","time":1,"transit":false,"line":1,"i_long":106.939679,"distance":1305,"station_name":"Klenderbaru","is_transit":false,"i_lat":-6.217455},{"i_lat":-6.219053,"i_long":106.951283,"line":1,"is_transit":false,"station_id":"CUK","time":8,"station_name":"Cakung","distance":1385,"transit":false},{"station_name":"Kranji","distance":3097,"line":1,"time":3,"transit":false,"station_id":"KRI","i_lat":-6.224515,"is_transit":false,"i_long":106.977657},{"time":4,"line":1,"i_long":106.997013,"i_lat":-6.236616,"station_name":"Bekasi","transit":false,"is_transit":false,"station_id":"BKS","distance":2520}],[{"i_lat":-6.314823,"line":6,"time":0,"transit":false,"is_transit":false,"distance":0,"i_long":106.675475,"station_name":"Rawa Buntu","station_id":"RU"},{"i_long":106.712277,"distance":4566,"line":6,"station_id":"SDM","time":6,"is_transit":false,"station_name":"Sudimara","i_lat":-6.296963,"transit":false},{"i_long":106.728916,"is_transit":false,"station_id":"JMU","distance":1994,"line":6,"station_name":"Jurangmangu","transit":false,"time":4,"i_lat":-6.288927},{"i_long":106.74273,"station_name":"Pondokranji","station_id":"PDJ","distance":2179,"i_lat":-6.276362,"line":6,"is_transit":false,"time":3,"transit":false},{"i_long":106.780334,"station_name":"Kebayoran","line":6,"transit":false,"station_id":"KBY","time":8,"i_lat":-6.237242,"distance":6218,"is_transit":false},{"is_transit":false,"transit":false,"station_name":"Palmerah","distance":3737,"station_id":"PLM","i_lat":-6.207404,"i_long":106.79689,"time":7,"line":6},{"station_id":"THB","transit":true,"station_name":"Tanah Abang","is_transit":true,"line":1,"i_lat":-6.185545,"i_long":106.811091,"distance":3191,"time":6},{"i_lat":-6.155215,"i_long":106.800832,"is_transit":false,"distance":3632,"line":1,"station_id":"DU","transit":false,"station_name":"Duri","time":8},{"station_name":"Angke","line":1,"i_lat":-6.144674,"station_id":"AK","time":4,"distance":1230,"transit":false,"i_long":106.79867,"is_transit":false},{"i_long":106.826365,"station_id":"KPB","station_name":"Kampung Bandan","is_transit":true,"line":4,"i_lat":-6.132549,"time":9,"distance":4102,"transit":true},{"distance":1364,"transit":true,"i_lat":-6.137569,"line":2,"station_id":"JAKK","station_name":"Jakarta Kota","time":3,"is_transit":true,"i_long":106.812439},{"i_long":106.820901,"time":4,"station_id":"JAY","station_name":"Jayakarta","line":2,"transit":false,"i_lat":-6.141205,"is_transit":false,"distance":1264},{"time":2,"transit":false,"i_long":106.82482,"i_lat":-6.149769,"station_name":"Manggabesar","line":2,"station_id":"MGB","distance":1080,"is_transit":false},{"line":2,"is_transit":false,"i_long":106.827103,"station_name":"Sawah Besar","transit":false,"time":2,"station_id":"SW","distance":906,"i_lat":-6.160725},{"station_name":"Juanda","i_long":106.828284,"time":2,"is_transit":false,"distance":1149,"station_id":"JUA","transit":false,"i_lat":-6.166716,"line":2},{"time":4,"station_name":"Gondangdia","distance":2015,"line":2,"i_long":106.832183,"is_transit":false,"i_lat":-6.186295,"transit":false,"station_id":"GDD"},{"station_name":"Cikini","time":3,"station_id":"CKI","is_transit":false,"line":2,"i_long":106.840169,"distance":1750,"transit":false,"i_lat":-6.198556},{"i_lat":-6.209883,"station_name":"Manggarai","distance":1590,"is_transit":true,"time":4,"station_id":"MRI","transit":true,"i_long":106.84912,"line":2},{"time":2,"station_name":"Matraman","i_lat":-6.212485,"line":1,"distance":1275,"i_long":106.858896,"transit":false,"is_transit":false,"station_id":"MTR"},{"distance":1377,"i_long":106.86807400000001,"time":8,"station_name":"Jatinegara","line":1,"station_id":"JNG","transit":false,"i_lat":-6.215091,"is_transit":false},{"station_name":"Klender","line":1,"is_transit":false,"transit":false,"i_long":106.899548,"time":3,"i_lat":-6.2135,"distance":3395,"station_id":"KLD"},{"i_long":106.922662,"line":1,"station_name":"Buaran","distance":3100,"station_id":"BUA","transit":false,"time":2,"is_transit":false,"i_lat":-6.215568},{"distance":1305,"line":1,"transit":false,"station_name":"Klenderbaru","i_lat":-6.217455,"i_long":106.939679,"station_id":"KLDB","is_transit":false,"time":1},{"time":8,"transit":false,"line":1,"station_id":"CUK","station_name":"Cakung","is_transit":false,"i_lat":-6.219053,"i_long":106.951283,"distance":1385},{"i_long":106.977657,"is_transit":false,"line":1,"distance":3097,"i_lat":-6.224515,"time":3,"station_id":"KRI","transit":false,"station_name":"Kranji"},{"i_long":106.997013,"line":1,"distance":2520,"transit":false,"time":4,"is_transit":false,"station_id":"BKS","i_lat":-6.236616,"station_name":"Bekasi"}],[{"station_name":"Rawa Buntu","i_lat":-6.314823,"line":6,"is_transit":false,"i_long":106.675475,"station_id":"RU","distance":0,"time":0,"transit":false},{"station_id":"SDM","line":6,"distance":4566,"time":6,"station_name":"Sudimara","transit":false,"i_lat":-6.296963,"i_long":106.712277,"is_transit":false},{"station_name":"Jurangmangu","line":6,"distance":1994,"i_long":106.728916,"is_transit":false,"time":4,"station_id":"JMU","i_lat":-6.288927,"transit":false},{"transit":false,"station_id":"PDJ","i_long":106.74273,"is_transit":false,"time":3,"distance":2179,"line":6,"i_lat":-6.276362,"station_name":"Pondokranji"},{"distance":6218,"station_name":"Kebayoran","i_lat":-6.237242,"time":8,"line":6,"station_id":"KBY","transit":false,"i_long":106.780334,"is_transit":false},{"station_name":"Palmerah","transit":false,"distance":3737,"line":6,"is_transit":false,"time":7,"station_id":"PLM","i_lat":-6.207404,"i_long":106.79689},{"i_long":106.811091,"station_id":"THB","transit":true,"distance":3191,"is_transit":true,"time":6,"i_lat":-6.185545,"line":1,"station_name":"Tanah Abang"},{"line":1,"i_lat":-6.20132,"station_name":"Karet","time":5,"distance":2029,"transit":false,"is_transit":false,"station_id":"KAT","i_long":106.816351},{"line":1,"is_transit":false,"distance":471,"transit":false,"station_id":"SUDB","i_lat":-6.201433,"station_name":"Sudirman Baru","time":1,"i_long":106.819881},{"station_id":"SUD","i_long":106.822649,"line":1,"distance":280,"station_name":"Sudirman","is_transit":false,"transit":false,"i_lat":-6.202263,"time":1},{"is_transit":true,"transit":true,"i_long":106.84912,"time":4,"station_id":"MRI","station_name":"Manggarai","line":2,"distance":3186,"i_lat":-6.209883},{"i_long":106.840169,"is_transit":false,"line":2,"time":4,"distance":1590,"station_name":"Cikini","i_lat":-6.198556,"transit":false,"station_id":"CKI"},{"transit":false,"is_transit":false,"i_long":106.832183,"line":2,"i_lat":-6.186295,"station_id":"GDD","time":3,"station_name":"Gondangdia","distance":1750},{"i_long":106.828284,"time":4,"transit":false,"is_transit":false,"station_id":"JUA","line":2,"i_lat":-6.166716,"distance":2015,"station_name":"Juanda"},{"i_lat":-6.160725,"is_transit":false,"distance":1149,"station_name":"Sawah Besar","i_long":106.827103,"line":2,"station_id":"SW","transit":false,"time":2},{"station_name":"Manggabesar","i_long":106.82482,"distance":906,"station_id":"MGB","i_lat":-6.149769,"is_transit":false,"time":2,"transit":false,"line":2},{"distance":1080,"i_long":106.820901,"station_id":"JAY","i_lat":-6.141205,"line":2,"station_name":"Jayakarta","is_transit":false,"time":2,"transit":false},{"station_id":"JAKK","station_name":"Jakarta Kota","time":4,"i_lat":-6.137569,"distance":1264,"i_long":106.812439,"line":2,"is_transit":true,"transit":true},{"i_lat":-6.132549,"station_name":"Kampung Bandan","i_long":106.826365,"time":3,"line":4,"is_transit":true,"station_id":"KPB","distance":1364,"transit":true},{"i_lat":-6.14505,"line":11,"i_long":106.836569,"time":3,"station_name":"Rajawali","station_id":"RJW","distance":1444,"transit":false,"is_transit":false},{"station_name":"Kemayoran","is_transit":false,"distance":1901,"time":5,"i_long":106.839204,"transit":false,"line":11,"i_lat":-6.161728,"station_id":"KMO"},{"is_transit":false,"time":4,"station_name":"Pasar Senen","transit":false,"station_id":"PSE","i_lat":-6.174784,"i_long":106.84368,"line":11,"distance":1436},{"line":11,"transit":false,"i_lat":-6.185975,"i_long":106.850107,"time":8,"station_name":"Gang Sentiong","distance":1567,"is_transit":false,"station_id":"GST"},{"is_transit":false,"transit":false,"time":1,"station_name":"Kramat","line":11,"station_id":"KMT","i_long":106.855437,"distance":973,"i_lat":-6.193792},{"transit":false,"is_transit":false,"time":2,"distance":1829,"i_long":106.861737,"line":11,"i_lat":-6.209188,"station_id":"POK","station_name":"Pondok Jati"},{"station_name":"Jatinegara","i_lat":-6.215091,"time":9,"line":1,"is_transit":true,"distance":1236,"i_long":106.86807400000001,"station_id":"JNG","transit":true},{"i_lat":-6.2135,"transit":false,"is_transit":false,"i_long":106.899548,"time":3,"distance":3395,"station_id":"KLD","station_name":"Klender","line":1},{"i_lat":-6.215568,"distance":3100,"transit":false,"is_transit":false,"time":2,"station_name":"Buaran","station_id":"BUA","line":1,"i_long":106.922662},{"i_lat":-6.217455,"is_transit":false,"i_long":106.939679,"line":1,"time":1,"station_name":"Klenderbaru","distance":1305,"transit":false,"station_id":"KLDB"},{"line":1,"i_long":106.951283,"is_transit":false,"distance":1385,"time":8,"station_id":"CUK","station_name":"Cakung","i_lat":-6.219053,"transit":false},{"i_lat":-6.224515,"time":3,"transit":false,"line":1,"i_long":106.977657,"station_id":"KRI","is_transit":false,"station_name":"Kranji","distance":3097},{"is_transit":false,"i_long":106.997013,"time":4,"distance":2520,"transit":false,"station_id":"BKS","station_name":"Bekasi","line":1,"i_lat":-6.236616}]]}