{"data":[[{"station_id":"RU","distance":0,"i_lat":-6.314823,"time":0,"i_long":106.675475,"line":6,"is_transit":false,"transit":false,"station_name":"Rawa Buntu"},{"station_name":"Serpong","station_id":"SRP","line":6,"transit":false,"is_transit":false,"distance":2413,"i_lat":-6.319871,"i_long":106.66566,"time":4},{"time":4,"transit":false,"is_transit":false,"distance":1784,"station_name":"Cisauk","i_lat":-6.32484,"i_long":106.640411,"line":3,"station_id":"CSK"},{"station_name":"Cicayur","line":3,"distance":2519,"transit":false,"is_transit":false,"station_id":"CC","time":4,"i_lat":-6.329547,"i_long":106.617853},{"station_name":"Parung Panjang","i_lat":-6.3441410000000005,"line":6,"transit":false,"time":8,"station_id":"PRP","i_long":106.568863,"distance":5968,"is_transit":false},{"is_transit":false,"time":9,"i_lat":-6.354349,"station_name":"Cilejit","station_id":"CJT","distance":7025,"line":3,"transit":false,"i_long":106.508482},{"i_long":106.491338,"line":0,"time":6,"is_transit":false,"distance":2675,"i_lat":-6.338021,"station_id":"DAR","transit":false,"station_name":"Daru"},{"is_transit":false,"station_name":"Tenjo","time":5,"distance":3902,"i_lat":-6.327251,"i_long":106.460812,"station_id":"TEJ","transit":false,"line":6},{"line":6,"station_id":"TGS","is_transit":false,"station_name":"Tigaraksa","transit":false,"time":5,"distance":2974,"i_lat":-6.328533,"i_long":106.425991},{"transit":false,"i_long":106.411216,"is_transit":false,"station_name":"Cikoya","station_id":"CKY","time":3,"distance":2651,"i_lat":-6.33561,"line":3}]]}