{"data":[[{"station_id":"RU","distance":0,"i_lat":-6.314823,"line":6,"station_name":"Rawa Buntu","time":0,"is_transit":false,"i_long":106.675475,"transit":false},{"distance":2413,"station_id":"SRP","time":4,"i_long":106.66566,"transit":false,"line":6,"is_transit":false,"station_name":"Serpong","i_lat":-6.319871},{"i_lat":-6.32484,"station_id":"CSK","line":3,"i_long":106.640411,"time":4,"transit":false,"station_name":"Cisauk","distance":1784,"is_transit":false},{"station_name":"Cicayur","i_long":106.617853,"line":3,"station_id":"CC","transit":false,"i_lat":-6.329547,"is_transit":false,"distance":2519,"time":4},{"station_id":"PRP","transit":false,"is_transit":false,"time":8,"station_name":"Parung Panjang","distance":5968,"i_lat":-6.3441410000000005,"i_long":106.568863,"line":6},{"is_transit":false,"i_long":106.508482,"station_id":"CJT","line":3,"time":9,"transit":false,"distance":7025,"station_name":"Cilejit","i_lat":-6.354349},{"i_long":106.491338,"distance":2675,"line":0,"station_id":"DAR","is_transit":false,"time":6,"transit":false,"station_name":"Daru","i_lat":-6.338021},{"i_lat":-6.327251,"station_id":"TEJ","distance":3902,"i_long":106.460812,"transit":false,"is_transit":false,"line":6,"station_name":"Tenjo","time":5},{"distance":2974,"station_name":"Tigaraksa","is_transit":false,"line":6,"station_id":"TGS","transit":false,"i_lat":-6.328533,"time":5,"i_long":106.425991},{"station_name":"Cikoya","station_id":"CKY","is_transit":false,"line":3,"i_lat":-6.33561,"i_long":106.411216,"distance":2651,"transit":false,"time":3}]]}