{"data":[[{"station_name":"Rawa Buntu","i_long":106.675475,"transit":false,"station_id":"RU","time":0,"distance":0,"i_lat":-6.314823,"is_transit":false,"line":6},{"distance":2413,"station_id":"SRP","time":4,"i_long":106.66566,"station_name":"Serpong","is_transit":false,"i_lat":-6.319871,"line":6,"transit":false},{"distance":1784,"station_name":"Cisauk","is_transit":false,"transit":false,"i_long":106.640411,"line":0,"i_lat":-6.32484,"time":4,"station_id":"CSK"},{"transit":false,"station_id":"CC","i_long":106.617853,"station_name":"Cicayur","is_transit":false,"line":0,"distance":2519,"time":4,"i_lat":-6.329547},{"i_lat":-6.3441410000000005,"station_id":"PRP","time":8,"line":6,"transit":false,"station_name":"Parung Panjang","distance":5968,"is_transit":false,"i_long":106.568863},{"line":0,"i_long":106.508482,"station_name":"Cilejit","is_transit":false,"station_id":"CJT","i_lat":-6.354349,"transit":false,"distance":7025,"time":9},{"station_id":"DAR","time":6,"i_long":106.491338,"distance":2675,"i_lat":-6.338021,"transit":false,"line":0,"station_name":"Daru","is_transit":false},{"i_long":106.460812,"transit":false,"distance":3902,"station_id":"TEJ","i_lat":-6.327251,"station_name":"Tenjo","line":6,"is_transit":false,"time":5},{"is_transit":false,"station_name":"Tigaraksa","transit":false,"i_lat":-6.328533,"i_long":106.425991,"station_id":"TGS","distance":2974,"line":6,"time":5},{"i_lat":-6.33561,"distance":2651,"is_transit":false,"station_id":"CKY","station_name":"Cikoya","time":3,"transit":false,"i_long":106.411216,"line":0}]]}