{"data":[[{"time":0,"distance":0,"is_transit":false,"station_name":"Rawa Buntu","i_lat":-6.314823,"i_long":106.675475,"line":6,"transit":false,"station_id":"RU"},{"time":4,"i_long":106.66566,"is_transit":false,"line":6,"transit":false,"distance":2413,"i_lat":-6.319871,"station_id":"SRP","station_name":"Serpong"},{"time":4,"i_lat":-6.32484,"is_transit":false,"distance":1784,"i_long":106.640411,"station_id":"CSK","station_name":"Cisauk","transit":false,"line":3},{"station_id":"CC","is_transit":false,"time":4,"station_name":"Cicayur","i_lat":-6.329547,"transit":false,"i_long":106.617853,"distance":2519,"line":3},{"line":6,"i_lat":-6.3441410000000005,"distance":5968,"is_transit":false,"station_id":"PRP","time":8,"i_long":106.568863,"transit":false,"station_name":"Parung Panjang"},{"i_long":106.508482,"transit":false,"i_lat":-6.354349,"station_name":"Cilejit","is_transit":false,"station_id":"CJT","distance":7025,"time":9,"line":3},{"line":0,"time":6,"station_id":"DAR","distance":2675,"i_lat":-6.338021,"is_transit":false,"transit":false,"station_name":"Daru","i_long":106.491338},{"is_transit":false,"line":6,"station_name":"Tenjo","i_lat":-6.327251,"time":5,"station_id":"TEJ","i_long":106.460812,"distance":3902,"transit":false},{"line":6,"station_id":"TGS","time":5,"i_long":106.425991,"i_lat":-6.328533,"distance":2974,"is_transit":false,"transit":false,"station_name":"Tigaraksa"},{"i_lat":-6.33561,"time":3,"station_id":"CKY","i_long":106.411216,"transit":false,"distance":2651,"is_transit":false,"station_name":"Cikoya","line":3}]]}