{"data":[[{"station_id":"RU","transit":false,"is_transit":false,"i_lat":-6.314823,"time":0,"line":6,"distance":0,"station_name":"Rawa Buntu","i_long":106.675475},{"i_lat":-6.296963,"is_transit":false,"station_id":"SDM","i_long":106.712277,"station_name":"Sudimara","transit":false,"time":6,"distance":4566,"line":6},{"station_name":"Jurangmangu","is_transit":false,"transit":false,"distance":1994,"time":4,"line":6,"station_id":"JMU","i_lat":-6.288927,"i_long":106.728916},{"is_transit":false,"station_id":"PDJ","station_name":"Pondokranji","line":6,"transit":false,"i_long":106.74273,"i_lat":-6.276362,"distance":2179,"time":3},{"distance":6218,"i_long":106.780334,"line":6,"station_id":"KBY","transit":false,"i_lat":-6.237242,"is_transit":false,"station_name":"Kebayoran","time":8},{"transit":false,"distance":3737,"is_transit":false,"station_id":"PLM","station_name":"Palmerah","time":7,"line":6,"i_lat":-6.207404,"i_long":106.79689},{"is_transit":true,"i_long":106.811091,"time":6,"distance":3191,"i_lat":-6.185545,"station_name":"Tanah Abang","station_id":"THB","transit":true,"line":1},{"is_transit":false,"station_name":"Karet","i_lat":-6.20132,"distance":2029,"i_long":106.816351,"time":5,"station_id":"KAT","line":1,"transit":false},{"time":1,"transit":false,"distance":471,"station_name":"Sudirman Baru","i_lat":-6.201433,"line":1,"i_long":106.819881,"is_transit":false,"station_id":"SUDB"},{"i_long":106.822649,"line":1,"distance":280,"is_transit":false,"time":1,"i_lat":-6.202263,"station_id":"SUD","transit":false,"station_name":"Sudirman"},{"station_name":"Manggarai","is_transit":true,"distance":3186,"station_id":"MRI","transit":true,"time":4,"i_lat":-6.209883,"line":0,"i_long":106.84912},{"distance":1590,"station_id":"CKI","transit":false,"i_long":106.840169,"line":0,"i_lat":-6.198556,"time":4,"station_name":"Cikini","is_transit":false}],[{"i_lat":-6.314823,"transit":false,"time":0,"station_name":"Rawa Buntu","i_long":106.675475,"distance":0,"station_id":"RU","is_transit":false,"line":6},{"i_lat":-6.296963,"i_long":106.712277,"transit":false,"time":6,"is_transit":false,"station_name":"Sudimara","distance":4566,"station_id":"SDM","line":6},{"line":6,"station_id":"JMU","is_transit":false,"time":4,"i_lat":-6.288927,"distance":1994,"i_long":106.728916,"station_name":"Jurangmangu","transit":false},{"distance":2179,"transit":false,"station_name":"Pondokranji","i_lat":-6.276362,"line":6,"station_id":"PDJ","is_transit":false,"i_long":106.74273,"time":3},{"transit":false,"distance":6218,"time":8,"station_name":"Kebayoran","line":6,"i_long":106.780334,"i_lat":-6.237242,"is_transit":false,"station_id":"KBY"},{"is_transit":false,"line":6,"i_lat":-6.207404,"i_long":106.79689,"time":7,"station_id":"PLM","transit":false,"station_name":"Palmerah","distance":3737},{"distance":3191,"is_transit":true,"station_id":"THB","transit":true,"i_lat":-6.185545,"i_long":106.811091,"station_name":"Tanah Abang","time":6,"line":1},{"line":1,"i_lat":-6.155215,"transit":true,"time":8,"i_long":106.800832,"distance":3632,"is_transit":true,"station_id":"DU","station_name":"Duri"},{"transit":false,"station_id":"AK","time":4,"i_long":106.79867,"line":0,"is_transit":false,"i_lat":-6.144674,"distance":1230,"station_name":"Angke"},{"i_lat":-6.132549,"i_long":106.826365,"station_name":"Kampung Bandan","transit":false,"time":9,"is_transit":true,"distance":4102,"station_id":"KPB","line":0},{"is_transit":true,"distance":1364,"i_lat":-6.137569,"transit":true,"station_id":"JAKK","line":0,"station_name":"Jakarta Kota","time":3,"i_long":106.812439},{"i_lat":-6.141205,"is_transit":false,"station_id":"JAY","station_name":"Jayakarta","line":7,"distance":1264,"i_long":106.820901,"time":4,"transit":false},{"line":2,"is_transit":false,"transit":false,"station_name":"Manggabesar","i_long":106.82482,"i_lat":-6.149769,"distance":1080,"time":2,"station_id":"MGB"},{"station_id":"SW","time":2,"station_name":"Sawah Besar","i_long":106.827103,"distance":906,"transit":false,"is_transit":false,"i_lat":-6.160725,"line":2},{"time":2,"transit":false,"i_long":106.828284,"is_transit":false,"station_id":"JUA","line":2,"distance":1149,"i_lat":-6.166716,"station_name":"Juanda"},{"line":2,"i_lat":-6.186295,"is_transit":false,"station_name":"Gondangdia","transit":false,"distance":2015,"station_id":"GDD","time":4,"i_long":106.832183},{"i_lat":-6.198556,"line":0,"i_long":106.840169,"distance":1750,"station_id":"CKI","is_transit":false,"time":3,"transit":false,"station_name":"Cikini"}],[{"is_transit":false,"station_name":"Rawa Buntu","transit":false,"line":6,"time":0,"i_lat":-6.314823,"distance":0,"i_long":106.675475,"station_id":"RU"},{"i_long":106.712277,"transit":false,"time":6,"distance":4566,"line":6,"station_name":"Sudimara","is_transit":false,"i_lat":-6.296963,"station_id":"SDM"},{"is_transit":false,"station_id":"JMU","station_name":"Jurangmangu","time":4,"transit":false,"line":6,"i_lat":-6.288927,"i_long":106.728916,"distance":1994},{"i_long":106.74273,"transit":false,"line":6,"distance":2179,"station_id":"PDJ","time":3,"station_name":"Pondokranji","i_lat":-6.276362,"is_transit":false},{"is_transit":false,"transit":false,"time":8,"i_long":106.780334,"station_id":"KBY","station_name":"Kebayoran","line":6,"i_lat":-6.237242,"distance":6218},{"is_transit":false,"line":6,"station_name":"Palmerah","transit":false,"station_id":"PLM","i_lat":-6.207404,"i_long":106.79689,"distance":3737,"time":7},{"transit":true,"i_lat":-6.185545,"time":6,"is_transit":true,"line":1,"station_id":"THB","distance":3191,"station_name":"Tanah Abang","i_long":106.811091},{"i_long":106.800832,"station_name":"Duri","i_lat":-6.155215,"is_transit":true,"time":8,"distance":3632,"station_id":"DU","transit":true,"line":1},{"i_lat":-6.144674,"i_long":106.79867,"is_transit":false,"station_name":"Angke","line":0,"station_id":"AK","time":4,"transit":false,"distance":1230},{"station_name":"Kampung Bandan","i_lat":-6.132549,"distance":4102,"is_transit":true,"transit":true,"station_id":"KPB","time":9,"line":0,"i_long":106.826365},{"is_transit":false,"transit":false,"time":3,"line":11,"distance":1444,"i_long":106.836569,"i_lat":-6.14505,"station_name":"Rajawali","station_id":"RJW"},{"transit":false,"time":5,"i_lat":-6.161728,"i_long":106.839204,"station_name":"Kemayoran","line":11,"station_id":"KMO","distance":1901,"is_transit":false},{"station_name":"Pasar Senen","time":4,"line":11,"transit":false,"distance":1436,"i_lat":-6.174784,"is_transit":false,"i_long":106.84368,"station_id":"PSE"},{"time":8,"i_lat":-6.185975,"is_transit":false,"transit":false,"station_name":"Gang Sentiong","station_id":"GST","i_long":106.850107,"line":11,"distance":1567},{"is_transit":false,"station_id":"KMT","station_name":"Kramat","i_lat":-6.193792,"line":11,"transit":false,"i_long":106.855437,"distance":973,"time":1},{"distance":1829,"time":2,"station_name":"Pondok Jati","is_transit":false,"i_lat":-6.209188,"line":11,"i_long":106.861737,"transit":false,"station_id":"POK"},{"time":9,"transit":true,"is_transit":true,"station_name":"Jatinegara","i_long":106.86807400000001,"station_id":"JNG","i_lat":-6.215091,"line":0,"distance":1236},{"is_transit":false,"station_id":"MTR","station_name":"Matraman","i_long":106.858896,"transit":false,"distance":1377,"line":1,"i_lat":-6.212485,"time":2},{"transit":true,"time":2,"distance":1275,"is_transit":true,"line":0,"i_long":106.84912,"i_lat":-6.209883,"station_id":"MRI","station_name":"Manggarai"},{"is_transit":false,"i_long":106.840169,"station_name":"Cikini","transit":false,"line":0,"distance":1590,"time":4,"station_id":"CKI","i_lat":-6.198556}],[{"station_name":"Rawa Buntu","station_id":"RU","transit":false,"i_long":106.675475,"i_lat":-6.314823,"line":6,"time":0,"distance":0,"is_transit":false},{"station_id":"SDM","line":6,"transit":false,"distance":4566,"i_lat":-6.296963,"is_transit":false,"i_long":106.712277,"station_name":"Sudimara","time":6},{"station_id":"JMU","line":6,"station_name":"Jurangmangu","transit":false,"is_transit":false,"i_lat":-6.288927,"time":4,"i_long":106.728916,"distance":1994},{"i_lat":-6.276362,"is_transit":false,"station_name":"Pondokranji","distance":2179,"station_id":"PDJ","transit":false,"time":3,"i_long":106.74273,"line":6},{"i_long":106.780334,"is_transit":false,"line":6,"time":8,"station_name":"Kebayoran","distance":6218,"station_id":"KBY","transit":false,"i_lat":-6.237242},{"transit":false,"i_long":106.79689,"i_lat":-6.207404,"line":6,"is_transit":false,"station_id":"PLM","station_name":"Palmerah","time":7,"distance":3737},{"station_name":"Tanah Abang","i_long":106.811091,"time":6,"is_transit":true,"transit":true,"station_id":"THB","distance":3191,"i_lat":-6.185545,"line":1},{"is_transit":false,"line":1,"i_long":106.816351,"station_id":"KAT","station_name":"Karet","time":5,"transit":false,"distance":2029,"i_lat":-6.20132},{"transit":false,"i_lat":-6.201433,"distance":471,"station_name":"Sudirman Baru","time":1,"i_long":106.819881,"station_id":"SUDB","is_transit":false,"line":1},{"station_name":"Sudirman","distance":280,"time":1,"i_lat":-6.202263,"i_long":106.822649,"line":1,"is_transit":false,"transit":false,"station_id":"SUD"},{"station_id":"MRI","time":4,"distance":3186,"transit":false,"is_transit":true,"station_name":"Manggarai","i_lat":-6.209883,"i_long":106.84912,"line":0},{"transit":false,"line":1,"time":2,"station_name":"Matraman","i_long":106.858896,"distance":1275,"station_id":"MTR","i_lat":-6.212485,"is_transit":false},{"i_long":106.86807400000001,"i_lat":-6.215091,"line":0,"time":8,"is_transit":true,"distance":1377,"station_id":"JNG","station_name":"Jatinegara","transit":true},{"transit":false,"time":2,"i_long":106.861737,"i_lat":-6.209188,"is_transit":false,"station_name":"Pondok Jati","distance":1236,"station_id":"POK","line":11},{"is_transit":false,"station_id":"KMT","i_lat":-6.193792,"distance":1829,"station_name":"Kramat","transit":false,"line":11,"time":2,"i_long":106.855437},{"transit":false,"station_name":"Gang Sentiong","time":1,"line":11,"is_transit":false,"i_lat":-6.185975,"i_long":106.850107,"distance":973,"station_id":"GST"},{"station_id":"PSE","distance":1567,"transit":false,"i_lat":-6.174784,"time":8,"i_long":106.84368,"is_transit":false,"station_name":"Pasar Senen","line":11},{"i_long":106.839204,"line":11,"station_name":"Kemayoran","distance":1436,"is_transit":false,"station_id":"KMO","transit":false,"time":4,"i_lat":-6.161728},{"is_transit":false,"time":5,"station_name":"Rajawali","transit":false,"distance":1901,"i_lat":-6.14505,"line":11,"station_id":"RJW","i_long":106.836569},{"distance":1444,"line":0,"is_transit":true,"transit":true,"time":3,"station_name":"Kampung Bandan","station_id":"KPB","i_long":106.826365,"i_lat":-6.132549},{"line":0,"distance":1364,"time":3,"i_long":106.812439,"i_lat":-6.137569,"station_name":"Jakarta Kota","is_transit":true,"station_id":"JAKK","transit":true},{"station_id":"JAY","station_name":"Jayakarta","is_transit":false,"time":4,"line":7,"distance":1264,"i_long":106.820901,"transit":false,"i_lat":-6.141205},{"is_transit":false,"distance":1080,"station_name":"Manggabesar","station_id":"MGB","transit":false,"time":2,"i_long":106.82482,"line":2,"i_lat":-6.149769},{"station_name":"Sawah Besar","line":2,"station_id":"SW","distance":906,"is_transit":false,"i_long":106.827103,"transit":false,"i_lat":-6.160725,"time":2},{"transit":false,"time":2,"i_lat":-6.166716,"i_long":106.828284,"station_id":"JUA","station_name":"Juanda","distance":1149,"line":2,"is_transit":false},{"i_lat":-6.186295,"station_name":"Gondangdia","transit":false,"i_long":106.832183,"distance":2015,"is_transit":false,"station_id":"GDD","line":2,"time":4},{"time":3,"station_id":"CKI","is_transit":false,"i_long":106.840169,"station_name":"Cikini","i_lat":-6.198556,"transit":false,"line":0,"distance":1750}]]}