{"data":[[{"station_name":"Rawa Buntu","station_id":"RU","time":0,"distance":0,"i_lat":-6.314823,"is_transit":false,"i_long":106.675475,"line":6,"transit":false},{"i_long":106.712277,"is_transit":false,"transit":false,"station_id":"SDM","station_name":"Sudimara","distance":4566,"i_lat":-6.296963,"time":6,"line":6},{"transit":false,"is_transit":false,"station_id":"JMU","i_lat":-6.288927,"station_name":"Jurangmangu","i_long":106.728916,"distance":1994,"line":6,"time":4},{"is_transit":false,"i_long":106.74273,"line":6,"i_lat":-6.276362,"station_id":"PDJ","transit":false,"station_name":"Pondokranji","distance":2179,"time":3},{"line":6,"time":8,"station_id":"KBY","station_name":"Kebayoran","distance":6218,"i_lat":-6.237242,"transit":false,"i_long":106.780334,"is_transit":false},{"is_transit":false,"i_lat":-6.207404,"transit":false,"line":6,"time":7,"distance":3737,"station_id":"PLM","station_name":"Palmerah","i_long":106.79689},{"transit":true,"i_long":106.811091,"line":1,"time":6,"station_name":"Tanah Abang","is_transit":true,"station_id":"THB","distance":3191,"i_lat":-6.185545},{"station_name":"Karet","transit":false,"distance":2029,"station_id":"KAT","is_transit":false,"i_lat":-6.20132,"i_long":106.816351,"line":1,"time":5},{"station_id":"SUDB","transit":false,"station_name":"Sudirman Baru","time":1,"is_transit":false,"i_long":106.819881,"i_lat":-6.201433,"distance":471,"line":1},{"transit":false,"is_transit":false,"i_lat":-6.202263,"i_long":106.822649,"time":1,"distance":280,"line":1,"station_id":"SUD","station_name":"Sudirman"},{"i_lat":-6.209883,"is_transit":true,"transit":true,"station_id":"MRI","line":2,"time":4,"distance":3186,"i_long":106.84912,"station_name":"Manggarai"},{"i_long":106.840169,"line":2,"station_id":"CKI","station_name":"Cikini","distance":1590,"i_lat":-6.198556,"time":4,"transit":false,"is_transit":false}],[{"line":6,"i_long":106.675475,"transit":false,"station_id":"RU","time":0,"station_name":"Rawa Buntu","i_lat":-6.314823,"is_transit":false,"distance":0},{"transit":false,"is_transit":false,"time":6,"i_long":106.712277,"distance":4566,"station_id":"SDM","i_lat":-6.296963,"line":6,"station_name":"Sudimara"},{"station_id":"JMU","is_transit":false,"time":4,"distance":1994,"i_lat":-6.288927,"transit":false,"line":6,"i_long":106.728916,"station_name":"Jurangmangu"},{"i_lat":-6.276362,"i_long":106.74273,"transit":false,"distance":2179,"time":3,"is_transit":false,"station_id":"PDJ","station_name":"Pondokranji","line":6},{"time":8,"i_long":106.780334,"station_name":"Kebayoran","line":6,"i_lat":-6.237242,"station_id":"KBY","distance":6218,"is_transit":false,"transit":false},{"line":6,"time":7,"station_id":"PLM","i_lat":-6.207404,"i_long":106.79689,"transit":false,"station_name":"Palmerah","is_transit":false,"distance":3737},{"i_lat":-6.185545,"station_id":"THB","is_transit":true,"distance":3191,"station_name":"Tanah Abang","transit":true,"time":6,"i_long":106.811091,"line":1},{"line":1,"transit":false,"is_transit":false,"station_id":"DU","time":8,"distance":3632,"i_lat":-6.155215,"i_long":106.800832,"station_name":"Duri"},{"station_name":"Angke","station_id":"AK","time":4,"distance":1230,"i_long":106.79867,"transit":false,"is_transit":false,"i_lat":-6.144674,"line":1},{"transit":true,"i_lat":-6.132549,"i_long":106.826365,"line":4,"is_transit":true,"station_name":"Kampung Bandan","time":9,"station_id":"KPB","distance":4102},{"station_name":"Jakarta Kota","time":3,"line":2,"distance":1364,"i_lat":-6.137569,"station_id":"JAKK","i_long":106.812439,"transit":true,"is_transit":true},{"line":2,"distance":1264,"i_lat":-6.141205,"transit":false,"station_name":"Jayakarta","is_transit":false,"i_long":106.820901,"time":4,"station_id":"JAY"},{"station_id":"MGB","is_transit":false,"time":2,"i_long":106.82482,"distance":1080,"station_name":"Manggabesar","line":2,"i_lat":-6.149769,"transit":false},{"transit":false,"line":2,"is_transit":false,"station_id":"SW","time":2,"i_long":106.827103,"distance":906,"i_lat":-6.160725,"station_name":"Sawah Besar"},{"line":2,"distance":1149,"station_name":"Juanda","station_id":"JUA","is_transit":false,"i_lat":-6.166716,"transit":false,"time":2,"i_long":106.828284},{"i_lat":-6.186295,"transit":false,"i_long":106.832183,"is_transit":false,"station_id":"GDD","station_name":"Gondangdia","time":4,"distance":2015,"line":2},{"time":3,"line":2,"station_name":"Cikini","transit":false,"i_long":106.840169,"i_lat":-6.198556,"is_transit":false,"distance":1750,"station_id":"CKI"}],[{"transit":false,"distance":0,"time":0,"i_long":106.675475,"i_lat":-6.314823,"station_id":"RU","station_name":"Rawa Buntu","is_transit":false,"line":6},{"station_id":"SDM","is_transit":false,"i_lat":-6.296963,"i_long":106.712277,"line":6,"station_name":"Sudimara","time":6,"distance":4566,"transit":false},{"station_id":"JMU","time":4,"is_transit":false,"station_name":"Jurangmangu","i_lat":-6.288927,"line":6,"i_long":106.728916,"distance":1994,"transit":false},{"is_transit":false,"line":6,"i_lat":-6.276362,"distance":2179,"station_name":"Pondokranji","i_long":106.74273,"transit":false,"time":3,"station_id":"PDJ"},{"line":6,"time":8,"station_name":"Kebayoran","is_transit":false,"i_long":106.780334,"transit":false,"distance":6218,"station_id":"KBY","i_lat":-6.237242},{"station_id":"PLM","station_name":"Palmerah","time":7,"i_lat":-6.207404,"is_transit":false,"transit":false,"line":6,"distance":3737,"i_long":106.79689},{"station_name":"Tanah Abang","i_long":106.811091,"line":1,"transit":true,"time":6,"is_transit":true,"distance":3191,"station_id":"THB","i_lat":-6.185545},{"transit":false,"distance":3632,"station_name":"Duri","is_transit":false,"station_id":"DU","i_lat":-6.155215,"time":8,"line":1,"i_long":106.800832},{"i_lat":-6.144674,"station_name":"Angke","i_long":106.79867,"station_id":"AK","distance":1230,"transit":false,"line":1,"time":4,"is_transit":false},{"line":4,"time":9,"i_long":106.826365,"transit":true,"station_id":"KPB","is_transit":true,"station_name":"Kampung Bandan","distance":4102,"i_lat":-6.132549},{"time":3,"i_long":106.836569,"distance":1444,"station_name":"Rajawali","station_id":"RJW","i_lat":-6.14505,"line":11,"transit":false,"is_transit":false},{"line":11,"transit":false,"distance":1901,"i_long":106.839204,"time":5,"i_lat":-6.161728,"station_name":"Kemayoran","station_id":"KMO","is_transit":false},{"station_id":"PSE","line":11,"i_lat":-6.174784,"transit":false,"time":4,"i_long":106.84368,"is_transit":false,"station_name":"Pasar Senen","distance":1436},{"station_id":"GST","is_transit":false,"time":8,"station_name":"Gang Sentiong","distance":1567,"transit":false,"i_long":106.850107,"line":11,"i_lat":-6.185975},{"distance":973,"station_name":"Kramat","transit":false,"i_lat":-6.193792,"is_transit":false,"i_long":106.855437,"line":11,"station_id":"KMT","time":1},{"transit":false,"distance":1829,"time":2,"i_lat":-6.209188,"i_long":106.861737,"is_transit":false,"line":11,"station_id":"POK","station_name":"Pondok Jati"},{"station_name":"Jatinegara","time":9,"station_id":"JNG","i_lat":-6.215091,"is_transit":true,"i_long":106.86807400000001,"distance":1236,"line":1,"transit":true},{"station_id":"MTR","is_transit":false,"time":2,"i_lat":-6.212485,"i_long":106.858896,"distance":1377,"line":1,"station_name":"Matraman","transit":false},{"is_transit":true,"transit":true,"distance":1275,"i_lat":-6.209883,"i_long":106.84912,"station_id":"MRI","station_name":"Manggarai","line":2,"time":2},{"transit":false,"distance":1590,"is_transit":false,"line":2,"time":4,"station_name":"Cikini","i_long":106.840169,"station_id":"CKI","i_lat":-6.198556}],[{"station_id":"RU","distance":0,"is_transit":false,"station_name":"Rawa Buntu","time":0,"i_long":106.675475,"line":6,"i_lat":-6.314823,"transit":false},{"is_transit":false,"line":6,"station_name":"Sudimara","station_id":"SDM","distance":4566,"i_long":106.712277,"i_lat":-6.296963,"transit":false,"time":6},{"transit":false,"i_long":106.728916,"i_lat":-6.288927,"distance":1994,"station_name":"Jurangmangu","is_transit":false,"time":4,"line":6,"station_id":"JMU"},{"i_lat":-6.276362,"i_long":106.74273,"is_transit":false,"distance":2179,"line":6,"station_id":"PDJ","station_name":"Pondokranji","transit":false,"time":3},{"station_name":"Kebayoran","time":8,"distance":6218,"i_lat":-6.237242,"station_id":"KBY","i_long":106.780334,"is_transit":false,"line":6,"transit":false},{"distance":3737,"station_name":"Palmerah","i_lat":-6.207404,"transit":false,"time":7,"station_id":"PLM","is_transit":false,"line":6,"i_long":106.79689},{"station_name":"Tanah Abang","transit":true,"time":6,"line":1,"i_lat":-6.185545,"i_long":106.811091,"station_id":"THB","is_transit":true,"distance":3191},{"station_name":"Karet","distance":2029,"time":5,"is_transit":false,"i_lat":-6.20132,"i_long":106.816351,"transit":false,"line":1,"station_id":"KAT"},{"time":1,"distance":471,"transit":false,"is_transit":false,"station_name":"Sudirman Baru","line":1,"station_id":"SUDB","i_long":106.819881,"i_lat":-6.201433},{"station_name":"Sudirman","transit":false,"distance":280,"station_id":"SUD","time":1,"is_transit":false,"i_lat":-6.202263,"line":1,"i_long":106.822649},{"station_id":"MRI","transit":false,"i_lat":-6.209883,"time":4,"i_long":106.84912,"is_transit":false,"line":2,"station_name":"Manggarai","distance":3186},{"station_id":"MTR","transit":false,"distance":1275,"is_transit":false,"i_lat":-6.212485,"i_long":106.858896,"line":1,"time":2,"station_name":"Matraman"},{"distance":1377,"is_transit":true,"i_lat":-6.215091,"station_name":"Jatinegara","time":8,"transit":true,"i_long":106.86807400000001,"line":1,"station_id":"JNG"},{"time":2,"i_lat":-6.209188,"transit":false,"i_long":106.861737,"station_id":"POK","distance":1236,"station_name":"Pondok Jati","is_transit":false,"line":11},{"distance":1829,"station_name":"Kramat","station_id":"KMT","is_transit":false,"time":2,"i_lat":-6.193792,"i_long":106.855437,"line":11,"transit":false},{"i_long":106.850107,"station_id":"GST","station_name":"Gang Sentiong","transit":false,"time":1,"i_lat":-6.185975,"is_transit":false,"distance":973,"line":11},{"station_id":"PSE","i_long":106.84368,"distance":1567,"time":8,"station_name":"Pasar Senen","transit":false,"i_lat":-6.174784,"line":11,"is_transit":false},{"station_id":"KMO","is_transit":false,"line":11,"i_lat":-6.161728,"time":4,"distance":1436,"station_name":"Kemayoran","transit":false,"i_long":106.839204},{"station_name":"Rajawali","is_transit":false,"distance":1901,"time":5,"line":11,"i_long":106.836569,"transit":false,"station_id":"RJW","i_lat":-6.14505},{"is_transit":true,"line":4,"i_lat":-6.132549,"transit":true,"time":3,"i_long":106.826365,"distance":1444,"station_id":"KPB","station_name":"Kampung Bandan"},{"is_transit":true,"station_id":"JAKK","i_lat":-6.137569,"time":3,"line":2,"distance":1364,"i_long":106.812439,"transit":true,"station_name":"Jakarta Kota"},{"station_name":"Jayakarta","is_transit":false,"time":4,"station_id":"JAY","distance":1264,"transit":false,"i_long":106.820901,"line":2,"i_lat":-6.141205},{"station_name":"Manggabesar","distance":1080,"time":2,"i_long":106.82482,"line":2,"station_id":"MGB","transit":false,"is_transit":false,"i_lat":-6.149769},{"is_transit":false,"station_id":"SW","station_name":"Sawah Besar","transit":false,"i_lat":-6.160725,"time":2,"distance":906,"i_long":106.827103,"line":2},{"time":2,"i_lat":-6.166716,"line":2,"transit":false,"station_name":"Juanda","distance":1149,"i_long":106.828284,"is_transit":false,"station_id":"JUA"},{"station_id":"GDD","time":4,"line":2,"distance":2015,"is_transit":false,"station_name":"Gondangdia","i_lat":-6.186295,"transit":false,"i_long":106.832183},{"i_lat":-6.198556,"station_name":"Cikini","transit":false,"is_transit":false,"distance":1750,"station_id":"CKI","time":3,"i_long":106.840169,"line":2}]]}