{"data":[[{"station_name":"Rawa Buntu","time":0,"i_lat":-6.314823,"station_id":"RU","is_transit":false,"transit":false,"i_long":106.675475,"distance":0,"line":6},{"transit":false,"time":6,"distance":4566,"station_name":"Sudimara","i_lat":-6.296963,"line":6,"station_id":"SDM","is_transit":false,"i_long":106.712277},{"station_name":"Jurangmangu","i_long":106.728916,"is_transit":false,"transit":false,"distance":1994,"station_id":"JMU","line":6,"i_lat":-6.288927,"time":4},{"station_id":"PDJ","line":6,"station_name":"Pondokranji","transit":false,"time":3,"i_long":106.74273,"is_transit":false,"i_lat":-6.276362,"distance":2179},{"line":6,"station_id":"KBY","is_transit":false,"i_lat":-6.237242,"distance":6218,"station_name":"Kebayoran","i_long":106.780334,"time":8,"transit":false},{"line":6,"time":7,"transit":false,"station_id":"PLM","i_lat":-6.207404,"distance":3737,"station_name":"Palmerah","i_long":106.79689,"is_transit":false},{"station_id":"THB","station_name":"Tanah Abang","transit":true,"is_transit":true,"distance":3191,"time":6,"i_lat":-6.185545,"i_long":106.811091,"line":1},{"i_long":106.816351,"station_id":"KAT","distance":2029,"station_name":"Karet","transit":false,"is_transit":false,"time":5,"i_lat":-6.20132,"line":1},{"transit":false,"station_id":"SUDB","is_transit":false,"time":1,"station_name":"Sudirman Baru","distance":471,"i_lat":-6.201433,"i_long":106.819881,"line":1},{"time":1,"i_long":106.822649,"distance":280,"i_lat":-6.202263,"transit":false,"station_id":"SUD","is_transit":false,"station_name":"Sudirman","line":1},{"time":4,"line":2,"station_name":"Manggarai","distance":3186,"i_lat":-6.209883,"station_id":"MRI","is_transit":true,"transit":true,"i_long":106.84912},{"station_id":"CKI","time":4,"i_lat":-6.198556,"i_long":106.840169,"line":2,"transit":false,"is_transit":false,"station_name":"Cikini","distance":1590}],[{"is_transit":false,"station_id":"RU","distance":0,"time":0,"line":6,"transit":false,"station_name":"Rawa Buntu","i_lat":-6.314823,"i_long":106.675475},{"distance":4566,"i_long":106.712277,"station_id":"SDM","i_lat":-6.296963,"time":6,"line":6,"is_transit":false,"station_name":"Sudimara","transit":false},{"i_long":106.728916,"i_lat":-6.288927,"station_id":"JMU","station_name":"Jurangmangu","distance":1994,"line":6,"time":4,"is_transit":false,"transit":false},{"is_transit":false,"time":3,"transit":false,"i_long":106.74273,"i_lat":-6.276362,"station_name":"Pondokranji","line":6,"distance":2179,"station_id":"PDJ"},{"is_transit":false,"station_id":"KBY","station_name":"Kebayoran","i_long":106.780334,"i_lat":-6.237242,"time":8,"transit":false,"line":6,"distance":6218},{"time":7,"station_id":"PLM","distance":3737,"is_transit":false,"transit":false,"i_long":106.79689,"line":6,"station_name":"Palmerah","i_lat":-6.207404},{"station_id":"THB","i_long":106.811091,"line":1,"distance":3191,"station_name":"Tanah Abang","time":6,"is_transit":true,"transit":true,"i_lat":-6.185545},{"line":1,"i_lat":-6.155215,"distance":3632,"station_name":"Duri","is_transit":false,"transit":false,"time":8,"station_id":"DU","i_long":106.800832},{"i_long":106.79867,"line":1,"is_transit":false,"station_id":"AK","time":4,"distance":1230,"transit":false,"i_lat":-6.144674,"station_name":"Angke"},{"i_long":106.826365,"line":4,"i_lat":-6.132549,"is_transit":true,"station_name":"Kampung Bandan","station_id":"KPB","distance":4102,"time":9,"transit":true},{"transit":true,"time":3,"i_lat":-6.137569,"i_long":106.812439,"station_name":"Jakarta Kota","distance":1364,"line":2,"station_id":"JAKK","is_transit":true},{"station_name":"Jayakarta","time":4,"station_id":"JAY","i_lat":-6.141205,"i_long":106.820901,"line":2,"is_transit":false,"transit":false,"distance":1264},{"distance":1080,"is_transit":false,"i_long":106.82482,"station_id":"MGB","transit":false,"time":2,"line":2,"station_name":"Manggabesar","i_lat":-6.149769},{"i_long":106.827103,"station_id":"SW","is_transit":false,"time":2,"i_lat":-6.160725,"line":2,"transit":false,"station_name":"Sawah Besar","distance":906},{"transit":false,"station_name":"Juanda","i_long":106.828284,"line":2,"time":2,"is_transit":false,"distance":1149,"i_lat":-6.166716,"station_id":"JUA"},{"i_long":106.832183,"time":4,"station_id":"GDD","is_transit":false,"distance":2015,"i_lat":-6.186295,"transit":false,"station_name":"Gondangdia","line":2},{"transit":false,"time":3,"station_id":"CKI","is_transit":false,"line":2,"i_lat":-6.198556,"i_long":106.840169,"station_name":"Cikini","distance":1750}],[{"line":6,"station_name":"Rawa Buntu","station_id":"RU","time":0,"is_transit":false,"transit":false,"distance":0,"i_lat":-6.314823,"i_long":106.675475},{"time":6,"transit":false,"i_long":106.712277,"line":6,"distance":4566,"station_name":"Sudimara","station_id":"SDM","is_transit":false,"i_lat":-6.296963},{"time":4,"station_name":"Jurangmangu","i_lat":-6.288927,"i_long":106.728916,"distance":1994,"is_transit":false,"station_id":"JMU","line":6,"transit":false},{"station_id":"PDJ","i_long":106.74273,"line":6,"station_name":"Pondokranji","transit":false,"time":3,"i_lat":-6.276362,"is_transit":false,"distance":2179},{"station_id":"KBY","i_long":106.780334,"line":6,"transit":false,"station_name":"Kebayoran","distance":6218,"is_transit":false,"time":8,"i_lat":-6.237242},{"time":7,"transit":false,"is_transit":false,"station_name":"Palmerah","i_lat":-6.207404,"line":6,"i_long":106.79689,"station_id":"PLM","distance":3737},{"is_transit":true,"i_lat":-6.185545,"station_id":"THB","transit":true,"distance":3191,"station_name":"Tanah Abang","time":6,"i_long":106.811091,"line":1},{"distance":3632,"i_lat":-6.155215,"station_id":"DU","line":1,"i_long":106.800832,"transit":false,"station_name":"Duri","time":8,"is_transit":false},{"station_name":"Angke","station_id":"AK","is_transit":false,"distance":1230,"time":4,"i_long":106.79867,"transit":false,"i_lat":-6.144674,"line":1},{"transit":true,"distance":4102,"is_transit":true,"i_lat":-6.132549,"line":4,"time":9,"station_id":"KPB","i_long":106.826365,"station_name":"Kampung Bandan"},{"station_id":"RJW","station_name":"Rajawali","distance":1444,"time":3,"line":11,"is_transit":false,"i_lat":-6.14505,"i_long":106.836569,"transit":false},{"transit":false,"time":5,"i_lat":-6.161728,"line":11,"station_name":"Kemayoran","distance":1901,"station_id":"KMO","i_long":106.839204,"is_transit":false},{"line":11,"is_transit":false,"i_long":106.84368,"distance":1436,"i_lat":-6.174784,"station_id":"PSE","transit":false,"time":4,"station_name":"Pasar Senen"},{"i_lat":-6.185975,"time":8,"distance":1567,"is_transit":false,"transit":false,"line":11,"i_long":106.850107,"station_id":"GST","station_name":"Gang Sentiong"},{"station_id":"KMT","station_name":"Kramat","time":1,"i_lat":-6.193792,"line":11,"i_long":106.855437,"distance":973,"transit":false,"is_transit":false},{"station_name":"Pondok Jati","is_transit":false,"time":2,"i_long":106.861737,"line":11,"i_lat":-6.209188,"distance":1829,"transit":false,"station_id":"POK"},{"is_transit":true,"station_name":"Jatinegara","station_id":"JNG","time":9,"distance":1236,"i_lat":-6.215091,"i_long":106.86807400000001,"line":1,"transit":true},{"is_transit":false,"transit":false,"i_lat":-6.212485,"time":2,"i_long":106.858896,"line":1,"station_id":"MTR","distance":1377,"station_name":"Matraman"},{"time":2,"is_transit":true,"station_id":"MRI","i_lat":-6.209883,"i_long":106.84912,"transit":true,"line":2,"station_name":"Manggarai","distance":1275},{"i_long":106.840169,"i_lat":-6.198556,"time":4,"station_id":"CKI","transit":false,"is_transit":false,"distance":1590,"line":2,"station_name":"Cikini"}],[{"transit":false,"is_transit":false,"i_lat":-6.314823,"line":6,"station_id":"RU","distance":0,"time":0,"i_long":106.675475,"station_name":"Rawa Buntu"},{"i_lat":-6.296963,"i_long":106.712277,"line":6,"station_name":"Sudimara","station_id":"SDM","distance":4566,"transit":false,"is_transit":false,"time":6},{"is_transit":false,"i_long":106.728916,"station_name":"Jurangmangu","station_id":"JMU","distance":1994,"time":4,"line":6,"transit":false,"i_lat":-6.288927},{"distance":2179,"is_transit":false,"transit":false,"i_lat":-6.276362,"station_id":"PDJ","i_long":106.74273,"station_name":"Pondokranji","line":6,"time":3},{"is_transit":false,"i_lat":-6.237242,"distance":6218,"station_id":"KBY","transit":false,"station_name":"Kebayoran","time":8,"i_long":106.780334,"line":6},{"station_id":"PLM","station_name":"Palmerah","time":7,"i_long":106.79689,"transit":false,"distance":3737,"line":6,"i_lat":-6.207404,"is_transit":false},{"distance":3191,"i_lat":-6.185545,"station_name":"Tanah Abang","station_id":"THB","transit":true,"line":1,"i_long":106.811091,"time":6,"is_transit":true},{"distance":2029,"station_id":"KAT","transit":false,"is_transit":false,"time":5,"i_lat":-6.20132,"line":1,"station_name":"Karet","i_long":106.816351},{"i_lat":-6.201433,"transit":false,"station_name":"Sudirman Baru","is_transit":false,"time":1,"distance":471,"line":1,"i_long":106.819881,"station_id":"SUDB"},{"is_transit":false,"station_name":"Sudirman","time":1,"i_long":106.822649,"distance":280,"transit":false,"line":1,"i_lat":-6.202263,"station_id":"SUD"},{"distance":3186,"is_transit":false,"station_name":"Manggarai","time":4,"station_id":"MRI","line":2,"i_long":106.84912,"transit":false,"i_lat":-6.209883},{"is_transit":false,"line":1,"i_lat":-6.212485,"distance":1275,"station_id":"MTR","transit":false,"station_name":"Matraman","time":2,"i_long":106.858896},{"station_name":"Jatinegara","transit":true,"line":1,"distance":1377,"station_id":"JNG","i_long":106.86807400000001,"is_transit":true,"i_lat":-6.215091,"time":8},{"is_transit":false,"station_id":"POK","i_lat":-6.209188,"transit":false,"time":2,"distance":1236,"station_name":"Pondok Jati","i_long":106.861737,"line":11},{"time":2,"station_name":"Kramat","transit":false,"i_lat":-6.193792,"i_long":106.855437,"line":11,"distance":1829,"is_transit":false,"station_id":"KMT"},{"is_transit":false,"station_id":"GST","i_long":106.850107,"line":11,"station_name":"Gang Sentiong","i_lat":-6.185975,"distance":973,"transit":false,"time":1},{"transit":false,"is_transit":false,"i_lat":-6.174784,"distance":1567,"time":8,"i_long":106.84368,"station_id":"PSE","station_name":"Pasar Senen","line":11},{"station_id":"KMO","distance":1436,"transit":false,"i_long":106.839204,"is_transit":false,"time":4,"i_lat":-6.161728,"line":11,"station_name":"Kemayoran"},{"i_lat":-6.14505,"is_transit":false,"i_long":106.836569,"line":11,"distance":1901,"transit":false,"time":5,"station_id":"RJW","station_name":"Rajawali"},{"is_transit":true,"i_long":106.826365,"time":3,"transit":true,"station_id":"KPB","i_lat":-6.132549,"line":4,"station_name":"Kampung Bandan","distance":1444},{"station_id":"JAKK","station_name":"Jakarta Kota","transit":true,"is_transit":true,"i_lat":-6.137569,"distance":1364,"line":2,"i_long":106.812439,"time":3},{"i_lat":-6.141205,"station_id":"JAY","time":4,"distance":1264,"is_transit":false,"i_long":106.820901,"transit":false,"station_name":"Jayakarta","line":2},{"distance":1080,"transit":false,"station_id":"MGB","line":2,"is_transit":false,"i_long":106.82482,"i_lat":-6.149769,"station_name":"Manggabesar","time":2},{"is_transit":false,"line":2,"distance":906,"time":2,"station_id":"SW","i_lat":-6.160725,"station_name":"Sawah Besar","transit":false,"i_long":106.827103},{"is_transit":false,"transit":false,"i_long":106.828284,"station_id":"JUA","time":2,"i_lat":-6.166716,"distance":1149,"line":2,"station_name":"Juanda"},{"transit":false,"station_name":"Gondangdia","time":4,"i_long":106.832183,"is_transit":false,"line":2,"station_id":"GDD","distance":2015,"i_lat":-6.186295},{"i_lat":-6.198556,"distance":1750,"i_long":106.840169,"station_id":"CKI","line":2,"is_transit":false,"transit":false,"station_name":"Cikini","time":3}]]}