{"data":[[{"distance":0,"line":6,"is_transit":false,"station_name":"Rawa Buntu","i_lat":-6.314823,"i_long":106.675475,"transit":false,"time":0,"station_id":"RU"},{"station_name":"Serpong","line":6,"i_lat":-6.319871,"is_transit":false,"transit":false,"i_long":106.66566,"time":4,"station_id":"SRP","distance":2413},{"transit":false,"station_id":"CSK","i_long":106.640411,"i_lat":-6.32484,"time":4,"distance":1784,"station_name":"Cisauk","line":3,"is_transit":false},{"i_long":106.617853,"line":3,"is_transit":false,"station_name":"Cicayur","i_lat":-6.329547,"time":4,"distance":2519,"transit":false,"station_id":"CC"},{"station_name":"Parung Panjang","i_lat":-6.3441410000000005,"transit":false,"distance":5968,"i_long":106.568863,"time":8,"is_transit":false,"line":6,"station_id":"PRP"},{"line":3,"time":9,"i_long":106.508482,"distance":7025,"i_lat":-6.354349,"is_transit":false,"transit":false,"station_id":"CJT","station_name":"Cilejit"},{"i_long":106.491338,"station_name":"Daru","station_id":"DAR","line":0,"transit":false,"i_lat":-6.338021,"time":6,"is_transit":false,"distance":2675}]]}