{"data":[[{"distance":0,"station_id":"RU","i_lat":-6.314823,"is_transit":false,"line":6,"time":0,"i_long":106.675475,"station_name":"Rawa Buntu","transit":false},{"distance":4566,"transit":false,"station_name":"Sudimara","line":6,"is_transit":false,"station_id":"SDM","i_long":106.712277,"i_lat":-6.296963,"time":6},{"time":4,"transit":false,"station_id":"JMU","distance":1994,"line":6,"i_lat":-6.288927,"is_transit":false,"station_name":"Jurangmangu","i_long":106.728916},{"i_lat":-6.276362,"time":3,"is_transit":false,"station_name":"Pondokranji","distance":2179,"line":6,"station_id":"PDJ","i_long":106.74273,"transit":false},{"station_id":"KBY","transit":false,"station_name":"Kebayoran","line":6,"i_long":106.780334,"i_lat":-6.237242,"is_transit":false,"distance":6218,"time":8},{"time":7,"distance":3737,"is_transit":false,"i_lat":-6.207404,"i_long":106.79689,"line":6,"station_id":"PLM","transit":false,"station_name":"Palmerah"},{"transit":true,"distance":3191,"i_lat":-6.185545,"i_long":106.811091,"station_id":"THB","time":6,"station_name":"Tanah Abang","line":1,"is_transit":true},{"is_transit":false,"time":5,"distance":2029,"i_lat":-6.20132,"station_id":"KAT","transit":false,"station_name":"Karet","i_long":106.816351,"line":1},{"is_transit":false,"i_long":106.819881,"transit":false,"line":1,"station_name":"Sudirman Baru","station_id":"SUDB","i_lat":-6.201433,"distance":471,"time":1},{"i_long":106.822649,"i_lat":-6.202263,"line":1,"time":1,"station_id":"SUD","is_transit":false,"transit":false,"distance":280,"station_name":"Sudirman"},{"i_long":106.84912,"i_lat":-6.209883,"line":2,"transit":true,"is_transit":true,"distance":3186,"station_id":"MRI","time":4,"station_name":"Manggarai"},{"i_long":106.857948,"distance":2610,"transit":false,"station_name":"Tebet","time":4,"station_id":"TEB","i_lat":-6.226659,"is_transit":false,"line":2},{"is_transit":false,"line":2,"i_lat":-6.242512,"transit":false,"time":2,"station_name":"Cawang","distance":1230,"i_long":106.856607,"station_id":"CW"},{"is_transit":false,"i_long":106.85449,"station_id":"DRN","time":3,"transit":false,"distance":1546,"i_lat":-6.255332,"line":2,"station_name":"Duren Kalibata"},{"i_long":106.851577,"time":2,"station_id":"PSMB","transit":false,"i_lat":-6.263214,"is_transit":false,"station_name":"Pasar Minggu Baru","line":2,"distance":824},{"distance":2380,"i_lat":-6.2842400000000005,"station_id":"PSM","transit":false,"i_long":106.843999,"time":2,"line":2,"station_name":"Pasar Minggu","is_transit":false},{"line":2,"is_transit":false,"i_lat":-6.3080680000000005,"distance":2820,"time":4,"station_name":"Tanjung Barat","i_long":106.838896,"station_id":"TNT","transit":false},{"line":2,"station_name":"Lenteng Agung","time":3,"station_id":"LNA","is_transit":false,"i_long":106.832616,"distance":2671,"transit":false,"i_lat":-6.330363},{"transit":false,"station_name":"Univ. Pancasila","i_lat":-6.339291,"station_id":"UP","time":2,"i_long":106.834175,"distance":1029,"line":2,"is_transit":false},{"is_transit":false,"time":3,"transit":false,"i_lat":-6.360749,"line":2,"distance":2264,"station_name":"Univ. Indonesia","i_long":106.831474,"station_id":"UI"},{"line":2,"station_id":"POC","is_transit":false,"time":2,"i_long":106.831114,"transit":false,"i_lat":-6.369073,"station_name":"Pondok Cina","distance":1109},{"distance":2727,"transit":false,"i_long":106.819451,"station_id":"DPB","i_lat":-6.391065,"station_name":"Depokbaru","time":4,"line":2,"is_transit":false}],[{"line":6,"station_name":"Rawa Buntu","transit":false,"time":0,"distance":0,"i_lat":-6.314823,"station_id":"RU","i_long":106.675475,"is_transit":false},{"line":6,"station_name":"Sudimara","station_id":"SDM","is_transit":false,"time":6,"distance":4566,"i_lat":-6.296963,"transit":false,"i_long":106.712277},{"time":4,"is_transit":false,"station_id":"JMU","i_long":106.728916,"i_lat":-6.288927,"transit":false,"line":6,"station_name":"Jurangmangu","distance":1994},{"station_name":"Pondokranji","i_long":106.74273,"is_transit":false,"i_lat":-6.276362,"station_id":"PDJ","time":3,"distance":2179,"transit":false,"line":6},{"station_name":"Kebayoran","time":8,"line":6,"station_id":"KBY","i_lat":-6.237242,"transit":false,"i_long":106.780334,"is_transit":false,"distance":6218},{"i_long":106.79689,"station_id":"PLM","line":6,"is_transit":false,"transit":false,"i_lat":-6.207404,"station_name":"Palmerah","time":7,"distance":3737},{"i_long":106.811091,"line":1,"is_transit":true,"time":6,"station_id":"THB","distance":3191,"station_name":"Tanah Abang","transit":true,"i_lat":-6.185545},{"time":8,"distance":3632,"station_id":"DU","is_transit":false,"i_lat":-6.155215,"transit":false,"line":1,"i_long":106.800832,"station_name":"Duri"},{"time":4,"line":1,"transit":false,"station_id":"AK","distance":1230,"is_transit":false,"i_lat":-6.144674,"i_long":106.79867,"station_name":"Angke"},{"i_long":106.826365,"station_id":"KPB","time":9,"station_name":"Kampung Bandan","is_transit":true,"transit":true,"distance":4102,"line":4,"i_lat":-6.132549},{"transit":true,"i_long":106.812439,"is_transit":true,"line":2,"time":3,"distance":1364,"i_lat":-6.137569,"station_name":"Jakarta Kota","station_id":"JAKK"},{"time":4,"station_name":"Jayakarta","distance":1264,"is_transit":false,"transit":false,"i_lat":-6.141205,"i_long":106.820901,"station_id":"JAY","line":2},{"is_transit":false,"distance":1080,"station_name":"Manggabesar","station_id":"MGB","transit":false,"i_long":106.82482,"time":2,"i_lat":-6.149769,"line":2},{"transit":false,"station_name":"Sawah Besar","time":2,"distance":906,"i_long":106.827103,"station_id":"SW","i_lat":-6.160725,"is_transit":false,"line":2},{"i_long":106.828284,"is_transit":false,"time":2,"distance":1149,"station_id":"JUA","station_name":"Juanda","transit":false,"i_lat":-6.166716,"line":2},{"is_transit":false,"i_long":106.832183,"line":2,"i_lat":-6.186295,"station_id":"GDD","station_name":"Gondangdia","distance":2015,"transit":false,"time":4},{"station_name":"Cikini","line":2,"is_transit":false,"distance":1750,"station_id":"CKI","i_lat":-6.198556,"i_long":106.840169,"time":3,"transit":false},{"station_name":"Manggarai","station_id":"MRI","transit":false,"i_long":106.84912,"i_lat":-6.209883,"distance":1590,"is_transit":false,"time":4,"line":2},{"line":2,"station_id":"TEB","transit":false,"i_lat":-6.226659,"is_transit":false,"time":4,"station_name":"Tebet","distance":2610,"i_long":106.857948},{"line":2,"transit":false,"station_id":"CW","time":2,"distance":1230,"station_name":"Cawang","is_transit":false,"i_long":106.856607,"i_lat":-6.242512},{"station_name":"Duren Kalibata","i_lat":-6.255332,"i_long":106.85449,"line":2,"is_transit":false,"time":3,"transit":false,"distance":1546,"station_id":"DRN"},{"station_id":"PSMB","time":2,"i_long":106.851577,"station_name":"Pasar Minggu Baru","line":2,"i_lat":-6.263214,"is_transit":false,"distance":824,"transit":false},{"transit":false,"station_name":"Pasar Minggu","is_transit":false,"time":2,"i_long":106.843999,"line":2,"i_lat":-6.2842400000000005,"distance":2380,"station_id":"PSM"},{"i_lat":-6.3080680000000005,"distance":2820,"time":4,"station_id":"TNT","is_transit":false,"station_name":"Tanjung Barat","transit":false,"line":2,"i_long":106.838896},{"transit":false,"i_long":106.832616,"distance":2671,"station_name":"Lenteng Agung","time":3,"i_lat":-6.330363,"station_id":"LNA","is_transit":false,"line":2},{"station_id":"UP","transit":false,"is_transit":false,"i_lat":-6.339291,"line":2,"time":2,"distance":1029,"station_name":"Univ. Pancasila","i_long":106.834175},{"i_long":106.831474,"line":2,"is_transit":false,"station_id":"UI","distance":2264,"i_lat":-6.360749,"time":3,"transit":false,"station_name":"Univ. Indonesia"},{"transit":false,"distance":1109,"station_name":"Pondok Cina","station_id":"POC","time":2,"i_long":106.831114,"is_transit":false,"i_lat":-6.369073,"line":2},{"transit":false,"i_lat":-6.391065,"line":2,"i_long":106.819451,"is_transit":false,"station_name":"Depokbaru","station_id":"DPB","time":4,"distance":2727}],[{"is_transit":false,"station_id":"RU","transit":false,"station_name":"Rawa Buntu","distance":0,"i_lat":-6.314823,"line":6,"i_long":106.675475,"time":0},{"distance":4566,"line":6,"i_lat":-6.296963,"station_id":"SDM","station_name":"Sudimara","transit":false,"is_transit":false,"time":6,"i_long":106.712277},{"i_lat":-6.288927,"i_long":106.728916,"line":6,"is_transit":false,"station_name":"Jurangmangu","time":4,"distance":1994,"station_id":"JMU","transit":false},{"station_id":"PDJ","time":3,"station_name":"Pondokranji","line":6,"distance":2179,"transit":false,"i_lat":-6.276362,"i_long":106.74273,"is_transit":false},{"distance":6218,"i_lat":-6.237242,"is_transit":false,"time":8,"transit":false,"station_name":"Kebayoran","i_long":106.780334,"line":6,"station_id":"KBY"},{"distance":3737,"is_transit":false,"transit":false,"i_long":106.79689,"station_id":"PLM","line":6,"i_lat":-6.207404,"station_name":"Palmerah","time":7},{"is_transit":true,"time":6,"station_name":"Tanah Abang","station_id":"THB","distance":3191,"transit":true,"i_lat":-6.185545,"i_long":106.811091,"line":1},{"distance":3632,"line":1,"i_lat":-6.155215,"i_long":106.800832,"is_transit":false,"time":8,"station_name":"Duri","transit":false,"station_id":"DU"},{"i_lat":-6.144674,"is_transit":false,"station_id":"AK","transit":false,"station_name":"Angke","distance":1230,"i_long":106.79867,"time":4,"line":1},{"station_id":"KPB","line":4,"i_lat":-6.132549,"station_name":"Kampung Bandan","is_transit":true,"distance":4102,"time":9,"transit":true,"i_long":106.826365},{"is_transit":false,"transit":false,"time":3,"i_lat":-6.14505,"station_name":"Rajawali","i_long":106.836569,"line":11,"station_id":"RJW","distance":1444},{"is_transit":false,"i_long":106.839204,"line":11,"transit":false,"time":5,"i_lat":-6.161728,"distance":1901,"station_id":"KMO","station_name":"Kemayoran"},{"distance":1436,"line":11,"time":4,"is_transit":false,"station_id":"PSE","transit":false,"i_long":106.84368,"station_name":"Pasar Senen","i_lat":-6.174784},{"station_id":"GST","i_lat":-6.185975,"transit":false,"distance":1567,"i_long":106.850107,"station_name":"Gang Sentiong","line":11,"is_transit":false,"time":8},{"station_name":"Kramat","time":1,"transit":false,"i_lat":-6.193792,"i_long":106.855437,"line":11,"distance":973,"station_id":"KMT","is_transit":false},{"line":11,"distance":1829,"transit":false,"i_lat":-6.209188,"is_transit":false,"i_long":106.861737,"station_id":"POK","time":2,"station_name":"Pondok Jati"},{"i_long":106.86807400000001,"transit":true,"distance":1236,"i_lat":-6.215091,"is_transit":true,"line":1,"station_name":"Jatinegara","time":9,"station_id":"JNG"},{"time":2,"distance":1377,"transit":false,"line":1,"is_transit":false,"station_id":"MTR","i_long":106.858896,"station_name":"Matraman","i_lat":-6.212485},{"station_id":"MRI","is_transit":true,"transit":true,"station_name":"Manggarai","time":2,"distance":1275,"i_lat":-6.209883,"i_long":106.84912,"line":2},{"transit":false,"line":2,"time":4,"i_long":106.857948,"is_transit":false,"i_lat":-6.226659,"distance":2610,"station_name":"Tebet","station_id":"TEB"},{"station_name":"Cawang","station_id":"CW","is_transit":false,"i_long":106.856607,"i_lat":-6.242512,"time":2,"distance":1230,"transit":false,"line":2},{"i_long":106.85449,"is_transit":false,"time":3,"transit":false,"line":2,"distance":1546,"station_id":"DRN","station_name":"Duren Kalibata","i_lat":-6.255332},{"station_name":"Pasar Minggu Baru","distance":824,"line":2,"i_long":106.851577,"is_transit":false,"transit":false,"time":2,"station_id":"PSMB","i_lat":-6.263214},{"station_name":"Pasar Minggu","i_long":106.843999,"is_transit":false,"distance":2380,"i_lat":-6.2842400000000005,"station_id":"PSM","line":2,"time":2,"transit":false},{"i_long":106.838896,"time":4,"transit":false,"i_lat":-6.3080680000000005,"station_name":"Tanjung Barat","station_id":"TNT","is_transit":false,"distance":2820,"line":2},{"distance":2671,"station_id":"LNA","i_long":106.832616,"i_lat":-6.330363,"time":3,"transit":false,"line":2,"station_name":"Lenteng Agung","is_transit":false},{"station_name":"Univ. Pancasila","station_id":"UP","distance":1029,"is_transit":false,"line":2,"time":2,"i_lat":-6.339291,"i_long":106.834175,"transit":false},{"station_id":"UI","i_long":106.831474,"distance":2264,"is_transit":false,"i_lat":-6.360749,"line":2,"transit":false,"time":3,"station_name":"Univ. Indonesia"},{"transit":false,"i_lat":-6.369073,"distance":1109,"line":2,"station_id":"POC","station_name":"Pondok Cina","is_transit":false,"time":2,"i_long":106.831114},{"i_long":106.819451,"distance":2727,"line":2,"transit":false,"station_name":"Depokbaru","time":4,"i_lat":-6.391065,"is_transit":false,"station_id":"DPB"}]]}