{"data":[[{"station_id":"RU","station_name":"Rawa Buntu","line":6,"i_lat":-6.314823,"distance":0,"is_transit":false,"time":0,"i_long":106.675475,"transit":false},{"time":4,"distance":2413,"station_id":"SRP","transit":false,"is_transit":false,"i_lat":-6.319871,"i_long":106.66566,"line":6,"station_name":"Serpong"},{"line":3,"is_transit":false,"station_id":"CSK","time":4,"station_name":"Cisauk","distance":1784,"i_lat":-6.32484,"transit":false,"i_long":106.640411},{"is_transit":false,"time":4,"i_long":106.617853,"distance":2519,"station_id":"CC","i_lat":-6.329547,"transit":false,"station_name":"Cicayur","line":3},{"i_long":106.568863,"line":6,"i_lat":-6.3441410000000005,"transit":false,"station_name":"Parung Panjang","is_transit":false,"distance":5968,"time":8,"station_id":"PRP"},{"station_name":"Cilejit","i_long":106.508482,"station_id":"CJT","i_lat":-6.354349,"transit":false,"line":3,"is_transit":false,"time":9,"distance":7025},{"i_long":106.491338,"line":0,"transit":false,"i_lat":-6.338021,"station_id":"DAR","time":6,"station_name":"Daru","distance":2675,"is_transit":false}]]}