{"data":[[{"time":0,"distance":0,"i_long":106.675475,"line":6,"transit":false,"station_name":"Rawa Buntu","station_id":"RU","is_transit":false,"i_lat":-6.314823},{"line":6,"time":6,"i_lat":-6.296963,"distance":4566,"station_name":"Sudimara","station_id":"SDM","is_transit":false,"transit":false,"i_long":106.712277},{"i_lat":-6.288927,"line":6,"time":4,"distance":1994,"i_long":106.728916,"transit":false,"station_id":"JMU","is_transit":false,"station_name":"Jurangmangu"},{"i_lat":-6.276362,"station_id":"PDJ","distance":2179,"line":6,"time":3,"transit":false,"is_transit":false,"i_long":106.74273,"station_name":"Pondokranji"},{"is_transit":false,"transit":false,"i_long":106.780334,"line":6,"station_name":"Kebayoran","station_id":"KBY","time":8,"i_lat":-6.237242,"distance":6218},{"station_name":"Palmerah","is_transit":false,"i_long":106.79689,"distance":3737,"line":6,"transit":false,"station_id":"PLM","time":7,"i_lat":-6.207404},{"is_transit":true,"time":6,"i_lat":-6.185545,"transit":true,"i_long":106.811091,"line":1,"distance":3191,"station_id":"THB","station_name":"Tanah Abang"},{"station_name":"Karet","transit":false,"i_lat":-6.20132,"time":5,"station_id":"KAT","is_transit":false,"i_long":106.816351,"line":1,"distance":2029},{"distance":471,"station_id":"SUDB","transit":false,"is_transit":false,"line":1,"time":1,"i_lat":-6.201433,"i_long":106.819881,"station_name":"Sudirman Baru"},{"i_lat":-6.202263,"i_long":106.822649,"station_id":"SUD","time":1,"line":1,"transit":false,"station_name":"Sudirman","distance":280,"is_transit":false},{"station_name":"Manggarai","time":4,"is_transit":true,"transit":true,"i_long":106.84912,"distance":3186,"line":2,"i_lat":-6.209883,"station_id":"MRI"},{"line":2,"station_name":"Tebet","i_lat":-6.226659,"is_transit":false,"i_long":106.857948,"station_id":"TEB","time":4,"transit":false,"distance":2610},{"transit":false,"is_transit":false,"distance":1230,"i_long":106.856607,"station_id":"CW","station_name":"Cawang","line":2,"time":2,"i_lat":-6.242512},{"line":2,"is_transit":false,"distance":1546,"station_id":"DRN","time":3,"i_long":106.85449,"station_name":"Duren Kalibata","i_lat":-6.255332,"transit":false},{"time":2,"i_long":106.851577,"i_lat":-6.263214,"transit":false,"line":2,"is_transit":false,"distance":824,"station_id":"PSMB","station_name":"Pasar Minggu Baru"},{"line":2,"i_lat":-6.2842400000000005,"i_long":106.843999,"is_transit":false,"station_name":"Pasar Minggu","time":2,"station_id":"PSM","distance":2380,"transit":false},{"time":4,"is_transit":false,"distance":2820,"i_long":106.838896,"line":2,"station_id":"TNT","i_lat":-6.3080680000000005,"station_name":"Tanjung Barat","transit":false},{"transit":false,"line":2,"station_name":"Lenteng Agung","time":3,"distance":2671,"station_id":"LNA","is_transit":false,"i_lat":-6.330363,"i_long":106.832616},{"time":2,"i_long":106.834175,"transit":false,"station_name":"Univ. Pancasila","station_id":"UP","i_lat":-6.339291,"line":2,"is_transit":false,"distance":1029},{"station_name":"Univ. Indonesia","is_transit":false,"i_long":106.831474,"time":3,"distance":2264,"i_lat":-6.360749,"line":2,"station_id":"UI","transit":false},{"i_lat":-6.369073,"is_transit":false,"line":2,"transit":false,"i_long":106.831114,"station_name":"Pondok Cina","time":2,"distance":1109,"station_id":"POC"},{"time":4,"i_lat":-6.391065,"i_long":106.819451,"station_id":"DPB","transit":false,"line":2,"station_name":"Depokbaru","is_transit":false,"distance":2727}],[{"transit":false,"line":6,"time":0,"i_lat":-6.314823,"i_long":106.675475,"station_name":"Rawa Buntu","distance":0,"is_transit":false,"station_id":"RU"},{"station_name":"Sudimara","transit":false,"is_transit":false,"time":6,"line":6,"i_lat":-6.296963,"distance":4566,"station_id":"SDM","i_long":106.712277},{"station_id":"JMU","transit":false,"station_name":"Jurangmangu","line":6,"i_lat":-6.288927,"is_transit":false,"i_long":106.728916,"time":4,"distance":1994},{"station_name":"Pondokranji","i_lat":-6.276362,"is_transit":false,"transit":false,"i_long":106.74273,"time":3,"distance":2179,"station_id":"PDJ","line":6},{"i_lat":-6.237242,"is_transit":false,"distance":6218,"time":8,"line":6,"station_name":"Kebayoran","station_id":"KBY","transit":false,"i_long":106.780334},{"time":7,"station_id":"PLM","station_name":"Palmerah","is_transit":false,"transit":false,"i_lat":-6.207404,"i_long":106.79689,"distance":3737,"line":6},{"i_lat":-6.185545,"time":6,"transit":true,"distance":3191,"is_transit":true,"i_long":106.811091,"station_id":"THB","station_name":"Tanah Abang","line":1},{"distance":3632,"transit":false,"time":8,"is_transit":false,"i_lat":-6.155215,"i_long":106.800832,"line":1,"station_id":"DU","station_name":"Duri"},{"transit":false,"i_lat":-6.144674,"i_long":106.79867,"station_name":"Angke","distance":1230,"station_id":"AK","line":1,"time":4,"is_transit":false},{"is_transit":true,"transit":true,"i_lat":-6.132549,"time":9,"station_name":"Kampung Bandan","distance":4102,"station_id":"KPB","i_long":106.826365,"line":4},{"station_name":"Jakarta Kota","time":3,"distance":1364,"i_long":106.812439,"transit":true,"station_id":"JAKK","i_lat":-6.137569,"is_transit":true,"line":2},{"station_id":"JAY","transit":false,"i_long":106.820901,"station_name":"Jayakarta","is_transit":false,"distance":1264,"i_lat":-6.141205,"time":4,"line":2},{"is_transit":false,"i_long":106.82482,"time":2,"station_name":"Manggabesar","transit":false,"i_lat":-6.149769,"distance":1080,"station_id":"MGB","line":2},{"i_lat":-6.160725,"is_transit":false,"distance":906,"station_name":"Sawah Besar","i_long":106.827103,"line":2,"station_id":"SW","time":2,"transit":false},{"station_id":"JUA","is_transit":false,"transit":false,"distance":1149,"line":2,"station_name":"Juanda","time":2,"i_lat":-6.166716,"i_long":106.828284},{"i_lat":-6.186295,"i_long":106.832183,"distance":2015,"is_transit":false,"time":4,"station_name":"Gondangdia","line":2,"transit":false,"station_id":"GDD"},{"station_name":"Cikini","distance":1750,"i_long":106.840169,"station_id":"CKI","is_transit":false,"i_lat":-6.198556,"transit":false,"time":3,"line":2},{"i_long":106.84912,"station_id":"MRI","is_transit":false,"i_lat":-6.209883,"transit":false,"time":4,"distance":1590,"line":2,"station_name":"Manggarai"},{"station_name":"Tebet","distance":2610,"station_id":"TEB","transit":false,"time":4,"is_transit":false,"i_lat":-6.226659,"line":2,"i_long":106.857948},{"station_id":"CW","time":2,"distance":1230,"i_long":106.856607,"station_name":"Cawang","line":2,"i_lat":-6.242512,"is_transit":false,"transit":false},{"i_long":106.85449,"is_transit":false,"line":2,"time":3,"station_id":"DRN","station_name":"Duren Kalibata","transit":false,"i_lat":-6.255332,"distance":1546},{"station_id":"PSMB","transit":false,"i_lat":-6.263214,"time":2,"i_long":106.851577,"line":2,"distance":824,"station_name":"Pasar Minggu Baru","is_transit":false},{"transit":false,"line":2,"station_name":"Pasar Minggu","time":2,"i_lat":-6.2842400000000005,"is_transit":false,"distance":2380,"station_id":"PSM","i_long":106.843999},{"transit":false,"distance":2820,"i_long":106.838896,"station_id":"TNT","line":2,"time":4,"station_name":"Tanjung Barat","is_transit":false,"i_lat":-6.3080680000000005},{"distance":2671,"station_id":"LNA","is_transit":false,"i_lat":-6.330363,"i_long":106.832616,"line":2,"time":3,"station_name":"Lenteng Agung","transit":false},{"station_id":"UP","transit":false,"line":2,"time":2,"i_lat":-6.339291,"station_name":"Univ. Pancasila","is_transit":false,"distance":1029,"i_long":106.834175},{"time":3,"distance":2264,"station_id":"UI","transit":false,"i_lat":-6.360749,"i_long":106.831474,"is_transit":false,"line":2,"station_name":"Univ. Indonesia"},{"distance":1109,"station_id":"POC","station_name":"Pondok Cina","line":2,"transit":false,"time":2,"i_lat":-6.369073,"is_transit":false,"i_long":106.831114},{"transit":false,"distance":2727,"is_transit":false,"time":4,"i_lat":-6.391065,"i_long":106.819451,"line":2,"station_name":"Depokbaru","station_id":"DPB"}],[{"station_id":"RU","station_name":"Rawa Buntu","time":0,"is_transit":false,"i_lat":-6.314823,"i_long":106.675475,"transit":false,"line":6,"distance":0},{"time":6,"i_long":106.712277,"station_name":"Sudimara","station_id":"SDM","i_lat":-6.296963,"line":6,"transit":false,"is_transit":false,"distance":4566},{"i_lat":-6.288927,"distance":1994,"station_id":"JMU","is_transit":false,"station_name":"Jurangmangu","transit":false,"time":4,"i_long":106.728916,"line":6},{"transit":false,"time":3,"i_long":106.74273,"station_id":"PDJ","i_lat":-6.276362,"distance":2179,"station_name":"Pondokranji","line":6,"is_transit":false},{"distance":6218,"station_id":"KBY","transit":false,"i_lat":-6.237242,"is_transit":false,"station_name":"Kebayoran","i_long":106.780334,"time":8,"line":6},{"distance":3737,"i_long":106.79689,"transit":false,"line":6,"station_id":"PLM","is_transit":false,"station_name":"Palmerah","i_lat":-6.207404,"time":7},{"station_id":"THB","station_name":"Tanah Abang","transit":true,"time":6,"i_long":106.811091,"i_lat":-6.185545,"is_transit":true,"line":1,"distance":3191},{"time":8,"line":1,"transit":false,"i_lat":-6.155215,"i_long":106.800832,"is_transit":false,"distance":3632,"station_name":"Duri","station_id":"DU"},{"i_long":106.79867,"transit":false,"station_id":"AK","station_name":"Angke","i_lat":-6.144674,"is_transit":false,"line":1,"time":4,"distance":1230},{"i_lat":-6.132549,"is_transit":true,"i_long":106.826365,"station_name":"Kampung Bandan","time":9,"station_id":"KPB","line":4,"transit":true,"distance":4102},{"station_id":"RJW","line":11,"distance":1444,"time":3,"is_transit":false,"i_long":106.836569,"i_lat":-6.14505,"transit":false,"station_name":"Rajawali"},{"transit":false,"station_name":"Kemayoran","is_transit":false,"station_id":"KMO","time":5,"distance":1901,"i_lat":-6.161728,"line":11,"i_long":106.839204},{"is_transit":false,"distance":1436,"station_id":"PSE","i_lat":-6.174784,"transit":false,"i_long":106.84368,"line":11,"time":4,"station_name":"Pasar Senen"},{"i_long":106.850107,"i_lat":-6.185975,"station_name":"Gang Sentiong","transit":false,"is_transit":false,"time":8,"distance":1567,"station_id":"GST","line":11},{"station_id":"KMT","i_long":106.855437,"station_name":"Kramat","is_transit":false,"i_lat":-6.193792,"time":1,"distance":973,"line":11,"transit":false},{"i_long":106.861737,"station_id":"POK","station_name":"Pondok Jati","transit":false,"distance":1829,"is_transit":false,"i_lat":-6.209188,"line":11,"time":2},{"station_name":"Jatinegara","station_id":"JNG","is_transit":true,"i_lat":-6.215091,"time":9,"distance":1236,"line":1,"i_long":106.86807400000001,"transit":true},{"time":2,"station_id":"MTR","distance":1377,"is_transit":false,"transit":false,"i_lat":-6.212485,"i_long":106.858896,"station_name":"Matraman","line":1},{"i_lat":-6.209883,"distance":1275,"station_name":"Manggarai","is_transit":true,"time":2,"i_long":106.84912,"transit":true,"line":2,"station_id":"MRI"},{"station_name":"Tebet","distance":2610,"is_transit":false,"i_lat":-6.226659,"i_long":106.857948,"line":2,"station_id":"TEB","time":4,"transit":false},{"station_name":"Cawang","transit":false,"i_long":106.856607,"is_transit":false,"station_id":"CW","i_lat":-6.242512,"distance":1230,"line":2,"time":2},{"is_transit":false,"i_long":106.85449,"i_lat":-6.255332,"station_id":"DRN","distance":1546,"station_name":"Duren Kalibata","transit":false,"line":2,"time":3},{"station_name":"Pasar Minggu Baru","distance":824,"transit":false,"station_id":"PSMB","i_lat":-6.263214,"i_long":106.851577,"is_transit":false,"time":2,"line":2},{"i_long":106.843999,"station_name":"Pasar Minggu","distance":2380,"transit":false,"is_transit":false,"line":2,"time":2,"station_id":"PSM","i_lat":-6.2842400000000005},{"station_id":"TNT","is_transit":false,"i_lat":-6.3080680000000005,"time":4,"station_name":"Tanjung Barat","distance":2820,"transit":false,"i_long":106.838896,"line":2},{"time":3,"is_transit":false,"i_long":106.832616,"station_id":"LNA","station_name":"Lenteng Agung","transit":false,"line":2,"i_lat":-6.330363,"distance":2671},{"time":2,"i_lat":-6.339291,"station_id":"UP","transit":false,"distance":1029,"i_long":106.834175,"line":2,"is_transit":false,"station_name":"Univ. Pancasila"},{"transit":false,"distance":2264,"station_id":"UI","i_long":106.831474,"i_lat":-6.360749,"line":2,"time":3,"station_name":"Univ. Indonesia","is_transit":false},{"transit":false,"i_long":106.831114,"station_id":"POC","distance":1109,"i_lat":-6.369073,"time":2,"station_name":"Pondok Cina","line":2,"is_transit":false},{"is_transit":false,"station_name":"Depokbaru","line":2,"distance":2727,"i_lat":-6.391065,"i_long":106.819451,"time":4,"station_id":"DPB","transit":false}]]}