{"data":[[{"is_transit":false,"line":6,"transit":false,"distance":0,"i_long":106.675475,"station_name":"Rawa Buntu","i_lat":-6.314823,"time":0,"station_id":"RU"},{"transit":false,"is_transit":false,"i_long":106.66566,"time":4,"station_name":"Serpong","distance":2413,"station_id":"SRP","i_lat":-6.319871,"line":6},{"is_transit":false,"i_long":106.640411,"i_lat":-6.32484,"time":4,"station_id":"CSK","line":3,"transit":false,"station_name":"Cisauk","distance":1784},{"is_transit":false,"i_long":106.617853,"time":4,"i_lat":-6.329547,"transit":false,"line":3,"station_name":"Cicayur","station_id":"CC","distance":2519},{"line":6,"distance":5968,"time":8,"is_transit":false,"station_id":"PRP","i_lat":-6.3441410000000005,"i_long":106.568863,"station_name":"Parung Panjang","transit":false},{"distance":7025,"i_long":106.508482,"line":3,"i_lat":-6.354349,"transit":false,"time":9,"station_name":"Cilejit","station_id":"CJT","is_transit":false},{"station_name":"Daru","i_long":106.491338,"transit":false,"time":6,"is_transit":false,"line":0,"distance":2675,"i_lat":-6.338021,"station_id":"DAR"}]]}