{"data":[[{"line":6,"time":0,"station_id":"RU","i_lat":-6.314823,"is_transit":false,"transit":false,"distance":0,"station_name":"Rawa Buntu","i_long":106.675475},{"time":4,"i_lat":-6.319871,"station_name":"Serpong","transit":false,"line":6,"is_transit":false,"i_long":106.66566,"distance":2413,"station_id":"SRP"},{"station_name":"Cisauk","i_long":106.640411,"time":4,"transit":false,"line":0,"distance":1784,"station_id":"CSK","i_lat":-6.32484,"is_transit":false},{"line":0,"station_id":"CC","time":4,"is_transit":false,"distance":2519,"transit":false,"i_lat":-6.329547,"station_name":"Cicayur","i_long":106.617853},{"transit":false,"station_name":"Parung Panjang","station_id":"PRP","line":6,"time":8,"distance":5968,"i_lat":-6.3441410000000005,"i_long":106.568863,"is_transit":false},{"time":9,"is_transit":false,"distance":7025,"i_lat":-6.354349,"transit":false,"station_id":"CJT","i_long":106.508482,"line":0,"station_name":"Cilejit"},{"station_name":"Daru","i_long":106.491338,"distance":2675,"station_id":"DAR","transit":false,"line":0,"is_transit":false,"time":6,"i_lat":-6.338021}]]}