{"data":[[{"is_transit":false,"line":6,"station_name":"Rawa Buntu","time":0,"i_lat":-6.314823,"transit":false,"i_long":106.675475,"station_id":"RU","distance":0},{"i_long":106.712277,"time":6,"transit":false,"i_lat":-6.296963,"line":6,"is_transit":false,"distance":4566,"station_id":"SDM","station_name":"Sudimara"},{"distance":1994,"i_long":106.728916,"line":6,"station_name":"Jurangmangu","station_id":"JMU","is_transit":false,"time":4,"transit":false,"i_lat":-6.288927},{"distance":2179,"line":6,"time":3,"i_long":106.74273,"station_name":"Pondokranji","is_transit":false,"transit":false,"i_lat":-6.276362,"station_id":"PDJ"},{"i_lat":-6.237242,"line":6,"station_name":"Kebayoran","i_long":106.780334,"time":8,"distance":6218,"station_id":"KBY","is_transit":false,"transit":false},{"distance":3737,"transit":false,"time":7,"i_lat":-6.207404,"i_long":106.79689,"station_id":"PLM","is_transit":false,"line":6,"station_name":"Palmerah"},{"line":1,"distance":3191,"is_transit":true,"time":6,"i_long":106.811091,"station_name":"Tanah Abang","station_id":"THB","transit":true,"i_lat":-6.185545},{"transit":false,"station_name":"Karet","distance":2029,"i_lat":-6.20132,"is_transit":false,"time":5,"i_long":106.816351,"station_id":"KAT","line":1},{"line":1,"transit":false,"station_id":"SUDB","time":1,"distance":471,"i_lat":-6.201433,"is_transit":false,"station_name":"Sudirman Baru","i_long":106.819881},{"i_lat":-6.202263,"is_transit":false,"transit":false,"line":1,"i_long":106.822649,"station_id":"SUD","time":1,"station_name":"Sudirman","distance":280},{"i_long":106.84912,"line":0,"transit":true,"station_id":"MRI","station_name":"Manggarai","is_transit":true,"i_lat":-6.209883,"time":4,"distance":3186},{"time":4,"distance":2610,"is_transit":false,"station_id":"TEB","line":2,"i_lat":-6.226659,"station_name":"Tebet","i_long":106.857948,"transit":false},{"line":0,"station_id":"CW","is_transit":false,"distance":1230,"station_name":"Cawang","i_lat":-6.242512,"transit":false,"i_long":106.856607,"time":2},{"distance":1546,"station_id":"DRN","station_name":"Duren Kalibata","is_transit":false,"transit":false,"i_lat":-6.255332,"i_long":106.85449,"time":3,"line":0},{"transit":false,"i_long":106.851577,"station_name":"Pasar Minggu Baru","is_transit":false,"distance":824,"i_lat":-6.263214,"station_id":"PSMB","time":2,"line":2},{"time":2,"line":2,"distance":2380,"is_transit":false,"station_id":"PSM","station_name":"Pasar Minggu","transit":false,"i_lat":-6.2842400000000005,"i_long":106.843999},{"transit":false,"i_long":106.838896,"line":2,"station_id":"TNT","i_lat":-6.3080680000000005,"time":4,"is_transit":false,"station_name":"Tanjung Barat","distance":2820},{"distance":2671,"line":2,"station_name":"Lenteng Agung","transit":false,"is_transit":false,"time":3,"i_long":106.832616,"i_lat":-6.330363,"station_id":"LNA"},{"distance":1029,"station_id":"UP","station_name":"Univ. Pancasila","is_transit":false,"transit":false,"i_lat":-6.339291,"i_long":106.834175,"line":2,"time":2},{"is_transit":false,"i_lat":-6.360749,"distance":2264,"station_name":"Univ. Indonesia","station_id":"UI","transit":false,"i_long":106.831474,"time":3,"line":2},{"is_transit":false,"i_long":106.831114,"i_lat":-6.369073,"time":2,"distance":1109,"line":2,"transit":false,"station_id":"POC","station_name":"Pondok Cina"},{"is_transit":false,"station_id":"DPB","station_name":"Depokbaru","transit":false,"i_lat":-6.391065,"i_long":106.819451,"distance":2727,"time":4,"line":0}],[{"station_name":"Rawa Buntu","is_transit":false,"transit":false,"line":6,"station_id":"RU","i_lat":-6.314823,"time":0,"distance":0,"i_long":106.675475},{"time":6,"is_transit":false,"i_lat":-6.296963,"line":6,"station_id":"SDM","transit":false,"distance":4566,"station_name":"Sudimara","i_long":106.712277},{"distance":1994,"station_name":"Jurangmangu","i_long":106.728916,"i_lat":-6.288927,"transit":false,"line":6,"is_transit":false,"time":4,"station_id":"JMU"},{"transit":false,"i_long":106.74273,"distance":2179,"station_id":"PDJ","is_transit":false,"i_lat":-6.276362,"line":6,"station_name":"Pondokranji","time":3},{"time":8,"i_lat":-6.237242,"distance":6218,"transit":false,"line":6,"i_long":106.780334,"station_id":"KBY","station_name":"Kebayoran","is_transit":false},{"i_long":106.79689,"time":7,"distance":3737,"line":6,"station_name":"Palmerah","transit":false,"is_transit":false,"i_lat":-6.207404,"station_id":"PLM"},{"time":6,"i_lat":-6.185545,"is_transit":true,"distance":3191,"station_name":"Tanah Abang","transit":true,"line":1,"station_id":"THB","i_long":106.811091},{"line":1,"i_long":106.800832,"time":8,"transit":true,"station_name":"Duri","distance":3632,"is_transit":true,"station_id":"DU","i_lat":-6.155215},{"is_transit":false,"distance":1230,"i_long":106.79867,"station_id":"AK","station_name":"Angke","line":0,"transit":false,"time":4,"i_lat":-6.144674},{"i_long":106.826365,"station_name":"Kampung Bandan","time":9,"station_id":"KPB","distance":4102,"is_transit":true,"transit":false,"i_lat":-6.132549,"line":0},{"time":3,"distance":1364,"line":0,"i_lat":-6.137569,"is_transit":true,"station_name":"Jakarta Kota","i_long":106.812439,"station_id":"JAKK","transit":true},{"is_transit":false,"station_id":"JAY","time":4,"i_lat":-6.141205,"distance":1264,"transit":false,"i_long":106.820901,"station_name":"Jayakarta","line":7},{"station_id":"MGB","i_long":106.82482,"distance":1080,"is_transit":false,"station_name":"Manggabesar","time":2,"i_lat":-6.149769,"line":2,"transit":false},{"station_id":"SW","is_transit":false,"distance":906,"transit":false,"i_lat":-6.160725,"line":2,"station_name":"Sawah Besar","i_long":106.827103,"time":2},{"time":2,"is_transit":false,"station_name":"Juanda","i_lat":-6.166716,"station_id":"JUA","transit":false,"i_long":106.828284,"line":2,"distance":1149},{"distance":2015,"station_name":"Gondangdia","i_lat":-6.186295,"time":4,"transit":false,"line":2,"i_long":106.832183,"station_id":"GDD","is_transit":false},{"i_long":106.840169,"transit":false,"station_name":"Cikini","time":3,"is_transit":false,"distance":1750,"station_id":"CKI","i_lat":-6.198556,"line":0},{"line":0,"distance":1590,"is_transit":true,"time":4,"station_id":"MRI","i_long":106.84912,"station_name":"Manggarai","i_lat":-6.209883,"transit":true},{"i_lat":-6.226659,"i_long":106.857948,"station_id":"TEB","line":2,"is_transit":false,"transit":false,"distance":2610,"station_name":"Tebet","time":4},{"distance":1230,"time":2,"i_long":106.856607,"station_name":"Cawang","line":0,"transit":false,"i_lat":-6.242512,"station_id":"CW","is_transit":false},{"distance":1546,"i_long":106.85449,"i_lat":-6.255332,"line":0,"station_name":"Duren Kalibata","transit":false,"is_transit":false,"station_id":"DRN","time":3},{"station_id":"PSMB","time":2,"transit":false,"distance":824,"i_long":106.851577,"line":2,"station_name":"Pasar Minggu Baru","i_lat":-6.263214,"is_transit":false},{"line":2,"is_transit":false,"station_name":"Pasar Minggu","time":2,"i_long":106.843999,"station_id":"PSM","i_lat":-6.2842400000000005,"distance":2380,"transit":false},{"station_id":"TNT","transit":false,"line":2,"time":4,"station_name":"Tanjung Barat","distance":2820,"i_long":106.838896,"i_lat":-6.3080680000000005,"is_transit":false},{"distance":2671,"is_transit":false,"station_id":"LNA","station_name":"Lenteng Agung","i_long":106.832616,"time":3,"line":2,"transit":false,"i_lat":-6.330363},{"line":2,"station_id":"UP","i_long":106.834175,"transit":false,"is_transit":false,"time":2,"station_name":"Univ. Pancasila","distance":1029,"i_lat":-6.339291},{"station_id":"UI","distance":2264,"transit":false,"time":3,"station_name":"Univ. Indonesia","i_long":106.831474,"line":2,"is_transit":false,"i_lat":-6.360749},{"time":2,"station_id":"POC","transit":false,"is_transit":false,"station_name":"Pondok Cina","distance":1109,"i_lat":-6.369073,"i_long":106.831114,"line":2},{"station_name":"Depokbaru","distance":2727,"is_transit":false,"station_id":"DPB","transit":false,"i_lat":-6.391065,"i_long":106.819451,"line":0,"time":4}],[{"line":6,"distance":0,"station_name":"Rawa Buntu","transit":false,"i_lat":-6.314823,"is_transit":false,"station_id":"RU","i_long":106.675475,"time":0},{"station_id":"SDM","transit":false,"line":6,"station_name":"Sudimara","i_lat":-6.296963,"time":6,"distance":4566,"is_transit":false,"i_long":106.712277},{"station_id":"JMU","i_long":106.728916,"i_lat":-6.288927,"line":6,"distance":1994,"transit":false,"station_name":"Jurangmangu","is_transit":false,"time":4},{"distance":2179,"is_transit":false,"line":6,"time":3,"station_name":"Pondokranji","i_lat":-6.276362,"station_id":"PDJ","transit":false,"i_long":106.74273},{"station_id":"KBY","time":8,"distance":6218,"station_name":"Kebayoran","i_lat":-6.237242,"i_long":106.780334,"transit":false,"line":6,"is_transit":false},{"station_name":"Palmerah","time":7,"transit":false,"station_id":"PLM","i_long":106.79689,"distance":3737,"line":6,"i_lat":-6.207404,"is_transit":false},{"i_lat":-6.185545,"is_transit":true,"station_name":"Tanah Abang","i_long":106.811091,"station_id":"THB","line":1,"time":6,"distance":3191,"transit":true},{"transit":true,"line":1,"station_id":"DU","time":8,"distance":3632,"station_name":"Duri","i_long":106.800832,"is_transit":true,"i_lat":-6.155215},{"transit":false,"i_lat":-6.144674,"is_transit":false,"station_name":"Angke","i_long":106.79867,"distance":1230,"time":4,"line":0,"station_id":"AK"},{"i_lat":-6.132549,"transit":true,"line":0,"distance":4102,"is_transit":true,"station_id":"KPB","time":9,"i_long":106.826365,"station_name":"Kampung Bandan"},{"distance":1444,"transit":false,"i_long":106.836569,"i_lat":-6.14505,"line":11,"time":3,"station_id":"RJW","is_transit":false,"station_name":"Rajawali"},{"i_long":106.839204,"is_transit":false,"transit":false,"distance":1901,"station_id":"KMO","station_name":"Kemayoran","i_lat":-6.161728,"time":5,"line":11},{"i_long":106.84368,"i_lat":-6.174784,"distance":1436,"line":11,"is_transit":false,"station_id":"PSE","transit":false,"station_name":"Pasar Senen","time":4},{"i_long":106.850107,"station_id":"GST","station_name":"Gang Sentiong","i_lat":-6.185975,"is_transit":false,"line":11,"time":8,"distance":1567,"transit":false},{"is_transit":false,"time":1,"station_name":"Kramat","i_lat":-6.193792,"i_long":106.855437,"station_id":"KMT","distance":973,"line":11,"transit":false},{"time":2,"station_id":"POK","is_transit":false,"station_name":"Pondok Jati","line":11,"distance":1829,"i_lat":-6.209188,"transit":false,"i_long":106.861737},{"station_name":"Jatinegara","time":9,"i_lat":-6.215091,"is_transit":true,"i_long":106.86807400000001,"distance":1236,"station_id":"JNG","line":0,"transit":true},{"i_lat":-6.212485,"station_name":"Matraman","station_id":"MTR","time":2,"transit":false,"i_long":106.858896,"distance":1377,"line":1,"is_transit":false},{"distance":1275,"i_long":106.84912,"station_id":"MRI","time":2,"station_name":"Manggarai","i_lat":-6.209883,"line":0,"is_transit":true,"transit":true},{"transit":false,"i_long":106.857948,"is_transit":false,"line":2,"station_name":"Tebet","distance":2610,"i_lat":-6.226659,"station_id":"TEB","time":4},{"station_id":"CW","i_lat":-6.242512,"i_long":106.856607,"station_name":"Cawang","distance":1230,"is_transit":false,"time":2,"transit":false,"line":0},{"station_id":"DRN","station_name":"Duren Kalibata","transit":false,"time":3,"line":0,"distance":1546,"is_transit":false,"i_lat":-6.255332,"i_long":106.85449},{"station_id":"PSMB","transit":false,"i_lat":-6.263214,"station_name":"Pasar Minggu Baru","i_long":106.851577,"time":2,"line":2,"distance":824,"is_transit":false},{"i_long":106.843999,"time":2,"distance":2380,"line":2,"i_lat":-6.2842400000000005,"station_id":"PSM","is_transit":false,"station_name":"Pasar Minggu","transit":false},{"distance":2820,"transit":false,"station_id":"TNT","line":2,"i_long":106.838896,"time":4,"station_name":"Tanjung Barat","i_lat":-6.3080680000000005,"is_transit":false},{"is_transit":false,"station_name":"Lenteng Agung","station_id":"LNA","time":3,"distance":2671,"transit":false,"i_lat":-6.330363,"line":2,"i_long":106.832616},{"station_id":"UP","time":2,"is_transit":false,"station_name":"Univ. Pancasila","i_long":106.834175,"distance":1029,"i_lat":-6.339291,"line":2,"transit":false},{"time":3,"station_id":"UI","transit":false,"i_lat":-6.360749,"is_transit":false,"line":2,"i_long":106.831474,"distance":2264,"station_name":"Univ. Indonesia"},{"time":2,"distance":1109,"is_transit":false,"station_name":"Pondok Cina","transit":false,"line":2,"i_lat":-6.369073,"i_long":106.831114,"station_id":"POC"},{"i_lat":-6.391065,"distance":2727,"i_long":106.819451,"line":0,"time":4,"transit":false,"is_transit":false,"station_id":"DPB","station_name":"Depokbaru"}]]}