{"data":[[{"line":6,"time":0,"station_id":"RU","distance":0,"transit":false,"station_name":"Rawa Buntu","i_lat":-6.314823,"is_transit":false,"i_long":106.675475},{"station_name":"Sudimara","time":6,"i_long":106.712277,"line":6,"station_id":"SDM","transit":false,"distance":4566,"is_transit":false,"i_lat":-6.296963},{"transit":false,"station_id":"JMU","distance":1994,"is_transit":false,"time":4,"line":6,"station_name":"Jurangmangu","i_lat":-6.288927,"i_long":106.728916},{"line":6,"station_name":"Pondokranji","is_transit":false,"i_long":106.74273,"station_id":"PDJ","distance":2179,"transit":false,"time":3,"i_lat":-6.276362},{"i_long":106.780334,"time":8,"distance":6218,"is_transit":false,"transit":false,"i_lat":-6.237242,"station_id":"KBY","line":6,"station_name":"Kebayoran"},{"i_long":106.79689,"transit":false,"is_transit":false,"line":6,"station_name":"Palmerah","time":7,"distance":3737,"i_lat":-6.207404,"station_id":"PLM"},{"transit":true,"distance":3191,"i_long":106.811091,"station_name":"Tanah Abang","i_lat":-6.185545,"time":6,"is_transit":true,"station_id":"THB","line":1},{"station_id":"DU","i_long":106.800832,"transit":true,"station_name":"Duri","distance":3632,"i_lat":-6.155215,"line":1,"time":8,"is_transit":true},{"i_long":106.788277,"station_name":"Grogol","distance":1700,"is_transit":false,"i_lat":-6.162021,"transit":false,"time":3,"station_id":"GGL","line":5},{"transit":false,"station_id":"PSG","station_name":"Pesing","is_transit":false,"time":2,"i_lat":-6.161433,"i_long":106.771379,"distance":2036,"line":5},{"transit":false,"station_id":"TKO","station_name":"Taman Kota","distance":1614,"i_long":106.756522,"is_transit":false,"time":2,"i_lat":-6.1587309999999995,"line":5},{"i_lat":-6.159876,"i_long":106.737035,"station_id":"BOI","time":2,"is_transit":false,"distance":2334,"station_name":"Bojongindah","transit":false,"line":5},{"station_name":"Rawa Buaya","time":4,"station_id":"RW","i_lat":-6.162758,"line":5,"transit":false,"distance":1152,"is_transit":false,"i_long":106.723064},{"time":3,"i_lat":-6.166068,"distance":2504,"is_transit":false,"transit":false,"station_name":"Kalideres","line":5,"i_long":106.701612,"station_id":"KDS"}],[{"transit":false,"line":6,"station_id":"RU","time":0,"i_long":106.675475,"is_transit":false,"station_name":"Rawa Buntu","distance":0,"i_lat":-6.314823},{"station_name":"Sudimara","time":6,"transit":false,"is_transit":false,"distance":4566,"i_lat":-6.296963,"station_id":"SDM","line":6,"i_long":106.712277},{"is_transit":false,"transit":false,"station_name":"Jurangmangu","station_id":"JMU","time":4,"distance":1994,"line":6,"i_lat":-6.288927,"i_long":106.728916},{"i_long":106.74273,"station_id":"PDJ","station_name":"Pondokranji","time":3,"i_lat":-6.276362,"is_transit":false,"transit":false,"distance":2179,"line":6},{"line":6,"i_long":106.780334,"is_transit":false,"distance":6218,"i_lat":-6.237242,"station_id":"KBY","time":8,"transit":false,"station_name":"Kebayoran"},{"line":6,"time":7,"is_transit":false,"distance":3737,"i_lat":-6.207404,"transit":false,"station_id":"PLM","i_long":106.79689,"station_name":"Palmerah"},{"i_long":106.811091,"time":6,"is_transit":true,"station_name":"Tanah Abang","station_id":"THB","distance":3191,"i_lat":-6.185545,"transit":true,"line":1},{"is_transit":false,"i_long":106.816351,"i_lat":-6.20132,"station_id":"KAT","line":1,"distance":2029,"time":5,"station_name":"Karet","transit":false},{"transit":false,"is_transit":false,"line":1,"i_lat":-6.201433,"station_name":"Sudirman Baru","i_long":106.819881,"station_id":"SUDB","time":1,"distance":471},{"station_name":"Sudirman","i_long":106.822649,"station_id":"SUD","time":1,"is_transit":false,"distance":280,"i_lat":-6.202263,"line":1,"transit":false},{"i_long":106.84912,"station_name":"Manggarai","station_id":"MRI","time":4,"distance":3186,"i_lat":-6.209883,"line":2,"is_transit":true,"transit":true},{"station_name":"Cikini","is_transit":false,"i_lat":-6.198556,"time":4,"station_id":"CKI","distance":1590,"transit":false,"line":2,"i_long":106.840169},{"is_transit":false,"distance":1750,"time":3,"transit":false,"station_id":"GDD","i_lat":-6.186295,"i_long":106.832183,"station_name":"Gondangdia","line":2},{"i_lat":-6.166716,"i_long":106.828284,"line":2,"station_id":"JUA","is_transit":false,"distance":2015,"transit":false,"time":4,"station_name":"Juanda"},{"is_transit":false,"transit":false,"distance":1149,"station_id":"SW","time":2,"i_lat":-6.160725,"station_name":"Sawah Besar","i_long":106.827103,"line":2},{"i_long":106.82482,"distance":906,"line":2,"transit":false,"station_name":"Manggabesar","is_transit":false,"station_id":"MGB","i_lat":-6.149769,"time":2},{"is_transit":false,"i_long":106.820901,"distance":1080,"line":2,"station_name":"Jayakarta","i_lat":-6.141205,"transit":false,"station_id":"JAY","time":2},{"station_name":"Jakarta Kota","is_transit":true,"time":4,"distance":1264,"line":2,"i_long":106.812439,"transit":true,"station_id":"JAKK","i_lat":-6.137569},{"is_transit":true,"line":4,"i_lat":-6.132549,"transit":true,"time":3,"i_long":106.826365,"distance":1364,"station_id":"KPB","station_name":"Kampung Bandan"},{"is_transit":false,"station_id":"AK","i_lat":-6.144674,"time":9,"line":1,"distance":4102,"i_long":106.79867,"transit":false,"station_name":"Angke"},{"station_name":"Duri","is_transit":true,"time":4,"station_id":"DU","distance":1230,"transit":true,"i_long":106.800832,"line":1,"i_lat":-6.155215},{"station_name":"Grogol","distance":1700,"time":3,"i_long":106.788277,"line":5,"station_id":"GGL","transit":false,"is_transit":false,"i_lat":-6.162021},{"is_transit":false,"station_id":"PSG","station_name":"Pesing","transit":false,"i_lat":-6.161433,"time":2,"distance":2036,"i_long":106.771379,"line":5},{"time":2,"i_lat":-6.1587309999999995,"line":5,"transit":false,"station_name":"Taman Kota","distance":1614,"i_long":106.756522,"is_transit":false,"station_id":"TKO"},{"station_id":"BOI","time":2,"line":5,"distance":2334,"is_transit":false,"station_name":"Bojongindah","i_lat":-6.159876,"transit":false,"i_long":106.737035},{"i_lat":-6.162758,"station_name":"Rawa Buaya","transit":false,"is_transit":false,"time":4,"distance":1152,"station_id":"RW","i_long":106.723064,"line":5},{"line":5,"i_long":106.701612,"transit":false,"station_id":"KDS","is_transit":false,"distance":2504,"station_name":"Kalideres","i_lat":-6.166068,"time":3}],[{"is_transit":false,"station_name":"Rawa Buntu","time":0,"distance":0,"i_lat":-6.314823,"line":6,"station_id":"RU","transit":false,"i_long":106.675475},{"transit":false,"distance":4566,"i_lat":-6.296963,"is_transit":false,"line":6,"time":6,"i_long":106.712277,"station_id":"SDM","station_name":"Sudimara"},{"station_id":"JMU","station_name":"Jurangmangu","i_long":106.728916,"distance":1994,"is_transit":false,"time":4,"transit":false,"line":6,"i_lat":-6.288927},{"station_name":"Pondokranji","time":3,"i_long":106.74273,"distance":2179,"station_id":"PDJ","is_transit":false,"i_lat":-6.276362,"transit":false,"line":6},{"transit":false,"station_id":"KBY","i_long":106.780334,"line":6,"is_transit":false,"distance":6218,"i_lat":-6.237242,"station_name":"Kebayoran","time":8},{"station_name":"Palmerah","line":6,"time":7,"distance":3737,"i_long":106.79689,"is_transit":false,"transit":false,"station_id":"PLM","i_lat":-6.207404},{"line":1,"station_id":"THB","i_lat":-6.185545,"i_long":106.811091,"is_transit":true,"time":6,"station_name":"Tanah Abang","distance":3191,"transit":true},{"time":5,"distance":2029,"transit":false,"station_id":"KAT","line":1,"i_lat":-6.20132,"i_long":106.816351,"is_transit":false,"station_name":"Karet"},{"time":1,"distance":471,"station_id":"SUDB","i_lat":-6.201433,"transit":false,"station_name":"Sudirman Baru","is_transit":false,"i_long":106.819881,"line":1},{"distance":280,"station_id":"SUD","i_lat":-6.202263,"i_long":106.822649,"line":1,"time":1,"transit":false,"station_name":"Sudirman","is_transit":false},{"station_name":"Manggarai","transit":false,"time":4,"is_transit":false,"i_lat":-6.209883,"i_long":106.84912,"station_id":"MRI","distance":3186,"line":2},{"i_lat":-6.212485,"station_id":"MTR","distance":1275,"i_long":106.858896,"transit":false,"line":1,"station_name":"Matraman","is_transit":false,"time":2},{"is_transit":true,"distance":1377,"i_long":106.86807400000001,"i_lat":-6.215091,"line":1,"station_id":"JNG","station_name":"Jatinegara","transit":true,"time":8},{"i_long":106.861737,"time":2,"line":11,"station_id":"POK","i_lat":-6.209188,"station_name":"Pondok Jati","distance":1236,"transit":false,"is_transit":false},{"distance":1829,"line":11,"is_transit":false,"station_name":"Kramat","transit":false,"station_id":"KMT","i_lat":-6.193792,"time":2,"i_long":106.855437},{"distance":973,"transit":false,"is_transit":false,"time":1,"station_name":"Gang Sentiong","station_id":"GST","line":11,"i_lat":-6.185975,"i_long":106.850107},{"i_lat":-6.174784,"line":11,"is_transit":false,"transit":false,"station_name":"Pasar Senen","station_id":"PSE","i_long":106.84368,"distance":1567,"time":8},{"i_long":106.839204,"line":11,"is_transit":false,"station_id":"KMO","transit":false,"i_lat":-6.161728,"distance":1436,"time":4,"station_name":"Kemayoran"},{"i_long":106.836569,"line":11,"station_id":"RJW","transit":false,"i_lat":-6.14505,"time":5,"station_name":"Rajawali","distance":1901,"is_transit":false},{"i_long":106.826365,"transit":true,"time":3,"station_name":"Kampung Bandan","station_id":"KPB","i_lat":-6.132549,"is_transit":true,"line":4,"distance":1444},{"i_lat":-6.144674,"time":9,"is_transit":false,"transit":false,"station_id":"AK","line":1,"distance":4102,"i_long":106.79867,"station_name":"Angke"},{"station_id":"DU","i_long":106.800832,"line":1,"is_transit":true,"time":4,"distance":1230,"i_lat":-6.155215,"station_name":"Duri","transit":true},{"line":5,"distance":1700,"i_lat":-6.162021,"station_name":"Grogol","station_id":"GGL","i_long":106.788277,"transit":false,"is_transit":false,"time":3},{"i_lat":-6.161433,"i_long":106.771379,"time":2,"line":5,"station_name":"Pesing","distance":2036,"transit":false,"station_id":"PSG","is_transit":false},{"i_lat":-6.1587309999999995,"transit":false,"station_id":"TKO","station_name":"Taman Kota","i_long":106.756522,"time":2,"distance":1614,"is_transit":false,"line":5},{"time":2,"i_lat":-6.159876,"station_id":"BOI","is_transit":false,"station_name":"Bojongindah","distance":2334,"transit":false,"i_long":106.737035,"line":5},{"line":5,"is_transit":false,"station_name":"Rawa Buaya","time":4,"distance":1152,"transit":false,"i_long":106.723064,"station_id":"RW","i_lat":-6.162758},{"station_name":"Kalideres","is_transit":false,"station_id":"KDS","distance":2504,"i_lat":-6.166068,"line":5,"time":3,"transit":false,"i_long":106.701612}]]}