{"data":[[{"line":6,"station_name":"Rawa Buntu","i_lat":-6.314823,"time":0,"transit":false,"distance":0,"i_long":106.675475,"station_id":"RU","is_transit":false},{"i_long":106.712277,"transit":false,"time":6,"distance":4566,"station_name":"Sudimara","station_id":"SDM","i_lat":-6.296963,"is_transit":false,"line":6},{"transit":false,"time":4,"i_long":106.728916,"is_transit":false,"line":6,"station_name":"Jurangmangu","station_id":"JMU","distance":1994,"i_lat":-6.288927},{"line":6,"time":3,"station_id":"PDJ","distance":2179,"i_lat":-6.276362,"is_transit":false,"station_name":"Pondokranji","transit":false,"i_long":106.74273},{"distance":6218,"i_lat":-6.237242,"i_long":106.780334,"station_name":"Kebayoran","station_id":"KBY","is_transit":false,"time":8,"transit":false,"line":6},{"time":7,"line":6,"station_id":"PLM","station_name":"Palmerah","is_transit":false,"distance":3737,"i_long":106.79689,"i_lat":-6.207404,"transit":false},{"is_transit":true,"i_long":106.811091,"i_lat":-6.185545,"distance":3191,"transit":true,"line":1,"station_name":"Tanah Abang","station_id":"THB","time":6},{"i_lat":-6.155215,"station_id":"DU","station_name":"Duri","line":1,"time":8,"i_long":106.800832,"transit":false,"distance":3632,"is_transit":false},{"transit":false,"station_id":"AK","i_lat":-6.144674,"is_transit":false,"line":1,"i_long":106.79867,"time":4,"distance":1230,"station_name":"Angke"},{"line":4,"distance":4102,"i_long":106.826365,"station_id":"KPB","transit":false,"i_lat":-6.132549,"time":9,"station_name":"Kampung Bandan","is_transit":false}],[{"transit":false,"station_name":"Rawa Buntu","station_id":"RU","i_lat":-6.314823,"line":6,"time":0,"i_long":106.675475,"distance":0,"is_transit":false},{"line":6,"time":6,"station_id":"SDM","i_long":106.712277,"distance":4566,"station_name":"Sudimara","transit":false,"i_lat":-6.296963,"is_transit":false},{"i_long":106.728916,"line":6,"station_id":"JMU","station_name":"Jurangmangu","transit":false,"distance":1994,"time":4,"i_lat":-6.288927,"is_transit":false},{"distance":2179,"time":3,"transit":false,"i_lat":-6.276362,"i_long":106.74273,"station_name":"Pondokranji","station_id":"PDJ","line":6,"is_transit":false},{"line":6,"station_name":"Kebayoran","is_transit":false,"i_long":106.780334,"station_id":"KBY","distance":6218,"time":8,"transit":false,"i_lat":-6.237242},{"i_lat":-6.207404,"i_long":106.79689,"line":6,"is_transit":false,"transit":false,"station_id":"PLM","station_name":"Palmerah","time":7,"distance":3737},{"time":6,"station_id":"THB","i_lat":-6.185545,"transit":true,"i_long":106.811091,"is_transit":true,"line":1,"station_name":"Tanah Abang","distance":3191},{"time":5,"i_long":106.816351,"transit":false,"station_name":"Karet","station_id":"KAT","i_lat":-6.20132,"line":1,"distance":2029,"is_transit":false},{"station_id":"SUDB","line":1,"i_long":106.819881,"station_name":"Sudirman Baru","i_lat":-6.201433,"is_transit":false,"time":1,"distance":471,"transit":false},{"station_name":"Sudirman","time":1,"station_id":"SUD","distance":280,"i_lat":-6.202263,"transit":false,"i_long":106.822649,"line":1,"is_transit":false},{"line":2,"i_long":106.84912,"station_name":"Manggarai","time":4,"station_id":"MRI","distance":3186,"transit":true,"i_lat":-6.209883,"is_transit":true},{"i_lat":-6.198556,"i_long":106.840169,"distance":1590,"line":2,"transit":false,"time":4,"station_id":"CKI","is_transit":false,"station_name":"Cikini"},{"time":3,"distance":1750,"is_transit":false,"station_id":"GDD","i_lat":-6.186295,"transit":false,"i_long":106.832183,"station_name":"Gondangdia","line":2},{"is_transit":false,"time":4,"station_id":"JUA","i_lat":-6.166716,"i_long":106.828284,"distance":2015,"transit":false,"station_name":"Juanda","line":2},{"line":2,"transit":false,"i_long":106.827103,"station_id":"SW","time":2,"station_name":"Sawah Besar","distance":1149,"i_lat":-6.160725,"is_transit":false},{"time":2,"i_lat":-6.149769,"station_id":"MGB","is_transit":false,"transit":false,"station_name":"Manggabesar","i_long":106.82482,"distance":906,"line":2},{"i_lat":-6.141205,"station_id":"JAY","transit":false,"station_name":"Jayakarta","time":2,"distance":1080,"line":2,"is_transit":false,"i_long":106.820901},{"line":2,"is_transit":true,"station_name":"Jakarta Kota","time":4,"station_id":"JAKK","distance":1264,"i_long":106.812439,"i_lat":-6.137569,"transit":true},{"i_long":106.826365,"time":3,"i_lat":-6.132549,"station_id":"KPB","line":4,"transit":false,"distance":1364,"station_name":"Kampung Bandan","is_transit":false}],[{"transit":false,"station_id":"RU","distance":0,"i_long":106.675475,"i_lat":-6.314823,"line":6,"is_transit":false,"station_name":"Rawa Buntu","time":0},{"i_lat":-6.296963,"time":6,"i_long":106.712277,"station_id":"SDM","distance":4566,"transit":false,"is_transit":false,"station_name":"Sudimara","line":6},{"transit":false,"time":4,"station_id":"JMU","i_lat":-6.288927,"i_long":106.728916,"line":6,"distance":1994,"station_name":"Jurangmangu","is_transit":false},{"station_id":"PDJ","station_name":"Pondokranji","line":6,"transit":false,"is_transit":false,"distance":2179,"i_lat":-6.276362,"time":3,"i_long":106.74273},{"time":8,"transit":false,"station_id":"KBY","is_transit":false,"i_lat":-6.237242,"station_name":"Kebayoran","i_long":106.780334,"line":6,"distance":6218},{"is_transit":false,"station_id":"PLM","i_lat":-6.207404,"i_long":106.79689,"station_name":"Palmerah","line":6,"transit":false,"time":7,"distance":3737},{"transit":true,"station_name":"Tanah Abang","i_long":106.811091,"is_transit":true,"distance":3191,"line":1,"station_id":"THB","i_lat":-6.185545,"time":6},{"i_lat":-6.20132,"is_transit":false,"distance":2029,"station_name":"Karet","time":5,"i_long":106.816351,"line":1,"station_id":"KAT","transit":false},{"line":1,"time":1,"station_id":"SUDB","distance":471,"station_name":"Sudirman Baru","i_long":106.819881,"is_transit":false,"transit":false,"i_lat":-6.201433},{"i_lat":-6.202263,"line":1,"i_long":106.822649,"transit":false,"time":1,"distance":280,"station_id":"SUD","is_transit":false,"station_name":"Sudirman"},{"station_name":"Manggarai","station_id":"MRI","distance":3186,"transit":false,"i_lat":-6.209883,"time":4,"line":2,"i_long":106.84912,"is_transit":false},{"transit":false,"time":2,"station_id":"MTR","is_transit":false,"distance":1275,"i_long":106.858896,"station_name":"Matraman","i_lat":-6.212485,"line":1},{"i_long":106.86807400000001,"station_id":"JNG","i_lat":-6.215091,"distance":1377,"station_name":"Jatinegara","line":1,"transit":true,"time":8,"is_transit":true},{"transit":false,"time":2,"station_id":"POK","i_long":106.861737,"distance":1236,"station_name":"Pondok Jati","i_lat":-6.209188,"is_transit":false,"line":11},{"time":2,"line":11,"transit":false,"is_transit":false,"station_id":"KMT","i_long":106.855437,"station_name":"Kramat","distance":1829,"i_lat":-6.193792},{"station_name":"Gang Sentiong","i_long":106.850107,"distance":973,"line":11,"is_transit":false,"i_lat":-6.185975,"transit":false,"station_id":"GST","time":1},{"time":8,"station_name":"Pasar Senen","station_id":"PSE","i_lat":-6.174784,"line":11,"i_long":106.84368,"is_transit":false,"distance":1567,"transit":false},{"i_lat":-6.161728,"is_transit":false,"time":4,"transit":false,"station_name":"Kemayoran","i_long":106.839204,"line":11,"distance":1436,"station_id":"KMO"},{"i_long":106.836569,"time":5,"is_transit":false,"station_id":"RJW","station_name":"Rajawali","i_lat":-6.14505,"distance":1901,"line":11,"transit":false},{"line":4,"time":3,"distance":1444,"i_long":106.826365,"station_name":"Kampung Bandan","is_transit":false,"transit":false,"i_lat":-6.132549,"station_id":"KPB"}]]}