{"data":[[{"is_transit":false,"station_name":"Rawa Buntu","transit":false,"line":6,"distance":0,"i_lat":-6.314823,"time":0,"station_id":"RU","i_long":106.675475},{"line":6,"is_transit":false,"station_id":"SDM","station_name":"Sudimara","time":6,"distance":4566,"transit":false,"i_lat":-6.296963,"i_long":106.712277},{"i_long":106.728916,"line":6,"station_id":"JMU","distance":1994,"i_lat":-6.288927,"transit":false,"station_name":"Jurangmangu","is_transit":false,"time":4},{"distance":2179,"line":6,"time":3,"station_name":"Pondokranji","is_transit":false,"i_lat":-6.276362,"transit":false,"station_id":"PDJ","i_long":106.74273},{"station_id":"KBY","transit":false,"station_name":"Kebayoran","line":6,"time":8,"is_transit":false,"i_long":106.780334,"distance":6218,"i_lat":-6.237242},{"i_long":106.79689,"is_transit":false,"station_id":"PLM","line":6,"distance":3737,"transit":false,"station_name":"Palmerah","time":7,"i_lat":-6.207404},{"station_id":"THB","transit":true,"station_name":"Tanah Abang","i_lat":-6.185545,"is_transit":true,"i_long":106.811091,"distance":3191,"time":6,"line":1},{"i_lat":-6.155215,"line":1,"i_long":106.800832,"distance":3632,"time":8,"transit":true,"is_transit":true,"station_name":"Duri","station_id":"DU"},{"is_transit":false,"i_long":106.788277,"station_id":"GGL","distance":1700,"time":3,"station_name":"Grogol","i_lat":-6.162021,"line":5,"transit":false},{"line":5,"station_id":"PSG","distance":2036,"is_transit":false,"station_name":"Pesing","i_lat":-6.161433,"transit":false,"i_long":106.771379,"time":2},{"station_id":"TKO","station_name":"Taman Kota","i_lat":-6.1587309999999995,"is_transit":false,"time":2,"distance":1614,"transit":false,"i_long":106.756522,"line":5},{"i_lat":-6.159876,"distance":2334,"station_id":"BOI","transit":false,"line":5,"station_name":"Bojongindah","i_long":106.737035,"time":2,"is_transit":false},{"i_lat":-6.162758,"i_long":106.723064,"station_id":"RW","is_transit":false,"station_name":"Rawa Buaya","distance":1152,"transit":false,"line":5,"time":4},{"is_transit":false,"i_lat":-6.166068,"station_id":"KDS","i_long":106.701612,"time":3,"distance":2504,"line":5,"transit":false,"station_name":"Kalideres"}],[{"is_transit":false,"distance":0,"station_id":"RU","time":0,"transit":false,"station_name":"Rawa Buntu","i_long":106.675475,"line":6,"i_lat":-6.314823},{"station_name":"Sudimara","time":6,"station_id":"SDM","is_transit":false,"transit":false,"line":6,"i_long":106.712277,"distance":4566,"i_lat":-6.296963},{"line":6,"is_transit":false,"station_name":"Jurangmangu","i_lat":-6.288927,"transit":false,"time":4,"distance":1994,"station_id":"JMU","i_long":106.728916},{"i_lat":-6.276362,"is_transit":false,"line":6,"distance":2179,"time":3,"station_id":"PDJ","transit":false,"station_name":"Pondokranji","i_long":106.74273},{"station_id":"KBY","line":6,"is_transit":false,"distance":6218,"transit":false,"i_lat":-6.237242,"i_long":106.780334,"station_name":"Kebayoran","time":8},{"station_id":"PLM","i_long":106.79689,"distance":3737,"transit":false,"i_lat":-6.207404,"line":6,"time":7,"station_name":"Palmerah","is_transit":false},{"time":6,"distance":3191,"i_lat":-6.185545,"i_long":106.811091,"line":1,"station_name":"Tanah Abang","is_transit":true,"station_id":"THB","transit":true},{"distance":2029,"is_transit":false,"time":5,"station_id":"KAT","i_long":106.816351,"i_lat":-6.20132,"transit":false,"station_name":"Karet","line":1},{"station_name":"Sudirman Baru","is_transit":false,"distance":471,"time":1,"i_long":106.819881,"i_lat":-6.201433,"station_id":"SUDB","line":1,"transit":false},{"time":1,"transit":false,"station_id":"SUD","is_transit":false,"i_lat":-6.202263,"line":1,"distance":280,"i_long":106.822649,"station_name":"Sudirman"},{"i_lat":-6.209883,"station_name":"Manggarai","time":4,"station_id":"MRI","is_transit":true,"distance":3186,"transit":true,"i_long":106.84912,"line":2},{"station_id":"CKI","is_transit":false,"station_name":"Cikini","distance":1590,"i_long":106.840169,"transit":false,"line":2,"i_lat":-6.198556,"time":4},{"time":3,"station_id":"GDD","is_transit":false,"transit":false,"i_lat":-6.186295,"i_long":106.832183,"station_name":"Gondangdia","line":2,"distance":1750},{"transit":false,"i_lat":-6.166716,"time":4,"station_id":"JUA","line":2,"distance":2015,"is_transit":false,"i_long":106.828284,"station_name":"Juanda"},{"time":2,"distance":1149,"i_long":106.827103,"transit":false,"station_id":"SW","i_lat":-6.160725,"is_transit":false,"line":2,"station_name":"Sawah Besar"},{"i_lat":-6.149769,"station_id":"MGB","station_name":"Manggabesar","line":2,"is_transit":false,"distance":906,"i_long":106.82482,"time":2,"transit":false},{"distance":1080,"line":2,"transit":false,"time":2,"station_id":"JAY","is_transit":false,"i_long":106.820901,"i_lat":-6.141205,"station_name":"Jayakarta"},{"time":4,"is_transit":true,"distance":1264,"line":2,"station_name":"Jakarta Kota","transit":true,"i_long":106.812439,"station_id":"JAKK","i_lat":-6.137569},{"is_transit":true,"transit":true,"distance":1364,"i_long":106.826365,"line":4,"i_lat":-6.132549,"station_id":"KPB","station_name":"Kampung Bandan","time":3},{"i_lat":-6.144674,"line":1,"transit":false,"i_long":106.79867,"is_transit":false,"station_id":"AK","time":9,"distance":4102,"station_name":"Angke"},{"line":1,"time":4,"distance":1230,"station_name":"Duri","i_long":106.800832,"is_transit":true,"transit":true,"i_lat":-6.155215,"station_id":"DU"},{"i_lat":-6.162021,"distance":1700,"transit":false,"station_name":"Grogol","i_long":106.788277,"line":5,"time":3,"station_id":"GGL","is_transit":false},{"station_id":"PSG","line":5,"station_name":"Pesing","distance":2036,"time":2,"i_long":106.771379,"transit":false,"is_transit":false,"i_lat":-6.161433},{"time":2,"i_long":106.756522,"line":5,"station_id":"TKO","is_transit":false,"station_name":"Taman Kota","i_lat":-6.1587309999999995,"transit":false,"distance":1614},{"distance":2334,"i_long":106.737035,"station_id":"BOI","is_transit":false,"line":5,"station_name":"Bojongindah","time":2,"transit":false,"i_lat":-6.159876},{"distance":1152,"line":5,"station_id":"RW","transit":false,"i_lat":-6.162758,"time":4,"is_transit":false,"station_name":"Rawa Buaya","i_long":106.723064},{"station_name":"Kalideres","distance":2504,"line":5,"transit":false,"station_id":"KDS","time":3,"is_transit":false,"i_lat":-6.166068,"i_long":106.701612}],[{"time":0,"station_name":"Rawa Buntu","is_transit":false,"line":6,"i_long":106.675475,"i_lat":-6.314823,"station_id":"RU","distance":0,"transit":false},{"i_long":106.712277,"station_name":"Sudimara","station_id":"SDM","is_transit":false,"i_lat":-6.296963,"distance":4566,"transit":false,"line":6,"time":6},{"line":6,"time":4,"i_long":106.728916,"i_lat":-6.288927,"transit":false,"station_id":"JMU","is_transit":false,"distance":1994,"station_name":"Jurangmangu"},{"time":3,"transit":false,"line":6,"i_lat":-6.276362,"i_long":106.74273,"station_id":"PDJ","is_transit":false,"distance":2179,"station_name":"Pondokranji"},{"is_transit":false,"line":6,"i_lat":-6.237242,"distance":6218,"station_id":"KBY","time":8,"transit":false,"station_name":"Kebayoran","i_long":106.780334},{"distance":3737,"transit":false,"station_name":"Palmerah","i_lat":-6.207404,"station_id":"PLM","line":6,"time":7,"i_long":106.79689,"is_transit":false},{"i_long":106.811091,"line":1,"time":6,"is_transit":true,"distance":3191,"station_name":"Tanah Abang","i_lat":-6.185545,"transit":true,"station_id":"THB"},{"distance":2029,"i_lat":-6.20132,"station_name":"Karet","station_id":"KAT","transit":false,"i_long":106.816351,"line":1,"is_transit":false,"time":5},{"line":1,"station_id":"SUDB","i_long":106.819881,"distance":471,"station_name":"Sudirman Baru","time":1,"is_transit":false,"transit":false,"i_lat":-6.201433},{"line":1,"i_lat":-6.202263,"i_long":106.822649,"station_name":"Sudirman","station_id":"SUD","transit":false,"distance":280,"is_transit":false,"time":1},{"station_id":"MRI","line":2,"transit":false,"i_lat":-6.209883,"distance":3186,"is_transit":false,"i_long":106.84912,"time":4,"station_name":"Manggarai"},{"i_lat":-6.212485,"station_name":"Matraman","i_long":106.858896,"distance":1275,"line":1,"transit":false,"station_id":"MTR","time":2,"is_transit":false},{"i_long":106.86807400000001,"station_name":"Jatinegara","time":8,"line":1,"transit":true,"distance":1377,"station_id":"JNG","i_lat":-6.215091,"is_transit":true},{"station_id":"POK","time":2,"transit":false,"is_transit":false,"i_long":106.861737,"distance":1236,"station_name":"Pondok Jati","line":11,"i_lat":-6.209188},{"i_lat":-6.193792,"distance":1829,"station_id":"KMT","time":2,"is_transit":false,"line":11,"transit":false,"station_name":"Kramat","i_long":106.855437},{"transit":false,"is_transit":false,"i_long":106.850107,"station_id":"GST","distance":973,"i_lat":-6.185975,"line":11,"station_name":"Gang Sentiong","time":1},{"i_long":106.84368,"is_transit":false,"i_lat":-6.174784,"station_name":"Pasar Senen","distance":1567,"line":11,"station_id":"PSE","transit":false,"time":8},{"station_name":"Kemayoran","line":11,"i_long":106.839204,"is_transit":false,"distance":1436,"station_id":"KMO","transit":false,"i_lat":-6.161728,"time":4},{"line":11,"station_name":"Rajawali","time":5,"station_id":"RJW","distance":1901,"transit":false,"is_transit":false,"i_lat":-6.14505,"i_long":106.836569},{"transit":true,"is_transit":true,"line":4,"i_lat":-6.132549,"distance":1444,"time":3,"i_long":106.826365,"station_id":"KPB","station_name":"Kampung Bandan"},{"transit":false,"station_name":"Angke","time":9,"i_lat":-6.144674,"is_transit":false,"i_long":106.79867,"line":1,"distance":4102,"station_id":"AK"},{"i_long":106.800832,"time":4,"station_id":"DU","station_name":"Duri","distance":1230,"line":1,"i_lat":-6.155215,"transit":true,"is_transit":true},{"station_id":"GGL","time":3,"distance":1700,"i_lat":-6.162021,"is_transit":false,"station_name":"Grogol","line":5,"transit":false,"i_long":106.788277},{"station_id":"PSG","i_lat":-6.161433,"is_transit":false,"transit":false,"line":5,"time":2,"station_name":"Pesing","distance":2036,"i_long":106.771379},{"is_transit":false,"distance":1614,"time":2,"station_name":"Taman Kota","i_lat":-6.1587309999999995,"i_long":106.756522,"station_id":"TKO","transit":false,"line":5},{"i_long":106.737035,"is_transit":false,"station_name":"Bojongindah","station_id":"BOI","i_lat":-6.159876,"line":5,"distance":2334,"time":2,"transit":false},{"i_long":106.723064,"i_lat":-6.162758,"station_name":"Rawa Buaya","transit":false,"station_id":"RW","time":4,"distance":1152,"line":5,"is_transit":false},{"distance":2504,"transit":false,"i_long":106.701612,"line":5,"is_transit":false,"station_name":"Kalideres","i_lat":-6.166068,"time":3,"station_id":"KDS"}]]}