{"data":[[{"station_id":"RU","station_name":"Rawa Buntu","line":6,"distance":0,"is_transit":false,"transit":false,"i_lat":-6.314823,"i_long":106.675475,"time":0},{"transit":false,"distance":4566,"time":6,"i_lat":-6.296963,"station_id":"SDM","i_long":106.712277,"line":6,"is_transit":false,"station_name":"Sudimara"},{"time":4,"i_lat":-6.288927,"i_long":106.728916,"line":6,"is_transit":false,"station_id":"JMU","station_name":"Jurangmangu","distance":1994,"transit":false},{"station_name":"Pondokranji","transit":false,"station_id":"PDJ","is_transit":false,"time":3,"line":6,"distance":2179,"i_lat":-6.276362,"i_long":106.74273},{"station_name":"Kebayoran","i_lat":-6.237242,"i_long":106.780334,"distance":6218,"time":8,"transit":false,"line":6,"station_id":"KBY","is_transit":false},{"time":7,"is_transit":false,"i_lat":-6.207404,"transit":false,"distance":3737,"i_long":106.79689,"station_id":"PLM","line":6,"station_name":"Palmerah"},{"is_transit":true,"distance":3191,"station_name":"Tanah Abang","transit":true,"time":6,"i_lat":-6.185545,"station_id":"THB","line":1,"i_long":106.811091},{"distance":3632,"station_name":"Duri","i_long":106.800832,"transit":true,"line":1,"is_transit":true,"station_id":"DU","time":8,"i_lat":-6.155215},{"station_name":"Angke","station_id":"AK","distance":1230,"is_transit":false,"line":0,"i_long":106.79867,"transit":false,"time":4,"i_lat":-6.144674},{"line":0,"i_long":106.826365,"station_id":"KPB","transit":false,"time":9,"distance":4102,"is_transit":true,"station_name":"Kampung Bandan","i_lat":-6.132549}],[{"i_lat":-6.314823,"station_id":"RU","i_long":106.675475,"line":6,"transit":false,"time":0,"is_transit":false,"station_name":"Rawa Buntu","distance":0},{"time":6,"station_name":"Sudimara","line":6,"i_lat":-6.296963,"i_long":106.712277,"distance":4566,"station_id":"SDM","transit":false,"is_transit":false},{"i_lat":-6.288927,"distance":1994,"is_transit":false,"transit":false,"time":4,"i_long":106.728916,"line":6,"station_id":"JMU","station_name":"Jurangmangu"},{"distance":2179,"time":3,"transit":false,"station_id":"PDJ","i_lat":-6.276362,"i_long":106.74273,"station_name":"Pondokranji","is_transit":false,"line":6},{"station_name":"Kebayoran","i_lat":-6.237242,"distance":6218,"transit":false,"time":8,"line":6,"i_long":106.780334,"station_id":"KBY","is_transit":false},{"time":7,"station_name":"Palmerah","distance":3737,"transit":false,"i_lat":-6.207404,"is_transit":false,"i_long":106.79689,"station_id":"PLM","line":6},{"line":1,"i_lat":-6.185545,"i_long":106.811091,"station_name":"Tanah Abang","station_id":"THB","is_transit":true,"transit":true,"time":6,"distance":3191},{"time":5,"line":1,"distance":2029,"is_transit":false,"i_long":106.816351,"station_name":"Karet","station_id":"KAT","transit":false,"i_lat":-6.20132},{"station_id":"SUDB","time":1,"station_name":"Sudirman Baru","i_long":106.819881,"line":1,"transit":false,"i_lat":-6.201433,"distance":471,"is_transit":false},{"transit":false,"time":1,"i_lat":-6.202263,"i_long":106.822649,"line":1,"station_id":"SUD","is_transit":false,"station_name":"Sudirman","distance":280},{"station_name":"Manggarai","station_id":"MRI","line":0,"distance":3186,"is_transit":true,"transit":true,"time":4,"i_long":106.84912,"i_lat":-6.209883},{"station_name":"Cikini","i_long":106.840169,"line":0,"station_id":"CKI","transit":false,"is_transit":false,"distance":1590,"i_lat":-6.198556,"time":4},{"station_name":"Gondangdia","time":3,"is_transit":false,"station_id":"GDD","i_lat":-6.186295,"transit":false,"distance":1750,"i_long":106.832183,"line":2},{"station_id":"JUA","station_name":"Juanda","time":4,"transit":false,"i_long":106.828284,"distance":2015,"line":2,"is_transit":false,"i_lat":-6.166716},{"is_transit":false,"transit":false,"i_lat":-6.160725,"station_id":"SW","i_long":106.827103,"line":2,"station_name":"Sawah Besar","distance":1149,"time":2},{"time":2,"i_long":106.82482,"i_lat":-6.149769,"transit":false,"station_name":"Manggabesar","is_transit":false,"station_id":"MGB","distance":906,"line":2},{"i_lat":-6.141205,"station_id":"JAY","station_name":"Jayakarta","time":2,"distance":1080,"line":7,"transit":false,"i_long":106.820901,"is_transit":false},{"is_transit":true,"station_name":"Jakarta Kota","distance":1264,"i_long":106.812439,"station_id":"JAKK","transit":true,"i_lat":-6.137569,"time":4,"line":0},{"transit":false,"i_long":106.826365,"station_id":"KPB","station_name":"Kampung Bandan","is_transit":true,"time":3,"line":0,"i_lat":-6.132549,"distance":1364}],[{"station_name":"Rawa Buntu","i_lat":-6.314823,"line":6,"time":0,"is_transit":false,"distance":0,"station_id":"RU","transit":false,"i_long":106.675475},{"i_lat":-6.296963,"distance":4566,"i_long":106.712277,"is_transit":false,"station_id":"SDM","time":6,"line":6,"transit":false,"station_name":"Sudimara"},{"distance":1994,"i_lat":-6.288927,"i_long":106.728916,"time":4,"line":6,"is_transit":false,"station_id":"JMU","station_name":"Jurangmangu","transit":false},{"transit":false,"time":3,"distance":2179,"station_name":"Pondokranji","station_id":"PDJ","line":6,"is_transit":false,"i_long":106.74273,"i_lat":-6.276362},{"is_transit":false,"distance":6218,"line":6,"station_id":"KBY","transit":false,"station_name":"Kebayoran","i_lat":-6.237242,"i_long":106.780334,"time":8},{"time":7,"distance":3737,"transit":false,"i_long":106.79689,"i_lat":-6.207404,"station_name":"Palmerah","is_transit":false,"station_id":"PLM","line":6},{"distance":3191,"station_name":"Tanah Abang","time":6,"is_transit":true,"i_lat":-6.185545,"line":1,"transit":true,"i_long":106.811091,"station_id":"THB"},{"i_lat":-6.20132,"distance":2029,"i_long":106.816351,"time":5,"station_id":"KAT","is_transit":false,"station_name":"Karet","transit":false,"line":1},{"i_lat":-6.201433,"i_long":106.819881,"is_transit":false,"line":1,"time":1,"transit":false,"distance":471,"station_id":"SUDB","station_name":"Sudirman Baru"},{"distance":280,"i_lat":-6.202263,"line":1,"station_id":"SUD","station_name":"Sudirman","is_transit":false,"time":1,"i_long":106.822649,"transit":false},{"is_transit":true,"transit":false,"i_long":106.84912,"line":0,"time":4,"distance":3186,"i_lat":-6.209883,"station_name":"Manggarai","station_id":"MRI"},{"is_transit":false,"transit":false,"i_lat":-6.212485,"i_long":106.858896,"time":2,"distance":1275,"station_id":"MTR","station_name":"Matraman","line":1},{"i_long":106.86807400000001,"distance":1377,"is_transit":true,"time":8,"line":0,"transit":true,"i_lat":-6.215091,"station_name":"Jatinegara","station_id":"JNG"},{"station_name":"Pondok Jati","station_id":"POK","i_lat":-6.209188,"is_transit":false,"transit":false,"line":11,"time":2,"distance":1236,"i_long":106.861737},{"line":11,"station_name":"Kramat","station_id":"KMT","is_transit":false,"time":2,"i_lat":-6.193792,"distance":1829,"transit":false,"i_long":106.855437},{"is_transit":false,"station_id":"GST","station_name":"Gang Sentiong","i_lat":-6.185975,"distance":973,"time":1,"i_long":106.850107,"transit":false,"line":11},{"is_transit":false,"station_name":"Pasar Senen","station_id":"PSE","i_long":106.84368,"distance":1567,"transit":false,"time":8,"i_lat":-6.174784,"line":11},{"station_id":"KMO","distance":1436,"station_name":"Kemayoran","i_long":106.839204,"line":11,"i_lat":-6.161728,"time":4,"is_transit":false,"transit":false},{"i_long":106.836569,"distance":1901,"station_id":"RJW","station_name":"Rajawali","transit":false,"time":5,"line":11,"is_transit":false,"i_lat":-6.14505},{"distance":1444,"i_lat":-6.132549,"is_transit":true,"station_name":"Kampung Bandan","transit":false,"i_long":106.826365,"line":0,"station_id":"KPB","time":3}]]}