{"data":[[{"line":6,"time":0,"is_transit":false,"station_name":"Rawa Buntu","transit":false,"station_id":"RU","i_long":106.675475,"distance":0,"i_lat":-6.314823},{"time":6,"transit":false,"i_long":106.712277,"is_transit":false,"station_name":"Sudimara","i_lat":-6.296963,"line":6,"distance":4566,"station_id":"SDM"},{"line":6,"time":4,"i_long":106.728916,"transit":false,"station_name":"Jurangmangu","is_transit":false,"distance":1994,"station_id":"JMU","i_lat":-6.288927},{"station_name":"Pondokranji","i_lat":-6.276362,"i_long":106.74273,"station_id":"PDJ","distance":2179,"is_transit":false,"time":3,"line":6,"transit":false},{"i_lat":-6.237242,"i_long":106.780334,"station_id":"KBY","time":8,"is_transit":false,"line":6,"transit":false,"distance":6218,"station_name":"Kebayoran"},{"line":6,"distance":3737,"time":7,"i_lat":-6.207404,"station_id":"PLM","transit":false,"i_long":106.79689,"is_transit":false,"station_name":"Palmerah"},{"line":1,"time":6,"is_transit":true,"station_id":"THB","i_long":106.811091,"distance":3191,"station_name":"Tanah Abang","i_lat":-6.185545,"transit":true},{"station_id":"DU","is_transit":true,"line":1,"transit":true,"time":8,"i_long":106.800832,"distance":3632,"i_lat":-6.155215,"station_name":"Duri"},{"distance":1700,"i_long":106.788277,"station_name":"Grogol","transit":false,"i_lat":-6.162021,"is_transit":false,"time":3,"line":5,"station_id":"GGL"},{"i_long":106.771379,"line":5,"distance":2036,"station_name":"Pesing","transit":false,"station_id":"PSG","i_lat":-6.161433,"time":2,"is_transit":false},{"station_name":"Taman Kota","i_long":106.756522,"is_transit":false,"time":2,"i_lat":-6.1587309999999995,"station_id":"TKO","transit":false,"line":5,"distance":1614},{"time":2,"distance":2334,"station_id":"BOI","i_long":106.737035,"i_lat":-6.159876,"station_name":"Bojongindah","transit":false,"is_transit":false,"line":0},{"i_lat":-6.162758,"i_long":106.723064,"distance":1152,"station_name":"Rawa Buaya","is_transit":false,"transit":false,"time":4,"line":5,"station_id":"RW"},{"station_name":"Kalideres","line":5,"i_long":106.701612,"i_lat":-6.166068,"station_id":"KDS","distance":2504,"transit":false,"time":3,"is_transit":false}],[{"i_long":106.675475,"line":6,"is_transit":false,"transit":false,"distance":0,"time":0,"station_id":"RU","i_lat":-6.314823,"station_name":"Rawa Buntu"},{"is_transit":false,"station_id":"SDM","time":6,"i_long":106.712277,"line":6,"transit":false,"i_lat":-6.296963,"station_name":"Sudimara","distance":4566},{"i_lat":-6.288927,"distance":1994,"i_long":106.728916,"time":4,"station_name":"Jurangmangu","transit":false,"line":6,"is_transit":false,"station_id":"JMU"},{"is_transit":false,"time":3,"distance":2179,"i_long":106.74273,"station_name":"Pondokranji","line":6,"transit":false,"i_lat":-6.276362,"station_id":"PDJ"},{"is_transit":false,"i_long":106.780334,"distance":6218,"time":8,"i_lat":-6.237242,"station_id":"KBY","line":6,"station_name":"Kebayoran","transit":false},{"is_transit":false,"transit":false,"i_lat":-6.207404,"time":7,"i_long":106.79689,"distance":3737,"station_id":"PLM","station_name":"Palmerah","line":6},{"time":6,"distance":3191,"i_long":106.811091,"transit":true,"station_id":"THB","is_transit":true,"station_name":"Tanah Abang","line":1,"i_lat":-6.185545},{"transit":false,"line":1,"i_lat":-6.20132,"distance":2029,"is_transit":false,"station_id":"KAT","station_name":"Karet","time":5,"i_long":106.816351},{"is_transit":false,"station_name":"Sudirman Baru","transit":false,"i_long":106.819881,"distance":471,"station_id":"SUDB","i_lat":-6.201433,"line":1,"time":1},{"is_transit":false,"station_id":"SUD","i_lat":-6.202263,"time":1,"i_long":106.822649,"line":1,"transit":false,"station_name":"Sudirman","distance":280},{"station_name":"Manggarai","is_transit":true,"i_lat":-6.209883,"line":0,"distance":3186,"station_id":"MRI","transit":true,"i_long":106.84912,"time":4},{"distance":1590,"time":4,"is_transit":false,"station_name":"Cikini","i_lat":-6.198556,"i_long":106.840169,"line":0,"station_id":"CKI","transit":false},{"distance":1750,"transit":false,"i_lat":-6.186295,"time":3,"i_long":106.832183,"is_transit":false,"station_id":"GDD","line":2,"station_name":"Gondangdia"},{"line":2,"transit":false,"i_long":106.828284,"distance":2015,"station_id":"JUA","time":4,"station_name":"Juanda","is_transit":false,"i_lat":-6.166716},{"time":2,"i_long":106.827103,"is_transit":false,"distance":1149,"transit":false,"i_lat":-6.160725,"line":2,"station_name":"Sawah Besar","station_id":"SW"},{"i_long":106.82482,"station_name":"Manggabesar","station_id":"MGB","i_lat":-6.149769,"distance":906,"transit":false,"time":2,"is_transit":false,"line":2},{"i_lat":-6.141205,"distance":1080,"station_id":"JAY","time":2,"station_name":"Jayakarta","i_long":106.820901,"line":7,"transit":false,"is_transit":false},{"station_name":"Jakarta Kota","time":4,"i_long":106.812439,"station_id":"JAKK","distance":1264,"i_lat":-6.137569,"is_transit":true,"transit":true,"line":0},{"is_transit":true,"transit":false,"i_lat":-6.132549,"time":3,"i_long":106.826365,"distance":1364,"line":0,"station_id":"KPB","station_name":"Kampung Bandan"},{"is_transit":false,"line":0,"station_id":"AK","distance":4102,"time":9,"i_long":106.79867,"transit":false,"station_name":"Angke","i_lat":-6.144674},{"line":1,"time":4,"distance":1230,"i_lat":-6.155215,"transit":true,"is_transit":true,"station_name":"Duri","i_long":106.800832,"station_id":"DU"},{"station_id":"GGL","station_name":"Grogol","is_transit":false,"i_long":106.788277,"line":5,"distance":1700,"time":3,"transit":false,"i_lat":-6.162021},{"distance":2036,"time":2,"station_name":"Pesing","i_lat":-6.161433,"transit":false,"is_transit":false,"line":5,"station_id":"PSG","i_long":106.771379},{"is_transit":false,"distance":1614,"transit":false,"i_lat":-6.1587309999999995,"station_id":"TKO","i_long":106.756522,"line":5,"time":2,"station_name":"Taman Kota"},{"time":2,"i_lat":-6.159876,"station_name":"Bojongindah","i_long":106.737035,"distance":2334,"station_id":"BOI","transit":false,"is_transit":false,"line":0},{"line":5,"time":4,"station_name":"Rawa Buaya","i_long":106.723064,"is_transit":false,"station_id":"RW","transit":false,"i_lat":-6.162758,"distance":1152},{"i_lat":-6.166068,"i_long":106.701612,"is_transit":false,"station_id":"KDS","transit":false,"line":5,"station_name":"Kalideres","distance":2504,"time":3}],[{"line":6,"station_name":"Rawa Buntu","i_lat":-6.314823,"transit":false,"station_id":"RU","distance":0,"i_long":106.675475,"time":0,"is_transit":false},{"distance":4566,"station_name":"Sudimara","time":6,"transit":false,"i_long":106.712277,"i_lat":-6.296963,"station_id":"SDM","is_transit":false,"line":6},{"line":6,"station_name":"Jurangmangu","is_transit":false,"transit":false,"time":4,"station_id":"JMU","i_lat":-6.288927,"i_long":106.728916,"distance":1994},{"is_transit":false,"station_name":"Pondokranji","i_long":106.74273,"time":3,"line":6,"distance":2179,"transit":false,"i_lat":-6.276362,"station_id":"PDJ"},{"i_lat":-6.237242,"is_transit":false,"transit":false,"distance":6218,"line":6,"station_name":"Kebayoran","station_id":"KBY","time":8,"i_long":106.780334},{"transit":false,"line":6,"station_name":"Palmerah","station_id":"PLM","i_lat":-6.207404,"time":7,"is_transit":false,"i_long":106.79689,"distance":3737},{"transit":true,"line":1,"station_name":"Tanah Abang","i_long":106.811091,"distance":3191,"station_id":"THB","is_transit":true,"i_lat":-6.185545,"time":6},{"time":5,"is_transit":false,"station_id":"KAT","i_lat":-6.20132,"line":1,"i_long":106.816351,"station_name":"Karet","distance":2029,"transit":false},{"station_name":"Sudirman Baru","i_long":106.819881,"transit":false,"station_id":"SUDB","line":1,"is_transit":false,"time":1,"i_lat":-6.201433,"distance":471},{"distance":280,"station_name":"Sudirman","transit":false,"line":1,"time":1,"station_id":"SUD","is_transit":false,"i_lat":-6.202263,"i_long":106.822649},{"i_long":106.84912,"station_id":"MRI","station_name":"Manggarai","distance":3186,"time":4,"i_lat":-6.209883,"line":0,"is_transit":true,"transit":false},{"station_id":"MTR","time":2,"line":1,"transit":false,"distance":1275,"i_lat":-6.212485,"i_long":106.858896,"station_name":"Matraman","is_transit":false},{"line":0,"station_name":"Jatinegara","i_lat":-6.215091,"is_transit":true,"station_id":"JNG","i_long":106.86807400000001,"distance":1377,"transit":true,"time":8},{"is_transit":false,"i_lat":-6.209188,"transit":false,"distance":1236,"i_long":106.861737,"line":11,"station_id":"POK","time":2,"station_name":"Pondok Jati"},{"distance":1829,"i_long":106.855437,"station_id":"KMT","transit":false,"i_lat":-6.193792,"line":11,"station_name":"Kramat","time":2,"is_transit":false},{"distance":973,"time":1,"is_transit":false,"line":11,"station_name":"Gang Sentiong","i_lat":-6.185975,"station_id":"GST","i_long":106.850107,"transit":false},{"is_transit":false,"transit":false,"station_id":"PSE","station_name":"Pasar Senen","line":11,"i_lat":-6.174784,"i_long":106.84368,"distance":1567,"time":8},{"distance":1436,"is_transit":false,"time":4,"transit":false,"i_lat":-6.161728,"station_id":"KMO","station_name":"Kemayoran","i_long":106.839204,"line":11},{"i_long":106.836569,"line":11,"station_id":"RJW","time":5,"station_name":"Rajawali","distance":1901,"is_transit":false,"transit":false,"i_lat":-6.14505},{"time":3,"station_id":"KPB","i_long":106.826365,"i_lat":-6.132549,"distance":1444,"transit":true,"is_transit":true,"station_name":"Kampung Bandan","line":0},{"i_lat":-6.144674,"station_id":"AK","station_name":"Angke","time":9,"i_long":106.79867,"is_transit":false,"transit":false,"distance":4102,"line":0},{"transit":true,"station_name":"Duri","i_lat":-6.155215,"distance":1230,"i_long":106.800832,"time":4,"line":1,"station_id":"DU","is_transit":true},{"i_long":106.788277,"time":3,"i_lat":-6.162021,"line":5,"distance":1700,"station_id":"GGL","station_name":"Grogol","transit":false,"is_transit":false},{"distance":2036,"is_transit":false,"line":5,"transit":false,"station_name":"Pesing","i_long":106.771379,"station_id":"PSG","time":2,"i_lat":-6.161433},{"station_name":"Taman Kota","line":5,"distance":1614,"i_lat":-6.1587309999999995,"station_id":"TKO","time":2,"transit":false,"is_transit":false,"i_long":106.756522},{"distance":2334,"station_id":"BOI","is_transit":false,"station_name":"Bojongindah","i_long":106.737035,"time":2,"transit":false,"i_lat":-6.159876,"line":0},{"station_name":"Rawa Buaya","station_id":"RW","time":4,"line":5,"i_long":106.723064,"transit":false,"i_lat":-6.162758,"is_transit":false,"distance":1152},{"i_long":106.701612,"station_name":"Kalideres","station_id":"KDS","transit":false,"line":5,"i_lat":-6.166068,"distance":2504,"is_transit":false,"time":3}]]}