{"data":[[{"is_transit":false,"station_name":"Rawa Buntu","i_lat":-6.314823,"time":0,"line":6,"station_id":"RU","transit":false,"distance":0,"i_long":106.675475},{"station_name":"Sudimara","i_lat":-6.296963,"i_long":106.712277,"distance":4566,"time":6,"transit":false,"station_id":"SDM","line":6,"is_transit":false},{"distance":1994,"station_id":"JMU","is_transit":false,"transit":false,"i_lat":-6.288927,"station_name":"Jurangmangu","i_long":106.728916,"line":6,"time":4},{"i_lat":-6.276362,"station_id":"PDJ","line":6,"i_long":106.74273,"station_name":"Pondokranji","distance":2179,"time":3,"is_transit":false,"transit":false},{"is_transit":false,"transit":false,"i_long":106.780334,"line":6,"station_id":"KBY","i_lat":-6.237242,"time":8,"distance":6218,"station_name":"Kebayoran"},{"distance":3737,"time":7,"is_transit":false,"station_name":"Palmerah","i_lat":-6.207404,"i_long":106.79689,"transit":false,"line":6,"station_id":"PLM"},{"transit":true,"time":6,"i_lat":-6.185545,"line":1,"station_name":"Tanah Abang","i_long":106.811091,"station_id":"THB","is_transit":true,"distance":3191},{"distance":3632,"is_transit":false,"time":8,"station_id":"DU","i_lat":-6.155215,"station_name":"Duri","transit":false,"line":1,"i_long":106.800832},{"station_id":"AK","i_long":106.79867,"is_transit":false,"station_name":"Angke","i_lat":-6.144674,"time":4,"transit":false,"distance":1230,"line":1},{"station_name":"Kampung Bandan","transit":false,"time":9,"i_long":106.826365,"line":4,"distance":4102,"station_id":"KPB","i_lat":-6.132549,"is_transit":false}],[{"station_id":"RU","i_lat":-6.314823,"transit":false,"station_name":"Rawa Buntu","is_transit":false,"i_long":106.675475,"line":6,"distance":0,"time":0},{"i_long":106.712277,"distance":4566,"time":6,"station_name":"Sudimara","is_transit":false,"station_id":"SDM","transit":false,"line":6,"i_lat":-6.296963},{"station_name":"Jurangmangu","i_long":106.728916,"is_transit":false,"i_lat":-6.288927,"distance":1994,"line":6,"transit":false,"time":4,"station_id":"JMU"},{"i_long":106.74273,"is_transit":false,"time":3,"station_name":"Pondokranji","station_id":"PDJ","transit":false,"distance":2179,"i_lat":-6.276362,"line":6},{"is_transit":false,"line":6,"time":8,"transit":false,"i_long":106.780334,"station_name":"Kebayoran","distance":6218,"station_id":"KBY","i_lat":-6.237242},{"time":7,"station_id":"PLM","is_transit":false,"i_long":106.79689,"station_name":"Palmerah","distance":3737,"transit":false,"line":6,"i_lat":-6.207404},{"time":6,"station_id":"THB","distance":3191,"station_name":"Tanah Abang","transit":true,"i_lat":-6.185545,"i_long":106.811091,"is_transit":true,"line":1},{"line":1,"station_id":"KAT","station_name":"Karet","time":5,"i_lat":-6.20132,"is_transit":false,"transit":false,"distance":2029,"i_long":106.816351},{"station_id":"SUDB","transit":false,"distance":471,"line":1,"is_transit":false,"i_lat":-6.201433,"station_name":"Sudirman Baru","i_long":106.819881,"time":1},{"distance":280,"i_lat":-6.202263,"transit":false,"station_name":"Sudirman","station_id":"SUD","i_long":106.822649,"line":1,"is_transit":false,"time":1},{"station_id":"MRI","i_lat":-6.209883,"i_long":106.84912,"time":4,"line":2,"station_name":"Manggarai","distance":3186,"transit":true,"is_transit":true},{"station_name":"Cikini","time":4,"distance":1590,"transit":false,"station_id":"CKI","line":2,"i_lat":-6.198556,"i_long":106.840169,"is_transit":false},{"i_lat":-6.186295,"distance":1750,"station_id":"GDD","time":3,"is_transit":false,"transit":false,"line":2,"station_name":"Gondangdia","i_long":106.832183},{"i_lat":-6.166716,"is_transit":false,"station_id":"JUA","time":4,"station_name":"Juanda","distance":2015,"transit":false,"i_long":106.828284,"line":2},{"i_long":106.827103,"distance":1149,"station_id":"SW","is_transit":false,"transit":false,"time":2,"station_name":"Sawah Besar","i_lat":-6.160725,"line":2},{"transit":false,"station_name":"Manggabesar","line":2,"i_lat":-6.149769,"time":2,"distance":906,"is_transit":false,"station_id":"MGB","i_long":106.82482},{"distance":1080,"i_lat":-6.141205,"line":2,"station_name":"Jayakarta","i_long":106.820901,"time":2,"station_id":"JAY","is_transit":false,"transit":false},{"distance":1264,"is_transit":true,"station_id":"JAKK","line":2,"transit":true,"i_long":106.812439,"station_name":"Jakarta Kota","time":4,"i_lat":-6.137569},{"distance":1364,"transit":false,"time":3,"station_id":"KPB","line":4,"station_name":"Kampung Bandan","i_lat":-6.132549,"i_long":106.826365,"is_transit":false}],[{"i_lat":-6.314823,"i_long":106.675475,"station_id":"RU","time":0,"distance":0,"is_transit":false,"transit":false,"line":6,"station_name":"Rawa Buntu"},{"distance":4566,"station_id":"SDM","transit":false,"time":6,"i_long":106.712277,"is_transit":false,"station_name":"Sudimara","i_lat":-6.296963,"line":6},{"is_transit":false,"i_long":106.728916,"line":6,"distance":1994,"station_id":"JMU","transit":false,"i_lat":-6.288927,"station_name":"Jurangmangu","time":4},{"line":6,"distance":2179,"i_long":106.74273,"station_id":"PDJ","is_transit":false,"time":3,"transit":false,"station_name":"Pondokranji","i_lat":-6.276362},{"distance":6218,"i_lat":-6.237242,"line":6,"time":8,"is_transit":false,"station_id":"KBY","station_name":"Kebayoran","transit":false,"i_long":106.780334},{"distance":3737,"i_long":106.79689,"line":6,"station_name":"Palmerah","station_id":"PLM","is_transit":false,"transit":false,"time":7,"i_lat":-6.207404},{"transit":true,"i_long":106.811091,"time":6,"station_name":"Tanah Abang","station_id":"THB","line":1,"i_lat":-6.185545,"is_transit":true,"distance":3191},{"transit":false,"line":1,"distance":2029,"time":5,"i_long":106.816351,"is_transit":false,"station_name":"Karet","station_id":"KAT","i_lat":-6.20132},{"station_id":"SUDB","line":1,"transit":false,"time":1,"i_lat":-6.201433,"station_name":"Sudirman Baru","is_transit":false,"i_long":106.819881,"distance":471},{"distance":280,"is_transit":false,"i_lat":-6.202263,"station_name":"Sudirman","i_long":106.822649,"station_id":"SUD","transit":false,"line":1,"time":1},{"i_lat":-6.209883,"is_transit":false,"i_long":106.84912,"time":4,"line":2,"distance":3186,"station_id":"MRI","transit":false,"station_name":"Manggarai"},{"i_lat":-6.212485,"is_transit":false,"line":1,"distance":1275,"station_name":"Matraman","time":2,"i_long":106.858896,"transit":false,"station_id":"MTR"},{"transit":true,"i_lat":-6.215091,"i_long":106.86807400000001,"distance":1377,"time":8,"is_transit":true,"station_name":"Jatinegara","station_id":"JNG","line":1},{"station_name":"Pondok Jati","line":11,"time":2,"transit":false,"distance":1236,"is_transit":false,"i_lat":-6.209188,"station_id":"POK","i_long":106.861737},{"station_id":"KMT","i_long":106.855437,"time":2,"i_lat":-6.193792,"is_transit":false,"transit":false,"distance":1829,"line":11,"station_name":"Kramat"},{"station_name":"Gang Sentiong","is_transit":false,"time":1,"i_long":106.850107,"distance":973,"station_id":"GST","line":11,"i_lat":-6.185975,"transit":false},{"i_lat":-6.174784,"time":8,"distance":1567,"is_transit":false,"station_name":"Pasar Senen","station_id":"PSE","transit":false,"i_long":106.84368,"line":11},{"i_lat":-6.161728,"i_long":106.839204,"time":4,"station_name":"Kemayoran","station_id":"KMO","transit":false,"line":11,"is_transit":false,"distance":1436},{"transit":false,"station_id":"RJW","station_name":"Rajawali","i_lat":-6.14505,"distance":1901,"time":5,"line":11,"is_transit":false,"i_long":106.836569},{"i_lat":-6.132549,"time":3,"distance":1444,"transit":false,"i_long":106.826365,"line":4,"station_name":"Kampung Bandan","is_transit":false,"station_id":"KPB"}]]}