{"data":[[{"time":0,"station_name":"Rawa Buntu","i_lat":-6.314823,"distance":0,"station_id":"RU","line":6,"i_long":106.675475,"transit":false,"is_transit":false},{"station_name":"Sudimara","i_lat":-6.296963,"is_transit":false,"time":6,"i_long":106.712277,"distance":4566,"transit":false,"station_id":"SDM","line":6},{"is_transit":false,"station_name":"Jurangmangu","i_lat":-6.288927,"transit":false,"i_long":106.728916,"time":4,"distance":1994,"line":6,"station_id":"JMU"},{"station_name":"Pondokranji","distance":2179,"time":3,"i_lat":-6.276362,"transit":false,"station_id":"PDJ","is_transit":false,"i_long":106.74273,"line":6},{"i_lat":-6.237242,"station_name":"Kebayoran","line":6,"time":8,"distance":6218,"transit":false,"is_transit":false,"i_long":106.780334,"station_id":"KBY"},{"transit":false,"distance":3737,"i_lat":-6.207404,"station_id":"PLM","i_long":106.79689,"line":6,"is_transit":false,"station_name":"Palmerah","time":7},{"distance":3191,"time":6,"i_long":106.811091,"i_lat":-6.185545,"transit":true,"station_name":"Tanah Abang","station_id":"THB","is_transit":true,"line":1},{"is_transit":false,"station_name":"Karet","time":5,"station_id":"KAT","i_lat":-6.20132,"i_long":106.816351,"distance":2029,"transit":false,"line":1},{"distance":471,"station_name":"Sudirman Baru","time":1,"i_lat":-6.201433,"transit":false,"i_long":106.819881,"station_id":"SUDB","line":1,"is_transit":false},{"transit":false,"i_long":106.822649,"distance":280,"station_id":"SUD","i_lat":-6.202263,"station_name":"Sudirman","is_transit":false,"time":1,"line":1},{"station_id":"MRI","is_transit":false,"i_lat":-6.209883,"transit":false,"distance":3186,"i_long":106.84912,"line":2,"time":4,"station_name":"Manggarai"}],[{"i_lat":-6.314823,"time":0,"is_transit":false,"i_long":106.675475,"station_id":"RU","line":6,"transit":false,"station_name":"Rawa Buntu","distance":0},{"transit":false,"time":6,"station_id":"SDM","i_lat":-6.296963,"station_name":"Sudimara","distance":4566,"is_transit":false,"line":6,"i_long":106.712277},{"i_lat":-6.288927,"transit":false,"i_long":106.728916,"line":6,"station_name":"Jurangmangu","time":4,"distance":1994,"is_transit":false,"station_id":"JMU"},{"time":3,"transit":false,"i_lat":-6.276362,"is_transit":false,"line":6,"station_name":"Pondokranji","station_id":"PDJ","i_long":106.74273,"distance":2179},{"time":8,"station_name":"Kebayoran","i_long":106.780334,"transit":false,"station_id":"KBY","line":6,"i_lat":-6.237242,"is_transit":false,"distance":6218},{"station_name":"Palmerah","i_long":106.79689,"i_lat":-6.207404,"time":7,"station_id":"PLM","is_transit":false,"transit":false,"distance":3737,"line":6},{"time":6,"line":1,"transit":true,"distance":3191,"station_name":"Tanah Abang","station_id":"THB","i_lat":-6.185545,"i_long":106.811091,"is_transit":true},{"distance":3632,"i_lat":-6.155215,"time":8,"i_long":106.800832,"station_id":"DU","line":1,"is_transit":false,"transit":false,"station_name":"Duri"},{"i_lat":-6.144674,"is_transit":false,"distance":1230,"time":4,"i_long":106.79867,"station_id":"AK","line":1,"transit":false,"station_name":"Angke"},{"station_name":"Kampung Bandan","i_lat":-6.132549,"station_id":"KPB","i_long":106.826365,"transit":true,"time":9,"line":4,"is_transit":true,"distance":4102},{"i_lat":-6.137569,"distance":1364,"line":2,"time":3,"transit":true,"station_name":"Jakarta Kota","i_long":106.812439,"station_id":"JAKK","is_transit":true},{"station_name":"Jayakarta","station_id":"JAY","transit":false,"i_long":106.820901,"is_transit":false,"time":4,"i_lat":-6.141205,"distance":1264,"line":2},{"transit":false,"station_name":"Manggabesar","is_transit":false,"i_lat":-6.149769,"distance":1080,"time":2,"line":2,"station_id":"MGB","i_long":106.82482},{"transit":false,"is_transit":false,"time":2,"distance":906,"station_name":"Sawah Besar","i_lat":-6.160725,"i_long":106.827103,"station_id":"SW","line":2},{"i_lat":-6.166716,"line":2,"is_transit":false,"station_id":"JUA","distance":1149,"transit":false,"station_name":"Juanda","time":2,"i_long":106.828284},{"station_name":"Gondangdia","time":4,"i_lat":-6.186295,"station_id":"GDD","transit":false,"distance":2015,"is_transit":false,"i_long":106.832183,"line":2},{"distance":1750,"station_name":"Cikini","i_lat":-6.198556,"time":3,"i_long":106.840169,"transit":false,"station_id":"CKI","is_transit":false,"line":2},{"transit":false,"is_transit":false,"station_name":"Manggarai","i_long":106.84912,"line":2,"i_lat":-6.209883,"station_id":"MRI","time":4,"distance":1590}],[{"i_lat":-6.314823,"is_transit":false,"time":0,"transit":false,"distance":0,"line":6,"station_id":"RU","i_long":106.675475,"station_name":"Rawa Buntu"},{"station_name":"Sudimara","distance":4566,"time":6,"station_id":"SDM","i_long":106.712277,"transit":false,"i_lat":-6.296963,"is_transit":false,"line":6},{"is_transit":false,"i_lat":-6.288927,"i_long":106.728916,"station_id":"JMU","time":4,"line":6,"distance":1994,"transit":false,"station_name":"Jurangmangu"},{"transit":false,"time":3,"distance":2179,"i_long":106.74273,"station_name":"Pondokranji","i_lat":-6.276362,"is_transit":false,"line":6,"station_id":"PDJ"},{"time":8,"station_name":"Kebayoran","station_id":"KBY","transit":false,"is_transit":false,"i_long":106.780334,"distance":6218,"line":6,"i_lat":-6.237242},{"i_lat":-6.207404,"time":7,"transit":false,"is_transit":false,"station_name":"Palmerah","distance":3737,"i_long":106.79689,"line":6,"station_id":"PLM"},{"i_lat":-6.185545,"is_transit":true,"i_long":106.811091,"transit":true,"time":6,"line":1,"station_id":"THB","distance":3191,"station_name":"Tanah Abang"},{"i_lat":-6.155215,"time":8,"station_id":"DU","distance":3632,"line":1,"transit":false,"i_long":106.800832,"is_transit":false,"station_name":"Duri"},{"distance":1230,"time":4,"station_id":"AK","is_transit":false,"i_lat":-6.144674,"station_name":"Angke","i_long":106.79867,"line":1,"transit":false},{"i_lat":-6.132549,"i_long":106.826365,"time":9,"is_transit":true,"distance":4102,"transit":true,"station_name":"Kampung Bandan","line":4,"station_id":"KPB"},{"station_name":"Rajawali","line":11,"time":3,"station_id":"RJW","i_lat":-6.14505,"transit":false,"distance":1444,"is_transit":false,"i_long":106.836569},{"station_id":"KMO","is_transit":false,"station_name":"Kemayoran","time":5,"line":11,"transit":false,"i_lat":-6.161728,"distance":1901,"i_long":106.839204},{"transit":false,"i_lat":-6.174784,"is_transit":false,"i_long":106.84368,"station_id":"PSE","time":4,"distance":1436,"line":11,"station_name":"Pasar Senen"},{"station_name":"Gang Sentiong","distance":1567,"i_lat":-6.185975,"i_long":106.850107,"is_transit":false,"time":8,"line":11,"transit":false,"station_id":"GST"},{"is_transit":false,"distance":973,"i_long":106.855437,"station_name":"Kramat","line":11,"time":1,"i_lat":-6.193792,"transit":false,"station_id":"KMT"},{"i_long":106.861737,"i_lat":-6.209188,"distance":1829,"transit":false,"time":2,"is_transit":false,"station_name":"Pondok Jati","station_id":"POK","line":11},{"i_lat":-6.215091,"i_long":106.86807400000001,"is_transit":true,"station_id":"JNG","transit":true,"time":9,"distance":1236,"line":1,"station_name":"Jatinegara"},{"time":2,"i_long":106.858896,"distance":1377,"is_transit":false,"station_id":"MTR","i_lat":-6.212485,"station_name":"Matraman","transit":false,"line":1},{"i_lat":-6.209883,"is_transit":false,"station_name":"Manggarai","time":2,"station_id":"MRI","transit":false,"line":2,"distance":1275,"i_long":106.84912}]]}