{"data":[[{"line":6,"station_name":"Rawa Buntu","is_transit":false,"distance":0,"station_id":"RU","transit":false,"time":0,"i_lat":-6.314823,"i_long":106.675475},{"i_long":106.712277,"i_lat":-6.296963,"station_name":"Sudimara","time":6,"station_id":"SDM","distance":4566,"is_transit":false,"line":6,"transit":false},{"i_lat":-6.288927,"station_name":"Jurangmangu","line":6,"transit":false,"i_long":106.728916,"is_transit":false,"time":4,"distance":1994,"station_id":"JMU"},{"i_long":106.74273,"distance":2179,"time":3,"is_transit":false,"transit":false,"i_lat":-6.276362,"line":6,"station_name":"Pondokranji","station_id":"PDJ"},{"line":6,"station_id":"KBY","station_name":"Kebayoran","is_transit":false,"i_long":106.780334,"distance":6218,"transit":false,"time":8,"i_lat":-6.237242},{"i_lat":-6.207404,"distance":3737,"station_id":"PLM","is_transit":false,"station_name":"Palmerah","i_long":106.79689,"time":7,"line":6,"transit":false},{"i_long":106.811091,"station_id":"THB","line":1,"transit":true,"time":6,"station_name":"Tanah Abang","distance":3191,"is_transit":true,"i_lat":-6.185545},{"station_name":"Duri","is_transit":false,"line":1,"transit":false,"time":8,"station_id":"DU","distance":3632,"i_lat":-6.155215,"i_long":106.800832},{"transit":false,"station_name":"Angke","station_id":"AK","i_lat":-6.144674,"time":4,"i_long":106.79867,"distance":1230,"line":1,"is_transit":false},{"distance":4102,"transit":true,"time":9,"line":4,"i_lat":-6.132549,"station_id":"KPB","station_name":"Kampung Bandan","is_transit":true,"i_long":106.826365},{"i_long":106.812439,"is_transit":true,"transit":true,"i_lat":-6.137569,"time":3,"station_name":"Jakarta Kota","line":2,"station_id":"JAKK","distance":1364},{"station_id":"JAY","time":4,"transit":false,"line":2,"i_long":106.820901,"is_transit":false,"station_name":"Jayakarta","distance":1264,"i_lat":-6.141205},{"transit":false,"time":2,"i_long":106.82482,"i_lat":-6.149769,"station_name":"Manggabesar","line":2,"distance":1080,"is_transit":false,"station_id":"MGB"}],[{"station_id":"RU","time":0,"is_transit":false,"distance":0,"i_lat":-6.314823,"line":6,"i_long":106.675475,"transit":false,"station_name":"Rawa Buntu"},{"time":6,"transit":false,"i_lat":-6.296963,"line":6,"is_transit":false,"station_id":"SDM","station_name":"Sudimara","i_long":106.712277,"distance":4566},{"transit":false,"time":4,"is_transit":false,"station_name":"Jurangmangu","i_lat":-6.288927,"i_long":106.728916,"station_id":"JMU","line":6,"distance":1994},{"time":3,"transit":false,"i_lat":-6.276362,"line":6,"distance":2179,"station_name":"Pondokranji","i_long":106.74273,"station_id":"PDJ","is_transit":false},{"time":8,"line":6,"i_long":106.780334,"station_name":"Kebayoran","transit":false,"is_transit":false,"i_lat":-6.237242,"distance":6218,"station_id":"KBY"},{"station_id":"PLM","station_name":"Palmerah","line":6,"time":7,"i_lat":-6.207404,"i_long":106.79689,"distance":3737,"transit":false,"is_transit":false},{"station_id":"THB","i_lat":-6.185545,"distance":3191,"i_long":106.811091,"transit":true,"time":6,"line":1,"is_transit":true,"station_name":"Tanah Abang"},{"station_name":"Karet","i_long":106.816351,"line":1,"transit":false,"station_id":"KAT","distance":2029,"i_lat":-6.20132,"time":5,"is_transit":false},{"transit":false,"distance":471,"time":1,"is_transit":false,"i_long":106.819881,"station_name":"Sudirman Baru","i_lat":-6.201433,"line":1,"station_id":"SUDB"},{"i_long":106.822649,"time":1,"is_transit":false,"transit":false,"distance":280,"line":1,"i_lat":-6.202263,"station_id":"SUD","station_name":"Sudirman"},{"is_transit":true,"transit":true,"station_id":"MRI","time":4,"distance":3186,"line":2,"i_lat":-6.209883,"station_name":"Manggarai","i_long":106.84912},{"station_id":"CKI","is_transit":false,"station_name":"Cikini","i_lat":-6.198556,"line":2,"i_long":106.840169,"distance":1590,"time":4,"transit":false},{"i_lat":-6.186295,"i_long":106.832183,"line":2,"is_transit":false,"transit":false,"distance":1750,"time":3,"station_name":"Gondangdia","station_id":"GDD"},{"is_transit":false,"station_name":"Juanda","i_lat":-6.166716,"distance":2015,"line":2,"time":4,"i_long":106.828284,"transit":false,"station_id":"JUA"},{"is_transit":false,"distance":1149,"i_long":106.827103,"station_id":"SW","transit":false,"time":2,"i_lat":-6.160725,"station_name":"Sawah Besar","line":2},{"line":2,"station_name":"Manggabesar","i_long":106.82482,"transit":false,"station_id":"MGB","distance":906,"is_transit":false,"i_lat":-6.149769,"time":2}],[{"transit":false,"line":6,"is_transit":false,"time":0,"station_name":"Rawa Buntu","i_long":106.675475,"distance":0,"station_id":"RU","i_lat":-6.314823},{"i_long":106.712277,"line":6,"transit":false,"distance":4566,"is_transit":false,"station_name":"Sudimara","i_lat":-6.296963,"time":6,"station_id":"SDM"},{"distance":1994,"transit":false,"i_long":106.728916,"line":6,"is_transit":false,"station_name":"Jurangmangu","i_lat":-6.288927,"station_id":"JMU","time":4},{"transit":false,"distance":2179,"is_transit":false,"station_id":"PDJ","station_name":"Pondokranji","i_long":106.74273,"time":3,"i_lat":-6.276362,"line":6},{"is_transit":false,"i_lat":-6.237242,"transit":false,"i_long":106.780334,"line":6,"time":8,"station_id":"KBY","station_name":"Kebayoran","distance":6218},{"is_transit":false,"time":7,"transit":false,"line":6,"distance":3737,"i_long":106.79689,"station_name":"Palmerah","station_id":"PLM","i_lat":-6.207404},{"station_id":"THB","is_transit":true,"i_lat":-6.185545,"station_name":"Tanah Abang","line":1,"time":6,"distance":3191,"transit":true,"i_long":106.811091},{"is_transit":false,"distance":2029,"line":1,"transit":false,"i_long":106.816351,"time":5,"station_name":"Karet","station_id":"KAT","i_lat":-6.20132},{"is_transit":false,"i_long":106.819881,"distance":471,"time":1,"line":1,"transit":false,"station_name":"Sudirman Baru","station_id":"SUDB","i_lat":-6.201433},{"is_transit":false,"distance":280,"station_name":"Sudirman","i_lat":-6.202263,"station_id":"SUD","time":1,"i_long":106.822649,"transit":false,"line":1},{"line":2,"transit":false,"i_long":106.84912,"distance":3186,"station_name":"Manggarai","station_id":"MRI","time":4,"i_lat":-6.209883,"is_transit":false},{"is_transit":false,"i_long":106.858896,"time":2,"i_lat":-6.212485,"line":1,"distance":1275,"transit":false,"station_name":"Matraman","station_id":"MTR"},{"transit":true,"station_id":"JNG","i_lat":-6.215091,"i_long":106.86807400000001,"time":8,"is_transit":true,"distance":1377,"station_name":"Jatinegara","line":1},{"distance":1236,"i_lat":-6.209188,"line":11,"time":2,"is_transit":false,"station_name":"Pondok Jati","transit":false,"i_long":106.861737,"station_id":"POK"},{"transit":false,"line":11,"i_lat":-6.193792,"station_name":"Kramat","distance":1829,"time":2,"is_transit":false,"station_id":"KMT","i_long":106.855437},{"is_transit":false,"transit":false,"i_lat":-6.185975,"i_long":106.850107,"line":11,"station_name":"Gang Sentiong","distance":973,"time":1,"station_id":"GST"},{"i_long":106.84368,"transit":false,"station_id":"PSE","time":8,"station_name":"Pasar Senen","i_lat":-6.174784,"distance":1567,"line":11,"is_transit":false},{"line":11,"is_transit":false,"station_name":"Kemayoran","transit":false,"station_id":"KMO","distance":1436,"time":4,"i_lat":-6.161728,"i_long":106.839204},{"time":5,"transit":false,"distance":1901,"line":11,"station_id":"RJW","i_lat":-6.14505,"is_transit":false,"station_name":"Rajawali","i_long":106.836569},{"is_transit":true,"transit":true,"station_name":"Kampung Bandan","i_lat":-6.132549,"line":4,"i_long":106.826365,"time":3,"distance":1444,"station_id":"KPB"},{"i_long":106.812439,"line":2,"station_name":"Jakarta Kota","transit":true,"station_id":"JAKK","distance":1364,"time":3,"i_lat":-6.137569,"is_transit":true},{"time":4,"line":2,"is_transit":false,"station_id":"JAY","i_lat":-6.141205,"distance":1264,"station_name":"Jayakarta","i_long":106.820901,"transit":false},{"station_id":"MGB","line":2,"distance":1080,"transit":false,"station_name":"Manggabesar","is_transit":false,"time":2,"i_lat":-6.149769,"i_long":106.82482}],[{"time":0,"i_long":106.675475,"station_id":"RU","line":6,"distance":0,"transit":false,"station_name":"Rawa Buntu","i_lat":-6.314823,"is_transit":false},{"transit":false,"is_transit":false,"i_lat":-6.296963,"station_id":"SDM","station_name":"Sudimara","line":6,"time":6,"i_long":106.712277,"distance":4566},{"is_transit":false,"station_name":"Jurangmangu","transit":false,"station_id":"JMU","time":4,"i_lat":-6.288927,"distance":1994,"i_long":106.728916,"line":6},{"i_lat":-6.276362,"transit":false,"is_transit":false,"i_long":106.74273,"station_id":"PDJ","line":6,"station_name":"Pondokranji","time":3,"distance":2179},{"transit":false,"line":6,"station_id":"KBY","distance":6218,"time":8,"i_lat":-6.237242,"station_name":"Kebayoran","is_transit":false,"i_long":106.780334},{"time":7,"station_name":"Palmerah","i_long":106.79689,"line":6,"is_transit":false,"transit":false,"i_lat":-6.207404,"station_id":"PLM","distance":3737},{"i_lat":-6.185545,"station_name":"Tanah Abang","line":1,"transit":true,"i_long":106.811091,"is_transit":true,"time":6,"station_id":"THB","distance":3191},{"station_id":"DU","line":1,"time":8,"i_long":106.800832,"transit":false,"distance":3632,"is_transit":false,"i_lat":-6.155215,"station_name":"Duri"},{"line":1,"time":4,"i_lat":-6.144674,"transit":false,"distance":1230,"station_name":"Angke","station_id":"AK","i_long":106.79867,"is_transit":false},{"line":4,"i_lat":-6.132549,"transit":true,"distance":4102,"station_name":"Kampung Bandan","station_id":"KPB","is_transit":true,"time":9,"i_long":106.826365},{"distance":1444,"transit":false,"station_name":"Rajawali","is_transit":false,"station_id":"RJW","i_lat":-6.14505,"i_long":106.836569,"line":11,"time":3},{"is_transit":false,"station_name":"Kemayoran","line":11,"distance":1901,"station_id":"KMO","time":5,"transit":false,"i_lat":-6.161728,"i_long":106.839204},{"i_lat":-6.174784,"is_transit":false,"time":4,"transit":false,"station_id":"PSE","i_long":106.84368,"line":11,"station_name":"Pasar Senen","distance":1436},{"is_transit":false,"i_lat":-6.185975,"time":8,"transit":false,"distance":1567,"line":11,"station_name":"Gang Sentiong","station_id":"GST","i_long":106.850107},{"i_long":106.855437,"transit":false,"distance":973,"line":11,"i_lat":-6.193792,"station_id":"KMT","is_transit":false,"station_name":"Kramat","time":1},{"transit":false,"i_lat":-6.209188,"station_name":"Pondok Jati","distance":1829,"station_id":"POK","i_long":106.861737,"time":2,"line":11,"is_transit":false},{"station_name":"Jatinegara","distance":1236,"is_transit":true,"i_long":106.86807400000001,"station_id":"JNG","i_lat":-6.215091,"transit":true,"line":1,"time":9},{"transit":false,"station_id":"MTR","distance":1377,"i_lat":-6.212485,"i_long":106.858896,"time":2,"line":1,"station_name":"Matraman","is_transit":false},{"station_name":"Manggarai","i_long":106.84912,"line":2,"transit":true,"distance":1275,"i_lat":-6.209883,"time":2,"station_id":"MRI","is_transit":true},{"line":2,"i_long":106.840169,"is_transit":false,"station_name":"Cikini","station_id":"CKI","time":4,"i_lat":-6.198556,"transit":false,"distance":1590},{"time":3,"station_name":"Gondangdia","distance":1750,"station_id":"GDD","transit":false,"i_lat":-6.186295,"line":2,"i_long":106.832183,"is_transit":false},{"distance":2015,"is_transit":false,"i_lat":-6.166716,"time":4,"i_long":106.828284,"station_name":"Juanda","line":2,"transit":false,"station_id":"JUA"},{"distance":1149,"i_lat":-6.160725,"time":2,"station_name":"Sawah Besar","transit":false,"station_id":"SW","is_transit":false,"line":2,"i_long":106.827103},{"station_id":"MGB","i_lat":-6.149769,"distance":906,"is_transit":false,"transit":false,"time":2,"line":2,"station_name":"Manggabesar","i_long":106.82482}]]}