{"data":[[{"time":0,"distance":0,"station_id":"RU","i_lat":-6.314823,"is_transit":false,"i_long":106.675475,"line":6,"transit":false,"station_name":"Rawa Buntu"},{"is_transit":false,"time":6,"line":6,"station_name":"Sudimara","transit":false,"station_id":"SDM","distance":4566,"i_lat":-6.296963,"i_long":106.712277},{"transit":false,"is_transit":false,"i_long":106.728916,"station_id":"JMU","line":6,"distance":1994,"time":4,"station_name":"Jurangmangu","i_lat":-6.288927},{"i_long":106.74273,"transit":false,"distance":2179,"is_transit":false,"time":3,"station_id":"PDJ","line":6,"i_lat":-6.276362,"station_name":"Pondokranji"},{"i_long":106.780334,"i_lat":-6.237242,"is_transit":false,"line":6,"station_name":"Kebayoran","station_id":"KBY","transit":false,"time":8,"distance":6218},{"i_long":106.79689,"i_lat":-6.207404,"station_id":"PLM","line":6,"station_name":"Palmerah","transit":false,"is_transit":false,"distance":3737,"time":7},{"transit":true,"distance":3191,"line":1,"i_long":106.811091,"station_name":"Tanah Abang","i_lat":-6.185545,"station_id":"THB","time":6,"is_transit":true},{"distance":2029,"station_id":"KAT","i_lat":-6.20132,"line":1,"transit":false,"station_name":"Karet","is_transit":false,"time":5,"i_long":106.816351},{"transit":false,"time":1,"line":1,"distance":471,"i_long":106.819881,"is_transit":false,"station_name":"Sudirman Baru","i_lat":-6.201433,"station_id":"SUDB"},{"i_long":106.822649,"transit":false,"time":1,"is_transit":false,"distance":280,"station_id":"SUD","station_name":"Sudirman","i_lat":-6.202263,"line":1},{"line":2,"i_long":106.84912,"distance":3186,"transit":false,"time":4,"is_transit":false,"station_name":"Manggarai","station_id":"MRI","i_lat":-6.209883}],[{"i_lat":-6.314823,"transit":false,"time":0,"station_name":"Rawa Buntu","distance":0,"station_id":"RU","i_long":106.675475,"line":6,"is_transit":false},{"station_name":"Sudimara","is_transit":false,"line":6,"distance":4566,"time":6,"station_id":"SDM","transit":false,"i_lat":-6.296963,"i_long":106.712277},{"station_id":"JMU","i_lat":-6.288927,"station_name":"Jurangmangu","distance":1994,"time":4,"i_long":106.728916,"transit":false,"is_transit":false,"line":6},{"transit":false,"line":6,"i_lat":-6.276362,"time":3,"station_id":"PDJ","i_long":106.74273,"station_name":"Pondokranji","is_transit":false,"distance":2179},{"transit":false,"time":8,"i_lat":-6.237242,"station_id":"KBY","line":6,"station_name":"Kebayoran","distance":6218,"i_long":106.780334,"is_transit":false},{"i_lat":-6.207404,"i_long":106.79689,"is_transit":false,"transit":false,"time":7,"distance":3737,"station_id":"PLM","station_name":"Palmerah","line":6},{"station_id":"THB","i_lat":-6.185545,"is_transit":true,"time":6,"distance":3191,"i_long":106.811091,"line":1,"station_name":"Tanah Abang","transit":true},{"line":1,"transit":false,"i_lat":-6.155215,"time":8,"i_long":106.800832,"is_transit":false,"distance":3632,"station_id":"DU","station_name":"Duri"},{"i_long":106.79867,"line":1,"station_name":"Angke","is_transit":false,"time":4,"station_id":"AK","i_lat":-6.144674,"transit":false,"distance":1230},{"time":9,"is_transit":true,"transit":true,"i_long":106.826365,"station_name":"Kampung Bandan","i_lat":-6.132549,"distance":4102,"station_id":"KPB","line":4},{"line":2,"station_id":"JAKK","i_long":106.812439,"is_transit":true,"transit":true,"distance":1364,"time":3,"i_lat":-6.137569,"station_name":"Jakarta Kota"},{"i_lat":-6.141205,"line":2,"distance":1264,"station_name":"Jayakarta","is_transit":false,"transit":false,"station_id":"JAY","i_long":106.820901,"time":4},{"i_lat":-6.149769,"station_name":"Manggabesar","is_transit":false,"time":2,"station_id":"MGB","transit":false,"i_long":106.82482,"line":2,"distance":1080},{"transit":false,"distance":906,"is_transit":false,"time":2,"line":2,"i_lat":-6.160725,"station_id":"SW","i_long":106.827103,"station_name":"Sawah Besar"},{"time":2,"station_id":"JUA","station_name":"Juanda","i_lat":-6.166716,"distance":1149,"i_long":106.828284,"transit":false,"is_transit":false,"line":2},{"distance":2015,"is_transit":false,"station_id":"GDD","i_long":106.832183,"i_lat":-6.186295,"line":2,"transit":false,"time":4,"station_name":"Gondangdia"},{"is_transit":false,"i_long":106.840169,"transit":false,"i_lat":-6.198556,"line":2,"distance":1750,"time":3,"station_id":"CKI","station_name":"Cikini"},{"transit":false,"is_transit":false,"distance":1590,"i_long":106.84912,"station_name":"Manggarai","station_id":"MRI","time":4,"line":2,"i_lat":-6.209883}],[{"line":6,"station_id":"RU","i_long":106.675475,"transit":false,"is_transit":false,"i_lat":-6.314823,"distance":0,"station_name":"Rawa Buntu","time":0},{"station_id":"SDM","station_name":"Sudimara","transit":false,"is_transit":false,"line":6,"i_long":106.712277,"time":6,"distance":4566,"i_lat":-6.296963},{"transit":false,"i_long":106.728916,"distance":1994,"time":4,"is_transit":false,"station_name":"Jurangmangu","station_id":"JMU","i_lat":-6.288927,"line":6},{"i_long":106.74273,"station_name":"Pondokranji","transit":false,"i_lat":-6.276362,"distance":2179,"is_transit":false,"line":6,"station_id":"PDJ","time":3},{"station_id":"KBY","i_lat":-6.237242,"line":6,"distance":6218,"i_long":106.780334,"time":8,"transit":false,"station_name":"Kebayoran","is_transit":false},{"station_name":"Palmerah","i_long":106.79689,"distance":3737,"time":7,"transit":false,"is_transit":false,"line":6,"station_id":"PLM","i_lat":-6.207404},{"distance":3191,"transit":true,"i_lat":-6.185545,"time":6,"line":1,"is_transit":true,"station_id":"THB","i_long":106.811091,"station_name":"Tanah Abang"},{"i_lat":-6.155215,"station_name":"Duri","time":8,"distance":3632,"i_long":106.800832,"transit":false,"station_id":"DU","is_transit":false,"line":1},{"time":4,"is_transit":false,"i_long":106.79867,"station_id":"AK","line":1,"transit":false,"station_name":"Angke","distance":1230,"i_lat":-6.144674},{"i_long":106.826365,"is_transit":true,"station_id":"KPB","station_name":"Kampung Bandan","distance":4102,"line":4,"i_lat":-6.132549,"time":9,"transit":true},{"i_long":106.836569,"station_id":"RJW","line":11,"distance":1444,"time":3,"station_name":"Rajawali","transit":false,"is_transit":false,"i_lat":-6.14505},{"transit":false,"time":5,"i_long":106.839204,"is_transit":false,"line":11,"station_name":"Kemayoran","distance":1901,"station_id":"KMO","i_lat":-6.161728},{"distance":1436,"is_transit":false,"transit":false,"i_lat":-6.174784,"i_long":106.84368,"station_name":"Pasar Senen","time":4,"line":11,"station_id":"PSE"},{"is_transit":false,"i_lat":-6.185975,"time":8,"station_id":"GST","line":11,"distance":1567,"i_long":106.850107,"transit":false,"station_name":"Gang Sentiong"},{"station_name":"Kramat","i_long":106.855437,"distance":973,"i_lat":-6.193792,"transit":false,"is_transit":false,"time":1,"line":11,"station_id":"KMT"},{"station_name":"Pondok Jati","time":2,"distance":1829,"i_lat":-6.209188,"is_transit":false,"i_long":106.861737,"station_id":"POK","transit":false,"line":11},{"time":9,"i_long":106.86807400000001,"transit":true,"distance":1236,"station_name":"Jatinegara","station_id":"JNG","i_lat":-6.215091,"is_transit":true,"line":1},{"i_long":106.858896,"time":2,"transit":false,"line":1,"i_lat":-6.212485,"is_transit":false,"distance":1377,"station_name":"Matraman","station_id":"MTR"},{"time":2,"distance":1275,"station_name":"Manggarai","i_lat":-6.209883,"station_id":"MRI","i_long":106.84912,"is_transit":false,"transit":false,"line":2}]]}