{"data":[[{"station_name":"Rawa Buntu","time":0,"i_long":106.675475,"transit":false,"distance":0,"i_lat":-6.314823,"line":6,"station_id":"RU","is_transit":false},{"i_long":106.712277,"time":6,"transit":false,"station_name":"Sudimara","line":6,"is_transit":false,"station_id":"SDM","distance":4566,"i_lat":-6.296963},{"distance":1994,"station_id":"JMU","line":6,"station_name":"Jurangmangu","transit":false,"i_lat":-6.288927,"time":4,"i_long":106.728916,"is_transit":false},{"line":6,"station_name":"Pondokranji","station_id":"PDJ","is_transit":false,"i_lat":-6.276362,"time":3,"distance":2179,"i_long":106.74273,"transit":false},{"station_name":"Kebayoran","transit":false,"station_id":"KBY","i_lat":-6.237242,"time":8,"i_long":106.780334,"distance":6218,"line":6,"is_transit":false},{"i_lat":-6.207404,"line":6,"i_long":106.79689,"time":7,"station_name":"Palmerah","transit":false,"is_transit":false,"station_id":"PLM","distance":3737},{"transit":true,"is_transit":true,"time":6,"station_name":"Tanah Abang","distance":3191,"i_long":106.811091,"i_lat":-6.185545,"line":1,"station_id":"THB"},{"time":8,"line":1,"is_transit":false,"transit":false,"station_id":"DU","distance":3632,"i_long":106.800832,"station_name":"Duri","i_lat":-6.155215},{"line":1,"time":4,"i_long":106.79867,"station_name":"Angke","is_transit":false,"station_id":"AK","transit":false,"distance":1230,"i_lat":-6.144674},{"station_name":"Kampung Bandan","line":4,"is_transit":true,"time":9,"distance":4102,"transit":true,"i_lat":-6.132549,"station_id":"KPB","i_long":106.826365},{"station_name":"Jakarta Kota","station_id":"JAKK","i_long":106.812439,"transit":true,"is_transit":true,"time":3,"i_lat":-6.137569,"line":2,"distance":1364},{"distance":1264,"station_name":"Jayakarta","is_transit":false,"line":2,"station_id":"JAY","transit":false,"i_lat":-6.141205,"time":4,"i_long":106.820901},{"is_transit":false,"time":2,"transit":false,"station_name":"Manggabesar","i_lat":-6.149769,"distance":1080,"station_id":"MGB","i_long":106.82482,"line":2}],[{"i_long":106.675475,"i_lat":-6.314823,"station_id":"RU","line":6,"transit":false,"is_transit":false,"station_name":"Rawa Buntu","time":0,"distance":0},{"i_lat":-6.296963,"i_long":106.712277,"is_transit":false,"station_name":"Sudimara","time":6,"distance":4566,"line":6,"transit":false,"station_id":"SDM"},{"transit":false,"station_name":"Jurangmangu","distance":1994,"i_long":106.728916,"station_id":"JMU","is_transit":false,"line":6,"time":4,"i_lat":-6.288927},{"is_transit":false,"distance":2179,"i_long":106.74273,"line":6,"station_id":"PDJ","time":3,"station_name":"Pondokranji","i_lat":-6.276362,"transit":false},{"distance":6218,"time":8,"is_transit":false,"station_id":"KBY","i_lat":-6.237242,"i_long":106.780334,"transit":false,"line":6,"station_name":"Kebayoran"},{"line":6,"time":7,"transit":false,"distance":3737,"i_long":106.79689,"i_lat":-6.207404,"is_transit":false,"station_id":"PLM","station_name":"Palmerah"},{"station_name":"Tanah Abang","line":1,"is_transit":true,"time":6,"distance":3191,"i_lat":-6.185545,"station_id":"THB","i_long":106.811091,"transit":true},{"is_transit":false,"station_name":"Karet","distance":2029,"station_id":"KAT","transit":false,"i_long":106.816351,"i_lat":-6.20132,"time":5,"line":1},{"station_id":"SUDB","time":1,"is_transit":false,"distance":471,"line":1,"transit":false,"station_name":"Sudirman Baru","i_lat":-6.201433,"i_long":106.819881},{"transit":false,"i_lat":-6.202263,"station_name":"Sudirman","i_long":106.822649,"is_transit":false,"time":1,"station_id":"SUD","distance":280,"line":1},{"i_lat":-6.209883,"time":4,"station_id":"MRI","i_long":106.84912,"transit":true,"is_transit":true,"station_name":"Manggarai","line":2,"distance":3186},{"station_name":"Cikini","distance":1590,"is_transit":false,"line":2,"time":4,"i_lat":-6.198556,"station_id":"CKI","i_long":106.840169,"transit":false},{"station_id":"GDD","i_lat":-6.186295,"line":2,"distance":1750,"i_long":106.832183,"transit":false,"station_name":"Gondangdia","is_transit":false,"time":3},{"time":4,"station_name":"Juanda","is_transit":false,"i_lat":-6.166716,"i_long":106.828284,"line":2,"transit":false,"distance":2015,"station_id":"JUA"},{"i_lat":-6.160725,"time":2,"is_transit":false,"distance":1149,"station_id":"SW","i_long":106.827103,"transit":false,"station_name":"Sawah Besar","line":2},{"is_transit":false,"station_id":"MGB","station_name":"Manggabesar","distance":906,"transit":false,"i_lat":-6.149769,"line":2,"time":2,"i_long":106.82482}],[{"station_name":"Rawa Buntu","transit":false,"is_transit":false,"station_id":"RU","time":0,"distance":0,"i_long":106.675475,"i_lat":-6.314823,"line":6},{"distance":4566,"i_long":106.712277,"station_name":"Sudimara","transit":false,"i_lat":-6.296963,"time":6,"station_id":"SDM","is_transit":false,"line":6},{"distance":1994,"is_transit":false,"time":4,"transit":false,"station_name":"Jurangmangu","i_lat":-6.288927,"line":6,"station_id":"JMU","i_long":106.728916},{"station_name":"Pondokranji","station_id":"PDJ","distance":2179,"line":6,"time":3,"i_lat":-6.276362,"is_transit":false,"i_long":106.74273,"transit":false},{"i_lat":-6.237242,"station_name":"Kebayoran","station_id":"KBY","i_long":106.780334,"line":6,"is_transit":false,"distance":6218,"time":8,"transit":false},{"i_long":106.79689,"time":7,"station_id":"PLM","is_transit":false,"line":6,"transit":false,"distance":3737,"station_name":"Palmerah","i_lat":-6.207404},{"transit":true,"is_transit":true,"distance":3191,"station_name":"Tanah Abang","i_lat":-6.185545,"time":6,"station_id":"THB","i_long":106.811091,"line":1},{"i_long":106.816351,"transit":false,"time":5,"is_transit":false,"station_id":"KAT","i_lat":-6.20132,"line":1,"station_name":"Karet","distance":2029},{"i_long":106.819881,"line":1,"transit":false,"station_id":"SUDB","i_lat":-6.201433,"distance":471,"time":1,"is_transit":false,"station_name":"Sudirman Baru"},{"distance":280,"time":1,"line":1,"i_long":106.822649,"station_name":"Sudirman","i_lat":-6.202263,"transit":false,"station_id":"SUD","is_transit":false},{"time":4,"transit":false,"station_name":"Manggarai","i_lat":-6.209883,"i_long":106.84912,"line":2,"is_transit":false,"distance":3186,"station_id":"MRI"},{"time":2,"is_transit":false,"station_name":"Matraman","station_id":"MTR","line":1,"i_long":106.858896,"distance":1275,"i_lat":-6.212485,"transit":false},{"station_name":"Jatinegara","distance":1377,"i_long":106.86807400000001,"line":1,"i_lat":-6.215091,"is_transit":true,"time":8,"transit":true,"station_id":"JNG"},{"transit":false,"i_long":106.861737,"line":11,"station_name":"Pondok Jati","time":2,"distance":1236,"i_lat":-6.209188,"is_transit":false,"station_id":"POK"},{"distance":1829,"time":2,"is_transit":false,"transit":false,"station_id":"KMT","i_lat":-6.193792,"line":11,"station_name":"Kramat","i_long":106.855437},{"i_lat":-6.185975,"i_long":106.850107,"line":11,"station_name":"Gang Sentiong","time":1,"distance":973,"station_id":"GST","is_transit":false,"transit":false},{"distance":1567,"time":8,"i_long":106.84368,"line":11,"transit":false,"station_id":"PSE","i_lat":-6.174784,"station_name":"Pasar Senen","is_transit":false},{"station_name":"Kemayoran","transit":false,"i_lat":-6.161728,"line":11,"is_transit":false,"time":4,"station_id":"KMO","distance":1436,"i_long":106.839204},{"distance":1901,"i_lat":-6.14505,"i_long":106.836569,"transit":false,"is_transit":false,"station_id":"RJW","station_name":"Rajawali","line":11,"time":5},{"i_long":106.826365,"station_id":"KPB","time":3,"i_lat":-6.132549,"line":4,"transit":true,"station_name":"Kampung Bandan","is_transit":true,"distance":1444},{"station_id":"JAKK","i_lat":-6.137569,"time":3,"station_name":"Jakarta Kota","distance":1364,"line":2,"i_long":106.812439,"transit":true,"is_transit":true},{"station_id":"JAY","i_long":106.820901,"line":2,"is_transit":false,"time":4,"station_name":"Jayakarta","distance":1264,"i_lat":-6.141205,"transit":false},{"is_transit":false,"line":2,"transit":false,"distance":1080,"i_lat":-6.149769,"time":2,"station_id":"MGB","station_name":"Manggabesar","i_long":106.82482}],[{"is_transit":false,"station_name":"Rawa Buntu","station_id":"RU","time":0,"transit":false,"i_lat":-6.314823,"i_long":106.675475,"line":6,"distance":0},{"i_long":106.712277,"is_transit":false,"line":6,"transit":false,"station_id":"SDM","time":6,"station_name":"Sudimara","distance":4566,"i_lat":-6.296963},{"station_name":"Jurangmangu","is_transit":false,"distance":1994,"i_long":106.728916,"transit":false,"station_id":"JMU","time":4,"i_lat":-6.288927,"line":6},{"station_name":"Pondokranji","i_long":106.74273,"line":6,"time":3,"is_transit":false,"transit":false,"i_lat":-6.276362,"distance":2179,"station_id":"PDJ"},{"station_id":"KBY","transit":false,"line":6,"is_transit":false,"i_lat":-6.237242,"time":8,"station_name":"Kebayoran","distance":6218,"i_long":106.780334},{"is_transit":false,"distance":3737,"i_lat":-6.207404,"i_long":106.79689,"transit":false,"station_id":"PLM","line":6,"time":7,"station_name":"Palmerah"},{"time":6,"transit":true,"is_transit":true,"i_lat":-6.185545,"station_name":"Tanah Abang","i_long":106.811091,"station_id":"THB","line":1,"distance":3191},{"is_transit":false,"station_id":"DU","transit":false,"line":1,"i_long":106.800832,"distance":3632,"station_name":"Duri","i_lat":-6.155215,"time":8},{"station_name":"Angke","line":1,"station_id":"AK","transit":false,"distance":1230,"i_lat":-6.144674,"time":4,"i_long":106.79867,"is_transit":false},{"station_name":"Kampung Bandan","i_lat":-6.132549,"station_id":"KPB","transit":true,"is_transit":true,"distance":4102,"i_long":106.826365,"line":4,"time":9},{"is_transit":false,"time":3,"i_long":106.836569,"transit":false,"station_name":"Rajawali","distance":1444,"i_lat":-6.14505,"station_id":"RJW","line":11},{"i_lat":-6.161728,"station_id":"KMO","line":11,"transit":false,"station_name":"Kemayoran","is_transit":false,"time":5,"i_long":106.839204,"distance":1901},{"distance":1436,"i_lat":-6.174784,"line":11,"transit":false,"station_name":"Pasar Senen","is_transit":false,"time":4,"i_long":106.84368,"station_id":"PSE"},{"station_id":"GST","is_transit":false,"line":11,"station_name":"Gang Sentiong","distance":1567,"time":8,"i_lat":-6.185975,"transit":false,"i_long":106.850107},{"distance":973,"station_id":"KMT","i_lat":-6.193792,"time":1,"is_transit":false,"transit":false,"i_long":106.855437,"line":11,"station_name":"Kramat"},{"time":2,"transit":false,"is_transit":false,"i_long":106.861737,"station_name":"Pondok Jati","i_lat":-6.209188,"distance":1829,"line":11,"station_id":"POK"},{"time":9,"station_id":"JNG","is_transit":true,"i_lat":-6.215091,"transit":true,"i_long":106.86807400000001,"distance":1236,"station_name":"Jatinegara","line":1},{"station_name":"Matraman","distance":1377,"line":1,"i_lat":-6.212485,"time":2,"i_long":106.858896,"transit":false,"is_transit":false,"station_id":"MTR"},{"i_long":106.84912,"is_transit":true,"station_name":"Manggarai","line":2,"distance":1275,"time":2,"transit":true,"station_id":"MRI","i_lat":-6.209883},{"distance":1590,"i_lat":-6.198556,"transit":false,"i_long":106.840169,"station_name":"Cikini","is_transit":false,"station_id":"CKI","line":2,"time":4},{"is_transit":false,"line":2,"station_name":"Gondangdia","time":3,"distance":1750,"i_lat":-6.186295,"station_id":"GDD","i_long":106.832183,"transit":false},{"station_id":"JUA","station_name":"Juanda","line":2,"i_long":106.828284,"transit":false,"time":4,"is_transit":false,"i_lat":-6.166716,"distance":2015},{"line":2,"station_name":"Sawah Besar","time":2,"station_id":"SW","transit":false,"i_lat":-6.160725,"i_long":106.827103,"is_transit":false,"distance":1149},{"i_lat":-6.149769,"line":2,"i_long":106.82482,"transit":false,"is_transit":false,"station_name":"Manggabesar","time":2,"station_id":"MGB","distance":906}]]}