{"data":[[{"station_name":"Rawa Buntu","station_id":"RU","transit":false,"is_transit":false,"line":6,"i_lat":-6.314823,"distance":0,"i_long":106.675475,"time":0},{"station_name":"Sudimara","transit":false,"time":6,"i_long":106.712277,"is_transit":false,"distance":4566,"i_lat":-6.296963,"line":6,"station_id":"SDM"},{"transit":false,"station_name":"Jurangmangu","is_transit":false,"i_lat":-6.288927,"station_id":"JMU","i_long":106.728916,"line":6,"distance":1994,"time":4},{"i_long":106.74273,"time":3,"station_name":"Pondokranji","is_transit":false,"line":6,"station_id":"PDJ","i_lat":-6.276362,"distance":2179,"transit":false},{"distance":6218,"is_transit":false,"station_name":"Kebayoran","time":8,"i_long":106.780334,"line":6,"station_id":"KBY","transit":false,"i_lat":-6.237242},{"i_long":106.79689,"i_lat":-6.207404,"distance":3737,"station_name":"Palmerah","time":7,"line":6,"station_id":"PLM","transit":false,"is_transit":false},{"station_id":"THB","time":6,"distance":3191,"station_name":"Tanah Abang","is_transit":true,"i_lat":-6.185545,"i_long":106.811091,"transit":true,"line":1},{"i_lat":-6.20132,"is_transit":false,"station_id":"KAT","time":5,"line":1,"i_long":106.816351,"station_name":"Karet","transit":false,"distance":2029},{"is_transit":false,"line":1,"station_name":"Sudirman Baru","distance":471,"station_id":"SUDB","i_lat":-6.201433,"transit":false,"time":1,"i_long":106.819881},{"line":1,"time":1,"transit":false,"station_name":"Sudirman","i_long":106.822649,"distance":280,"i_lat":-6.202263,"is_transit":false,"station_id":"SUD"},{"distance":3186,"line":0,"is_transit":true,"i_long":106.84912,"i_lat":-6.209883,"station_id":"MRI","station_name":"Manggarai","transit":false,"time":4}],[{"station_id":"RU","station_name":"Rawa Buntu","transit":false,"distance":0,"time":0,"i_long":106.675475,"i_lat":-6.314823,"line":6,"is_transit":false},{"station_id":"SDM","transit":false,"is_transit":false,"distance":4566,"i_lat":-6.296963,"time":6,"station_name":"Sudimara","i_long":106.712277,"line":6},{"i_long":106.728916,"distance":1994,"i_lat":-6.288927,"line":6,"is_transit":false,"station_name":"Jurangmangu","time":4,"station_id":"JMU","transit":false},{"line":6,"time":3,"distance":2179,"station_name":"Pondokranji","station_id":"PDJ","is_transit":false,"transit":false,"i_long":106.74273,"i_lat":-6.276362},{"distance":6218,"transit":false,"station_name":"Kebayoran","is_transit":false,"time":8,"i_lat":-6.237242,"line":6,"station_id":"KBY","i_long":106.780334},{"is_transit":false,"i_lat":-6.207404,"distance":3737,"station_id":"PLM","line":6,"transit":false,"station_name":"Palmerah","time":7,"i_long":106.79689},{"i_lat":-6.185545,"i_long":106.811091,"time":6,"line":1,"distance":3191,"is_transit":true,"station_id":"THB","transit":true,"station_name":"Tanah Abang"},{"transit":true,"line":1,"distance":3632,"is_transit":true,"time":8,"station_id":"DU","station_name":"Duri","i_lat":-6.155215,"i_long":106.800832},{"is_transit":false,"station_name":"Angke","line":0,"station_id":"AK","time":4,"i_lat":-6.144674,"i_long":106.79867,"distance":1230,"transit":false},{"station_name":"Kampung Bandan","distance":4102,"i_lat":-6.132549,"line":0,"is_transit":true,"transit":false,"time":9,"i_long":106.826365,"station_id":"KPB"},{"i_long":106.812439,"distance":1364,"time":3,"i_lat":-6.137569,"station_id":"JAKK","line":0,"is_transit":true,"transit":true,"station_name":"Jakarta Kota"},{"station_id":"JAY","i_lat":-6.141205,"line":7,"is_transit":false,"station_name":"Jayakarta","transit":false,"distance":1264,"time":4,"i_long":106.820901},{"station_id":"MGB","line":2,"i_lat":-6.149769,"is_transit":false,"transit":false,"time":2,"station_name":"Manggabesar","distance":1080,"i_long":106.82482},{"i_lat":-6.160725,"station_name":"Sawah Besar","station_id":"SW","time":2,"distance":906,"i_long":106.827103,"is_transit":false,"line":2,"transit":false},{"line":2,"distance":1149,"transit":false,"station_name":"Juanda","time":2,"station_id":"JUA","i_long":106.828284,"i_lat":-6.166716,"is_transit":false},{"distance":2015,"transit":false,"station_id":"GDD","line":2,"is_transit":false,"time":4,"i_long":106.832183,"i_lat":-6.186295,"station_name":"Gondangdia"},{"i_long":106.840169,"line":0,"station_id":"CKI","transit":false,"station_name":"Cikini","time":3,"i_lat":-6.198556,"distance":1750,"is_transit":false},{"station_id":"MRI","transit":false,"is_transit":true,"station_name":"Manggarai","i_lat":-6.209883,"line":0,"distance":1590,"time":4,"i_long":106.84912}],[{"line":6,"i_lat":-6.314823,"transit":false,"station_id":"RU","i_long":106.675475,"station_name":"Rawa Buntu","is_transit":false,"distance":0,"time":0},{"transit":false,"i_long":106.712277,"station_id":"SDM","is_transit":false,"station_name":"Sudimara","time":6,"i_lat":-6.296963,"line":6,"distance":4566},{"line":6,"station_name":"Jurangmangu","transit":false,"distance":1994,"station_id":"JMU","i_lat":-6.288927,"i_long":106.728916,"is_transit":false,"time":4},{"transit":false,"i_lat":-6.276362,"distance":2179,"time":3,"line":6,"station_id":"PDJ","i_long":106.74273,"is_transit":false,"station_name":"Pondokranji"},{"i_lat":-6.237242,"i_long":106.780334,"station_id":"KBY","line":6,"transit":false,"is_transit":false,"station_name":"Kebayoran","distance":6218,"time":8},{"station_id":"PLM","i_lat":-6.207404,"is_transit":false,"line":6,"distance":3737,"transit":false,"time":7,"station_name":"Palmerah","i_long":106.79689},{"i_lat":-6.185545,"time":6,"line":1,"station_name":"Tanah Abang","station_id":"THB","transit":true,"distance":3191,"i_long":106.811091,"is_transit":true},{"station_id":"DU","i_lat":-6.155215,"distance":3632,"i_long":106.800832,"line":1,"station_name":"Duri","is_transit":true,"transit":true,"time":8},{"i_lat":-6.144674,"i_long":106.79867,"is_transit":false,"station_name":"Angke","time":4,"line":0,"station_id":"AK","transit":false,"distance":1230},{"station_id":"KPB","is_transit":true,"line":0,"transit":true,"station_name":"Kampung Bandan","i_lat":-6.132549,"i_long":106.826365,"distance":4102,"time":9},{"is_transit":false,"line":11,"time":3,"distance":1444,"i_long":106.836569,"station_name":"Rajawali","station_id":"RJW","i_lat":-6.14505,"transit":false},{"station_id":"KMO","is_transit":false,"time":5,"distance":1901,"station_name":"Kemayoran","transit":false,"i_lat":-6.161728,"i_long":106.839204,"line":11},{"station_name":"Pasar Senen","station_id":"PSE","i_long":106.84368,"is_transit":false,"time":4,"line":11,"distance":1436,"i_lat":-6.174784,"transit":false},{"time":8,"i_long":106.850107,"i_lat":-6.185975,"transit":false,"line":11,"is_transit":false,"distance":1567,"station_id":"GST","station_name":"Gang Sentiong"},{"i_long":106.855437,"station_id":"KMT","line":11,"station_name":"Kramat","i_lat":-6.193792,"transit":false,"time":1,"is_transit":false,"distance":973},{"station_name":"Pondok Jati","is_transit":false,"i_lat":-6.209188,"station_id":"POK","transit":false,"distance":1829,"i_long":106.861737,"line":11,"time":2},{"distance":1236,"transit":true,"i_long":106.86807400000001,"station_id":"JNG","i_lat":-6.215091,"is_transit":true,"line":0,"time":9,"station_name":"Jatinegara"},{"i_long":106.858896,"is_transit":false,"station_id":"MTR","station_name":"Matraman","time":2,"i_lat":-6.212485,"transit":false,"line":1,"distance":1377},{"i_lat":-6.209883,"station_id":"MRI","transit":false,"time":2,"distance":1275,"i_long":106.84912,"line":0,"is_transit":true,"station_name":"Manggarai"}]]}