{"data":[[{"transit":false,"i_long":106.675475,"line":6,"time":0,"is_transit":false,"station_name":"Rawa Buntu","station_id":"RU","i_lat":-6.314823,"distance":0},{"station_name":"Sudimara","line":6,"transit":false,"is_transit":false,"station_id":"SDM","i_long":106.712277,"distance":4566,"i_lat":-6.296963,"time":6},{"line":6,"distance":1994,"i_lat":-6.288927,"station_name":"Jurangmangu","station_id":"JMU","transit":false,"i_long":106.728916,"time":4,"is_transit":false},{"i_long":106.74273,"is_transit":false,"station_id":"PDJ","distance":2179,"station_name":"Pondokranji","line":6,"time":3,"i_lat":-6.276362,"transit":false},{"i_long":106.780334,"line":6,"is_transit":false,"station_name":"Kebayoran","i_lat":-6.237242,"transit":false,"time":8,"distance":6218,"station_id":"KBY"},{"time":7,"transit":false,"station_id":"PLM","i_lat":-6.207404,"station_name":"Palmerah","i_long":106.79689,"distance":3737,"line":6,"is_transit":false},{"line":1,"is_transit":true,"station_id":"THB","i_lat":-6.185545,"time":6,"station_name":"Tanah Abang","i_long":106.811091,"distance":3191,"transit":true},{"distance":2029,"station_id":"KAT","time":5,"transit":false,"is_transit":false,"station_name":"Karet","i_long":106.816351,"line":1,"i_lat":-6.20132},{"i_lat":-6.201433,"time":1,"station_id":"SUDB","line":1,"transit":false,"i_long":106.819881,"station_name":"Sudirman Baru","distance":471,"is_transit":false},{"station_id":"SUD","is_transit":false,"line":1,"i_lat":-6.202263,"time":1,"i_long":106.822649,"distance":280,"station_name":"Sudirman","transit":false},{"time":4,"is_transit":false,"i_lat":-6.209883,"i_long":106.84912,"station_name":"Manggarai","station_id":"MRI","line":2,"distance":3186,"transit":false}],[{"time":0,"line":6,"transit":false,"distance":0,"i_lat":-6.314823,"i_long":106.675475,"is_transit":false,"station_name":"Rawa Buntu","station_id":"RU"},{"line":6,"station_id":"SDM","time":6,"i_long":106.712277,"is_transit":false,"distance":4566,"station_name":"Sudimara","transit":false,"i_lat":-6.296963},{"station_name":"Jurangmangu","distance":1994,"i_long":106.728916,"station_id":"JMU","time":4,"i_lat":-6.288927,"is_transit":false,"transit":false,"line":6},{"line":6,"station_id":"PDJ","distance":2179,"time":3,"i_lat":-6.276362,"i_long":106.74273,"is_transit":false,"station_name":"Pondokranji","transit":false},{"i_long":106.780334,"transit":false,"is_transit":false,"line":6,"i_lat":-6.237242,"station_name":"Kebayoran","station_id":"KBY","distance":6218,"time":8},{"line":6,"station_name":"Palmerah","i_long":106.79689,"transit":false,"time":7,"is_transit":false,"distance":3737,"station_id":"PLM","i_lat":-6.207404},{"is_transit":true,"distance":3191,"line":1,"transit":true,"station_name":"Tanah Abang","time":6,"station_id":"THB","i_lat":-6.185545,"i_long":106.811091},{"station_id":"DU","time":8,"transit":false,"station_name":"Duri","i_long":106.800832,"line":1,"is_transit":false,"distance":3632,"i_lat":-6.155215},{"i_lat":-6.144674,"distance":1230,"line":1,"is_transit":false,"station_id":"AK","time":4,"station_name":"Angke","i_long":106.79867,"transit":false},{"station_id":"KPB","time":9,"is_transit":true,"transit":true,"line":4,"i_long":106.826365,"station_name":"Kampung Bandan","i_lat":-6.132549,"distance":4102},{"i_lat":-6.137569,"transit":true,"distance":1364,"i_long":106.812439,"line":2,"station_name":"Jakarta Kota","is_transit":true,"station_id":"JAKK","time":3},{"time":4,"station_name":"Jayakarta","transit":false,"station_id":"JAY","i_long":106.820901,"distance":1264,"i_lat":-6.141205,"is_transit":false,"line":2},{"time":2,"is_transit":false,"line":2,"transit":false,"station_name":"Manggabesar","i_lat":-6.149769,"station_id":"MGB","i_long":106.82482,"distance":1080},{"distance":906,"i_lat":-6.160725,"i_long":106.827103,"line":2,"station_name":"Sawah Besar","transit":false,"is_transit":false,"station_id":"SW","time":2},{"is_transit":false,"i_lat":-6.166716,"time":2,"station_name":"Juanda","distance":1149,"station_id":"JUA","line":2,"transit":false,"i_long":106.828284},{"time":4,"i_long":106.832183,"i_lat":-6.186295,"station_id":"GDD","is_transit":false,"station_name":"Gondangdia","transit":false,"distance":2015,"line":2},{"time":3,"line":2,"transit":false,"station_id":"CKI","is_transit":false,"station_name":"Cikini","distance":1750,"i_long":106.840169,"i_lat":-6.198556},{"i_lat":-6.209883,"station_id":"MRI","transit":false,"time":4,"line":2,"i_long":106.84912,"station_name":"Manggarai","distance":1590,"is_transit":false}],[{"i_lat":-6.314823,"transit":false,"i_long":106.675475,"line":6,"time":0,"station_name":"Rawa Buntu","station_id":"RU","is_transit":false,"distance":0},{"station_name":"Sudimara","i_lat":-6.296963,"i_long":106.712277,"station_id":"SDM","is_transit":false,"time":6,"distance":4566,"transit":false,"line":6},{"i_long":106.728916,"station_name":"Jurangmangu","distance":1994,"time":4,"station_id":"JMU","transit":false,"is_transit":false,"i_lat":-6.288927,"line":6},{"transit":false,"i_long":106.74273,"time":3,"i_lat":-6.276362,"station_name":"Pondokranji","is_transit":false,"station_id":"PDJ","distance":2179,"line":6},{"i_long":106.780334,"transit":false,"time":8,"line":6,"station_name":"Kebayoran","is_transit":false,"i_lat":-6.237242,"station_id":"KBY","distance":6218},{"station_id":"PLM","time":7,"station_name":"Palmerah","i_lat":-6.207404,"i_long":106.79689,"distance":3737,"transit":false,"line":6,"is_transit":false},{"station_id":"THB","distance":3191,"i_long":106.811091,"line":1,"time":6,"i_lat":-6.185545,"station_name":"Tanah Abang","is_transit":true,"transit":true},{"station_name":"Duri","station_id":"DU","time":8,"transit":false,"i_lat":-6.155215,"i_long":106.800832,"line":1,"is_transit":false,"distance":3632},{"is_transit":false,"transit":false,"line":1,"station_name":"Angke","i_long":106.79867,"distance":1230,"station_id":"AK","time":4,"i_lat":-6.144674},{"line":4,"station_name":"Kampung Bandan","station_id":"KPB","is_transit":true,"transit":true,"i_lat":-6.132549,"i_long":106.826365,"time":9,"distance":4102},{"i_lat":-6.14505,"station_id":"RJW","line":11,"is_transit":false,"transit":false,"station_name":"Rajawali","i_long":106.836569,"distance":1444,"time":3},{"is_transit":false,"time":5,"station_name":"Kemayoran","transit":false,"distance":1901,"line":11,"i_lat":-6.161728,"i_long":106.839204,"station_id":"KMO"},{"station_id":"PSE","is_transit":false,"transit":false,"distance":1436,"i_lat":-6.174784,"i_long":106.84368,"time":4,"line":11,"station_name":"Pasar Senen"},{"time":8,"is_transit":false,"i_long":106.850107,"line":11,"transit":false,"distance":1567,"station_name":"Gang Sentiong","station_id":"GST","i_lat":-6.185975},{"i_lat":-6.193792,"station_name":"Kramat","station_id":"KMT","time":1,"i_long":106.855437,"line":11,"transit":false,"is_transit":false,"distance":973},{"time":2,"station_name":"Pondok Jati","transit":false,"is_transit":false,"i_long":106.861737,"station_id":"POK","line":11,"distance":1829,"i_lat":-6.209188},{"i_lat":-6.215091,"transit":true,"distance":1236,"line":1,"i_long":106.86807400000001,"station_name":"Jatinegara","is_transit":true,"station_id":"JNG","time":9},{"i_lat":-6.212485,"line":1,"i_long":106.858896,"transit":false,"time":2,"distance":1377,"is_transit":false,"station_id":"MTR","station_name":"Matraman"},{"line":2,"i_lat":-6.209883,"station_id":"MRI","distance":1275,"transit":false,"i_long":106.84912,"is_transit":false,"station_name":"Manggarai","time":2}]]}