{"data":[[{"i_lat":-6.314823,"transit":false,"station_id":"RU","distance":0,"i_long":106.675475,"station_name":"Rawa Buntu","time":0,"line":6,"is_transit":false},{"is_transit":false,"time":6,"distance":4566,"i_long":106.712277,"i_lat":-6.296963,"station_id":"SDM","station_name":"Sudimara","transit":false,"line":6},{"time":4,"i_long":106.728916,"distance":1994,"station_name":"Jurangmangu","transit":false,"i_lat":-6.288927,"station_id":"JMU","line":6,"is_transit":false},{"distance":2179,"i_lat":-6.276362,"i_long":106.74273,"is_transit":false,"station_name":"Pondokranji","station_id":"PDJ","transit":false,"line":6,"time":3},{"transit":false,"i_long":106.780334,"i_lat":-6.237242,"time":8,"station_name":"Kebayoran","distance":6218,"station_id":"KBY","is_transit":false,"line":6},{"line":6,"distance":3737,"i_lat":-6.207404,"transit":false,"i_long":106.79689,"station_name":"Palmerah","time":7,"is_transit":false,"station_id":"PLM"},{"transit":true,"distance":3191,"station_id":"THB","i_long":106.811091,"time":6,"is_transit":true,"i_lat":-6.185545,"station_name":"Tanah Abang","line":1},{"is_transit":false,"station_name":"Karet","time":5,"line":1,"station_id":"KAT","transit":false,"distance":2029,"i_lat":-6.20132,"i_long":106.816351},{"transit":false,"i_lat":-6.201433,"line":1,"is_transit":false,"station_id":"SUDB","station_name":"Sudirman Baru","time":1,"i_long":106.819881,"distance":471},{"distance":280,"line":1,"station_id":"SUD","station_name":"Sudirman","transit":false,"i_long":106.822649,"i_lat":-6.202263,"is_transit":false,"time":1},{"distance":3186,"time":4,"station_id":"MRI","i_lat":-6.209883,"transit":true,"station_name":"Manggarai","i_long":106.84912,"is_transit":true,"line":0},{"i_lat":-6.226659,"station_name":"Tebet","distance":2610,"i_long":106.857948,"transit":false,"is_transit":false,"station_id":"TEB","time":4,"line":2},{"is_transit":false,"i_long":106.856607,"line":0,"distance":1230,"station_id":"CW","transit":false,"time":2,"station_name":"Cawang","i_lat":-6.242512},{"distance":1546,"station_name":"Duren Kalibata","transit":false,"i_lat":-6.255332,"i_long":106.85449,"time":3,"is_transit":false,"station_id":"DRN","line":0},{"is_transit":false,"station_id":"PSMB","station_name":"Pasar Minggu Baru","time":2,"i_lat":-6.263214,"distance":824,"line":2,"i_long":106.851577,"transit":false},{"i_long":106.843999,"line":2,"transit":false,"station_name":"Pasar Minggu","distance":2380,"is_transit":false,"station_id":"PSM","i_lat":-6.2842400000000005,"time":2}],[{"is_transit":false,"station_name":"Rawa Buntu","i_lat":-6.314823,"distance":0,"line":6,"time":0,"station_id":"RU","i_long":106.675475,"transit":false},{"is_transit":false,"transit":false,"time":6,"station_name":"Sudimara","i_long":106.712277,"distance":4566,"station_id":"SDM","i_lat":-6.296963,"line":6},{"distance":1994,"i_lat":-6.288927,"time":4,"station_name":"Jurangmangu","i_long":106.728916,"line":6,"is_transit":false,"station_id":"JMU","transit":false},{"distance":2179,"station_id":"PDJ","transit":false,"station_name":"Pondokranji","i_lat":-6.276362,"i_long":106.74273,"time":3,"line":6,"is_transit":false},{"is_transit":false,"i_lat":-6.237242,"time":8,"line":6,"distance":6218,"transit":false,"i_long":106.780334,"station_name":"Kebayoran","station_id":"KBY"},{"distance":3737,"i_long":106.79689,"transit":false,"line":6,"is_transit":false,"i_lat":-6.207404,"station_name":"Palmerah","time":7,"station_id":"PLM"},{"station_id":"THB","transit":true,"station_name":"Tanah Abang","i_long":106.811091,"is_transit":true,"line":1,"i_lat":-6.185545,"time":6,"distance":3191},{"i_lat":-6.155215,"line":1,"transit":true,"is_transit":true,"station_name":"Duri","i_long":106.800832,"station_id":"DU","distance":3632,"time":8},{"station_id":"AK","transit":false,"distance":1230,"i_long":106.79867,"station_name":"Angke","i_lat":-6.144674,"is_transit":false,"time":4,"line":0},{"is_transit":true,"station_name":"Kampung Bandan","distance":4102,"station_id":"KPB","i_lat":-6.132549,"transit":false,"time":9,"i_long":106.826365,"line":0},{"station_name":"Jakarta Kota","line":0,"transit":true,"is_transit":true,"time":3,"i_lat":-6.137569,"i_long":106.812439,"station_id":"JAKK","distance":1364},{"time":4,"i_long":106.820901,"i_lat":-6.141205,"station_id":"JAY","transit":false,"line":7,"distance":1264,"station_name":"Jayakarta","is_transit":false},{"station_name":"Manggabesar","time":2,"i_lat":-6.149769,"distance":1080,"i_long":106.82482,"station_id":"MGB","transit":false,"line":2,"is_transit":false},{"station_name":"Sawah Besar","station_id":"SW","i_long":106.827103,"transit":false,"distance":906,"is_transit":false,"time":2,"line":2,"i_lat":-6.160725},{"i_lat":-6.166716,"transit":false,"is_transit":false,"time":2,"line":2,"station_name":"Juanda","distance":1149,"i_long":106.828284,"station_id":"JUA"},{"distance":2015,"is_transit":false,"time":4,"transit":false,"i_lat":-6.186295,"station_id":"GDD","station_name":"Gondangdia","i_long":106.832183,"line":2},{"i_long":106.840169,"line":0,"station_id":"CKI","time":3,"station_name":"Cikini","distance":1750,"is_transit":false,"transit":false,"i_lat":-6.198556},{"i_long":106.84912,"is_transit":true,"station_name":"Manggarai","transit":true,"time":4,"i_lat":-6.209883,"line":0,"station_id":"MRI","distance":1590},{"time":4,"i_lat":-6.226659,"station_id":"TEB","i_long":106.857948,"is_transit":false,"line":2,"transit":false,"distance":2610,"station_name":"Tebet"},{"station_id":"CW","station_name":"Cawang","distance":1230,"is_transit":false,"i_long":106.856607,"i_lat":-6.242512,"transit":false,"time":2,"line":0},{"i_long":106.85449,"station_name":"Duren Kalibata","distance":1546,"transit":false,"station_id":"DRN","i_lat":-6.255332,"is_transit":false,"time":3,"line":0},{"time":2,"distance":824,"station_name":"Pasar Minggu Baru","transit":false,"i_lat":-6.263214,"station_id":"PSMB","line":2,"i_long":106.851577,"is_transit":false},{"distance":2380,"i_long":106.843999,"line":2,"station_id":"PSM","is_transit":false,"transit":false,"i_lat":-6.2842400000000005,"station_name":"Pasar Minggu","time":2}],[{"distance":0,"time":0,"transit":false,"line":6,"i_long":106.675475,"station_name":"Rawa Buntu","station_id":"RU","is_transit":false,"i_lat":-6.314823},{"distance":4566,"i_lat":-6.296963,"i_long":106.712277,"line":6,"transit":false,"time":6,"station_name":"Sudimara","station_id":"SDM","is_transit":false},{"transit":false,"line":6,"station_id":"JMU","station_name":"Jurangmangu","distance":1994,"i_long":106.728916,"time":4,"i_lat":-6.288927,"is_transit":false},{"station_id":"PDJ","i_lat":-6.276362,"distance":2179,"station_name":"Pondokranji","transit":false,"i_long":106.74273,"line":6,"time":3,"is_transit":false},{"station_name":"Kebayoran","station_id":"KBY","time":8,"line":6,"is_transit":false,"transit":false,"i_lat":-6.237242,"distance":6218,"i_long":106.780334},{"station_id":"PLM","station_name":"Palmerah","distance":3737,"is_transit":false,"transit":false,"i_long":106.79689,"line":6,"i_lat":-6.207404,"time":7},{"transit":true,"is_transit":true,"station_name":"Tanah Abang","i_long":106.811091,"station_id":"THB","time":6,"i_lat":-6.185545,"line":1,"distance":3191},{"station_id":"DU","transit":true,"distance":3632,"time":8,"station_name":"Duri","i_long":106.800832,"is_transit":true,"i_lat":-6.155215,"line":1},{"distance":1230,"transit":false,"station_name":"Angke","station_id":"AK","is_transit":false,"i_long":106.79867,"line":0,"time":4,"i_lat":-6.144674},{"distance":4102,"line":0,"is_transit":true,"station_id":"KPB","time":9,"station_name":"Kampung Bandan","i_lat":-6.132549,"i_long":106.826365,"transit":true},{"distance":1444,"transit":false,"station_id":"RJW","line":11,"i_lat":-6.14505,"is_transit":false,"i_long":106.836569,"station_name":"Rajawali","time":3},{"time":5,"i_lat":-6.161728,"distance":1901,"station_id":"KMO","transit":false,"i_long":106.839204,"station_name":"Kemayoran","line":11,"is_transit":false},{"i_long":106.84368,"distance":1436,"station_id":"PSE","station_name":"Pasar Senen","i_lat":-6.174784,"is_transit":false,"time":4,"transit":false,"line":11},{"time":8,"i_long":106.850107,"is_transit":false,"distance":1567,"i_lat":-6.185975,"transit":false,"station_name":"Gang Sentiong","line":11,"station_id":"GST"},{"i_long":106.855437,"line":11,"distance":973,"is_transit":false,"transit":false,"time":1,"station_name":"Kramat","i_lat":-6.193792,"station_id":"KMT"},{"line":11,"i_lat":-6.209188,"distance":1829,"station_name":"Pondok Jati","transit":false,"is_transit":false,"time":2,"i_long":106.861737,"station_id":"POK"},{"station_id":"JNG","station_name":"Jatinegara","i_long":106.86807400000001,"distance":1236,"i_lat":-6.215091,"is_transit":true,"time":9,"transit":true,"line":0},{"distance":1377,"is_transit":false,"station_id":"MTR","i_long":106.858896,"line":1,"i_lat":-6.212485,"station_name":"Matraman","time":2,"transit":false},{"is_transit":true,"time":2,"i_long":106.84912,"station_id":"MRI","distance":1275,"transit":true,"station_name":"Manggarai","line":0,"i_lat":-6.209883},{"time":4,"line":2,"i_lat":-6.226659,"station_id":"TEB","i_long":106.857948,"is_transit":false,"distance":2610,"transit":false,"station_name":"Tebet"},{"transit":false,"station_name":"Cawang","is_transit":false,"time":2,"line":0,"i_long":106.856607,"station_id":"CW","distance":1230,"i_lat":-6.242512},{"transit":false,"distance":1546,"station_name":"Duren Kalibata","i_long":106.85449,"is_transit":false,"station_id":"DRN","i_lat":-6.255332,"time":3,"line":0},{"distance":824,"line":2,"station_id":"PSMB","time":2,"is_transit":false,"station_name":"Pasar Minggu Baru","i_lat":-6.263214,"i_long":106.851577,"transit":false},{"line":2,"is_transit":false,"transit":false,"station_name":"Pasar Minggu","distance":2380,"time":2,"i_lat":-6.2842400000000005,"i_long":106.843999,"station_id":"PSM"}]]}