{"data":[[{"i_long":106.675475,"distance":0,"station_name":"Rawa Buntu","i_lat":-6.314823,"line":6,"time":0,"transit":false,"is_transit":false,"station_id":"RU"},{"i_long":106.712277,"is_transit":false,"i_lat":-6.296963,"line":6,"transit":false,"distance":4566,"station_id":"SDM","station_name":"Sudimara","time":6},{"i_long":106.728916,"is_transit":false,"station_id":"JMU","i_lat":-6.288927,"line":6,"station_name":"Jurangmangu","transit":false,"time":4,"distance":1994},{"line":6,"time":3,"transit":false,"distance":2179,"station_name":"Pondokranji","is_transit":false,"station_id":"PDJ","i_lat":-6.276362,"i_long":106.74273},{"i_lat":-6.237242,"distance":6218,"time":8,"line":6,"is_transit":false,"transit":false,"i_long":106.780334,"station_id":"KBY","station_name":"Kebayoran"},{"station_name":"Palmerah","i_lat":-6.207404,"i_long":106.79689,"is_transit":false,"distance":3737,"line":6,"station_id":"PLM","transit":false,"time":7},{"is_transit":true,"line":1,"station_id":"THB","distance":3191,"station_name":"Tanah Abang","transit":true,"time":6,"i_long":106.811091,"i_lat":-6.185545},{"i_lat":-6.20132,"station_name":"Karet","time":5,"line":1,"transit":false,"i_long":106.816351,"distance":2029,"station_id":"KAT","is_transit":false},{"line":1,"time":1,"distance":471,"station_id":"SUDB","transit":false,"is_transit":false,"i_long":106.819881,"station_name":"Sudirman Baru","i_lat":-6.201433},{"line":1,"station_id":"SUD","transit":false,"is_transit":false,"station_name":"Sudirman","i_long":106.822649,"distance":280,"time":1,"i_lat":-6.202263},{"i_long":106.84912,"station_name":"Manggarai","time":4,"is_transit":true,"line":2,"i_lat":-6.209883,"distance":3186,"station_id":"MRI","transit":true},{"transit":false,"line":2,"time":4,"distance":2610,"i_lat":-6.226659,"station_name":"Tebet","is_transit":false,"station_id":"TEB","i_long":106.857948},{"i_long":106.856607,"line":2,"is_transit":false,"distance":1230,"station_id":"CW","i_lat":-6.242512,"station_name":"Cawang","time":2,"transit":false},{"time":3,"is_transit":false,"station_id":"DRN","i_lat":-6.255332,"line":2,"i_long":106.85449,"distance":1546,"station_name":"Duren Kalibata","transit":false},{"transit":false,"line":2,"station_name":"Pasar Minggu Baru","is_transit":false,"time":2,"distance":824,"i_long":106.851577,"station_id":"PSMB","i_lat":-6.263214},{"i_long":106.843999,"time":2,"line":2,"i_lat":-6.2842400000000005,"is_transit":false,"station_id":"PSM","station_name":"Pasar Minggu","transit":false,"distance":2380}],[{"transit":false,"line":6,"distance":0,"time":0,"i_lat":-6.314823,"i_long":106.675475,"station_id":"RU","station_name":"Rawa Buntu","is_transit":false},{"station_id":"SDM","time":6,"station_name":"Sudimara","transit":false,"line":6,"i_long":106.712277,"is_transit":false,"i_lat":-6.296963,"distance":4566},{"i_lat":-6.288927,"station_name":"Jurangmangu","i_long":106.728916,"is_transit":false,"distance":1994,"station_id":"JMU","line":6,"transit":false,"time":4},{"is_transit":false,"distance":2179,"time":3,"station_id":"PDJ","i_lat":-6.276362,"i_long":106.74273,"line":6,"station_name":"Pondokranji","transit":false},{"transit":false,"line":6,"time":8,"station_name":"Kebayoran","i_lat":-6.237242,"distance":6218,"station_id":"KBY","i_long":106.780334,"is_transit":false},{"is_transit":false,"transit":false,"i_lat":-6.207404,"distance":3737,"line":6,"station_id":"PLM","station_name":"Palmerah","i_long":106.79689,"time":7},{"time":6,"transit":true,"line":1,"is_transit":true,"station_name":"Tanah Abang","i_long":106.811091,"distance":3191,"i_lat":-6.185545,"station_id":"THB"},{"station_id":"DU","station_name":"Duri","i_lat":-6.155215,"i_long":106.800832,"is_transit":false,"transit":false,"line":1,"time":8,"distance":3632},{"station_name":"Angke","station_id":"AK","distance":1230,"i_long":106.79867,"transit":false,"is_transit":false,"i_lat":-6.144674,"line":1,"time":4},{"i_long":106.826365,"transit":true,"is_transit":true,"distance":4102,"i_lat":-6.132549,"line":4,"station_name":"Kampung Bandan","station_id":"KPB","time":9},{"distance":1364,"station_id":"JAKK","i_long":106.812439,"line":2,"is_transit":true,"transit":true,"i_lat":-6.137569,"time":3,"station_name":"Jakarta Kota"},{"is_transit":false,"line":2,"station_name":"Jayakarta","distance":1264,"station_id":"JAY","time":4,"transit":false,"i_lat":-6.141205,"i_long":106.820901},{"line":2,"transit":false,"station_name":"Manggabesar","is_transit":false,"station_id":"MGB","i_lat":-6.149769,"i_long":106.82482,"time":2,"distance":1080},{"transit":false,"is_transit":false,"distance":906,"station_id":"SW","i_long":106.827103,"station_name":"Sawah Besar","line":2,"i_lat":-6.160725,"time":2},{"station_id":"JUA","i_long":106.828284,"time":2,"distance":1149,"line":2,"station_name":"Juanda","transit":false,"i_lat":-6.166716,"is_transit":false},{"i_lat":-6.186295,"i_long":106.832183,"line":2,"station_name":"Gondangdia","distance":2015,"time":4,"is_transit":false,"transit":false,"station_id":"GDD"},{"distance":1750,"is_transit":false,"station_id":"CKI","line":2,"transit":false,"station_name":"Cikini","i_long":106.840169,"i_lat":-6.198556,"time":3},{"line":2,"time":4,"distance":1590,"i_lat":-6.209883,"station_name":"Manggarai","transit":false,"is_transit":false,"station_id":"MRI","i_long":106.84912},{"time":4,"distance":2610,"transit":false,"i_lat":-6.226659,"i_long":106.857948,"station_name":"Tebet","station_id":"TEB","line":2,"is_transit":false},{"distance":1230,"line":2,"station_name":"Cawang","is_transit":false,"i_lat":-6.242512,"station_id":"CW","transit":false,"time":2,"i_long":106.856607},{"i_long":106.85449,"distance":1546,"time":3,"station_id":"DRN","transit":false,"is_transit":false,"i_lat":-6.255332,"line":2,"station_name":"Duren Kalibata"},{"station_id":"PSMB","time":2,"i_long":106.851577,"is_transit":false,"transit":false,"i_lat":-6.263214,"station_name":"Pasar Minggu Baru","line":2,"distance":824},{"station_id":"PSM","station_name":"Pasar Minggu","i_long":106.843999,"time":2,"transit":false,"i_lat":-6.2842400000000005,"distance":2380,"line":2,"is_transit":false}],[{"is_transit":false,"transit":false,"line":6,"time":0,"station_name":"Rawa Buntu","i_lat":-6.314823,"station_id":"RU","distance":0,"i_long":106.675475},{"station_name":"Sudimara","line":6,"time":6,"is_transit":false,"distance":4566,"transit":false,"station_id":"SDM","i_long":106.712277,"i_lat":-6.296963},{"distance":1994,"time":4,"station_id":"JMU","i_lat":-6.288927,"transit":false,"station_name":"Jurangmangu","is_transit":false,"i_long":106.728916,"line":6},{"station_id":"PDJ","station_name":"Pondokranji","time":3,"i_lat":-6.276362,"is_transit":false,"transit":false,"line":6,"i_long":106.74273,"distance":2179},{"station_name":"Kebayoran","i_lat":-6.237242,"i_long":106.780334,"line":6,"distance":6218,"transit":false,"is_transit":false,"station_id":"KBY","time":8},{"time":7,"is_transit":false,"i_long":106.79689,"i_lat":-6.207404,"station_name":"Palmerah","transit":false,"line":6,"distance":3737,"station_id":"PLM"},{"station_name":"Tanah Abang","station_id":"THB","i_lat":-6.185545,"i_long":106.811091,"time":6,"distance":3191,"transit":true,"is_transit":true,"line":1},{"i_long":106.800832,"i_lat":-6.155215,"line":1,"time":8,"is_transit":false,"station_id":"DU","transit":false,"distance":3632,"station_name":"Duri"},{"transit":false,"station_name":"Angke","time":4,"is_transit":false,"i_lat":-6.144674,"i_long":106.79867,"line":1,"distance":1230,"station_id":"AK"},{"i_long":106.826365,"line":4,"is_transit":true,"station_name":"Kampung Bandan","station_id":"KPB","transit":true,"distance":4102,"i_lat":-6.132549,"time":9},{"i_lat":-6.14505,"time":3,"i_long":106.836569,"line":11,"transit":false,"is_transit":false,"station_id":"RJW","distance":1444,"station_name":"Rajawali"},{"transit":false,"is_transit":false,"distance":1901,"i_long":106.839204,"i_lat":-6.161728,"station_id":"KMO","time":5,"line":11,"station_name":"Kemayoran"},{"transit":false,"time":4,"i_lat":-6.174784,"station_name":"Pasar Senen","line":11,"i_long":106.84368,"distance":1436,"is_transit":false,"station_id":"PSE"},{"transit":false,"station_id":"GST","i_lat":-6.185975,"i_long":106.850107,"distance":1567,"line":11,"time":8,"station_name":"Gang Sentiong","is_transit":false},{"is_transit":false,"station_id":"KMT","i_long":106.855437,"distance":973,"time":1,"station_name":"Kramat","transit":false,"i_lat":-6.193792,"line":11},{"transit":false,"station_name":"Pondok Jati","i_lat":-6.209188,"station_id":"POK","time":2,"i_long":106.861737,"distance":1829,"line":11,"is_transit":false},{"station_name":"Jatinegara","time":9,"is_transit":true,"i_long":106.86807400000001,"i_lat":-6.215091,"line":1,"transit":true,"station_id":"JNG","distance":1236},{"station_id":"MTR","line":1,"i_long":106.858896,"transit":false,"station_name":"Matraman","i_lat":-6.212485,"time":2,"is_transit":false,"distance":1377},{"is_transit":true,"station_id":"MRI","transit":true,"distance":1275,"i_long":106.84912,"line":2,"time":2,"station_name":"Manggarai","i_lat":-6.209883},{"time":4,"is_transit":false,"transit":false,"station_id":"TEB","station_name":"Tebet","i_long":106.857948,"line":2,"i_lat":-6.226659,"distance":2610},{"station_name":"Cawang","line":2,"i_long":106.856607,"time":2,"station_id":"CW","transit":false,"i_lat":-6.242512,"is_transit":false,"distance":1230},{"is_transit":false,"distance":1546,"transit":false,"station_id":"DRN","station_name":"Duren Kalibata","time":3,"line":2,"i_lat":-6.255332,"i_long":106.85449},{"station_id":"PSMB","is_transit":false,"i_lat":-6.263214,"station_name":"Pasar Minggu Baru","i_long":106.851577,"line":2,"transit":false,"time":2,"distance":824},{"i_long":106.843999,"line":2,"is_transit":false,"i_lat":-6.2842400000000005,"station_name":"Pasar Minggu","distance":2380,"time":2,"station_id":"PSM","transit":false}]]}