{"data":[[{"station_name":"Rawa Buntu","station_id":"RU","i_long":106.675475,"distance":0,"is_transit":false,"i_lat":-6.314823,"line":6,"transit":false,"time":0},{"is_transit":false,"station_id":"SDM","station_name":"Sudimara","line":6,"time":6,"transit":false,"distance":4566,"i_lat":-6.296963,"i_long":106.712277},{"station_id":"JMU","transit":false,"station_name":"Jurangmangu","line":6,"distance":1994,"time":4,"i_lat":-6.288927,"is_transit":false,"i_long":106.728916},{"i_long":106.74273,"line":6,"distance":2179,"station_id":"PDJ","station_name":"Pondokranji","transit":false,"i_lat":-6.276362,"is_transit":false,"time":3},{"time":8,"station_id":"KBY","i_lat":-6.237242,"line":6,"i_long":106.780334,"distance":6218,"transit":false,"station_name":"Kebayoran","is_transit":false},{"line":6,"time":7,"station_id":"PLM","i_long":106.79689,"distance":3737,"transit":false,"station_name":"Palmerah","i_lat":-6.207404,"is_transit":false},{"is_transit":true,"i_long":106.811091,"station_id":"THB","transit":true,"station_name":"Tanah Abang","time":6,"i_lat":-6.185545,"distance":3191,"line":1},{"station_name":"Karet","transit":false,"is_transit":false,"i_long":106.816351,"station_id":"KAT","distance":2029,"i_lat":-6.20132,"line":1,"time":5},{"station_name":"Sudirman Baru","time":1,"distance":471,"i_lat":-6.201433,"transit":false,"line":1,"station_id":"SUDB","i_long":106.819881,"is_transit":false},{"i_lat":-6.202263,"time":1,"i_long":106.822649,"station_name":"Sudirman","distance":280,"station_id":"SUD","is_transit":false,"line":1,"transit":false},{"is_transit":true,"station_name":"Manggarai","station_id":"MRI","time":4,"i_long":106.84912,"i_lat":-6.209883,"distance":3186,"transit":true,"line":2},{"line":2,"is_transit":false,"station_name":"Tebet","station_id":"TEB","transit":false,"i_lat":-6.226659,"distance":2610,"i_long":106.857948,"time":4},{"is_transit":false,"i_long":106.856607,"station_name":"Cawang","time":2,"distance":1230,"i_lat":-6.242512,"line":2,"station_id":"CW","transit":false},{"line":2,"station_name":"Duren Kalibata","distance":1546,"i_lat":-6.255332,"is_transit":false,"time":3,"i_long":106.85449,"station_id":"DRN","transit":false},{"is_transit":false,"transit":false,"time":2,"station_id":"PSMB","i_lat":-6.263214,"station_name":"Pasar Minggu Baru","line":2,"distance":824,"i_long":106.851577},{"distance":2380,"transit":false,"i_long":106.843999,"station_id":"PSM","line":2,"i_lat":-6.2842400000000005,"time":2,"is_transit":false,"station_name":"Pasar Minggu"}],[{"line":6,"station_name":"Rawa Buntu","i_lat":-6.314823,"distance":0,"i_long":106.675475,"station_id":"RU","time":0,"is_transit":false,"transit":false},{"time":6,"line":6,"transit":false,"is_transit":false,"i_long":106.712277,"station_name":"Sudimara","i_lat":-6.296963,"station_id":"SDM","distance":4566},{"time":4,"is_transit":false,"station_id":"JMU","i_lat":-6.288927,"i_long":106.728916,"station_name":"Jurangmangu","transit":false,"distance":1994,"line":6},{"i_long":106.74273,"is_transit":false,"transit":false,"distance":2179,"line":6,"i_lat":-6.276362,"station_name":"Pondokranji","station_id":"PDJ","time":3},{"line":6,"time":8,"distance":6218,"station_id":"KBY","station_name":"Kebayoran","i_lat":-6.237242,"is_transit":false,"i_long":106.780334,"transit":false},{"distance":3737,"station_name":"Palmerah","time":7,"is_transit":false,"transit":false,"i_lat":-6.207404,"i_long":106.79689,"line":6,"station_id":"PLM"},{"station_name":"Tanah Abang","distance":3191,"is_transit":true,"i_lat":-6.185545,"i_long":106.811091,"transit":true,"station_id":"THB","time":6,"line":1},{"distance":3632,"station_id":"DU","i_long":106.800832,"line":1,"station_name":"Duri","is_transit":false,"time":8,"i_lat":-6.155215,"transit":false},{"i_long":106.79867,"line":1,"station_name":"Angke","is_transit":false,"time":4,"i_lat":-6.144674,"transit":false,"distance":1230,"station_id":"AK"},{"i_long":106.826365,"is_transit":true,"i_lat":-6.132549,"time":9,"distance":4102,"station_id":"KPB","transit":true,"line":4,"station_name":"Kampung Bandan"},{"i_long":106.812439,"transit":true,"is_transit":true,"line":2,"distance":1364,"station_name":"Jakarta Kota","time":3,"station_id":"JAKK","i_lat":-6.137569},{"is_transit":false,"i_lat":-6.141205,"distance":1264,"time":4,"station_id":"JAY","i_long":106.820901,"line":2,"station_name":"Jayakarta","transit":false},{"station_id":"MGB","time":2,"station_name":"Manggabesar","transit":false,"i_lat":-6.149769,"distance":1080,"is_transit":false,"line":2,"i_long":106.82482},{"i_long":106.827103,"distance":906,"time":2,"line":2,"is_transit":false,"station_name":"Sawah Besar","station_id":"SW","transit":false,"i_lat":-6.160725},{"i_lat":-6.166716,"is_transit":false,"station_id":"JUA","time":2,"transit":false,"i_long":106.828284,"line":2,"station_name":"Juanda","distance":1149},{"i_long":106.832183,"is_transit":false,"line":2,"transit":false,"distance":2015,"station_id":"GDD","i_lat":-6.186295,"time":4,"station_name":"Gondangdia"},{"station_name":"Cikini","time":3,"is_transit":false,"station_id":"CKI","distance":1750,"transit":false,"i_lat":-6.198556,"line":2,"i_long":106.840169},{"i_long":106.84912,"time":4,"station_id":"MRI","distance":1590,"transit":false,"station_name":"Manggarai","is_transit":false,"line":2,"i_lat":-6.209883},{"is_transit":false,"station_name":"Tebet","line":2,"distance":2610,"transit":false,"station_id":"TEB","time":4,"i_lat":-6.226659,"i_long":106.857948},{"time":2,"transit":false,"distance":1230,"i_long":106.856607,"is_transit":false,"station_id":"CW","i_lat":-6.242512,"line":2,"station_name":"Cawang"},{"is_transit":false,"i_lat":-6.255332,"i_long":106.85449,"station_id":"DRN","line":2,"distance":1546,"transit":false,"station_name":"Duren Kalibata","time":3},{"line":2,"station_name":"Pasar Minggu Baru","station_id":"PSMB","time":2,"distance":824,"transit":false,"i_lat":-6.263214,"is_transit":false,"i_long":106.851577},{"station_id":"PSM","transit":false,"station_name":"Pasar Minggu","distance":2380,"i_long":106.843999,"is_transit":false,"time":2,"line":2,"i_lat":-6.2842400000000005}],[{"line":6,"i_lat":-6.314823,"time":0,"station_id":"RU","transit":false,"station_name":"Rawa Buntu","distance":0,"is_transit":false,"i_long":106.675475},{"station_name":"Sudimara","i_lat":-6.296963,"line":6,"distance":4566,"is_transit":false,"time":6,"transit":false,"i_long":106.712277,"station_id":"SDM"},{"i_lat":-6.288927,"distance":1994,"transit":false,"station_name":"Jurangmangu","is_transit":false,"time":4,"line":6,"station_id":"JMU","i_long":106.728916},{"distance":2179,"is_transit":false,"station_id":"PDJ","i_lat":-6.276362,"time":3,"line":6,"transit":false,"station_name":"Pondokranji","i_long":106.74273},{"transit":false,"is_transit":false,"station_id":"KBY","line":6,"time":8,"distance":6218,"i_lat":-6.237242,"i_long":106.780334,"station_name":"Kebayoran"},{"i_long":106.79689,"distance":3737,"is_transit":false,"time":7,"transit":false,"station_id":"PLM","i_lat":-6.207404,"station_name":"Palmerah","line":6},{"station_id":"THB","time":6,"i_long":106.811091,"distance":3191,"is_transit":true,"line":1,"station_name":"Tanah Abang","transit":true,"i_lat":-6.185545},{"distance":3632,"transit":false,"i_long":106.800832,"line":1,"station_name":"Duri","station_id":"DU","is_transit":false,"time":8,"i_lat":-6.155215},{"distance":1230,"is_transit":false,"time":4,"line":1,"i_lat":-6.144674,"transit":false,"station_id":"AK","i_long":106.79867,"station_name":"Angke"},{"station_name":"Kampung Bandan","distance":4102,"transit":true,"line":4,"is_transit":true,"station_id":"KPB","time":9,"i_long":106.826365,"i_lat":-6.132549},{"station_name":"Rajawali","i_lat":-6.14505,"station_id":"RJW","distance":1444,"time":3,"transit":false,"is_transit":false,"i_long":106.836569,"line":11},{"distance":1901,"line":11,"station_id":"KMO","transit":false,"i_long":106.839204,"i_lat":-6.161728,"is_transit":false,"time":5,"station_name":"Kemayoran"},{"line":11,"station_name":"Pasar Senen","is_transit":false,"station_id":"PSE","i_lat":-6.174784,"i_long":106.84368,"distance":1436,"transit":false,"time":4},{"station_id":"GST","time":8,"is_transit":false,"transit":false,"i_lat":-6.185975,"distance":1567,"line":11,"i_long":106.850107,"station_name":"Gang Sentiong"},{"station_id":"KMT","time":1,"transit":false,"station_name":"Kramat","is_transit":false,"distance":973,"i_lat":-6.193792,"i_long":106.855437,"line":11},{"station_id":"POK","is_transit":false,"transit":false,"station_name":"Pondok Jati","distance":1829,"time":2,"i_long":106.861737,"i_lat":-6.209188,"line":11},{"is_transit":true,"line":1,"transit":true,"i_lat":-6.215091,"distance":1236,"station_id":"JNG","time":9,"i_long":106.86807400000001,"station_name":"Jatinegara"},{"i_lat":-6.212485,"is_transit":false,"distance":1377,"transit":false,"station_name":"Matraman","time":2,"station_id":"MTR","line":1,"i_long":106.858896},{"time":2,"distance":1275,"i_long":106.84912,"transit":true,"i_lat":-6.209883,"line":2,"is_transit":true,"station_id":"MRI","station_name":"Manggarai"},{"distance":2610,"time":4,"station_name":"Tebet","is_transit":false,"line":2,"i_long":106.857948,"i_lat":-6.226659,"transit":false,"station_id":"TEB"},{"station_id":"CW","transit":false,"time":2,"is_transit":false,"station_name":"Cawang","i_lat":-6.242512,"i_long":106.856607,"distance":1230,"line":2},{"is_transit":false,"distance":1546,"i_lat":-6.255332,"station_name":"Duren Kalibata","i_long":106.85449,"station_id":"DRN","time":3,"line":2,"transit":false},{"is_transit":false,"time":2,"distance":824,"i_long":106.851577,"station_name":"Pasar Minggu Baru","transit":false,"i_lat":-6.263214,"line":2,"station_id":"PSMB"},{"i_lat":-6.2842400000000005,"time":2,"i_long":106.843999,"station_name":"Pasar Minggu","is_transit":false,"station_id":"PSM","line":2,"distance":2380,"transit":false}]]}