{"data":[[{"i_lat":-6.314823,"station_id":"RU","is_transit":false,"transit":false,"time":0,"station_name":"Rawa Buntu","distance":0,"i_long":106.675475,"line":6},{"distance":4566,"line":6,"station_id":"SDM","is_transit":false,"i_lat":-6.296963,"station_name":"Sudimara","i_long":106.712277,"transit":false,"time":6},{"is_transit":false,"station_id":"JMU","distance":1994,"i_lat":-6.288927,"i_long":106.728916,"transit":false,"time":4,"station_name":"Jurangmangu","line":6},{"i_long":106.74273,"is_transit":false,"i_lat":-6.276362,"transit":false,"time":3,"line":6,"station_name":"Pondokranji","station_id":"PDJ","distance":2179},{"station_name":"Kebayoran","is_transit":false,"line":6,"i_lat":-6.237242,"transit":false,"i_long":106.780334,"distance":6218,"time":8,"station_id":"KBY"},{"distance":3737,"time":7,"station_id":"PLM","station_name":"Palmerah","is_transit":false,"i_long":106.79689,"line":6,"i_lat":-6.207404,"transit":false},{"time":6,"i_long":106.811091,"distance":3191,"station_name":"Tanah Abang","i_lat":-6.185545,"station_id":"THB","is_transit":true,"line":1,"transit":true},{"is_transit":false,"station_id":"DU","line":1,"time":8,"transit":false,"i_lat":-6.155215,"distance":3632,"i_long":106.800832,"station_name":"Duri"},{"i_long":106.79867,"is_transit":false,"line":1,"i_lat":-6.144674,"transit":false,"time":4,"station_id":"AK","station_name":"Angke","distance":1230},{"distance":4102,"i_long":106.826365,"time":9,"station_name":"Kampung Bandan","is_transit":true,"i_lat":-6.132549,"station_id":"KPB","line":4,"transit":true},{"i_lat":-6.137569,"i_long":106.812439,"time":3,"line":2,"transit":true,"station_id":"JAKK","station_name":"Jakarta Kota","is_transit":true,"distance":1364},{"station_id":"JAY","time":4,"transit":false,"line":2,"i_long":106.820901,"station_name":"Jayakarta","distance":1264,"i_lat":-6.141205,"is_transit":false},{"station_id":"MGB","i_lat":-6.149769,"i_long":106.82482,"time":2,"transit":false,"line":2,"is_transit":false,"distance":1080,"station_name":"Manggabesar"},{"transit":false,"is_transit":false,"line":2,"distance":906,"station_id":"SW","i_lat":-6.160725,"time":2,"station_name":"Sawah Besar","i_long":106.827103}],[{"station_name":"Rawa Buntu","transit":false,"is_transit":false,"station_id":"RU","time":0,"i_lat":-6.314823,"distance":0,"line":6,"i_long":106.675475},{"i_long":106.712277,"is_transit":false,"line":6,"time":6,"transit":false,"station_id":"SDM","station_name":"Sudimara","distance":4566,"i_lat":-6.296963},{"transit":false,"is_transit":false,"i_lat":-6.288927,"line":6,"time":4,"i_long":106.728916,"station_id":"JMU","distance":1994,"station_name":"Jurangmangu"},{"transit":false,"line":6,"station_id":"PDJ","time":3,"i_long":106.74273,"station_name":"Pondokranji","distance":2179,"i_lat":-6.276362,"is_transit":false},{"transit":false,"line":6,"is_transit":false,"i_long":106.780334,"station_name":"Kebayoran","time":8,"station_id":"KBY","distance":6218,"i_lat":-6.237242},{"time":7,"distance":3737,"transit":false,"station_id":"PLM","is_transit":false,"i_lat":-6.207404,"line":6,"i_long":106.79689,"station_name":"Palmerah"},{"transit":true,"line":1,"station_id":"THB","time":6,"i_lat":-6.185545,"i_long":106.811091,"distance":3191,"is_transit":true,"station_name":"Tanah Abang"},{"time":5,"station_name":"Karet","distance":2029,"transit":false,"is_transit":false,"i_long":106.816351,"line":1,"i_lat":-6.20132,"station_id":"KAT"},{"line":1,"station_name":"Sudirman Baru","time":1,"station_id":"SUDB","is_transit":false,"i_lat":-6.201433,"transit":false,"distance":471,"i_long":106.819881},{"station_name":"Sudirman","is_transit":false,"i_lat":-6.202263,"time":1,"transit":false,"station_id":"SUD","line":1,"distance":280,"i_long":106.822649},{"is_transit":true,"i_long":106.84912,"time":4,"transit":true,"i_lat":-6.209883,"line":2,"distance":3186,"station_id":"MRI","station_name":"Manggarai"},{"station_id":"CKI","station_name":"Cikini","i_long":106.840169,"time":4,"distance":1590,"is_transit":false,"line":2,"transit":false,"i_lat":-6.198556},{"distance":1750,"transit":false,"station_id":"GDD","i_lat":-6.186295,"i_long":106.832183,"time":3,"station_name":"Gondangdia","line":2,"is_transit":false},{"is_transit":false,"i_lat":-6.166716,"distance":2015,"line":2,"transit":false,"time":4,"station_name":"Juanda","station_id":"JUA","i_long":106.828284},{"station_name":"Sawah Besar","distance":1149,"transit":false,"i_long":106.827103,"is_transit":false,"line":2,"station_id":"SW","i_lat":-6.160725,"time":2}],[{"time":0,"i_lat":-6.314823,"i_long":106.675475,"station_id":"RU","is_transit":false,"line":6,"station_name":"Rawa Buntu","distance":0,"transit":false},{"line":6,"station_name":"Sudimara","station_id":"SDM","i_long":106.712277,"time":6,"transit":false,"distance":4566,"is_transit":false,"i_lat":-6.296963},{"i_long":106.728916,"distance":1994,"time":4,"station_id":"JMU","i_lat":-6.288927,"line":6,"station_name":"Jurangmangu","transit":false,"is_transit":false},{"i_lat":-6.276362,"station_name":"Pondokranji","station_id":"PDJ","line":6,"i_long":106.74273,"time":3,"distance":2179,"is_transit":false,"transit":false},{"station_id":"KBY","line":6,"station_name":"Kebayoran","is_transit":false,"time":8,"i_lat":-6.237242,"distance":6218,"i_long":106.780334,"transit":false},{"i_long":106.79689,"distance":3737,"transit":false,"station_id":"PLM","is_transit":false,"station_name":"Palmerah","time":7,"i_lat":-6.207404,"line":6},{"distance":3191,"line":1,"time":6,"is_transit":true,"station_name":"Tanah Abang","i_lat":-6.185545,"i_long":106.811091,"station_id":"THB","transit":true},{"is_transit":false,"station_id":"DU","distance":3632,"time":8,"i_long":106.800832,"i_lat":-6.155215,"station_name":"Duri","transit":false,"line":1},{"transit":false,"i_lat":-6.144674,"is_transit":false,"line":1,"station_name":"Angke","station_id":"AK","i_long":106.79867,"distance":1230,"time":4},{"time":9,"station_name":"Kampung Bandan","line":4,"i_long":106.826365,"transit":true,"is_transit":true,"distance":4102,"i_lat":-6.132549,"station_id":"KPB"},{"station_id":"RJW","i_lat":-6.14505,"i_long":106.836569,"transit":false,"line":11,"time":3,"station_name":"Rajawali","distance":1444,"is_transit":false},{"station_name":"Kemayoran","time":5,"transit":false,"station_id":"KMO","i_lat":-6.161728,"distance":1901,"is_transit":false,"line":11,"i_long":106.839204},{"is_transit":false,"i_long":106.84368,"i_lat":-6.174784,"distance":1436,"line":11,"station_id":"PSE","station_name":"Pasar Senen","transit":false,"time":4},{"i_long":106.850107,"is_transit":false,"station_id":"GST","line":11,"time":8,"distance":1567,"transit":false,"i_lat":-6.185975,"station_name":"Gang Sentiong"},{"station_id":"KMT","i_long":106.855437,"is_transit":false,"distance":973,"transit":false,"i_lat":-6.193792,"station_name":"Kramat","time":1,"line":11},{"station_id":"POK","line":11,"station_name":"Pondok Jati","transit":false,"distance":1829,"time":2,"i_lat":-6.209188,"i_long":106.861737,"is_transit":false},{"time":9,"station_id":"JNG","is_transit":true,"line":1,"i_long":106.86807400000001,"distance":1236,"station_name":"Jatinegara","transit":true,"i_lat":-6.215091},{"time":2,"distance":1377,"line":1,"station_id":"MTR","transit":false,"is_transit":false,"i_lat":-6.212485,"i_long":106.858896,"station_name":"Matraman"},{"station_name":"Manggarai","distance":1275,"transit":true,"line":2,"i_long":106.84912,"station_id":"MRI","i_lat":-6.209883,"time":2,"is_transit":true},{"i_lat":-6.198556,"i_long":106.840169,"is_transit":false,"time":4,"station_name":"Cikini","station_id":"CKI","distance":1590,"line":2,"transit":false},{"transit":false,"time":3,"i_long":106.832183,"station_id":"GDD","is_transit":false,"distance":1750,"station_name":"Gondangdia","i_lat":-6.186295,"line":2},{"transit":false,"station_name":"Juanda","time":4,"is_transit":false,"station_id":"JUA","i_lat":-6.166716,"distance":2015,"i_long":106.828284,"line":2},{"distance":1149,"transit":false,"time":2,"i_lat":-6.160725,"is_transit":false,"station_id":"SW","station_name":"Sawah Besar","i_long":106.827103,"line":2}],[{"i_long":106.675475,"is_transit":false,"station_id":"RU","distance":0,"station_name":"Rawa Buntu","transit":false,"time":0,"i_lat":-6.314823,"line":6},{"i_lat":-6.296963,"station_name":"Sudimara","is_transit":false,"i_long":106.712277,"transit":false,"time":6,"station_id":"SDM","distance":4566,"line":6},{"i_lat":-6.288927,"station_name":"Jurangmangu","is_transit":false,"time":4,"i_long":106.728916,"station_id":"JMU","distance":1994,"transit":false,"line":6},{"line":6,"distance":2179,"i_lat":-6.276362,"i_long":106.74273,"is_transit":false,"station_name":"Pondokranji","time":3,"station_id":"PDJ","transit":false},{"station_name":"Kebayoran","is_transit":false,"distance":6218,"transit":false,"time":8,"i_long":106.780334,"station_id":"KBY","i_lat":-6.237242,"line":6},{"distance":3737,"is_transit":false,"station_id":"PLM","station_name":"Palmerah","transit":false,"time":7,"i_lat":-6.207404,"line":6,"i_long":106.79689},{"i_lat":-6.185545,"is_transit":true,"line":1,"distance":3191,"station_id":"THB","time":6,"i_long":106.811091,"transit":true,"station_name":"Tanah Abang"},{"i_long":106.816351,"time":5,"station_name":"Karet","transit":false,"is_transit":false,"station_id":"KAT","i_lat":-6.20132,"line":1,"distance":2029},{"is_transit":false,"line":1,"distance":471,"station_name":"Sudirman Baru","time":1,"i_lat":-6.201433,"i_long":106.819881,"transit":false,"station_id":"SUDB"},{"station_id":"SUD","transit":false,"i_long":106.822649,"station_name":"Sudirman","is_transit":false,"line":1,"i_lat":-6.202263,"distance":280,"time":1},{"time":4,"distance":3186,"i_long":106.84912,"line":2,"is_transit":false,"transit":false,"station_id":"MRI","i_lat":-6.209883,"station_name":"Manggarai"},{"line":1,"station_id":"MTR","station_name":"Matraman","i_lat":-6.212485,"transit":false,"is_transit":false,"time":2,"distance":1275,"i_long":106.858896},{"station_name":"Jatinegara","i_long":106.86807400000001,"line":1,"transit":true,"distance":1377,"time":8,"station_id":"JNG","is_transit":true,"i_lat":-6.215091},{"station_name":"Pondok Jati","is_transit":false,"time":2,"i_lat":-6.209188,"i_long":106.861737,"transit":false,"station_id":"POK","line":11,"distance":1236},{"distance":1829,"is_transit":false,"transit":false,"time":2,"i_lat":-6.193792,"station_name":"Kramat","line":11,"station_id":"KMT","i_long":106.855437},{"time":1,"i_lat":-6.185975,"i_long":106.850107,"distance":973,"station_id":"GST","station_name":"Gang Sentiong","transit":false,"line":11,"is_transit":false},{"line":11,"station_name":"Pasar Senen","station_id":"PSE","i_lat":-6.174784,"i_long":106.84368,"is_transit":false,"distance":1567,"transit":false,"time":8},{"i_long":106.839204,"i_lat":-6.161728,"line":11,"station_name":"Kemayoran","transit":false,"station_id":"KMO","time":4,"is_transit":false,"distance":1436},{"distance":1901,"station_name":"Rajawali","time":5,"i_long":106.836569,"transit":false,"station_id":"RJW","i_lat":-6.14505,"is_transit":false,"line":11},{"station_id":"KPB","transit":true,"i_lat":-6.132549,"line":4,"i_long":106.826365,"distance":1444,"station_name":"Kampung Bandan","time":3,"is_transit":true},{"is_transit":true,"i_long":106.812439,"distance":1364,"station_id":"JAKK","line":2,"station_name":"Jakarta Kota","time":3,"transit":true,"i_lat":-6.137569},{"line":2,"transit":false,"station_id":"JAY","time":4,"distance":1264,"is_transit":false,"station_name":"Jayakarta","i_lat":-6.141205,"i_long":106.820901},{"i_long":106.82482,"transit":false,"station_id":"MGB","station_name":"Manggabesar","line":2,"distance":1080,"time":2,"is_transit":false,"i_lat":-6.149769},{"i_lat":-6.160725,"station_name":"Sawah Besar","transit":false,"station_id":"SW","i_long":106.827103,"distance":906,"time":2,"is_transit":false,"line":2}]]}