{"data":[[{"i_lat":-6.314823,"is_transit":false,"time":0,"i_long":106.675475,"distance":0,"station_id":"RU","station_name":"Rawa Buntu","transit":false,"line":6},{"time":6,"transit":false,"i_long":106.712277,"station_id":"SDM","line":6,"station_name":"Sudimara","is_transit":false,"i_lat":-6.296963,"distance":4566},{"i_lat":-6.288927,"is_transit":false,"line":6,"station_name":"Jurangmangu","station_id":"JMU","transit":false,"distance":1994,"i_long":106.728916,"time":4},{"is_transit":false,"transit":false,"i_long":106.74273,"time":3,"i_lat":-6.276362,"line":6,"distance":2179,"station_name":"Pondokranji","station_id":"PDJ"},{"station_id":"KBY","i_lat":-6.237242,"transit":false,"line":6,"i_long":106.780334,"distance":6218,"time":8,"station_name":"Kebayoran","is_transit":false},{"station_id":"PLM","transit":false,"is_transit":false,"i_long":106.79689,"line":6,"time":7,"distance":3737,"station_name":"Palmerah","i_lat":-6.207404},{"transit":true,"time":6,"i_lat":-6.185545,"distance":3191,"i_long":106.811091,"line":1,"is_transit":true,"station_id":"THB","station_name":"Tanah Abang"},{"i_lat":-6.155215,"i_long":106.800832,"distance":3632,"line":1,"time":8,"station_id":"DU","station_name":"Duri","transit":true,"is_transit":true},{"station_id":"AK","station_name":"Angke","transit":false,"i_long":106.79867,"time":4,"i_lat":-6.144674,"distance":1230,"line":0,"is_transit":false},{"station_id":"KPB","is_transit":true,"station_name":"Kampung Bandan","transit":false,"distance":4102,"line":0,"time":9,"i_long":106.826365,"i_lat":-6.132549},{"station_name":"Jakarta Kota","time":3,"transit":true,"i_long":106.812439,"distance":1364,"line":0,"is_transit":true,"station_id":"JAKK","i_lat":-6.137569},{"i_long":106.820901,"station_name":"Jayakarta","line":7,"is_transit":false,"distance":1264,"i_lat":-6.141205,"station_id":"JAY","transit":false,"time":4},{"time":2,"station_name":"Manggabesar","is_transit":false,"station_id":"MGB","i_long":106.82482,"transit":false,"i_lat":-6.149769,"distance":1080,"line":2},{"i_long":106.827103,"line":2,"station_name":"Sawah Besar","station_id":"SW","transit":false,"i_lat":-6.160725,"time":2,"distance":906,"is_transit":false}],[{"transit":false,"i_lat":-6.314823,"i_long":106.675475,"time":0,"station_id":"RU","line":6,"distance":0,"is_transit":false,"station_name":"Rawa Buntu"},{"i_long":106.712277,"line":6,"station_id":"SDM","is_transit":false,"distance":4566,"station_name":"Sudimara","time":6,"transit":false,"i_lat":-6.296963},{"time":4,"i_long":106.728916,"is_transit":false,"line":6,"station_id":"JMU","transit":false,"distance":1994,"i_lat":-6.288927,"station_name":"Jurangmangu"},{"station_id":"PDJ","i_lat":-6.276362,"distance":2179,"is_transit":false,"i_long":106.74273,"time":3,"line":6,"station_name":"Pondokranji","transit":false},{"distance":6218,"line":6,"station_name":"Kebayoran","transit":false,"i_long":106.780334,"time":8,"is_transit":false,"station_id":"KBY","i_lat":-6.237242},{"transit":false,"station_name":"Palmerah","time":7,"distance":3737,"i_lat":-6.207404,"line":6,"is_transit":false,"i_long":106.79689,"station_id":"PLM"},{"is_transit":true,"line":1,"time":6,"transit":true,"i_lat":-6.185545,"i_long":106.811091,"station_id":"THB","distance":3191,"station_name":"Tanah Abang"},{"station_id":"KAT","distance":2029,"time":5,"i_long":106.816351,"is_transit":false,"transit":false,"i_lat":-6.20132,"line":1,"station_name":"Karet"},{"line":1,"is_transit":false,"distance":471,"station_name":"Sudirman Baru","time":1,"station_id":"SUDB","i_long":106.819881,"transit":false,"i_lat":-6.201433},{"line":1,"distance":280,"station_id":"SUD","transit":false,"i_long":106.822649,"is_transit":false,"station_name":"Sudirman","i_lat":-6.202263,"time":1},{"transit":true,"time":4,"i_lat":-6.209883,"i_long":106.84912,"station_name":"Manggarai","distance":3186,"station_id":"MRI","line":0,"is_transit":true},{"transit":false,"line":0,"distance":1590,"is_transit":false,"station_name":"Cikini","station_id":"CKI","time":4,"i_lat":-6.198556,"i_long":106.840169},{"i_long":106.832183,"distance":1750,"transit":false,"is_transit":false,"line":2,"time":3,"station_id":"GDD","station_name":"Gondangdia","i_lat":-6.186295},{"line":2,"station_id":"JUA","station_name":"Juanda","is_transit":false,"distance":2015,"i_lat":-6.166716,"i_long":106.828284,"transit":false,"time":4},{"time":2,"distance":1149,"station_id":"SW","i_long":106.827103,"i_lat":-6.160725,"is_transit":false,"station_name":"Sawah Besar","line":2,"transit":false}],[{"line":6,"station_name":"Rawa Buntu","distance":0,"time":0,"i_lat":-6.314823,"transit":false,"is_transit":false,"station_id":"RU","i_long":106.675475},{"station_name":"Sudimara","time":6,"distance":4566,"station_id":"SDM","transit":false,"i_lat":-6.296963,"is_transit":false,"line":6,"i_long":106.712277},{"is_transit":false,"distance":1994,"station_id":"JMU","station_name":"Jurangmangu","time":4,"i_lat":-6.288927,"i_long":106.728916,"line":6,"transit":false},{"time":3,"station_id":"PDJ","distance":2179,"i_lat":-6.276362,"is_transit":false,"transit":false,"line":6,"station_name":"Pondokranji","i_long":106.74273},{"is_transit":false,"station_name":"Kebayoran","station_id":"KBY","time":8,"line":6,"distance":6218,"i_lat":-6.237242,"i_long":106.780334,"transit":false},{"i_lat":-6.207404,"distance":3737,"station_name":"Palmerah","transit":false,"i_long":106.79689,"line":6,"time":7,"is_transit":false,"station_id":"PLM"},{"i_long":106.811091,"distance":3191,"transit":true,"i_lat":-6.185545,"station_name":"Tanah Abang","line":1,"station_id":"THB","is_transit":true,"time":6},{"transit":true,"i_lat":-6.155215,"station_id":"DU","line":1,"time":8,"is_transit":true,"distance":3632,"station_name":"Duri","i_long":106.800832},{"station_id":"AK","time":4,"distance":1230,"station_name":"Angke","i_long":106.79867,"i_lat":-6.144674,"line":0,"is_transit":false,"transit":false},{"time":9,"is_transit":true,"i_lat":-6.132549,"line":0,"station_id":"KPB","distance":4102,"i_long":106.826365,"station_name":"Kampung Bandan","transit":true},{"station_name":"Rajawali","line":11,"is_transit":false,"i_long":106.836569,"station_id":"RJW","distance":1444,"time":3,"transit":false,"i_lat":-6.14505},{"transit":false,"i_lat":-6.161728,"time":5,"line":11,"is_transit":false,"station_name":"Kemayoran","i_long":106.839204,"station_id":"KMO","distance":1901},{"station_name":"Pasar Senen","time":4,"i_lat":-6.174784,"transit":false,"i_long":106.84368,"distance":1436,"line":11,"is_transit":false,"station_id":"PSE"},{"distance":1567,"station_name":"Gang Sentiong","transit":false,"time":8,"station_id":"GST","is_transit":false,"i_long":106.850107,"i_lat":-6.185975,"line":11},{"time":1,"i_long":106.855437,"i_lat":-6.193792,"distance":973,"is_transit":false,"transit":false,"station_name":"Kramat","line":11,"station_id":"KMT"},{"i_long":106.861737,"time":2,"line":11,"station_id":"POK","i_lat":-6.209188,"distance":1829,"station_name":"Pondok Jati","is_transit":false,"transit":false},{"is_transit":true,"transit":true,"station_name":"Jatinegara","station_id":"JNG","distance":1236,"time":9,"i_lat":-6.215091,"i_long":106.86807400000001,"line":0},{"transit":false,"station_id":"MTR","station_name":"Matraman","distance":1377,"i_lat":-6.212485,"time":2,"line":1,"i_long":106.858896,"is_transit":false},{"distance":1275,"line":0,"i_lat":-6.209883,"station_name":"Manggarai","time":2,"i_long":106.84912,"is_transit":true,"transit":true,"station_id":"MRI"},{"line":0,"station_name":"Cikini","time":4,"is_transit":false,"i_long":106.840169,"transit":false,"distance":1590,"station_id":"CKI","i_lat":-6.198556},{"station_name":"Gondangdia","time":3,"distance":1750,"i_long":106.832183,"is_transit":false,"line":2,"station_id":"GDD","i_lat":-6.186295,"transit":false},{"distance":2015,"i_lat":-6.166716,"station_id":"JUA","station_name":"Juanda","is_transit":false,"transit":false,"i_long":106.828284,"line":2,"time":4},{"i_lat":-6.160725,"time":2,"station_id":"SW","station_name":"Sawah Besar","is_transit":false,"line":2,"distance":1149,"transit":false,"i_long":106.827103}],[{"i_lat":-6.314823,"line":6,"is_transit":false,"station_name":"Rawa Buntu","time":0,"distance":0,"transit":false,"i_long":106.675475,"station_id":"RU"},{"is_transit":false,"time":6,"station_name":"Sudimara","i_long":106.712277,"transit":false,"station_id":"SDM","i_lat":-6.296963,"distance":4566,"line":6},{"time":4,"i_long":106.728916,"is_transit":false,"transit":false,"station_id":"JMU","i_lat":-6.288927,"line":6,"distance":1994,"station_name":"Jurangmangu"},{"line":6,"station_name":"Pondokranji","transit":false,"time":3,"i_lat":-6.276362,"distance":2179,"i_long":106.74273,"station_id":"PDJ","is_transit":false},{"is_transit":false,"station_id":"KBY","i_lat":-6.237242,"distance":6218,"station_name":"Kebayoran","time":8,"transit":false,"line":6,"i_long":106.780334},{"distance":3737,"transit":false,"i_long":106.79689,"station_id":"PLM","station_name":"Palmerah","i_lat":-6.207404,"line":6,"is_transit":false,"time":7},{"distance":3191,"i_long":106.811091,"time":6,"station_id":"THB","is_transit":true,"transit":true,"i_lat":-6.185545,"station_name":"Tanah Abang","line":1},{"is_transit":false,"i_lat":-6.20132,"transit":false,"i_long":106.816351,"station_id":"KAT","distance":2029,"time":5,"station_name":"Karet","line":1},{"transit":false,"is_transit":false,"i_lat":-6.201433,"line":1,"time":1,"station_id":"SUDB","station_name":"Sudirman Baru","i_long":106.819881,"distance":471},{"station_id":"SUD","i_long":106.822649,"line":1,"distance":280,"station_name":"Sudirman","i_lat":-6.202263,"transit":false,"is_transit":false,"time":1},{"transit":false,"i_long":106.84912,"time":4,"station_id":"MRI","distance":3186,"i_lat":-6.209883,"station_name":"Manggarai","is_transit":true,"line":0},{"distance":1275,"i_long":106.858896,"transit":false,"line":1,"time":2,"station_id":"MTR","station_name":"Matraman","is_transit":false,"i_lat":-6.212485},{"transit":true,"station_id":"JNG","line":0,"station_name":"Jatinegara","i_lat":-6.215091,"i_long":106.86807400000001,"is_transit":true,"distance":1377,"time":8},{"i_long":106.861737,"transit":false,"is_transit":false,"station_id":"POK","time":2,"station_name":"Pondok Jati","i_lat":-6.209188,"line":11,"distance":1236},{"line":11,"i_long":106.855437,"transit":false,"distance":1829,"i_lat":-6.193792,"station_id":"KMT","time":2,"is_transit":false,"station_name":"Kramat"},{"line":11,"distance":973,"i_long":106.850107,"station_id":"GST","is_transit":false,"transit":false,"time":1,"i_lat":-6.185975,"station_name":"Gang Sentiong"},{"line":11,"i_lat":-6.174784,"i_long":106.84368,"is_transit":false,"station_id":"PSE","station_name":"Pasar Senen","time":8,"distance":1567,"transit":false},{"transit":false,"is_transit":false,"i_lat":-6.161728,"line":11,"time":4,"station_id":"KMO","i_long":106.839204,"distance":1436,"station_name":"Kemayoran"},{"distance":1901,"i_long":106.836569,"is_transit":false,"station_id":"RJW","station_name":"Rajawali","transit":false,"i_lat":-6.14505,"line":11,"time":5},{"station_id":"KPB","station_name":"Kampung Bandan","is_transit":true,"line":0,"distance":1444,"i_long":106.826365,"time":3,"transit":true,"i_lat":-6.132549},{"is_transit":true,"i_lat":-6.137569,"line":0,"transit":true,"i_long":106.812439,"distance":1364,"station_id":"JAKK","time":3,"station_name":"Jakarta Kota"},{"station_id":"JAY","station_name":"Jayakarta","time":4,"is_transit":false,"transit":false,"i_long":106.820901,"i_lat":-6.141205,"distance":1264,"line":7},{"distance":1080,"station_name":"Manggabesar","transit":false,"is_transit":false,"time":2,"line":2,"i_lat":-6.149769,"i_long":106.82482,"station_id":"MGB"},{"is_transit":false,"transit":false,"i_lat":-6.160725,"i_long":106.827103,"line":2,"time":2,"station_id":"SW","distance":906,"station_name":"Sawah Besar"}]]}