{"data":[[{"i_lat":-6.314823,"time":0,"line":6,"station_id":"RU","transit":false,"i_long":106.675475,"distance":0,"is_transit":false,"station_name":"Rawa Buntu"},{"i_lat":-6.296963,"station_id":"SDM","transit":false,"is_transit":false,"station_name":"Sudimara","time":6,"distance":4566,"line":6,"i_long":106.712277},{"is_transit":false,"station_id":"JMU","station_name":"Jurangmangu","distance":1994,"i_lat":-6.288927,"i_long":106.728916,"line":6,"transit":false,"time":4},{"transit":false,"station_id":"PDJ","is_transit":false,"time":3,"distance":2179,"line":6,"i_lat":-6.276362,"station_name":"Pondokranji","i_long":106.74273},{"station_id":"KBY","i_long":106.780334,"distance":6218,"transit":false,"i_lat":-6.237242,"is_transit":false,"time":8,"line":6,"station_name":"Kebayoran"},{"i_long":106.79689,"is_transit":false,"i_lat":-6.207404,"line":6,"station_name":"Palmerah","transit":false,"time":7,"station_id":"PLM","distance":3737},{"station_id":"THB","transit":true,"is_transit":true,"distance":3191,"time":6,"i_long":106.811091,"station_name":"Tanah Abang","line":1,"i_lat":-6.185545},{"line":1,"i_lat":-6.155215,"transit":false,"station_id":"DU","i_long":106.800832,"station_name":"Duri","time":8,"distance":3632,"is_transit":false},{"i_lat":-6.144674,"station_name":"Angke","i_long":106.79867,"is_transit":false,"distance":1230,"transit":false,"station_id":"AK","line":1,"time":4},{"i_lat":-6.132549,"transit":true,"station_id":"KPB","time":9,"distance":4102,"i_long":106.826365,"line":4,"station_name":"Kampung Bandan","is_transit":true},{"line":2,"transit":true,"is_transit":true,"station_id":"JAKK","distance":1364,"time":3,"i_long":106.812439,"i_lat":-6.137569,"station_name":"Jakarta Kota"},{"time":4,"i_long":106.820901,"transit":false,"station_id":"JAY","is_transit":false,"station_name":"Jayakarta","line":2,"distance":1264,"i_lat":-6.141205},{"i_lat":-6.149769,"transit":false,"time":2,"line":2,"station_id":"MGB","i_long":106.82482,"station_name":"Manggabesar","is_transit":false,"distance":1080},{"distance":906,"transit":false,"i_long":106.827103,"line":2,"station_name":"Sawah Besar","station_id":"SW","is_transit":false,"i_lat":-6.160725,"time":2}],[{"station_name":"Rawa Buntu","time":0,"distance":0,"i_lat":-6.314823,"station_id":"RU","line":6,"is_transit":false,"transit":false,"i_long":106.675475},{"station_name":"Sudimara","is_transit":false,"time":6,"station_id":"SDM","i_long":106.712277,"line":6,"distance":4566,"transit":false,"i_lat":-6.296963},{"station_id":"JMU","time":4,"i_long":106.728916,"station_name":"Jurangmangu","distance":1994,"is_transit":false,"i_lat":-6.288927,"line":6,"transit":false},{"time":3,"is_transit":false,"i_lat":-6.276362,"line":6,"distance":2179,"station_name":"Pondokranji","transit":false,"i_long":106.74273,"station_id":"PDJ"},{"transit":false,"distance":6218,"i_lat":-6.237242,"is_transit":false,"i_long":106.780334,"time":8,"station_id":"KBY","line":6,"station_name":"Kebayoran"},{"station_id":"PLM","station_name":"Palmerah","is_transit":false,"transit":false,"i_long":106.79689,"distance":3737,"time":7,"line":6,"i_lat":-6.207404},{"time":6,"i_long":106.811091,"line":1,"transit":true,"is_transit":true,"station_name":"Tanah Abang","distance":3191,"i_lat":-6.185545,"station_id":"THB"},{"time":5,"distance":2029,"transit":false,"i_lat":-6.20132,"is_transit":false,"station_name":"Karet","line":1,"i_long":106.816351,"station_id":"KAT"},{"i_long":106.819881,"transit":false,"is_transit":false,"time":1,"station_name":"Sudirman Baru","station_id":"SUDB","distance":471,"i_lat":-6.201433,"line":1},{"distance":280,"time":1,"station_name":"Sudirman","station_id":"SUD","i_long":106.822649,"is_transit":false,"i_lat":-6.202263,"transit":false,"line":1},{"is_transit":true,"time":4,"distance":3186,"station_name":"Manggarai","station_id":"MRI","transit":true,"i_lat":-6.209883,"line":2,"i_long":106.84912},{"station_name":"Cikini","time":4,"i_lat":-6.198556,"station_id":"CKI","transit":false,"line":2,"is_transit":false,"distance":1590,"i_long":106.840169},{"time":3,"i_long":106.832183,"transit":false,"station_name":"Gondangdia","i_lat":-6.186295,"distance":1750,"line":2,"station_id":"GDD","is_transit":false},{"station_id":"JUA","station_name":"Juanda","i_long":106.828284,"distance":2015,"line":2,"is_transit":false,"time":4,"i_lat":-6.166716,"transit":false},{"transit":false,"distance":1149,"time":2,"i_long":106.827103,"is_transit":false,"i_lat":-6.160725,"line":2,"station_id":"SW","station_name":"Sawah Besar"}],[{"station_name":"Rawa Buntu","is_transit":false,"i_long":106.675475,"distance":0,"station_id":"RU","time":0,"transit":false,"i_lat":-6.314823,"line":6},{"station_name":"Sudimara","time":6,"line":6,"transit":false,"distance":4566,"is_transit":false,"i_lat":-6.296963,"i_long":106.712277,"station_id":"SDM"},{"line":6,"is_transit":false,"station_id":"JMU","time":4,"i_lat":-6.288927,"distance":1994,"transit":false,"station_name":"Jurangmangu","i_long":106.728916},{"transit":false,"i_lat":-6.276362,"is_transit":false,"i_long":106.74273,"station_id":"PDJ","time":3,"line":6,"station_name":"Pondokranji","distance":2179},{"is_transit":false,"station_name":"Kebayoran","transit":false,"station_id":"KBY","i_long":106.780334,"distance":6218,"i_lat":-6.237242,"time":8,"line":6},{"transit":false,"distance":3737,"station_id":"PLM","is_transit":false,"i_lat":-6.207404,"i_long":106.79689,"time":7,"line":6,"station_name":"Palmerah"},{"is_transit":true,"i_long":106.811091,"distance":3191,"line":1,"station_id":"THB","time":6,"transit":true,"station_name":"Tanah Abang","i_lat":-6.185545},{"transit":false,"station_id":"DU","station_name":"Duri","distance":3632,"i_lat":-6.155215,"i_long":106.800832,"is_transit":false,"time":8,"line":1},{"station_name":"Angke","time":4,"i_lat":-6.144674,"station_id":"AK","transit":false,"is_transit":false,"distance":1230,"i_long":106.79867,"line":1},{"station_id":"KPB","line":4,"is_transit":true,"transit":true,"i_long":106.826365,"station_name":"Kampung Bandan","time":9,"distance":4102,"i_lat":-6.132549},{"i_lat":-6.14505,"transit":false,"distance":1444,"i_long":106.836569,"time":3,"is_transit":false,"station_id":"RJW","station_name":"Rajawali","line":11},{"transit":false,"i_lat":-6.161728,"line":11,"station_id":"KMO","station_name":"Kemayoran","time":5,"distance":1901,"i_long":106.839204,"is_transit":false},{"distance":1436,"line":11,"transit":false,"station_name":"Pasar Senen","time":4,"station_id":"PSE","is_transit":false,"i_lat":-6.174784,"i_long":106.84368},{"i_long":106.850107,"is_transit":false,"transit":false,"station_id":"GST","station_name":"Gang Sentiong","distance":1567,"i_lat":-6.185975,"line":11,"time":8},{"station_name":"Kramat","transit":false,"is_transit":false,"time":1,"station_id":"KMT","i_lat":-6.193792,"distance":973,"i_long":106.855437,"line":11},{"time":2,"is_transit":false,"line":11,"station_id":"POK","station_name":"Pondok Jati","i_long":106.861737,"distance":1829,"transit":false,"i_lat":-6.209188},{"distance":1236,"transit":true,"time":9,"station_name":"Jatinegara","is_transit":true,"station_id":"JNG","line":1,"i_long":106.86807400000001,"i_lat":-6.215091},{"is_transit":false,"station_id":"MTR","i_long":106.858896,"station_name":"Matraman","line":1,"distance":1377,"i_lat":-6.212485,"time":2,"transit":false},{"i_lat":-6.209883,"is_transit":true,"i_long":106.84912,"station_name":"Manggarai","time":2,"distance":1275,"transit":true,"station_id":"MRI","line":2},{"transit":false,"i_lat":-6.198556,"is_transit":false,"station_name":"Cikini","distance":1590,"time":4,"station_id":"CKI","i_long":106.840169,"line":2},{"i_long":106.832183,"time":3,"i_lat":-6.186295,"station_name":"Gondangdia","distance":1750,"transit":false,"is_transit":false,"station_id":"GDD","line":2},{"transit":false,"distance":2015,"station_id":"JUA","line":2,"is_transit":false,"station_name":"Juanda","i_lat":-6.166716,"i_long":106.828284,"time":4},{"station_name":"Sawah Besar","i_long":106.827103,"distance":1149,"transit":false,"line":2,"time":2,"station_id":"SW","is_transit":false,"i_lat":-6.160725}],[{"transit":false,"line":6,"i_lat":-6.314823,"station_id":"RU","station_name":"Rawa Buntu","time":0,"i_long":106.675475,"distance":0,"is_transit":false},{"i_lat":-6.296963,"line":6,"station_name":"Sudimara","time":6,"station_id":"SDM","transit":false,"is_transit":false,"i_long":106.712277,"distance":4566},{"distance":1994,"is_transit":false,"i_lat":-6.288927,"transit":false,"station_id":"JMU","time":4,"line":6,"i_long":106.728916,"station_name":"Jurangmangu"},{"distance":2179,"transit":false,"is_transit":false,"line":6,"station_id":"PDJ","i_long":106.74273,"time":3,"i_lat":-6.276362,"station_name":"Pondokranji"},{"time":8,"distance":6218,"station_id":"KBY","i_lat":-6.237242,"line":6,"station_name":"Kebayoran","transit":false,"is_transit":false,"i_long":106.780334},{"station_id":"PLM","i_lat":-6.207404,"distance":3737,"station_name":"Palmerah","is_transit":false,"transit":false,"time":7,"line":6,"i_long":106.79689},{"transit":true,"line":1,"station_name":"Tanah Abang","time":6,"is_transit":true,"station_id":"THB","distance":3191,"i_lat":-6.185545,"i_long":106.811091},{"transit":false,"station_id":"KAT","is_transit":false,"distance":2029,"i_long":106.816351,"time":5,"i_lat":-6.20132,"station_name":"Karet","line":1},{"i_long":106.819881,"line":1,"transit":false,"station_id":"SUDB","distance":471,"i_lat":-6.201433,"station_name":"Sudirman Baru","time":1,"is_transit":false},{"transit":false,"is_transit":false,"distance":280,"time":1,"i_long":106.822649,"station_id":"SUD","station_name":"Sudirman","i_lat":-6.202263,"line":1},{"time":4,"transit":false,"is_transit":false,"station_id":"MRI","line":2,"distance":3186,"i_long":106.84912,"i_lat":-6.209883,"station_name":"Manggarai"},{"line":1,"is_transit":false,"transit":false,"time":2,"i_long":106.858896,"station_name":"Matraman","station_id":"MTR","distance":1275,"i_lat":-6.212485},{"i_lat":-6.215091,"time":8,"is_transit":true,"station_id":"JNG","transit":true,"i_long":106.86807400000001,"station_name":"Jatinegara","distance":1377,"line":1},{"time":2,"is_transit":false,"line":11,"distance":1236,"station_id":"POK","station_name":"Pondok Jati","i_long":106.861737,"i_lat":-6.209188,"transit":false},{"distance":1829,"is_transit":false,"line":11,"i_long":106.855437,"station_id":"KMT","i_lat":-6.193792,"station_name":"Kramat","transit":false,"time":2},{"station_id":"GST","station_name":"Gang Sentiong","i_lat":-6.185975,"line":11,"distance":973,"time":1,"i_long":106.850107,"transit":false,"is_transit":false},{"i_lat":-6.174784,"station_id":"PSE","time":8,"i_long":106.84368,"station_name":"Pasar Senen","line":11,"distance":1567,"is_transit":false,"transit":false},{"transit":false,"distance":1436,"is_transit":false,"i_lat":-6.161728,"i_long":106.839204,"line":11,"station_name":"Kemayoran","time":4,"station_id":"KMO"},{"i_long":106.836569,"transit":false,"station_id":"RJW","station_name":"Rajawali","distance":1901,"i_lat":-6.14505,"line":11,"is_transit":false,"time":5},{"station_name":"Kampung Bandan","station_id":"KPB","i_lat":-6.132549,"line":4,"distance":1444,"time":3,"is_transit":true,"i_long":106.826365,"transit":true},{"i_lat":-6.137569,"distance":1364,"transit":true,"station_id":"JAKK","is_transit":true,"i_long":106.812439,"station_name":"Jakarta Kota","time":3,"line":2},{"station_name":"Jayakarta","is_transit":false,"station_id":"JAY","i_long":106.820901,"line":2,"i_lat":-6.141205,"distance":1264,"transit":false,"time":4},{"line":2,"is_transit":false,"transit":false,"time":2,"station_name":"Manggabesar","station_id":"MGB","i_lat":-6.149769,"i_long":106.82482,"distance":1080},{"is_transit":false,"line":2,"i_long":106.827103,"station_name":"Sawah Besar","transit":false,"time":2,"station_id":"SW","i_lat":-6.160725,"distance":906}]]}