{"data":[[{"is_transit":false,"time":0,"i_lat":-6.162758,"transit":false,"station_name":"Rawa Buaya","station_id":"RW","distance":0,"line":5,"i_long":106.723064},{"distance":1152,"station_name":"Bojongindah","transit":false,"is_transit":false,"i_long":106.737035,"i_lat":-6.159876,"station_id":"BOI","line":5,"time":4},{"i_lat":-6.1587309999999995,"station_id":"TKO","time":2,"is_transit":false,"i_long":106.756522,"station_name":"Taman Kota","transit":false,"line":5,"distance":2334},{"time":2,"i_long":106.771379,"distance":1614,"i_lat":-6.161433,"transit":false,"station_name":"Pesing","is_transit":false,"station_id":"PSG","line":5},{"distance":2036,"i_long":106.788277,"station_id":"GGL","line":5,"is_transit":false,"station_name":"Grogol","transit":false,"time":2,"i_lat":-6.162021},{"line":1,"station_name":"Duri","is_transit":true,"time":3,"i_lat":-6.155215,"transit":true,"station_id":"DU","distance":1700,"i_long":106.800832},{"station_id":"AK","time":4,"distance":1230,"line":1,"station_name":"Angke","transit":false,"i_lat":-6.144674,"i_long":106.79867,"is_transit":false},{"transit":true,"station_name":"Kampung Bandan","time":9,"distance":4102,"i_long":106.826365,"station_id":"KPB","line":4,"i_lat":-6.132549,"is_transit":true},{"transit":false,"station_name":"Ancol","i_lat":-6.128023,"time":4,"line":4,"station_id":"AC","i_long":106.84464,"is_transit":false,"distance":2185}],[{"is_transit":false,"i_long":106.723064,"station_id":"RW","i_lat":-6.162758,"time":0,"station_name":"Rawa Buaya","distance":0,"line":5,"transit":false},{"distance":1152,"station_name":"Bojongindah","is_transit":false,"i_lat":-6.159876,"time":4,"transit":false,"station_id":"BOI","i_long":106.737035,"line":5},{"station_id":"TKO","distance":2334,"i_long":106.756522,"i_lat":-6.1587309999999995,"station_name":"Taman Kota","is_transit":false,"line":5,"transit":false,"time":2},{"is_transit":false,"station_id":"PSG","distance":1614,"line":5,"i_lat":-6.161433,"i_long":106.771379,"transit":false,"time":2,"station_name":"Pesing"},{"station_name":"Grogol","time":2,"i_long":106.788277,"i_lat":-6.162021,"station_id":"GGL","is_transit":false,"line":5,"distance":2036,"transit":false},{"station_name":"Duri","is_transit":true,"line":1,"station_id":"DU","i_lat":-6.155215,"i_long":106.800832,"time":3,"distance":1700,"transit":true},{"i_lat":-6.185545,"station_name":"Tanah Abang","is_transit":false,"station_id":"THB","time":8,"transit":false,"i_long":106.811091,"line":1,"distance":3632},{"time":5,"station_id":"KAT","i_long":106.816351,"i_lat":-6.20132,"transit":false,"distance":2029,"station_name":"Karet","is_transit":false,"line":1},{"transit":false,"i_lat":-6.201433,"i_long":106.819881,"station_name":"Sudirman Baru","time":1,"distance":471,"is_transit":false,"station_id":"SUDB","line":1},{"line":1,"transit":false,"station_id":"SUD","station_name":"Sudirman","is_transit":false,"i_lat":-6.202263,"time":1,"distance":280,"i_long":106.822649},{"line":2,"transit":true,"distance":3186,"is_transit":true,"i_lat":-6.209883,"station_name":"Manggarai","i_long":106.84912,"time":4,"station_id":"MRI"},{"station_name":"Cikini","transit":false,"i_lat":-6.198556,"line":2,"time":4,"is_transit":false,"i_long":106.840169,"distance":1590,"station_id":"CKI"},{"distance":1750,"is_transit":false,"line":2,"station_id":"GDD","time":3,"i_lat":-6.186295,"transit":false,"i_long":106.832183,"station_name":"Gondangdia"},{"transit":false,"is_transit":false,"line":2,"i_lat":-6.166716,"i_long":106.828284,"station_name":"Juanda","distance":2015,"station_id":"JUA","time":4},{"station_id":"SW","distance":1149,"i_long":106.827103,"i_lat":-6.160725,"transit":false,"station_name":"Sawah Besar","is_transit":false,"line":2,"time":2},{"line":2,"is_transit":false,"time":2,"i_lat":-6.149769,"station_name":"Manggabesar","station_id":"MGB","distance":906,"i_long":106.82482,"transit":false},{"is_transit":false,"line":2,"station_id":"JAY","time":2,"distance":1080,"i_lat":-6.141205,"station_name":"Jayakarta","transit":false,"i_long":106.820901},{"time":4,"station_name":"Jakarta Kota","station_id":"JAKK","distance":1264,"transit":true,"i_lat":-6.137569,"i_long":106.812439,"is_transit":true,"line":2},{"station_id":"KPB","i_lat":-6.132549,"i_long":106.826365,"line":4,"transit":true,"is_transit":true,"time":3,"distance":1364,"station_name":"Kampung Bandan"},{"station_id":"AC","is_transit":false,"i_lat":-6.128023,"i_long":106.84464,"transit":false,"station_name":"Ancol","time":4,"distance":2185,"line":4}],[{"i_long":106.723064,"time":0,"line":5,"station_id":"RW","distance":0,"i_lat":-6.162758,"station_name":"Rawa Buaya","transit":false,"is_transit":false},{"i_lat":-6.159876,"station_name":"Bojongindah","i_long":106.737035,"distance":1152,"line":5,"station_id":"BOI","time":4,"transit":false,"is_transit":false},{"station_name":"Taman Kota","i_lat":-6.1587309999999995,"transit":false,"station_id":"TKO","i_long":106.756522,"time":2,"is_transit":false,"line":5,"distance":2334},{"station_id":"PSG","distance":1614,"station_name":"Pesing","i_lat":-6.161433,"line":5,"transit":false,"is_transit":false,"i_long":106.771379,"time":2},{"distance":2036,"i_lat":-6.162021,"line":5,"transit":false,"station_id":"GGL","time":2,"i_long":106.788277,"station_name":"Grogol","is_transit":false},{"distance":1700,"is_transit":true,"time":3,"i_lat":-6.155215,"i_long":106.800832,"line":1,"station_id":"DU","transit":true,"station_name":"Duri"},{"i_lat":-6.185545,"line":1,"is_transit":false,"transit":false,"station_id":"THB","i_long":106.811091,"distance":3632,"time":8,"station_name":"Tanah Abang"},{"time":5,"i_lat":-6.20132,"i_long":106.816351,"station_name":"Karet","is_transit":false,"distance":2029,"transit":false,"station_id":"KAT","line":1},{"line":1,"time":1,"station_name":"Sudirman Baru","transit":false,"i_lat":-6.201433,"station_id":"SUDB","is_transit":false,"distance":471,"i_long":106.819881},{"transit":false,"station_name":"Sudirman","is_transit":false,"i_long":106.822649,"distance":280,"i_lat":-6.202263,"line":1,"time":1,"station_id":"SUD"},{"time":4,"is_transit":false,"station_id":"MRI","i_long":106.84912,"line":2,"transit":false,"i_lat":-6.209883,"distance":3186,"station_name":"Manggarai"},{"i_long":106.858896,"transit":false,"i_lat":-6.212485,"distance":1275,"line":1,"is_transit":false,"time":2,"station_name":"Matraman","station_id":"MTR"},{"transit":true,"station_name":"Jatinegara","station_id":"JNG","line":1,"distance":1377,"is_transit":true,"i_lat":-6.215091,"time":8,"i_long":106.86807400000001},{"station_name":"Pondok Jati","is_transit":false,"time":2,"transit":false,"station_id":"POK","i_lat":-6.209188,"line":11,"i_long":106.861737,"distance":1236},{"i_lat":-6.193792,"i_long":106.855437,"line":11,"station_id":"KMT","is_transit":false,"station_name":"Kramat","transit":false,"distance":1829,"time":2},{"distance":973,"is_transit":false,"line":11,"station_name":"Gang Sentiong","station_id":"GST","i_lat":-6.185975,"time":1,"transit":false,"i_long":106.850107},{"station_name":"Pasar Senen","distance":1567,"is_transit":false,"time":8,"transit":false,"station_id":"PSE","line":11,"i_lat":-6.174784,"i_long":106.84368},{"distance":1436,"transit":false,"time":4,"i_long":106.839204,"line":11,"i_lat":-6.161728,"station_name":"Kemayoran","station_id":"KMO","is_transit":false},{"is_transit":false,"time":5,"distance":1901,"i_lat":-6.14505,"line":11,"transit":false,"station_name":"Rajawali","i_long":106.836569,"station_id":"RJW"},{"is_transit":true,"distance":1444,"i_long":106.826365,"time":3,"transit":true,"line":4,"station_id":"KPB","station_name":"Kampung Bandan","i_lat":-6.132549},{"is_transit":false,"station_name":"Ancol","distance":2185,"i_lat":-6.128023,"station_id":"AC","i_long":106.84464,"line":4,"transit":false,"time":4}]]}