{"data":[[{"station_id":"RW","time":0,"i_long":106.723064,"distance":0,"line":5,"transit":false,"station_name":"Rawa Buaya","i_lat":-6.162758,"is_transit":false},{"distance":1152,"station_id":"BOI","station_name":"Bojongindah","i_lat":-6.159876,"time":4,"is_transit":false,"i_long":106.737035,"line":0,"transit":false},{"distance":2334,"station_id":"TKO","i_long":106.756522,"line":5,"transit":false,"time":2,"i_lat":-6.1587309999999995,"is_transit":false,"station_name":"Taman Kota"},{"is_transit":false,"distance":1614,"time":2,"line":5,"i_long":106.771379,"station_name":"Pesing","station_id":"PSG","transit":false,"i_lat":-6.161433},{"line":5,"station_id":"GGL","distance":2036,"is_transit":false,"transit":false,"time":2,"i_lat":-6.162021,"station_name":"Grogol","i_long":106.788277},{"i_long":106.800832,"transit":true,"i_lat":-6.155215,"distance":1700,"station_id":"DU","line":1,"station_name":"Duri","is_transit":true,"time":3},{"station_name":"Angke","i_lat":-6.144674,"time":4,"is_transit":false,"i_long":106.79867,"distance":1230,"line":0,"transit":false,"station_id":"AK"},{"distance":4102,"is_transit":true,"station_id":"KPB","time":9,"line":0,"transit":false,"station_name":"Kampung Bandan","i_lat":-6.132549,"i_long":106.826365},{"distance":2185,"i_lat":-6.128023,"i_long":106.84464,"transit":false,"is_transit":false,"time":4,"station_id":"AC","station_name":"Ancol","line":0}],[{"transit":false,"i_long":106.723064,"station_id":"RW","station_name":"Rawa Buaya","time":0,"i_lat":-6.162758,"line":5,"distance":0,"is_transit":false},{"i_lat":-6.159876,"transit":false,"distance":1152,"station_name":"Bojongindah","i_long":106.737035,"line":0,"time":4,"is_transit":false,"station_id":"BOI"},{"distance":2334,"i_long":106.756522,"is_transit":false,"station_name":"Taman Kota","transit":false,"time":2,"i_lat":-6.1587309999999995,"station_id":"TKO","line":5},{"station_name":"Pesing","is_transit":false,"i_lat":-6.161433,"i_long":106.771379,"transit":false,"distance":1614,"line":5,"station_id":"PSG","time":2},{"transit":false,"i_long":106.788277,"time":2,"distance":2036,"is_transit":false,"station_id":"GGL","line":5,"station_name":"Grogol","i_lat":-6.162021},{"station_name":"Duri","station_id":"DU","transit":true,"is_transit":true,"i_lat":-6.155215,"line":1,"time":3,"i_long":106.800832,"distance":1700},{"time":8,"i_lat":-6.185545,"is_transit":true,"line":1,"i_long":106.811091,"distance":3632,"station_name":"Tanah Abang","transit":false,"station_id":"THB"},{"distance":2029,"station_name":"Karet","i_lat":-6.20132,"i_long":106.816351,"line":1,"station_id":"KAT","is_transit":false,"transit":false,"time":5},{"time":1,"transit":false,"distance":471,"i_lat":-6.201433,"station_name":"Sudirman Baru","line":1,"station_id":"SUDB","is_transit":false,"i_long":106.819881},{"line":1,"is_transit":false,"station_id":"SUD","distance":280,"station_name":"Sudirman","transit":false,"time":1,"i_lat":-6.202263,"i_long":106.822649},{"transit":true,"station_name":"Manggarai","is_transit":true,"line":0,"i_lat":-6.209883,"i_long":106.84912,"distance":3186,"station_id":"MRI","time":4},{"i_long":106.840169,"station_id":"CKI","transit":false,"line":0,"is_transit":false,"distance":1590,"time":4,"i_lat":-6.198556,"station_name":"Cikini"},{"station_name":"Gondangdia","transit":false,"i_lat":-6.186295,"i_long":106.832183,"is_transit":false,"station_id":"GDD","distance":1750,"time":3,"line":2},{"distance":2015,"line":2,"transit":false,"station_id":"JUA","is_transit":false,"i_lat":-6.166716,"station_name":"Juanda","time":4,"i_long":106.828284},{"is_transit":false,"i_long":106.827103,"line":2,"transit":false,"time":2,"i_lat":-6.160725,"distance":1149,"station_id":"SW","station_name":"Sawah Besar"},{"transit":false,"station_name":"Manggabesar","time":2,"is_transit":false,"i_lat":-6.149769,"i_long":106.82482,"line":2,"station_id":"MGB","distance":906},{"i_long":106.820901,"station_name":"Jayakarta","distance":1080,"transit":false,"line":7,"time":2,"is_transit":false,"station_id":"JAY","i_lat":-6.141205},{"station_id":"JAKK","line":0,"i_long":106.812439,"distance":1264,"transit":true,"time":4,"station_name":"Jakarta Kota","is_transit":true,"i_lat":-6.137569},{"station_id":"KPB","i_long":106.826365,"line":0,"is_transit":true,"transit":false,"i_lat":-6.132549,"time":3,"station_name":"Kampung Bandan","distance":1364},{"station_id":"AC","time":4,"line":0,"transit":false,"is_transit":false,"distance":2185,"i_long":106.84464,"station_name":"Ancol","i_lat":-6.128023}],[{"i_lat":-6.162758,"line":5,"station_name":"Rawa Buaya","transit":false,"distance":0,"station_id":"RW","time":0,"is_transit":false,"i_long":106.723064},{"station_id":"BOI","distance":1152,"station_name":"Bojongindah","transit":false,"is_transit":false,"time":4,"i_long":106.737035,"line":0,"i_lat":-6.159876},{"transit":false,"time":2,"station_id":"TKO","i_lat":-6.1587309999999995,"distance":2334,"i_long":106.756522,"line":5,"station_name":"Taman Kota","is_transit":false},{"distance":1614,"i_long":106.771379,"is_transit":false,"station_name":"Pesing","transit":false,"i_lat":-6.161433,"line":5,"time":2,"station_id":"PSG"},{"i_long":106.788277,"is_transit":false,"transit":false,"distance":2036,"station_id":"GGL","station_name":"Grogol","line":5,"time":2,"i_lat":-6.162021},{"transit":true,"station_name":"Duri","distance":1700,"station_id":"DU","i_lat":-6.155215,"time":3,"i_long":106.800832,"is_transit":true,"line":1},{"station_id":"THB","distance":3632,"is_transit":true,"time":8,"i_long":106.811091,"line":1,"station_name":"Tanah Abang","transit":false,"i_lat":-6.185545},{"i_lat":-6.20132,"time":5,"is_transit":false,"station_name":"Karet","transit":false,"line":1,"distance":2029,"i_long":106.816351,"station_id":"KAT"},{"time":1,"line":1,"station_id":"SUDB","i_long":106.819881,"i_lat":-6.201433,"distance":471,"transit":false,"is_transit":false,"station_name":"Sudirman Baru"},{"line":1,"i_long":106.822649,"distance":280,"i_lat":-6.202263,"station_name":"Sudirman","station_id":"SUD","time":1,"transit":false,"is_transit":false},{"station_id":"MRI","station_name":"Manggarai","transit":false,"time":4,"i_lat":-6.209883,"i_long":106.84912,"is_transit":true,"line":0,"distance":3186},{"line":1,"is_transit":false,"i_lat":-6.212485,"time":2,"distance":1275,"station_name":"Matraman","station_id":"MTR","i_long":106.858896,"transit":false},{"line":0,"is_transit":true,"transit":true,"i_long":106.86807400000001,"distance":1377,"station_name":"Jatinegara","i_lat":-6.215091,"station_id":"JNG","time":8},{"line":11,"station_id":"POK","station_name":"Pondok Jati","time":2,"i_lat":-6.209188,"i_long":106.861737,"transit":false,"distance":1236,"is_transit":false},{"station_id":"KMT","time":2,"transit":false,"i_long":106.855437,"line":11,"station_name":"Kramat","distance":1829,"i_lat":-6.193792,"is_transit":false},{"i_lat":-6.185975,"line":11,"station_name":"Gang Sentiong","distance":973,"is_transit":false,"station_id":"GST","time":1,"transit":false,"i_long":106.850107},{"time":8,"is_transit":false,"station_name":"Pasar Senen","station_id":"PSE","line":11,"transit":false,"i_lat":-6.174784,"distance":1567,"i_long":106.84368},{"is_transit":false,"station_id":"KMO","i_long":106.839204,"time":4,"line":11,"distance":1436,"station_name":"Kemayoran","transit":false,"i_lat":-6.161728},{"time":5,"transit":false,"station_id":"RJW","i_long":106.836569,"distance":1901,"is_transit":false,"station_name":"Rajawali","line":11,"i_lat":-6.14505},{"station_id":"KPB","time":3,"line":0,"i_long":106.826365,"station_name":"Kampung Bandan","transit":true,"i_lat":-6.132549,"is_transit":true,"distance":1444},{"i_long":106.84464,"is_transit":false,"transit":false,"station_id":"AC","distance":2185,"station_name":"Ancol","time":4,"i_lat":-6.128023,"line":0}]]}