{"data":[[{"i_lat":-6.162758,"line":5,"station_name":"Rawa Buaya","transit":false,"time":0,"is_transit":false,"distance":0,"station_id":"RW","i_long":106.723064},{"station_id":"BOI","time":4,"is_transit":false,"transit":false,"i_lat":-6.159876,"station_name":"Bojongindah","distance":1152,"i_long":106.737035,"line":5},{"transit":false,"station_name":"Taman Kota","i_lat":-6.1587309999999995,"line":5,"distance":2334,"station_id":"TKO","is_transit":false,"time":2,"i_long":106.756522},{"i_long":106.771379,"time":2,"i_lat":-6.161433,"station_id":"PSG","station_name":"Pesing","line":5,"is_transit":false,"transit":false,"distance":1614},{"transit":false,"station_id":"GGL","time":2,"i_long":106.788277,"distance":2036,"is_transit":false,"station_name":"Grogol","line":5,"i_lat":-6.162021},{"station_name":"Duri","i_long":106.800832,"line":1,"distance":1700,"transit":true,"station_id":"DU","time":3,"is_transit":true,"i_lat":-6.155215},{"station_name":"Tanah Abang","line":1,"i_lat":-6.185545,"i_long":106.811091,"distance":3632,"time":8,"transit":false,"station_id":"THB","is_transit":false},{"i_lat":-6.20132,"time":5,"station_name":"Karet","transit":false,"line":1,"station_id":"KAT","i_long":106.816351,"distance":2029,"is_transit":false},{"transit":false,"time":1,"station_id":"SUDB","distance":471,"is_transit":false,"i_long":106.819881,"line":1,"station_name":"Sudirman Baru","i_lat":-6.201433},{"i_lat":-6.202263,"is_transit":false,"time":1,"station_name":"Sudirman","line":1,"distance":280,"transit":false,"i_long":106.822649,"station_id":"SUD"},{"station_name":"Manggarai","distance":3186,"is_transit":false,"station_id":"MRI","i_long":106.84912,"transit":false,"i_lat":-6.209883,"line":2,"time":4},{"line":1,"time":2,"station_name":"Matraman","is_transit":false,"i_long":106.858896,"transit":false,"i_lat":-6.212485,"station_id":"MTR","distance":1275},{"transit":false,"station_id":"JNG","is_transit":false,"time":8,"line":1,"station_name":"Jatinegara","i_long":106.86807400000001,"i_lat":-6.215091,"distance":1377},{"station_name":"Klender","i_lat":-6.2135,"distance":3395,"station_id":"KLD","is_transit":false,"time":3,"i_long":106.899548,"line":1,"transit":false},{"station_name":"Buaran","transit":false,"is_transit":false,"i_lat":-6.215568,"i_long":106.922662,"line":1,"time":2,"distance":3100,"station_id":"BUA"},{"time":1,"station_name":"Klenderbaru","transit":false,"distance":1305,"i_long":106.939679,"i_lat":-6.217455,"station_id":"KLDB","is_transit":false,"line":1},{"time":8,"station_name":"Cakung","i_long":106.951283,"i_lat":-6.219053,"line":1,"transit":false,"station_id":"CUK","is_transit":false,"distance":1385},{"is_transit":false,"i_lat":-6.224515,"line":1,"transit":false,"station_name":"Kranji","i_long":106.977657,"distance":3097,"station_id":"KRI","time":3},{"is_transit":false,"line":1,"station_id":"BKS","i_long":106.997013,"transit":false,"time":4,"station_name":"Bekasi","distance":2520,"i_lat":-6.236616}],[{"i_lat":-6.162758,"distance":0,"station_name":"Rawa Buaya","i_long":106.723064,"line":5,"time":0,"is_transit":false,"transit":false,"station_id":"RW"},{"is_transit":false,"station_name":"Bojongindah","distance":1152,"time":4,"transit":false,"i_lat":-6.159876,"i_long":106.737035,"line":5,"station_id":"BOI"},{"is_transit":false,"i_long":106.756522,"time":2,"i_lat":-6.1587309999999995,"station_id":"TKO","line":5,"station_name":"Taman Kota","transit":false,"distance":2334},{"station_name":"Pesing","line":5,"time":2,"is_transit":false,"distance":1614,"transit":false,"i_lat":-6.161433,"station_id":"PSG","i_long":106.771379},{"line":5,"is_transit":false,"station_id":"GGL","station_name":"Grogol","time":2,"distance":2036,"transit":false,"i_lat":-6.162021,"i_long":106.788277},{"transit":true,"station_id":"DU","time":3,"i_long":106.800832,"is_transit":true,"i_lat":-6.155215,"line":1,"distance":1700,"station_name":"Duri"},{"station_name":"Angke","line":1,"i_long":106.79867,"i_lat":-6.144674,"time":4,"is_transit":false,"station_id":"AK","distance":1230,"transit":false},{"i_lat":-6.132549,"station_id":"KPB","station_name":"Kampung Bandan","is_transit":true,"transit":true,"i_long":106.826365,"line":4,"distance":4102,"time":9},{"transit":false,"i_lat":-6.14505,"line":11,"is_transit":false,"station_id":"RJW","station_name":"Rajawali","i_long":106.836569,"distance":1444,"time":3},{"station_id":"KMO","station_name":"Kemayoran","line":11,"i_lat":-6.161728,"distance":1901,"is_transit":false,"transit":false,"time":5,"i_long":106.839204},{"i_long":106.84368,"distance":1436,"transit":false,"i_lat":-6.174784,"line":11,"time":4,"station_id":"PSE","is_transit":false,"station_name":"Pasar Senen"},{"is_transit":false,"station_id":"GST","distance":1567,"i_lat":-6.185975,"line":11,"station_name":"Gang Sentiong","i_long":106.850107,"transit":false,"time":8},{"time":1,"line":11,"station_id":"KMT","transit":false,"i_long":106.855437,"is_transit":false,"distance":973,"i_lat":-6.193792,"station_name":"Kramat"},{"distance":1829,"transit":false,"is_transit":false,"station_id":"POK","i_long":106.861737,"line":11,"i_lat":-6.209188,"time":2,"station_name":"Pondok Jati"},{"i_lat":-6.215091,"line":1,"time":9,"distance":1236,"transit":true,"station_name":"Jatinegara","i_long":106.86807400000001,"station_id":"JNG","is_transit":true},{"transit":false,"time":3,"station_id":"KLD","line":1,"station_name":"Klender","distance":3395,"is_transit":false,"i_lat":-6.2135,"i_long":106.899548},{"transit":false,"distance":3100,"station_name":"Buaran","line":1,"time":2,"is_transit":false,"i_lat":-6.215568,"i_long":106.922662,"station_id":"BUA"},{"is_transit":false,"distance":1305,"transit":false,"station_name":"Klenderbaru","station_id":"KLDB","i_lat":-6.217455,"i_long":106.939679,"time":1,"line":1},{"is_transit":false,"time":8,"distance":1385,"i_lat":-6.219053,"i_long":106.951283,"transit":false,"station_id":"CUK","line":1,"station_name":"Cakung"},{"is_transit":false,"station_name":"Kranji","distance":3097,"station_id":"KRI","i_long":106.977657,"time":3,"transit":false,"line":1,"i_lat":-6.224515},{"line":1,"transit":false,"distance":2520,"station_name":"Bekasi","i_lat":-6.236616,"time":4,"is_transit":false,"station_id":"BKS","i_long":106.997013}],[{"station_name":"Rawa Buaya","i_long":106.723064,"line":5,"station_id":"RW","time":0,"distance":0,"transit":false,"is_transit":false,"i_lat":-6.162758},{"station_id":"BOI","is_transit":false,"transit":false,"time":4,"i_lat":-6.159876,"i_long":106.737035,"station_name":"Bojongindah","distance":1152,"line":5},{"station_id":"TKO","station_name":"Taman Kota","transit":false,"i_lat":-6.1587309999999995,"is_transit":false,"distance":2334,"i_long":106.756522,"line":5,"time":2},{"i_long":106.771379,"i_lat":-6.161433,"station_id":"PSG","time":2,"distance":1614,"transit":false,"is_transit":false,"station_name":"Pesing","line":5},{"i_long":106.788277,"is_transit":false,"distance":2036,"station_id":"GGL","time":2,"i_lat":-6.162021,"line":5,"station_name":"Grogol","transit":false},{"is_transit":true,"i_long":106.800832,"transit":true,"line":1,"station_name":"Duri","i_lat":-6.155215,"distance":1700,"time":3,"station_id":"DU"},{"station_id":"AK","distance":1230,"transit":false,"station_name":"Angke","i_long":106.79867,"line":1,"time":4,"is_transit":false,"i_lat":-6.144674},{"station_name":"Kampung Bandan","is_transit":true,"transit":true,"i_lat":-6.132549,"line":4,"time":9,"station_id":"KPB","distance":4102,"i_long":106.826365},{"transit":true,"station_name":"Jakarta Kota","station_id":"JAKK","i_long":106.812439,"distance":1364,"is_transit":true,"i_lat":-6.137569,"time":3,"line":2},{"is_transit":false,"distance":1264,"line":2,"transit":false,"i_lat":-6.141205,"station_id":"JAY","station_name":"Jayakarta","time":4,"i_long":106.820901},{"line":2,"i_long":106.82482,"station_name":"Manggabesar","time":2,"is_transit":false,"distance":1080,"station_id":"MGB","transit":false,"i_lat":-6.149769},{"is_transit":false,"station_name":"Sawah Besar","distance":906,"station_id":"SW","i_lat":-6.160725,"i_long":106.827103,"time":2,"transit":false,"line":2},{"transit":false,"station_name":"Juanda","distance":1149,"i_lat":-6.166716,"line":2,"time":2,"station_id":"JUA","i_long":106.828284,"is_transit":false},{"time":4,"is_transit":false,"i_lat":-6.186295,"distance":2015,"transit":false,"i_long":106.832183,"line":2,"station_name":"Gondangdia","station_id":"GDD"},{"transit":false,"distance":1750,"time":3,"station_id":"CKI","is_transit":false,"i_lat":-6.198556,"station_name":"Cikini","i_long":106.840169,"line":2},{"transit":true,"station_name":"Manggarai","is_transit":true,"station_id":"MRI","i_lat":-6.209883,"line":2,"distance":1590,"i_long":106.84912,"time":4},{"station_name":"Matraman","distance":1275,"transit":false,"i_lat":-6.212485,"line":1,"is_transit":false,"i_long":106.858896,"station_id":"MTR","time":2},{"transit":false,"i_long":106.86807400000001,"time":8,"station_name":"Jatinegara","station_id":"JNG","is_transit":false,"distance":1377,"i_lat":-6.215091,"line":1},{"distance":3395,"station_id":"KLD","is_transit":false,"i_lat":-6.2135,"station_name":"Klender","time":3,"line":1,"i_long":106.899548,"transit":false},{"station_id":"BUA","is_transit":false,"i_long":106.922662,"i_lat":-6.215568,"time":2,"station_name":"Buaran","transit":false,"distance":3100,"line":1},{"i_long":106.939679,"distance":1305,"transit":false,"time":1,"i_lat":-6.217455,"station_name":"Klenderbaru","station_id":"KLDB","line":1,"is_transit":false},{"station_id":"CUK","distance":1385,"transit":false,"i_lat":-6.219053,"is_transit":false,"i_long":106.951283,"line":1,"station_name":"Cakung","time":8},{"station_name":"Kranji","i_lat":-6.224515,"distance":3097,"i_long":106.977657,"time":3,"line":1,"transit":false,"is_transit":false,"station_id":"KRI"},{"transit":false,"line":1,"station_id":"BKS","station_name":"Bekasi","i_long":106.997013,"i_lat":-6.236616,"time":4,"is_transit":false,"distance":2520}],[{"is_transit":false,"i_lat":-6.162758,"line":5,"time":0,"station_name":"Rawa Buaya","transit":false,"distance":0,"station_id":"RW","i_long":106.723064},{"i_long":106.737035,"distance":1152,"station_name":"Bojongindah","station_id":"BOI","time":4,"is_transit":false,"line":5,"i_lat":-6.159876,"transit":false},{"station_name":"Taman Kota","is_transit":false,"distance":2334,"transit":false,"station_id":"TKO","i_lat":-6.1587309999999995,"i_long":106.756522,"line":5,"time":2},{"time":2,"station_name":"Pesing","i_lat":-6.161433,"i_long":106.771379,"is_transit":false,"transit":false,"distance":1614,"line":5,"station_id":"PSG"},{"time":2,"i_long":106.788277,"transit":false,"is_transit":false,"station_name":"Grogol","line":5,"distance":2036,"i_lat":-6.162021,"station_id":"GGL"},{"is_transit":true,"transit":true,"i_lat":-6.155215,"station_name":"Duri","i_long":106.800832,"line":1,"station_id":"DU","distance":1700,"time":3},{"station_id":"THB","is_transit":false,"station_name":"Tanah Abang","distance":3632,"time":8,"line":1,"transit":false,"i_lat":-6.185545,"i_long":106.811091},{"i_long":106.816351,"distance":2029,"line":1,"time":5,"is_transit":false,"station_id":"KAT","station_name":"Karet","i_lat":-6.20132,"transit":false},{"distance":471,"station_id":"SUDB","is_transit":false,"transit":false,"i_long":106.819881,"i_lat":-6.201433,"station_name":"Sudirman Baru","time":1,"line":1},{"station_name":"Sudirman","distance":280,"transit":false,"i_long":106.822649,"i_lat":-6.202263,"line":1,"station_id":"SUD","time":1,"is_transit":false},{"transit":true,"i_lat":-6.209883,"i_long":106.84912,"station_name":"Manggarai","station_id":"MRI","is_transit":true,"distance":3186,"time":4,"line":2},{"transit":false,"i_long":106.840169,"station_id":"CKI","line":2,"distance":1590,"i_lat":-6.198556,"time":4,"is_transit":false,"station_name":"Cikini"},{"time":3,"is_transit":false,"i_long":106.832183,"line":2,"transit":false,"station_name":"Gondangdia","station_id":"GDD","i_lat":-6.186295,"distance":1750},{"transit":false,"line":2,"i_long":106.828284,"distance":2015,"station_name":"Juanda","time":4,"station_id":"JUA","i_lat":-6.166716,"is_transit":false},{"time":2,"distance":1149,"transit":false,"line":2,"station_id":"SW","is_transit":false,"i_lat":-6.160725,"i_long":106.827103,"station_name":"Sawah Besar"},{"i_lat":-6.149769,"line":2,"is_transit":false,"transit":false,"time":2,"station_id":"MGB","i_long":106.82482,"station_name":"Manggabesar","distance":906},{"transit":false,"i_long":106.820901,"distance":1080,"time":2,"i_lat":-6.141205,"line":2,"is_transit":false,"station_name":"Jayakarta","station_id":"JAY"},{"i_long":106.812439,"i_lat":-6.137569,"distance":1264,"transit":true,"time":4,"is_transit":true,"station_id":"JAKK","station_name":"Jakarta Kota","line":2},{"station_id":"KPB","distance":1364,"i_long":106.826365,"line":4,"is_transit":true,"time":3,"station_name":"Kampung Bandan","transit":true,"i_lat":-6.132549},{"station_name":"Rajawali","i_lat":-6.14505,"transit":false,"is_transit":false,"station_id":"RJW","line":11,"i_long":106.836569,"time":3,"distance":1444},{"is_transit":false,"transit":false,"line":11,"distance":1901,"station_id":"KMO","time":5,"i_lat":-6.161728,"i_long":106.839204,"station_name":"Kemayoran"},{"time":4,"distance":1436,"transit":false,"line":11,"station_name":"Pasar Senen","i_lat":-6.174784,"is_transit":false,"i_long":106.84368,"station_id":"PSE"},{"i_lat":-6.185975,"station_name":"Gang Sentiong","time":8,"station_id":"GST","i_long":106.850107,"is_transit":false,"distance":1567,"transit":false,"line":11},{"time":1,"i_lat":-6.193792,"transit":false,"is_transit":false,"station_id":"KMT","distance":973,"station_name":"Kramat","i_long":106.855437,"line":11},{"distance":1829,"i_long":106.861737,"time":2,"i_lat":-6.209188,"station_id":"POK","station_name":"Pondok Jati","line":11,"is_transit":false,"transit":false},{"transit":true,"i_long":106.86807400000001,"distance":1236,"line":1,"i_lat":-6.215091,"is_transit":true,"station_name":"Jatinegara","time":9,"station_id":"JNG"},{"time":3,"transit":false,"i_lat":-6.2135,"line":1,"station_name":"Klender","is_transit":false,"station_id":"KLD","i_long":106.899548,"distance":3395},{"transit":false,"time":2,"i_long":106.922662,"distance":3100,"station_id":"BUA","station_name":"Buaran","line":1,"is_transit":false,"i_lat":-6.215568},{"station_id":"KLDB","transit":false,"i_long":106.939679,"distance":1305,"time":1,"is_transit":false,"line":1,"station_name":"Klenderbaru","i_lat":-6.217455},{"station_name":"Cakung","distance":1385,"i_long":106.951283,"transit":false,"station_id":"CUK","time":8,"is_transit":false,"i_lat":-6.219053,"line":1},{"is_transit":false,"station_name":"Kranji","station_id":"KRI","transit":false,"i_long":106.977657,"time":3,"distance":3097,"i_lat":-6.224515,"line":1},{"i_lat":-6.236616,"transit":false,"distance":2520,"station_name":"Bekasi","time":4,"station_id":"BKS","is_transit":false,"i_long":106.997013,"line":1}]]}