{"data":[[{"transit":false,"i_long":106.723064,"station_id":"RW","time":0,"is_transit":false,"line":5,"distance":0,"station_name":"Rawa Buaya","i_lat":-6.162758},{"station_id":"BOI","transit":false,"i_lat":-6.159876,"i_long":106.737035,"time":4,"is_transit":false,"station_name":"Bojongindah","distance":1152,"line":5},{"time":2,"i_lat":-6.1587309999999995,"i_long":106.756522,"distance":2334,"transit":false,"line":5,"station_id":"TKO","station_name":"Taman Kota","is_transit":false},{"station_id":"PSG","i_long":106.771379,"i_lat":-6.161433,"distance":1614,"is_transit":false,"transit":false,"time":2,"line":5,"station_name":"Pesing"},{"transit":false,"station_id":"GGL","distance":2036,"i_lat":-6.162021,"line":5,"station_name":"Grogol","is_transit":false,"time":2,"i_long":106.788277},{"station_name":"Duri","transit":true,"is_transit":true,"line":1,"i_lat":-6.155215,"distance":1700,"station_id":"DU","time":3,"i_long":106.800832},{"time":8,"is_transit":false,"i_lat":-6.185545,"transit":false,"distance":3632,"i_long":106.811091,"station_name":"Tanah Abang","line":1,"station_id":"THB"},{"distance":2029,"station_id":"KAT","i_lat":-6.20132,"is_transit":false,"i_long":106.816351,"time":5,"transit":false,"line":1,"station_name":"Karet"},{"line":1,"i_long":106.819881,"time":1,"distance":471,"station_id":"SUDB","is_transit":false,"transit":false,"i_lat":-6.201433,"station_name":"Sudirman Baru"},{"i_long":106.822649,"time":1,"transit":false,"station_id":"SUD","is_transit":false,"distance":280,"station_name":"Sudirman","i_lat":-6.202263,"line":1},{"is_transit":false,"station_name":"Manggarai","i_lat":-6.209883,"time":4,"i_long":106.84912,"station_id":"MRI","transit":false,"distance":3186,"line":2},{"station_id":"MTR","line":1,"distance":1275,"transit":false,"time":2,"station_name":"Matraman","i_long":106.858896,"is_transit":false,"i_lat":-6.212485},{"time":8,"is_transit":false,"distance":1377,"i_lat":-6.215091,"station_id":"JNG","line":1,"transit":false,"i_long":106.86807400000001,"station_name":"Jatinegara"},{"line":1,"i_lat":-6.2135,"is_transit":false,"transit":false,"i_long":106.899548,"station_name":"Klender","station_id":"KLD","time":3,"distance":3395},{"time":2,"i_lat":-6.215568,"station_id":"BUA","station_name":"Buaran","transit":false,"i_long":106.922662,"line":1,"distance":3100,"is_transit":false},{"time":1,"transit":false,"i_lat":-6.217455,"station_name":"Klenderbaru","distance":1305,"line":1,"i_long":106.939679,"station_id":"KLDB","is_transit":false},{"transit":false,"distance":1385,"station_id":"CUK","station_name":"Cakung","is_transit":false,"i_lat":-6.219053,"time":8,"i_long":106.951283,"line":1},{"station_name":"Kranji","transit":false,"line":1,"station_id":"KRI","i_lat":-6.224515,"distance":3097,"is_transit":false,"time":3,"i_long":106.977657},{"transit":false,"station_id":"BKS","time":4,"i_long":106.997013,"line":1,"is_transit":false,"distance":2520,"i_lat":-6.236616,"station_name":"Bekasi"}],[{"transit":false,"distance":0,"station_id":"RW","i_lat":-6.162758,"line":5,"is_transit":false,"station_name":"Rawa Buaya","i_long":106.723064,"time":0},{"i_long":106.737035,"distance":1152,"i_lat":-6.159876,"line":5,"time":4,"transit":false,"is_transit":false,"station_id":"BOI","station_name":"Bojongindah"},{"station_name":"Taman Kota","station_id":"TKO","i_long":106.756522,"distance":2334,"i_lat":-6.1587309999999995,"is_transit":false,"line":5,"time":2,"transit":false},{"is_transit":false,"station_id":"PSG","i_long":106.771379,"station_name":"Pesing","i_lat":-6.161433,"line":5,"distance":1614,"transit":false,"time":2},{"line":5,"i_lat":-6.162021,"station_name":"Grogol","station_id":"GGL","time":2,"distance":2036,"is_transit":false,"transit":false,"i_long":106.788277},{"is_transit":true,"distance":1700,"transit":true,"line":1,"station_id":"DU","i_lat":-6.155215,"i_long":106.800832,"station_name":"Duri","time":3},{"station_id":"AK","distance":1230,"i_long":106.79867,"station_name":"Angke","time":4,"is_transit":false,"transit":false,"i_lat":-6.144674,"line":1},{"station_id":"KPB","i_long":106.826365,"i_lat":-6.132549,"transit":true,"is_transit":true,"time":9,"station_name":"Kampung Bandan","distance":4102,"line":4},{"line":11,"i_long":106.836569,"distance":1444,"i_lat":-6.14505,"station_name":"Rajawali","station_id":"RJW","transit":false,"time":3,"is_transit":false},{"line":11,"time":5,"station_id":"KMO","distance":1901,"station_name":"Kemayoran","is_transit":false,"i_lat":-6.161728,"i_long":106.839204,"transit":false},{"i_lat":-6.174784,"transit":false,"i_long":106.84368,"time":4,"distance":1436,"station_id":"PSE","is_transit":false,"line":11,"station_name":"Pasar Senen"},{"station_id":"GST","is_transit":false,"i_lat":-6.185975,"transit":false,"i_long":106.850107,"station_name":"Gang Sentiong","distance":1567,"time":8,"line":11},{"i_long":106.855437,"station_name":"Kramat","line":11,"distance":973,"transit":false,"time":1,"station_id":"KMT","is_transit":false,"i_lat":-6.193792},{"time":2,"station_name":"Pondok Jati","transit":false,"station_id":"POK","i_lat":-6.209188,"i_long":106.861737,"line":11,"is_transit":false,"distance":1829},{"distance":1236,"time":9,"station_id":"JNG","is_transit":true,"transit":true,"i_lat":-6.215091,"line":1,"i_long":106.86807400000001,"station_name":"Jatinegara"},{"i_lat":-6.2135,"station_name":"Klender","station_id":"KLD","transit":false,"distance":3395,"is_transit":false,"i_long":106.899548,"line":1,"time":3},{"time":2,"i_lat":-6.215568,"station_name":"Buaran","is_transit":false,"station_id":"BUA","distance":3100,"line":1,"i_long":106.922662,"transit":false},{"line":1,"time":1,"distance":1305,"i_lat":-6.217455,"is_transit":false,"i_long":106.939679,"transit":false,"station_id":"KLDB","station_name":"Klenderbaru"},{"station_id":"CUK","is_transit":false,"transit":false,"station_name":"Cakung","i_lat":-6.219053,"distance":1385,"i_long":106.951283,"time":8,"line":1},{"distance":3097,"time":3,"station_id":"KRI","is_transit":false,"transit":false,"i_long":106.977657,"station_name":"Kranji","i_lat":-6.224515,"line":1},{"time":4,"i_long":106.997013,"i_lat":-6.236616,"transit":false,"line":1,"station_name":"Bekasi","is_transit":false,"station_id":"BKS","distance":2520}],[{"station_name":"Rawa Buaya","station_id":"RW","i_long":106.723064,"transit":false,"time":0,"i_lat":-6.162758,"is_transit":false,"line":5,"distance":0},{"transit":false,"station_name":"Bojongindah","i_lat":-6.159876,"line":5,"is_transit":false,"station_id":"BOI","time":4,"i_long":106.737035,"distance":1152},{"line":5,"distance":2334,"transit":false,"station_id":"TKO","i_lat":-6.1587309999999995,"i_long":106.756522,"time":2,"station_name":"Taman Kota","is_transit":false},{"i_lat":-6.161433,"time":2,"station_id":"PSG","station_name":"Pesing","distance":1614,"i_long":106.771379,"line":5,"is_transit":false,"transit":false},{"is_transit":false,"time":2,"transit":false,"i_lat":-6.162021,"i_long":106.788277,"line":5,"station_name":"Grogol","station_id":"GGL","distance":2036},{"station_name":"Duri","transit":true,"is_transit":true,"i_lat":-6.155215,"time":3,"distance":1700,"i_long":106.800832,"station_id":"DU","line":1},{"distance":1230,"is_transit":false,"i_long":106.79867,"line":1,"i_lat":-6.144674,"time":4,"transit":false,"station_name":"Angke","station_id":"AK"},{"line":4,"station_id":"KPB","time":9,"distance":4102,"is_transit":true,"i_long":106.826365,"transit":true,"i_lat":-6.132549,"station_name":"Kampung Bandan"},{"is_transit":true,"i_lat":-6.137569,"i_long":106.812439,"station_name":"Jakarta Kota","line":2,"time":3,"station_id":"JAKK","transit":true,"distance":1364},{"time":4,"is_transit":false,"distance":1264,"i_long":106.820901,"transit":false,"station_name":"Jayakarta","i_lat":-6.141205,"line":2,"station_id":"JAY"},{"station_id":"MGB","transit":false,"time":2,"distance":1080,"i_lat":-6.149769,"station_name":"Manggabesar","i_long":106.82482,"line":2,"is_transit":false},{"distance":906,"station_id":"SW","transit":false,"i_long":106.827103,"time":2,"is_transit":false,"i_lat":-6.160725,"line":2,"station_name":"Sawah Besar"},{"i_long":106.828284,"is_transit":false,"time":2,"line":2,"distance":1149,"station_id":"JUA","i_lat":-6.166716,"transit":false,"station_name":"Juanda"},{"time":4,"station_id":"GDD","distance":2015,"transit":false,"is_transit":false,"i_lat":-6.186295,"station_name":"Gondangdia","i_long":106.832183,"line":2},{"transit":false,"i_lat":-6.198556,"distance":1750,"station_name":"Cikini","line":2,"station_id":"CKI","time":3,"is_transit":false,"i_long":106.840169},{"station_id":"MRI","station_name":"Manggarai","time":4,"i_long":106.84912,"distance":1590,"line":2,"is_transit":true,"transit":true,"i_lat":-6.209883},{"time":2,"station_id":"MTR","i_long":106.858896,"distance":1275,"is_transit":false,"line":1,"station_name":"Matraman","i_lat":-6.212485,"transit":false},{"is_transit":false,"i_lat":-6.215091,"i_long":106.86807400000001,"line":1,"time":8,"station_name":"Jatinegara","station_id":"JNG","distance":1377,"transit":false},{"is_transit":false,"station_name":"Klender","transit":false,"i_lat":-6.2135,"distance":3395,"line":1,"i_long":106.899548,"time":3,"station_id":"KLD"},{"i_lat":-6.215568,"i_long":106.922662,"station_id":"BUA","station_name":"Buaran","time":2,"line":1,"distance":3100,"transit":false,"is_transit":false},{"time":1,"distance":1305,"is_transit":false,"i_lat":-6.217455,"line":1,"station_id":"KLDB","station_name":"Klenderbaru","i_long":106.939679,"transit":false},{"distance":1385,"is_transit":false,"station_id":"CUK","line":1,"station_name":"Cakung","i_lat":-6.219053,"transit":false,"time":8,"i_long":106.951283},{"is_transit":false,"distance":3097,"i_lat":-6.224515,"i_long":106.977657,"line":1,"station_id":"KRI","transit":false,"time":3,"station_name":"Kranji"},{"is_transit":false,"time":4,"station_id":"BKS","distance":2520,"station_name":"Bekasi","i_lat":-6.236616,"transit":false,"i_long":106.997013,"line":1}],[{"time":0,"distance":0,"i_long":106.723064,"i_lat":-6.162758,"station_id":"RW","is_transit":false,"transit":false,"line":5,"station_name":"Rawa Buaya"},{"i_long":106.737035,"i_lat":-6.159876,"line":5,"time":4,"station_id":"BOI","transit":false,"distance":1152,"is_transit":false,"station_name":"Bojongindah"},{"time":2,"distance":2334,"station_name":"Taman Kota","transit":false,"i_lat":-6.1587309999999995,"line":5,"i_long":106.756522,"station_id":"TKO","is_transit":false},{"time":2,"line":5,"transit":false,"i_long":106.771379,"i_lat":-6.161433,"station_name":"Pesing","station_id":"PSG","is_transit":false,"distance":1614},{"line":5,"station_name":"Grogol","i_lat":-6.162021,"is_transit":false,"station_id":"GGL","i_long":106.788277,"time":2,"transit":false,"distance":2036},{"transit":true,"i_long":106.800832,"line":1,"time":3,"station_name":"Duri","is_transit":true,"station_id":"DU","i_lat":-6.155215,"distance":1700},{"is_transit":false,"transit":false,"line":1,"station_name":"Tanah Abang","distance":3632,"time":8,"i_lat":-6.185545,"station_id":"THB","i_long":106.811091},{"i_long":106.816351,"transit":false,"time":5,"i_lat":-6.20132,"line":1,"station_id":"KAT","is_transit":false,"station_name":"Karet","distance":2029},{"time":1,"station_id":"SUDB","i_long":106.819881,"station_name":"Sudirman Baru","is_transit":false,"transit":false,"i_lat":-6.201433,"line":1,"distance":471},{"station_id":"SUD","i_lat":-6.202263,"i_long":106.822649,"time":1,"is_transit":false,"transit":false,"distance":280,"line":1,"station_name":"Sudirman"},{"station_id":"MRI","time":4,"distance":3186,"station_name":"Manggarai","i_long":106.84912,"is_transit":true,"transit":true,"i_lat":-6.209883,"line":2},{"station_name":"Cikini","is_transit":false,"station_id":"CKI","i_long":106.840169,"transit":false,"line":2,"time":4,"i_lat":-6.198556,"distance":1590},{"line":2,"station_name":"Gondangdia","transit":false,"distance":1750,"i_long":106.832183,"time":3,"i_lat":-6.186295,"station_id":"GDD","is_transit":false},{"station_name":"Juanda","i_long":106.828284,"is_transit":false,"distance":2015,"station_id":"JUA","transit":false,"line":2,"time":4,"i_lat":-6.166716},{"station_id":"SW","distance":1149,"line":2,"i_long":106.827103,"station_name":"Sawah Besar","is_transit":false,"time":2,"i_lat":-6.160725,"transit":false},{"time":2,"station_id":"MGB","distance":906,"line":2,"transit":false,"is_transit":false,"i_lat":-6.149769,"i_long":106.82482,"station_name":"Manggabesar"},{"distance":1080,"i_lat":-6.141205,"i_long":106.820901,"station_id":"JAY","station_name":"Jayakarta","line":2,"time":2,"is_transit":false,"transit":false},{"line":2,"i_long":106.812439,"transit":true,"station_id":"JAKK","i_lat":-6.137569,"distance":1264,"time":4,"station_name":"Jakarta Kota","is_transit":true},{"i_long":106.826365,"station_id":"KPB","station_name":"Kampung Bandan","time":3,"transit":true,"is_transit":true,"distance":1364,"line":4,"i_lat":-6.132549},{"is_transit":false,"station_id":"RJW","transit":false,"i_lat":-6.14505,"station_name":"Rajawali","line":11,"distance":1444,"i_long":106.836569,"time":3},{"time":5,"station_name":"Kemayoran","transit":false,"i_lat":-6.161728,"line":11,"is_transit":false,"distance":1901,"i_long":106.839204,"station_id":"KMO"},{"transit":false,"distance":1436,"station_name":"Pasar Senen","station_id":"PSE","i_lat":-6.174784,"is_transit":false,"i_long":106.84368,"line":11,"time":4},{"station_id":"GST","station_name":"Gang Sentiong","is_transit":false,"i_long":106.850107,"line":11,"i_lat":-6.185975,"transit":false,"time":8,"distance":1567},{"line":11,"station_id":"KMT","distance":973,"transit":false,"i_long":106.855437,"is_transit":false,"station_name":"Kramat","time":1,"i_lat":-6.193792},{"time":2,"station_id":"POK","transit":false,"i_long":106.861737,"i_lat":-6.209188,"is_transit":false,"station_name":"Pondok Jati","distance":1829,"line":11},{"station_id":"JNG","time":9,"line":1,"i_long":106.86807400000001,"distance":1236,"i_lat":-6.215091,"station_name":"Jatinegara","is_transit":true,"transit":true},{"line":1,"station_name":"Klender","station_id":"KLD","i_long":106.899548,"time":3,"distance":3395,"is_transit":false,"transit":false,"i_lat":-6.2135},{"transit":false,"i_lat":-6.215568,"i_long":106.922662,"distance":3100,"line":1,"station_id":"BUA","is_transit":false,"station_name":"Buaran","time":2},{"is_transit":false,"i_lat":-6.217455,"station_name":"Klenderbaru","transit":false,"distance":1305,"time":1,"line":1,"i_long":106.939679,"station_id":"KLDB"},{"station_id":"CUK","i_long":106.951283,"station_name":"Cakung","i_lat":-6.219053,"line":1,"distance":1385,"is_transit":false,"time":8,"transit":false},{"station_id":"KRI","station_name":"Kranji","i_lat":-6.224515,"time":3,"is_transit":false,"distance":3097,"transit":false,"i_long":106.977657,"line":1},{"i_long":106.997013,"line":1,"transit":false,"station_name":"Bekasi","distance":2520,"station_id":"BKS","is_transit":false,"time":4,"i_lat":-6.236616}]]}