{"data":[[{"line":5,"i_long":106.723064,"station_id":"RW","transit":false,"time":0,"distance":0,"is_transit":false,"i_lat":-6.162758,"station_name":"Rawa Buaya"},{"is_transit":false,"time":4,"station_id":"BOI","distance":1152,"line":5,"station_name":"Bojongindah","i_long":106.737035,"transit":false,"i_lat":-6.159876},{"distance":2334,"station_id":"TKO","transit":false,"time":2,"i_long":106.756522,"line":5,"i_lat":-6.1587309999999995,"is_transit":false,"station_name":"Taman Kota"},{"i_long":106.771379,"line":5,"station_name":"Pesing","i_lat":-6.161433,"distance":1614,"is_transit":false,"transit":false,"station_id":"PSG","time":2},{"station_name":"Grogol","i_long":106.788277,"i_lat":-6.162021,"line":5,"distance":2036,"time":2,"station_id":"GRG","is_transit":false,"transit":false},{"distance":1700,"transit":true,"i_lat":-6.155215,"is_transit":true,"i_long":106.800832,"line":1,"station_name":"Duri","station_id":"DU","time":3},{"transit":false,"i_lat":-6.185545,"station_name":"Tanah Abang","i_long":106.811091,"station_id":"THB","time":8,"line":1,"distance":3632,"is_transit":false},{"station_name":"Karet","line":1,"i_long":106.816351,"station_id":"KAT","time":5,"i_lat":-6.20132,"distance":2029,"transit":false,"is_transit":false},{"time":1,"station_id":"SUDB","i_long":106.819881,"station_name":"Sudirman Baru","transit":false,"i_lat":-6.201433,"distance":471,"line":1,"is_transit":false},{"i_lat":-6.202263,"distance":280,"station_id":"SUD","station_name":"Sudirman","time":1,"i_long":106.822649,"transit":false,"is_transit":false,"line":1},{"transit":false,"i_long":106.84912,"distance":3186,"line":2,"i_lat":-6.209883,"station_id":"MRI","is_transit":false,"station_name":"Manggarai","time":4},{"is_transit":false,"station_id":"MTR","distance":1275,"i_lat":-6.212485,"time":2,"line":1,"transit":false,"i_long":106.858896,"station_name":"Matraman"},{"station_name":"Jatinegara","i_long":106.86807400000001,"station_id":"JNG","line":1,"is_transit":false,"distance":1377,"time":8,"transit":false,"i_lat":-6.215091},{"transit":false,"distance":3395,"station_name":"Klender","i_lat":-6.2135,"station_id":"KLD","i_long":106.899548,"line":1,"is_transit":false,"time":3},{"line":1,"station_name":"Buaran","is_transit":false,"transit":false,"station_id":"BUA","time":2,"distance":3100,"i_lat":-6.215568,"i_long":106.922662}],[{"time":0,"line":5,"transit":false,"distance":0,"is_transit":false,"station_name":"Rawa Buaya","station_id":"RW","i_lat":-6.162758,"i_long":106.723064},{"time":4,"distance":1152,"i_long":106.737035,"transit":false,"station_id":"BOI","line":5,"i_lat":-6.159876,"station_name":"Bojongindah","is_transit":false},{"i_long":106.756522,"time":2,"line":5,"station_id":"TKO","i_lat":-6.1587309999999995,"is_transit":false,"station_name":"Taman Kota","transit":false,"distance":2334},{"i_long":106.771379,"station_name":"Pesing","distance":1614,"i_lat":-6.161433,"transit":false,"station_id":"PSG","is_transit":false,"time":2,"line":5},{"time":2,"i_long":106.788277,"i_lat":-6.162021,"is_transit":false,"transit":false,"station_name":"Grogol","distance":2036,"station_id":"GRG","line":5},{"time":3,"is_transit":true,"line":1,"distance":1700,"i_long":106.800832,"station_id":"DU","i_lat":-6.155215,"transit":true,"station_name":"Duri"},{"transit":false,"station_id":"AK","time":4,"i_long":106.79867,"station_name":"Angke","distance":1230,"is_transit":false,"i_lat":-6.144674,"line":1},{"transit":true,"i_lat":-6.132549,"station_name":"Kampung Bandan","is_transit":true,"line":4,"time":9,"distance":4102,"i_long":106.826365,"station_id":"KPB"},{"line":11,"distance":1444,"station_name":"Rajawali","transit":false,"is_transit":false,"station_id":"RJW","i_lat":-6.14505,"i_long":106.836569,"time":3},{"distance":1901,"i_long":106.839204,"line":11,"transit":false,"station_id":"KMO","i_lat":-6.161728,"station_name":"Kemayoran","time":5,"is_transit":false},{"station_name":"Pasar Senen","distance":1436,"i_long":106.84368,"line":11,"station_id":"PSE","i_lat":-6.174784,"is_transit":false,"transit":false,"time":4},{"distance":1567,"i_lat":-6.185975,"station_name":"Gang Sentiong","is_transit":false,"transit":false,"station_id":"GST","i_long":106.850107,"line":11,"time":8},{"time":1,"line":11,"transit":false,"station_id":"KMT","is_transit":false,"i_lat":-6.193792,"station_name":"Kramat","distance":973,"i_long":106.855437},{"distance":1829,"i_lat":-6.209188,"i_long":106.861737,"line":11,"station_id":"POK","station_name":"Pondok Jati","is_transit":false,"transit":false,"time":2},{"station_name":"Jatinegara","station_id":"JNG","i_long":106.86807400000001,"line":1,"is_transit":true,"distance":1236,"transit":true,"time":9,"i_lat":-6.215091},{"station_name":"Klender","is_transit":false,"line":1,"distance":3395,"i_long":106.899548,"station_id":"KLD","transit":false,"time":3,"i_lat":-6.2135},{"i_lat":-6.215568,"distance":3100,"time":2,"station_name":"Buaran","transit":false,"is_transit":false,"station_id":"BUA","i_long":106.922662,"line":1}],[{"i_long":106.723064,"line":5,"transit":false,"is_transit":false,"station_name":"Rawa Buaya","i_lat":-6.162758,"station_id":"RW","time":0,"distance":0},{"distance":1152,"is_transit":false,"time":4,"transit":false,"station_id":"BOI","station_name":"Bojongindah","i_lat":-6.159876,"i_long":106.737035,"line":5},{"station_name":"Taman Kota","transit":false,"i_long":106.756522,"i_lat":-6.1587309999999995,"line":5,"station_id":"TKO","is_transit":false,"time":2,"distance":2334},{"station_name":"Pesing","distance":1614,"i_long":106.771379,"time":2,"i_lat":-6.161433,"is_transit":false,"transit":false,"station_id":"PSG","line":5},{"station_name":"Grogol","i_long":106.788277,"transit":false,"line":5,"i_lat":-6.162021,"station_id":"GRG","distance":2036,"time":2,"is_transit":false},{"is_transit":true,"station_id":"DU","distance":1700,"i_lat":-6.155215,"i_long":106.800832,"line":1,"transit":true,"time":3,"station_name":"Duri"},{"i_lat":-6.144674,"i_long":106.79867,"is_transit":false,"time":4,"station_name":"Angke","transit":false,"distance":1230,"line":1,"station_id":"AK"},{"line":4,"i_lat":-6.132549,"is_transit":true,"station_name":"Kampung Bandan","time":9,"i_long":106.826365,"distance":4102,"transit":true,"station_id":"KPB"},{"distance":1364,"i_lat":-6.137569,"station_name":"Jakarta Kota","station_id":"JAKK","transit":true,"line":2,"i_long":106.812439,"is_transit":true,"time":3},{"is_transit":false,"station_id":"JAY","transit":false,"station_name":"Jayakarta","time":4,"distance":1264,"i_long":106.820901,"line":2,"i_lat":-6.141205},{"i_long":106.82482,"distance":1080,"transit":false,"is_transit":false,"time":2,"station_name":"Manggabesar","line":2,"station_id":"MGB","i_lat":-6.149769},{"is_transit":false,"transit":false,"i_long":106.827103,"station_name":"Sawah Besar","time":2,"line":2,"i_lat":-6.160725,"distance":906,"station_id":"SW"},{"distance":1149,"i_lat":-6.166716,"is_transit":false,"line":2,"station_id":"JUA","station_name":"Juanda","time":2,"transit":false,"i_long":106.828284},{"station_name":"Gondangdia","station_id":"GDD","distance":2015,"i_lat":-6.186295,"time":4,"i_long":106.832183,"line":2,"is_transit":false,"transit":false},{"time":3,"distance":1750,"i_long":106.840169,"station_name":"Cikini","i_lat":-6.198556,"line":2,"is_transit":false,"transit":false,"station_id":"CKI"},{"time":4,"transit":true,"is_transit":true,"station_id":"MRI","i_lat":-6.209883,"distance":1590,"line":2,"station_name":"Manggarai","i_long":106.84912},{"transit":false,"station_name":"Matraman","i_lat":-6.212485,"distance":1275,"station_id":"MTR","line":1,"i_long":106.858896,"time":2,"is_transit":false},{"i_lat":-6.215091,"transit":false,"i_long":106.86807400000001,"distance":1377,"line":1,"is_transit":false,"time":8,"station_name":"Jatinegara","station_id":"JNG"},{"station_name":"Klender","line":1,"distance":3395,"i_long":106.899548,"i_lat":-6.2135,"is_transit":false,"station_id":"KLD","transit":false,"time":3},{"station_id":"BUA","distance":3100,"line":1,"i_lat":-6.215568,"station_name":"Buaran","transit":false,"is_transit":false,"i_long":106.922662,"time":2}],[{"i_lat":-6.162758,"i_long":106.723064,"time":0,"line":5,"is_transit":false,"station_name":"Rawa Buaya","station_id":"RW","distance":0,"transit":false},{"transit":false,"i_lat":-6.159876,"station_id":"BOI","distance":1152,"i_long":106.737035,"line":5,"time":4,"station_name":"Bojongindah","is_transit":false},{"is_transit":false,"distance":2334,"time":2,"i_lat":-6.1587309999999995,"line":5,"i_long":106.756522,"station_name":"Taman Kota","station_id":"TKO","transit":false},{"station_name":"Pesing","distance":1614,"station_id":"PSG","line":5,"time":2,"is_transit":false,"transit":false,"i_long":106.771379,"i_lat":-6.161433},{"line":5,"time":2,"station_name":"Grogol","is_transit":false,"station_id":"GRG","i_long":106.788277,"transit":false,"distance":2036,"i_lat":-6.162021},{"is_transit":true,"station_id":"DU","station_name":"Duri","i_long":106.800832,"i_lat":-6.155215,"time":3,"transit":true,"line":1,"distance":1700},{"i_long":106.811091,"time":8,"is_transit":false,"station_id":"THB","transit":false,"distance":3632,"i_lat":-6.185545,"line":1,"station_name":"Tanah Abang"},{"transit":false,"i_lat":-6.20132,"station_name":"Karet","is_transit":false,"line":1,"distance":2029,"time":5,"i_long":106.816351,"station_id":"KAT"},{"i_lat":-6.201433,"time":1,"distance":471,"station_id":"SUDB","i_long":106.819881,"transit":false,"station_name":"Sudirman Baru","line":1,"is_transit":false},{"i_long":106.822649,"time":1,"station_id":"SUD","distance":280,"line":1,"is_transit":false,"station_name":"Sudirman","transit":false,"i_lat":-6.202263},{"is_transit":true,"station_id":"MRI","transit":true,"line":2,"distance":3186,"i_long":106.84912,"station_name":"Manggarai","time":4,"i_lat":-6.209883},{"is_transit":false,"i_long":106.840169,"line":2,"i_lat":-6.198556,"station_name":"Cikini","transit":false,"distance":1590,"time":4,"station_id":"CKI"},{"i_long":106.832183,"station_id":"GDD","i_lat":-6.186295,"time":3,"station_name":"Gondangdia","line":2,"is_transit":false,"transit":false,"distance":1750},{"line":2,"is_transit":false,"i_long":106.828284,"time":4,"station_name":"Juanda","station_id":"JUA","transit":false,"distance":2015,"i_lat":-6.166716},{"station_name":"Sawah Besar","line":2,"distance":1149,"station_id":"SW","i_lat":-6.160725,"i_long":106.827103,"time":2,"is_transit":false,"transit":false},{"station_name":"Manggabesar","transit":false,"station_id":"MGB","time":2,"is_transit":false,"i_lat":-6.149769,"line":2,"distance":906,"i_long":106.82482},{"i_lat":-6.141205,"station_name":"Jayakarta","i_long":106.820901,"transit":false,"distance":1080,"time":2,"is_transit":false,"station_id":"JAY","line":2},{"station_id":"JAKK","line":2,"time":4,"is_transit":true,"i_long":106.812439,"distance":1264,"transit":true,"i_lat":-6.137569,"station_name":"Jakarta Kota"},{"station_name":"Kampung Bandan","transit":true,"line":4,"is_transit":true,"time":3,"i_lat":-6.132549,"distance":1364,"i_long":106.826365,"station_id":"KPB"},{"is_transit":false,"transit":false,"station_name":"Rajawali","station_id":"RJW","distance":1444,"i_lat":-6.14505,"line":11,"i_long":106.836569,"time":3},{"distance":1901,"station_name":"Kemayoran","time":5,"station_id":"KMO","i_long":106.839204,"i_lat":-6.161728,"transit":false,"line":11,"is_transit":false},{"time":4,"i_long":106.84368,"station_id":"PSE","distance":1436,"line":11,"transit":false,"station_name":"Pasar Senen","is_transit":false,"i_lat":-6.174784},{"i_long":106.850107,"station_name":"Gang Sentiong","distance":1567,"time":8,"is_transit":false,"station_id":"GST","i_lat":-6.185975,"line":11,"transit":false},{"is_transit":false,"time":1,"transit":false,"line":11,"station_name":"Kramat","station_id":"KMT","i_lat":-6.193792,"i_long":106.855437,"distance":973},{"transit":false,"station_name":"Pondok Jati","time":2,"i_long":106.861737,"station_id":"POK","distance":1829,"line":11,"is_transit":false,"i_lat":-6.209188},{"time":9,"station_name":"Jatinegara","station_id":"JNG","is_transit":true,"i_long":106.86807400000001,"line":1,"transit":true,"distance":1236,"i_lat":-6.215091},{"time":3,"distance":3395,"i_lat":-6.2135,"i_long":106.899548,"is_transit":false,"line":1,"station_name":"Klender","station_id":"KLD","transit":false},{"station_id":"BUA","is_transit":false,"time":2,"transit":false,"i_lat":-6.215568,"i_long":106.922662,"station_name":"Buaran","distance":3100,"line":1}]]}