{"data":[[{"transit":false,"distance":0,"is_transit":false,"station_id":"RW","station_name":"Rawa Buaya","time":0,"i_long":106.723064,"i_lat":-6.162758,"line":5},{"i_long":106.737035,"station_id":"BOI","is_transit":false,"distance":1152,"time":4,"i_lat":-6.159876,"transit":false,"line":5,"station_name":"Bojongindah"},{"station_id":"TKO","is_transit":false,"i_long":106.756522,"time":2,"line":5,"i_lat":-6.1587309999999995,"transit":false,"station_name":"Taman Kota","distance":2334},{"line":5,"time":2,"distance":1614,"station_id":"PSG","station_name":"Pesing","i_lat":-6.161433,"is_transit":false,"i_long":106.771379,"transit":false},{"distance":2036,"time":2,"station_id":"GGL","line":5,"i_long":106.788277,"is_transit":false,"station_name":"Grogol","i_lat":-6.162021,"transit":false},{"i_long":106.800832,"time":3,"distance":1700,"line":1,"is_transit":true,"i_lat":-6.155215,"transit":true,"station_name":"Duri","station_id":"DU"},{"station_name":"Tanah Abang","i_lat":-6.185545,"transit":false,"is_transit":false,"i_long":106.811091,"line":1,"time":8,"distance":3632,"station_id":"THB"},{"station_name":"Karet","transit":false,"is_transit":false,"i_lat":-6.20132,"i_long":106.816351,"line":1,"time":5,"distance":2029,"station_id":"KAT"},{"distance":471,"station_name":"Sudirman Baru","i_lat":-6.201433,"is_transit":false,"transit":false,"station_id":"SUDB","line":1,"time":1,"i_long":106.819881},{"station_name":"Sudirman","i_lat":-6.202263,"is_transit":false,"i_long":106.822649,"transit":false,"time":1,"distance":280,"station_id":"SUD","line":1},{"time":4,"distance":3186,"line":2,"station_name":"Manggarai","station_id":"MRI","is_transit":false,"i_lat":-6.209883,"i_long":106.84912,"transit":false},{"station_name":"Matraman","i_long":106.858896,"distance":1275,"station_id":"MTR","transit":false,"line":1,"is_transit":false,"i_lat":-6.212485,"time":2},{"distance":1377,"i_lat":-6.215091,"is_transit":false,"i_long":106.86807400000001,"transit":false,"line":1,"time":8,"station_id":"JNG","station_name":"Jatinegara"},{"time":3,"is_transit":false,"station_name":"Klender","transit":false,"station_id":"KLD","i_lat":-6.2135,"distance":3395,"i_long":106.899548,"line":1},{"distance":3100,"i_lat":-6.215568,"i_long":106.922662,"time":2,"line":1,"transit":false,"station_name":"Buaran","station_id":"BUA","is_transit":false}],[{"is_transit":false,"station_name":"Rawa Buaya","distance":0,"i_long":106.723064,"line":5,"i_lat":-6.162758,"time":0,"transit":false,"station_id":"RW"},{"station_id":"BOI","time":4,"i_lat":-6.159876,"distance":1152,"is_transit":false,"i_long":106.737035,"line":5,"transit":false,"station_name":"Bojongindah"},{"time":2,"station_id":"TKO","transit":false,"station_name":"Taman Kota","i_lat":-6.1587309999999995,"i_long":106.756522,"line":5,"is_transit":false,"distance":2334},{"time":2,"is_transit":false,"transit":false,"i_lat":-6.161433,"line":5,"station_id":"PSG","i_long":106.771379,"distance":1614,"station_name":"Pesing"},{"distance":2036,"station_name":"Grogol","time":2,"i_long":106.788277,"line":5,"station_id":"GGL","is_transit":false,"transit":false,"i_lat":-6.162021},{"line":1,"i_long":106.800832,"is_transit":true,"transit":true,"station_name":"Duri","distance":1700,"time":3,"station_id":"DU","i_lat":-6.155215},{"transit":false,"is_transit":false,"i_lat":-6.144674,"line":1,"distance":1230,"time":4,"station_id":"AK","station_name":"Angke","i_long":106.79867},{"station_name":"Kampung Bandan","time":9,"station_id":"KPB","transit":true,"i_lat":-6.132549,"i_long":106.826365,"line":4,"distance":4102,"is_transit":true},{"station_id":"RJW","i_lat":-6.14505,"line":11,"transit":false,"time":3,"station_name":"Rajawali","i_long":106.836569,"distance":1444,"is_transit":false},{"transit":false,"distance":1901,"time":5,"is_transit":false,"station_name":"Kemayoran","i_lat":-6.161728,"i_long":106.839204,"line":11,"station_id":"KMO"},{"is_transit":false,"distance":1436,"station_id":"PSE","time":4,"transit":false,"i_long":106.84368,"i_lat":-6.174784,"line":11,"station_name":"Pasar Senen"},{"line":11,"is_transit":false,"transit":false,"distance":1567,"station_id":"GST","i_long":106.850107,"station_name":"Gang Sentiong","time":8,"i_lat":-6.185975},{"station_id":"KMT","i_lat":-6.193792,"distance":973,"time":1,"is_transit":false,"line":11,"station_name":"Kramat","transit":false,"i_long":106.855437},{"station_name":"Pondok Jati","line":11,"time":2,"station_id":"POK","distance":1829,"i_lat":-6.209188,"i_long":106.861737,"is_transit":false,"transit":false},{"time":9,"line":1,"station_id":"JNG","transit":true,"is_transit":true,"i_lat":-6.215091,"i_long":106.86807400000001,"distance":1236,"station_name":"Jatinegara"},{"station_name":"Klender","i_long":106.899548,"line":1,"time":3,"transit":false,"i_lat":-6.2135,"distance":3395,"station_id":"KLD","is_transit":false},{"station_name":"Buaran","line":1,"is_transit":false,"i_long":106.922662,"station_id":"BUA","distance":3100,"time":2,"transit":false,"i_lat":-6.215568}],[{"line":5,"i_lat":-6.162758,"i_long":106.723064,"station_name":"Rawa Buaya","is_transit":false,"station_id":"RW","time":0,"transit":false,"distance":0},{"transit":false,"station_name":"Bojongindah","station_id":"BOI","i_long":106.737035,"distance":1152,"i_lat":-6.159876,"line":5,"is_transit":false,"time":4},{"i_long":106.756522,"station_name":"Taman Kota","station_id":"TKO","is_transit":false,"line":5,"time":2,"distance":2334,"transit":false,"i_lat":-6.1587309999999995},{"station_id":"PSG","transit":false,"distance":1614,"i_lat":-6.161433,"is_transit":false,"time":2,"station_name":"Pesing","line":5,"i_long":106.771379},{"time":2,"transit":false,"distance":2036,"station_id":"GGL","is_transit":false,"i_long":106.788277,"line":5,"station_name":"Grogol","i_lat":-6.162021},{"distance":1700,"station_name":"Duri","i_long":106.800832,"station_id":"DU","line":1,"transit":true,"is_transit":true,"time":3,"i_lat":-6.155215},{"station_id":"AK","time":4,"i_lat":-6.144674,"distance":1230,"is_transit":false,"line":1,"transit":false,"i_long":106.79867,"station_name":"Angke"},{"i_lat":-6.132549,"i_long":106.826365,"time":9,"station_name":"Kampung Bandan","station_id":"KPB","transit":true,"distance":4102,"line":4,"is_transit":true},{"time":3,"station_id":"JAKK","station_name":"Jakarta Kota","line":2,"transit":true,"i_long":106.812439,"distance":1364,"i_lat":-6.137569,"is_transit":true},{"distance":1264,"i_lat":-6.141205,"station_id":"JAY","i_long":106.820901,"line":2,"transit":false,"is_transit":false,"station_name":"Jayakarta","time":4},{"i_lat":-6.149769,"line":2,"i_long":106.82482,"time":2,"station_id":"MGB","station_name":"Manggabesar","transit":false,"is_transit":false,"distance":1080},{"time":2,"station_name":"Sawah Besar","is_transit":false,"distance":906,"station_id":"SW","i_lat":-6.160725,"transit":false,"i_long":106.827103,"line":2},{"transit":false,"station_name":"Juanda","is_transit":false,"i_lat":-6.166716,"station_id":"JUA","i_long":106.828284,"line":2,"distance":1149,"time":2},{"station_name":"Gondangdia","is_transit":false,"distance":2015,"station_id":"GDD","i_long":106.832183,"line":2,"time":4,"transit":false,"i_lat":-6.186295},{"i_long":106.840169,"time":3,"transit":false,"line":2,"i_lat":-6.198556,"distance":1750,"station_name":"Cikini","is_transit":false,"station_id":"CKI"},{"is_transit":true,"station_name":"Manggarai","station_id":"MRI","time":4,"line":2,"i_long":106.84912,"i_lat":-6.209883,"transit":true,"distance":1590},{"time":2,"station_id":"MTR","is_transit":false,"line":1,"station_name":"Matraman","i_lat":-6.212485,"distance":1275,"i_long":106.858896,"transit":false},{"station_name":"Jatinegara","is_transit":false,"i_long":106.86807400000001,"line":1,"transit":false,"distance":1377,"station_id":"JNG","time":8,"i_lat":-6.215091},{"transit":false,"time":3,"station_name":"Klender","i_long":106.899548,"is_transit":false,"line":1,"station_id":"KLD","i_lat":-6.2135,"distance":3395},{"distance":3100,"i_long":106.922662,"i_lat":-6.215568,"station_name":"Buaran","time":2,"transit":false,"station_id":"BUA","is_transit":false,"line":1}],[{"line":5,"transit":false,"station_id":"RW","distance":0,"time":0,"station_name":"Rawa Buaya","i_long":106.723064,"i_lat":-6.162758,"is_transit":false},{"i_long":106.737035,"i_lat":-6.159876,"time":4,"station_name":"Bojongindah","line":5,"distance":1152,"is_transit":false,"transit":false,"station_id":"BOI"},{"i_lat":-6.1587309999999995,"i_long":106.756522,"is_transit":false,"station_id":"TKO","time":2,"line":5,"distance":2334,"station_name":"Taman Kota","transit":false},{"station_name":"Pesing","i_lat":-6.161433,"transit":false,"is_transit":false,"i_long":106.771379,"distance":1614,"station_id":"PSG","line":5,"time":2},{"time":2,"line":5,"station_name":"Grogol","distance":2036,"is_transit":false,"i_lat":-6.162021,"transit":false,"station_id":"GGL","i_long":106.788277},{"station_name":"Duri","i_long":106.800832,"distance":1700,"time":3,"station_id":"DU","i_lat":-6.155215,"transit":true,"is_transit":true,"line":1},{"transit":false,"time":8,"i_long":106.811091,"distance":3632,"station_id":"THB","i_lat":-6.185545,"station_name":"Tanah Abang","is_transit":false,"line":1},{"time":5,"is_transit":false,"transit":false,"i_long":106.816351,"i_lat":-6.20132,"station_id":"KAT","line":1,"distance":2029,"station_name":"Karet"},{"time":1,"is_transit":false,"transit":false,"station_id":"SUDB","i_long":106.819881,"line":1,"station_name":"Sudirman Baru","distance":471,"i_lat":-6.201433},{"distance":280,"i_long":106.822649,"station_id":"SUD","transit":false,"line":1,"is_transit":false,"station_name":"Sudirman","time":1,"i_lat":-6.202263},{"station_name":"Manggarai","is_transit":true,"line":2,"station_id":"MRI","time":4,"i_long":106.84912,"transit":true,"i_lat":-6.209883,"distance":3186},{"distance":1590,"i_long":106.840169,"line":2,"station_id":"CKI","is_transit":false,"i_lat":-6.198556,"time":4,"station_name":"Cikini","transit":false},{"station_id":"GDD","line":2,"station_name":"Gondangdia","transit":false,"i_long":106.832183,"distance":1750,"time":3,"i_lat":-6.186295,"is_transit":false},{"is_transit":false,"station_name":"Juanda","station_id":"JUA","distance":2015,"i_lat":-6.166716,"transit":false,"line":2,"i_long":106.828284,"time":4},{"station_name":"Sawah Besar","station_id":"SW","time":2,"transit":false,"distance":1149,"is_transit":false,"i_lat":-6.160725,"line":2,"i_long":106.827103},{"distance":906,"station_id":"MGB","transit":false,"i_lat":-6.149769,"line":2,"is_transit":false,"i_long":106.82482,"time":2,"station_name":"Manggabesar"},{"i_long":106.820901,"distance":1080,"line":2,"is_transit":false,"station_id":"JAY","station_name":"Jayakarta","time":2,"transit":false,"i_lat":-6.141205},{"is_transit":true,"line":2,"distance":1264,"i_lat":-6.137569,"i_long":106.812439,"station_name":"Jakarta Kota","station_id":"JAKK","time":4,"transit":true},{"is_transit":true,"transit":true,"station_id":"KPB","i_long":106.826365,"line":4,"time":3,"station_name":"Kampung Bandan","distance":1364,"i_lat":-6.132549},{"i_lat":-6.14505,"i_long":106.836569,"station_name":"Rajawali","line":11,"time":3,"transit":false,"distance":1444,"is_transit":false,"station_id":"RJW"},{"distance":1901,"station_name":"Kemayoran","i_lat":-6.161728,"i_long":106.839204,"line":11,"transit":false,"time":5,"station_id":"KMO","is_transit":false},{"station_id":"PSE","line":11,"is_transit":false,"distance":1436,"i_long":106.84368,"transit":false,"station_name":"Pasar Senen","time":4,"i_lat":-6.174784},{"station_id":"GST","line":11,"time":8,"i_lat":-6.185975,"distance":1567,"is_transit":false,"transit":false,"station_name":"Gang Sentiong","i_long":106.850107},{"time":1,"transit":false,"station_id":"KMT","is_transit":false,"i_lat":-6.193792,"station_name":"Kramat","distance":973,"i_long":106.855437,"line":11},{"time":2,"line":11,"i_long":106.861737,"is_transit":false,"i_lat":-6.209188,"station_id":"POK","station_name":"Pondok Jati","distance":1829,"transit":false},{"i_long":106.86807400000001,"transit":true,"is_transit":true,"line":1,"station_name":"Jatinegara","station_id":"JNG","i_lat":-6.215091,"distance":1236,"time":9},{"line":1,"station_id":"KLD","i_lat":-6.2135,"is_transit":false,"distance":3395,"time":3,"station_name":"Klender","transit":false,"i_long":106.899548},{"station_id":"BUA","station_name":"Buaran","distance":3100,"i_lat":-6.215568,"i_long":106.922662,"time":2,"is_transit":false,"line":1,"transit":false}]]}