{"data":[[{"distance":0,"station_name":"Rawa Buaya","i_long":106.723064,"line":5,"station_id":"RW","transit":false,"i_lat":-6.162758,"time":0,"is_transit":false},{"i_long":106.737035,"is_transit":false,"station_name":"Bojongindah","transit":false,"station_id":"BOI","distance":1152,"time":4,"line":0,"i_lat":-6.159876},{"transit":false,"is_transit":false,"i_long":106.756522,"i_lat":-6.1587309999999995,"station_name":"Taman Kota","distance":2334,"line":5,"station_id":"TKO","time":2},{"is_transit":false,"station_name":"Pesing","transit":false,"i_lat":-6.161433,"station_id":"PSG","i_long":106.771379,"distance":1614,"time":2,"line":5},{"is_transit":false,"distance":2036,"line":5,"transit":false,"i_long":106.788277,"station_id":"GGL","i_lat":-6.162021,"time":2,"station_name":"Grogol"},{"transit":true,"i_lat":-6.155215,"line":1,"time":3,"i_long":106.800832,"station_name":"Duri","distance":1700,"is_transit":true,"station_id":"DU"},{"station_name":"Tanah Abang","distance":3632,"time":8,"line":1,"is_transit":true,"transit":false,"i_lat":-6.185545,"i_long":106.811091,"station_id":"THB"},{"is_transit":false,"i_long":106.816351,"station_name":"Karet","line":1,"station_id":"KAT","transit":false,"time":5,"i_lat":-6.20132,"distance":2029},{"i_lat":-6.201433,"line":1,"station_name":"Sudirman Baru","is_transit":false,"station_id":"SUDB","distance":471,"time":1,"i_long":106.819881,"transit":false},{"transit":false,"station_id":"SUD","i_lat":-6.202263,"station_name":"Sudirman","time":1,"line":1,"is_transit":false,"distance":280,"i_long":106.822649},{"line":0,"distance":3186,"station_name":"Manggarai","time":4,"transit":false,"is_transit":true,"i_lat":-6.209883,"i_long":106.84912,"station_id":"MRI"},{"station_name":"Matraman","i_lat":-6.212485,"i_long":106.858896,"line":1,"time":2,"is_transit":false,"distance":1275,"station_id":"MTR","transit":false},{"transit":false,"i_long":106.86807400000001,"distance":1377,"is_transit":true,"i_lat":-6.215091,"station_name":"Jatinegara","line":0,"time":8,"station_id":"JNG"},{"station_name":"Klender","distance":3395,"i_lat":-6.2135,"i_long":106.899548,"line":1,"is_transit":false,"station_id":"KLD","transit":false,"time":3},{"time":2,"is_transit":false,"station_id":"BUA","distance":3100,"transit":false,"i_lat":-6.215568,"station_name":"Buaran","i_long":106.922662,"line":0},{"line":1,"station_name":"Klenderbaru","is_transit":false,"time":1,"station_id":"KLDB","i_long":106.939679,"distance":1305,"i_lat":-6.217455,"transit":false},{"distance":1385,"station_id":"CUK","i_lat":-6.219053,"is_transit":false,"i_long":106.951283,"station_name":"Cakung","transit":false,"time":8,"line":0},{"distance":3097,"station_id":"KRI","line":1,"i_lat":-6.224515,"is_transit":false,"station_name":"Kranji","transit":false,"time":3,"i_long":106.977657},{"time":4,"i_lat":-6.236616,"i_long":106.997013,"distance":2520,"is_transit":false,"station_id":"BKS","station_name":"Bekasi","transit":false,"line":0}],[{"station_id":"RW","station_name":"Rawa Buaya","i_lat":-6.162758,"transit":false,"is_transit":false,"i_long":106.723064,"line":5,"distance":0,"time":0},{"i_long":106.737035,"line":0,"is_transit":false,"time":4,"distance":1152,"station_id":"BOI","transit":false,"i_lat":-6.159876,"station_name":"Bojongindah"},{"station_id":"TKO","time":2,"is_transit":false,"i_lat":-6.1587309999999995,"distance":2334,"i_long":106.756522,"station_name":"Taman Kota","line":5,"transit":false},{"i_lat":-6.161433,"time":2,"line":5,"station_id":"PSG","distance":1614,"i_long":106.771379,"is_transit":false,"station_name":"Pesing","transit":false},{"time":2,"i_lat":-6.162021,"is_transit":false,"station_id":"GGL","distance":2036,"line":5,"station_name":"Grogol","transit":false,"i_long":106.788277},{"station_name":"Duri","i_lat":-6.155215,"line":1,"time":3,"station_id":"DU","i_long":106.800832,"transit":true,"distance":1700,"is_transit":true},{"line":0,"is_transit":false,"distance":1230,"i_long":106.79867,"transit":false,"i_lat":-6.144674,"station_id":"AK","station_name":"Angke","time":4},{"transit":true,"station_name":"Kampung Bandan","time":9,"i_lat":-6.132549,"is_transit":true,"station_id":"KPB","distance":4102,"i_long":106.826365,"line":0},{"distance":1444,"time":3,"station_name":"Rajawali","i_lat":-6.14505,"is_transit":false,"station_id":"RJW","i_long":106.836569,"transit":false,"line":11},{"line":11,"i_lat":-6.161728,"is_transit":false,"transit":false,"time":5,"distance":1901,"i_long":106.839204,"station_name":"Kemayoran","station_id":"KMO"},{"line":11,"is_transit":false,"station_name":"Pasar Senen","i_long":106.84368,"transit":false,"time":4,"i_lat":-6.174784,"station_id":"PSE","distance":1436},{"station_id":"GST","line":11,"i_long":106.850107,"is_transit":false,"transit":false,"station_name":"Gang Sentiong","i_lat":-6.185975,"distance":1567,"time":8},{"distance":973,"line":11,"i_long":106.855437,"is_transit":false,"station_id":"KMT","transit":false,"station_name":"Kramat","time":1,"i_lat":-6.193792},{"i_long":106.861737,"station_name":"Pondok Jati","time":2,"is_transit":false,"station_id":"POK","transit":false,"line":11,"i_lat":-6.209188,"distance":1829},{"distance":1236,"time":9,"transit":true,"line":0,"station_name":"Jatinegara","is_transit":true,"station_id":"JNG","i_lat":-6.215091,"i_long":106.86807400000001},{"distance":3395,"i_long":106.899548,"station_id":"KLD","station_name":"Klender","transit":false,"is_transit":false,"i_lat":-6.2135,"line":1,"time":3},{"i_lat":-6.215568,"is_transit":false,"station_id":"BUA","transit":false,"time":2,"i_long":106.922662,"line":0,"station_name":"Buaran","distance":3100},{"is_transit":false,"time":1,"i_long":106.939679,"i_lat":-6.217455,"station_name":"Klenderbaru","transit":false,"station_id":"KLDB","line":1,"distance":1305},{"station_id":"CUK","distance":1385,"station_name":"Cakung","is_transit":false,"transit":false,"time":8,"line":0,"i_lat":-6.219053,"i_long":106.951283},{"station_name":"Kranji","is_transit":false,"i_lat":-6.224515,"transit":false,"time":3,"distance":3097,"station_id":"KRI","i_long":106.977657,"line":1},{"is_transit":false,"i_lat":-6.236616,"distance":2520,"transit":false,"line":0,"time":4,"i_long":106.997013,"station_name":"Bekasi","station_id":"BKS"}],[{"transit":false,"i_lat":-6.162758,"distance":0,"station_name":"Rawa Buaya","time":0,"station_id":"RW","i_long":106.723064,"is_transit":false,"line":5},{"time":4,"station_name":"Bojongindah","i_lat":-6.159876,"distance":1152,"transit":false,"line":0,"is_transit":false,"station_id":"BOI","i_long":106.737035},{"station_id":"TKO","i_lat":-6.1587309999999995,"is_transit":false,"distance":2334,"i_long":106.756522,"transit":false,"line":5,"time":2,"station_name":"Taman Kota"},{"station_id":"PSG","i_lat":-6.161433,"i_long":106.771379,"is_transit":false,"distance":1614,"station_name":"Pesing","transit":false,"time":2,"line":5},{"i_lat":-6.162021,"distance":2036,"line":5,"i_long":106.788277,"station_id":"GGL","is_transit":false,"time":2,"transit":false,"station_name":"Grogol"},{"i_long":106.800832,"station_id":"DU","distance":1700,"station_name":"Duri","time":3,"is_transit":true,"transit":true,"i_lat":-6.155215,"line":1},{"transit":false,"time":4,"station_id":"AK","line":0,"station_name":"Angke","i_lat":-6.144674,"distance":1230,"i_long":106.79867,"is_transit":false},{"time":9,"is_transit":true,"i_lat":-6.132549,"line":0,"station_id":"KPB","distance":4102,"station_name":"Kampung Bandan","i_long":106.826365,"transit":false},{"is_transit":true,"transit":true,"distance":1364,"station_id":"JAKK","i_lat":-6.137569,"line":0,"time":3,"station_name":"Jakarta Kota","i_long":106.812439},{"i_long":106.820901,"station_name":"Jayakarta","line":7,"time":4,"distance":1264,"station_id":"JAY","is_transit":false,"transit":false,"i_lat":-6.141205},{"station_id":"MGB","is_transit":false,"i_long":106.82482,"time":2,"station_name":"Manggabesar","transit":false,"distance":1080,"i_lat":-6.149769,"line":2},{"station_name":"Sawah Besar","time":2,"i_long":106.827103,"station_id":"SW","i_lat":-6.160725,"distance":906,"line":2,"transit":false,"is_transit":false},{"station_id":"JUA","distance":1149,"time":2,"i_long":106.828284,"station_name":"Juanda","line":2,"transit":false,"i_lat":-6.166716,"is_transit":false},{"is_transit":false,"i_long":106.832183,"time":4,"station_id":"GDD","line":2,"transit":false,"station_name":"Gondangdia","distance":2015,"i_lat":-6.186295},{"is_transit":false,"station_name":"Cikini","line":0,"i_lat":-6.198556,"distance":1750,"time":3,"station_id":"CKI","transit":false,"i_long":106.840169},{"line":0,"i_lat":-6.209883,"is_transit":true,"distance":1590,"i_long":106.84912,"station_name":"Manggarai","station_id":"MRI","transit":true,"time":4},{"distance":1275,"station_id":"MTR","i_lat":-6.212485,"line":1,"transit":false,"station_name":"Matraman","time":2,"is_transit":false,"i_long":106.858896},{"is_transit":true,"station_id":"JNG","station_name":"Jatinegara","time":8,"line":0,"i_lat":-6.215091,"transit":false,"i_long":106.86807400000001,"distance":1377},{"line":1,"i_lat":-6.2135,"station_name":"Klender","i_long":106.899548,"station_id":"KLD","time":3,"transit":false,"is_transit":false,"distance":3395},{"i_long":106.922662,"is_transit":false,"station_name":"Buaran","distance":3100,"transit":false,"time":2,"i_lat":-6.215568,"line":0,"station_id":"BUA"},{"time":1,"i_lat":-6.217455,"transit":false,"distance":1305,"station_name":"Klenderbaru","station_id":"KLDB","line":1,"is_transit":false,"i_long":106.939679},{"i_long":106.951283,"line":0,"is_transit":false,"i_lat":-6.219053,"time":8,"station_id":"CUK","distance":1385,"transit":false,"station_name":"Cakung"},{"line":1,"time":3,"transit":false,"is_transit":false,"station_id":"KRI","i_lat":-6.224515,"distance":3097,"station_name":"Kranji","i_long":106.977657},{"line":0,"station_name":"Bekasi","transit":false,"i_long":106.997013,"station_id":"BKS","time":4,"i_lat":-6.236616,"distance":2520,"is_transit":false}],[{"distance":0,"station_name":"Rawa Buaya","station_id":"RW","i_lat":-6.162758,"line":5,"is_transit":false,"i_long":106.723064,"transit":false,"time":0},{"line":0,"distance":1152,"station_name":"Bojongindah","transit":false,"i_lat":-6.159876,"i_long":106.737035,"time":4,"is_transit":false,"station_id":"BOI"},{"transit":false,"i_long":106.756522,"station_id":"TKO","time":2,"distance":2334,"is_transit":false,"i_lat":-6.1587309999999995,"line":5,"station_name":"Taman Kota"},{"is_transit":false,"i_lat":-6.161433,"station_name":"Pesing","distance":1614,"time":2,"line":5,"i_long":106.771379,"transit":false,"station_id":"PSG"},{"distance":2036,"i_long":106.788277,"station_name":"Grogol","i_lat":-6.162021,"time":2,"line":5,"station_id":"GGL","transit":false,"is_transit":false},{"station_id":"DU","distance":1700,"is_transit":true,"i_long":106.800832,"transit":true,"time":3,"line":1,"station_name":"Duri","i_lat":-6.155215},{"transit":false,"time":8,"station_name":"Tanah Abang","line":1,"distance":3632,"i_long":106.811091,"is_transit":true,"station_id":"THB","i_lat":-6.185545},{"station_id":"KAT","time":5,"station_name":"Karet","i_long":106.816351,"transit":false,"i_lat":-6.20132,"distance":2029,"line":1,"is_transit":false},{"station_name":"Sudirman Baru","time":1,"station_id":"SUDB","transit":false,"distance":471,"is_transit":false,"i_lat":-6.201433,"i_long":106.819881,"line":1},{"station_id":"SUD","time":1,"is_transit":false,"distance":280,"station_name":"Sudirman","i_lat":-6.202263,"i_long":106.822649,"transit":false,"line":1},{"i_long":106.84912,"time":4,"i_lat":-6.209883,"transit":true,"line":0,"is_transit":true,"station_name":"Manggarai","station_id":"MRI","distance":3186},{"distance":1590,"line":0,"is_transit":false,"station_id":"CKI","i_lat":-6.198556,"i_long":106.840169,"station_name":"Cikini","transit":false,"time":4},{"station_id":"GDD","is_transit":false,"transit":false,"distance":1750,"station_name":"Gondangdia","i_lat":-6.186295,"i_long":106.832183,"time":3,"line":2},{"station_name":"Juanda","distance":2015,"time":4,"i_lat":-6.166716,"line":2,"transit":false,"is_transit":false,"i_long":106.828284,"station_id":"JUA"},{"transit":false,"distance":1149,"i_long":106.827103,"station_name":"Sawah Besar","station_id":"SW","is_transit":false,"time":2,"i_lat":-6.160725,"line":2},{"station_id":"MGB","i_long":106.82482,"line":2,"is_transit":false,"station_name":"Manggabesar","distance":906,"i_lat":-6.149769,"time":2,"transit":false},{"station_id":"JAY","i_lat":-6.141205,"transit":false,"station_name":"Jayakarta","is_transit":false,"i_long":106.820901,"distance":1080,"line":7,"time":2},{"is_transit":true,"line":0,"station_name":"Jakarta Kota","transit":true,"distance":1264,"station_id":"JAKK","time":4,"i_long":106.812439,"i_lat":-6.137569},{"distance":1364,"line":0,"i_long":106.826365,"station_name":"Kampung Bandan","is_transit":true,"transit":true,"i_lat":-6.132549,"station_id":"KPB","time":3},{"station_name":"Rajawali","distance":1444,"i_long":106.836569,"line":11,"transit":false,"station_id":"RJW","is_transit":false,"i_lat":-6.14505,"time":3},{"is_transit":false,"distance":1901,"time":5,"transit":false,"i_long":106.839204,"i_lat":-6.161728,"station_id":"KMO","line":11,"station_name":"Kemayoran"},{"time":4,"station_id":"PSE","transit":false,"i_lat":-6.174784,"i_long":106.84368,"distance":1436,"is_transit":false,"line":11,"station_name":"Pasar Senen"},{"station_id":"GST","station_name":"Gang Sentiong","transit":false,"line":11,"distance":1567,"is_transit":false,"i_long":106.850107,"time":8,"i_lat":-6.185975},{"distance":973,"i_lat":-6.193792,"is_transit":false,"transit":false,"time":1,"line":11,"station_id":"KMT","station_name":"Kramat","i_long":106.855437},{"transit":false,"i_long":106.861737,"station_id":"POK","is_transit":false,"line":11,"station_name":"Pondok Jati","distance":1829,"i_lat":-6.209188,"time":2},{"i_long":106.86807400000001,"time":9,"station_name":"Jatinegara","i_lat":-6.215091,"is_transit":true,"distance":1236,"station_id":"JNG","transit":true,"line":0},{"is_transit":false,"distance":3395,"station_name":"Klender","i_long":106.899548,"i_lat":-6.2135,"station_id":"KLD","line":1,"transit":false,"time":3},{"is_transit":false,"line":0,"i_long":106.922662,"i_lat":-6.215568,"station_name":"Buaran","station_id":"BUA","time":2,"transit":false,"distance":3100},{"line":1,"i_lat":-6.217455,"station_id":"KLDB","distance":1305,"station_name":"Klenderbaru","transit":false,"is_transit":false,"time":1,"i_long":106.939679},{"distance":1385,"station_id":"CUK","station_name":"Cakung","transit":false,"time":8,"line":0,"is_transit":false,"i_lat":-6.219053,"i_long":106.951283},{"station_name":"Kranji","transit":false,"is_transit":false,"i_lat":-6.224515,"i_long":106.977657,"station_id":"KRI","time":3,"distance":3097,"line":1},{"station_id":"BKS","station_name":"Bekasi","transit":false,"line":0,"is_transit":false,"i_long":106.997013,"i_lat":-6.236616,"time":4,"distance":2520}]]}