{"data":[[{"time":0,"i_long":106.723064,"line":5,"station_id":"RW","transit":false,"distance":0,"i_lat":-6.162758,"is_transit":false,"station_name":"Rawa Buaya"},{"transit":false,"distance":1152,"is_transit":false,"line":0,"time":4,"station_name":"Bojongindah","i_long":106.737035,"station_id":"BOI","i_lat":-6.159876},{"line":5,"i_lat":-6.1587309999999995,"station_name":"Taman Kota","transit":false,"station_id":"TKO","distance":2334,"is_transit":false,"time":2,"i_long":106.756522},{"station_name":"Pesing","line":5,"i_lat":-6.161433,"is_transit":false,"transit":false,"distance":1614,"station_id":"PSG","i_long":106.771379,"time":2},{"station_name":"Grogol","time":2,"transit":false,"i_long":106.788277,"is_transit":false,"i_lat":-6.162021,"line":5,"station_id":"GGL","distance":2036},{"i_lat":-6.155215,"line":1,"is_transit":true,"station_name":"Duri","transit":true,"station_id":"DU","time":3,"distance":1700,"i_long":106.800832},{"distance":3632,"station_name":"Tanah Abang","is_transit":true,"station_id":"THB","time":8,"i_lat":-6.185545,"i_long":106.811091,"transit":false,"line":1},{"time":5,"i_lat":-6.20132,"transit":false,"line":1,"i_long":106.816351,"station_id":"KAT","is_transit":false,"station_name":"Karet","distance":2029},{"station_id":"SUDB","line":1,"is_transit":false,"transit":false,"i_lat":-6.201433,"station_name":"Sudirman Baru","distance":471,"time":1,"i_long":106.819881},{"is_transit":false,"i_lat":-6.202263,"station_id":"SUD","station_name":"Sudirman","time":1,"distance":280,"i_long":106.822649,"transit":false,"line":1},{"transit":false,"is_transit":true,"distance":3186,"station_name":"Manggarai","i_long":106.84912,"line":0,"time":4,"station_id":"MRI","i_lat":-6.209883},{"line":1,"i_lat":-6.212485,"is_transit":false,"station_name":"Matraman","transit":false,"time":2,"i_long":106.858896,"distance":1275,"station_id":"MTR"},{"is_transit":true,"i_long":106.86807400000001,"distance":1377,"time":8,"station_id":"JNG","line":0,"station_name":"Jatinegara","i_lat":-6.215091,"transit":false},{"i_long":106.899548,"station_id":"KLD","time":3,"line":1,"i_lat":-6.2135,"distance":3395,"is_transit":false,"station_name":"Klender","transit":false},{"is_transit":false,"transit":false,"station_name":"Buaran","time":2,"line":0,"i_long":106.922662,"i_lat":-6.215568,"distance":3100,"station_id":"BUA"}],[{"i_long":106.723064,"line":5,"distance":0,"i_lat":-6.162758,"time":0,"station_id":"RW","transit":false,"is_transit":false,"station_name":"Rawa Buaya"},{"transit":false,"i_long":106.737035,"distance":1152,"station_id":"BOI","station_name":"Bojongindah","time":4,"i_lat":-6.159876,"is_transit":false,"line":0},{"station_name":"Taman Kota","distance":2334,"line":5,"i_lat":-6.1587309999999995,"i_long":106.756522,"time":2,"is_transit":false,"station_id":"TKO","transit":false},{"transit":false,"distance":1614,"station_id":"PSG","is_transit":false,"line":5,"i_lat":-6.161433,"time":2,"i_long":106.771379,"station_name":"Pesing"},{"is_transit":false,"station_id":"GGL","i_lat":-6.162021,"distance":2036,"i_long":106.788277,"station_name":"Grogol","transit":false,"time":2,"line":5},{"distance":1700,"station_name":"Duri","i_lat":-6.155215,"is_transit":true,"line":1,"station_id":"DU","transit":true,"i_long":106.800832,"time":3},{"i_lat":-6.144674,"transit":false,"time":4,"line":0,"distance":1230,"is_transit":false,"station_name":"Angke","i_long":106.79867,"station_id":"AK"},{"time":9,"line":0,"is_transit":true,"i_lat":-6.132549,"station_name":"Kampung Bandan","distance":4102,"transit":true,"i_long":106.826365,"station_id":"KPB"},{"i_lat":-6.14505,"time":3,"line":11,"distance":1444,"transit":false,"is_transit":false,"station_name":"Rajawali","station_id":"RJW","i_long":106.836569},{"transit":false,"i_long":106.839204,"line":11,"station_name":"Kemayoran","station_id":"KMO","time":5,"is_transit":false,"i_lat":-6.161728,"distance":1901},{"distance":1436,"transit":false,"is_transit":false,"station_id":"PSE","i_long":106.84368,"i_lat":-6.174784,"line":11,"time":4,"station_name":"Pasar Senen"},{"transit":false,"distance":1567,"line":11,"station_id":"GST","i_long":106.850107,"station_name":"Gang Sentiong","time":8,"is_transit":false,"i_lat":-6.185975},{"distance":973,"is_transit":false,"i_long":106.855437,"station_id":"KMT","station_name":"Kramat","transit":false,"line":11,"time":1,"i_lat":-6.193792},{"distance":1829,"time":2,"is_transit":false,"i_long":106.861737,"transit":false,"station_id":"POK","station_name":"Pondok Jati","i_lat":-6.209188,"line":11},{"distance":1236,"is_transit":true,"i_long":106.86807400000001,"i_lat":-6.215091,"line":0,"station_id":"JNG","time":9,"transit":true,"station_name":"Jatinegara"},{"station_name":"Klender","distance":3395,"i_long":106.899548,"transit":false,"station_id":"KLD","is_transit":false,"line":1,"time":3,"i_lat":-6.2135},{"station_id":"BUA","time":2,"is_transit":false,"transit":false,"station_name":"Buaran","i_long":106.922662,"line":0,"i_lat":-6.215568,"distance":3100}],[{"transit":false,"i_long":106.723064,"i_lat":-6.162758,"station_id":"RW","station_name":"Rawa Buaya","time":0,"line":5,"is_transit":false,"distance":0},{"is_transit":false,"transit":false,"time":4,"i_lat":-6.159876,"line":0,"station_name":"Bojongindah","i_long":106.737035,"distance":1152,"station_id":"BOI"},{"distance":2334,"station_id":"TKO","transit":false,"time":2,"station_name":"Taman Kota","i_long":106.756522,"is_transit":false,"i_lat":-6.1587309999999995,"line":5},{"transit":false,"station_id":"PSG","time":2,"i_lat":-6.161433,"i_long":106.771379,"is_transit":false,"station_name":"Pesing","distance":1614,"line":5},{"is_transit":false,"station_name":"Grogol","time":2,"distance":2036,"line":5,"station_id":"GGL","i_lat":-6.162021,"transit":false,"i_long":106.788277},{"station_name":"Duri","distance":1700,"i_lat":-6.155215,"line":1,"time":3,"station_id":"DU","transit":true,"i_long":106.800832,"is_transit":true},{"is_transit":false,"station_id":"AK","i_long":106.79867,"line":0,"station_name":"Angke","time":4,"transit":false,"distance":1230,"i_lat":-6.144674},{"i_lat":-6.132549,"is_transit":true,"distance":4102,"time":9,"i_long":106.826365,"line":0,"station_id":"KPB","transit":false,"station_name":"Kampung Bandan"},{"station_name":"Jakarta Kota","distance":1364,"is_transit":true,"i_long":106.812439,"transit":true,"station_id":"JAKK","line":0,"time":3,"i_lat":-6.137569},{"station_name":"Jayakarta","is_transit":false,"station_id":"JAY","time":4,"i_long":106.820901,"line":7,"distance":1264,"transit":false,"i_lat":-6.141205},{"is_transit":false,"i_long":106.82482,"time":2,"transit":false,"distance":1080,"station_id":"MGB","station_name":"Manggabesar","i_lat":-6.149769,"line":2},{"is_transit":false,"station_name":"Sawah Besar","time":2,"i_long":106.827103,"transit":false,"distance":906,"line":2,"station_id":"SW","i_lat":-6.160725},{"station_id":"JUA","i_lat":-6.166716,"i_long":106.828284,"is_transit":false,"station_name":"Juanda","transit":false,"line":2,"time":2,"distance":1149},{"line":2,"time":4,"i_long":106.832183,"i_lat":-6.186295,"transit":false,"station_name":"Gondangdia","station_id":"GDD","is_transit":false,"distance":2015},{"distance":1750,"i_lat":-6.198556,"station_name":"Cikini","station_id":"CKI","line":0,"time":3,"is_transit":false,"transit":false,"i_long":106.840169},{"distance":1590,"station_id":"MRI","station_name":"Manggarai","i_long":106.84912,"i_lat":-6.209883,"time":4,"is_transit":true,"line":0,"transit":true},{"time":2,"distance":1275,"station_name":"Matraman","station_id":"MTR","transit":false,"i_lat":-6.212485,"line":1,"i_long":106.858896,"is_transit":false},{"time":8,"is_transit":true,"line":0,"i_long":106.86807400000001,"i_lat":-6.215091,"transit":false,"distance":1377,"station_id":"JNG","station_name":"Jatinegara"},{"i_lat":-6.2135,"i_long":106.899548,"line":1,"time":3,"distance":3395,"is_transit":false,"station_id":"KLD","transit":false,"station_name":"Klender"},{"transit":false,"distance":3100,"is_transit":false,"station_name":"Buaran","time":2,"station_id":"BUA","i_lat":-6.215568,"line":0,"i_long":106.922662}],[{"i_lat":-6.162758,"station_id":"RW","line":5,"is_transit":false,"distance":0,"station_name":"Rawa Buaya","transit":false,"time":0,"i_long":106.723064},{"station_name":"Bojongindah","station_id":"BOI","transit":false,"time":4,"i_long":106.737035,"is_transit":false,"i_lat":-6.159876,"line":0,"distance":1152},{"station_id":"TKO","is_transit":false,"line":5,"i_lat":-6.1587309999999995,"time":2,"i_long":106.756522,"distance":2334,"station_name":"Taman Kota","transit":false},{"station_id":"PSG","is_transit":false,"transit":false,"i_long":106.771379,"line":5,"distance":1614,"time":2,"i_lat":-6.161433,"station_name":"Pesing"},{"distance":2036,"is_transit":false,"station_id":"GGL","transit":false,"line":5,"time":2,"station_name":"Grogol","i_lat":-6.162021,"i_long":106.788277},{"distance":1700,"line":1,"station_name":"Duri","i_lat":-6.155215,"station_id":"DU","transit":true,"i_long":106.800832,"is_transit":true,"time":3},{"distance":3632,"i_lat":-6.185545,"is_transit":true,"line":1,"transit":false,"time":8,"i_long":106.811091,"station_id":"THB","station_name":"Tanah Abang"},{"i_long":106.816351,"station_name":"Karet","is_transit":false,"i_lat":-6.20132,"line":1,"transit":false,"station_id":"KAT","distance":2029,"time":5},{"station_name":"Sudirman Baru","time":1,"is_transit":false,"i_lat":-6.201433,"line":1,"distance":471,"station_id":"SUDB","transit":false,"i_long":106.819881},{"time":1,"transit":false,"distance":280,"is_transit":false,"line":1,"station_id":"SUD","station_name":"Sudirman","i_long":106.822649,"i_lat":-6.202263},{"station_id":"MRI","distance":3186,"station_name":"Manggarai","time":4,"i_lat":-6.209883,"transit":true,"i_long":106.84912,"line":0,"is_transit":true},{"station_id":"CKI","i_long":106.840169,"line":0,"distance":1590,"transit":false,"station_name":"Cikini","is_transit":false,"time":4,"i_lat":-6.198556},{"time":3,"distance":1750,"is_transit":false,"i_lat":-6.186295,"transit":false,"line":2,"station_id":"GDD","i_long":106.832183,"station_name":"Gondangdia"},{"line":2,"time":4,"station_id":"JUA","station_name":"Juanda","distance":2015,"i_lat":-6.166716,"is_transit":false,"transit":false,"i_long":106.828284},{"is_transit":false,"station_id":"SW","transit":false,"i_lat":-6.160725,"i_long":106.827103,"distance":1149,"station_name":"Sawah Besar","time":2,"line":2},{"station_name":"Manggabesar","i_long":106.82482,"station_id":"MGB","distance":906,"line":2,"time":2,"i_lat":-6.149769,"is_transit":false,"transit":false},{"is_transit":false,"i_lat":-6.141205,"transit":false,"time":2,"line":7,"station_id":"JAY","station_name":"Jayakarta","distance":1080,"i_long":106.820901},{"line":0,"time":4,"i_long":106.812439,"transit":true,"i_lat":-6.137569,"station_id":"JAKK","is_transit":true,"station_name":"Jakarta Kota","distance":1264},{"time":3,"line":0,"station_name":"Kampung Bandan","i_long":106.826365,"station_id":"KPB","distance":1364,"is_transit":true,"transit":true,"i_lat":-6.132549},{"is_transit":false,"i_long":106.836569,"time":3,"station_id":"RJW","line":11,"i_lat":-6.14505,"station_name":"Rajawali","distance":1444,"transit":false},{"transit":false,"i_long":106.839204,"time":5,"line":11,"station_name":"Kemayoran","is_transit":false,"station_id":"KMO","distance":1901,"i_lat":-6.161728},{"station_id":"PSE","station_name":"Pasar Senen","transit":false,"is_transit":false,"time":4,"i_long":106.84368,"distance":1436,"line":11,"i_lat":-6.174784},{"i_lat":-6.185975,"line":11,"i_long":106.850107,"transit":false,"is_transit":false,"distance":1567,"time":8,"station_id":"GST","station_name":"Gang Sentiong"},{"transit":false,"i_lat":-6.193792,"distance":973,"i_long":106.855437,"time":1,"is_transit":false,"station_id":"KMT","line":11,"station_name":"Kramat"},{"distance":1829,"i_lat":-6.209188,"line":11,"transit":false,"station_name":"Pondok Jati","i_long":106.861737,"is_transit":false,"station_id":"POK","time":2},{"station_name":"Jatinegara","is_transit":true,"station_id":"JNG","i_long":106.86807400000001,"transit":true,"distance":1236,"time":9,"i_lat":-6.215091,"line":0},{"distance":3395,"station_id":"KLD","line":1,"i_long":106.899548,"time":3,"is_transit":false,"i_lat":-6.2135,"station_name":"Klender","transit":false},{"line":0,"station_id":"BUA","i_lat":-6.215568,"distance":3100,"station_name":"Buaran","is_transit":false,"time":2,"transit":false,"i_long":106.922662}]]}