{"data":[[{"transit":false,"station_id":"RW","i_lat":-6.162758,"station_name":"Rawa Buaya","i_long":106.723064,"time":0,"is_transit":false,"distance":0,"line":5},{"line":5,"time":4,"transit":false,"station_id":"BOI","is_transit":false,"distance":1152,"i_long":106.737035,"station_name":"Bojongindah","i_lat":-6.159876},{"time":2,"station_name":"Taman Kota","transit":false,"i_lat":-6.1587309999999995,"station_id":"TKO","distance":2334,"i_long":106.756522,"line":5,"is_transit":false},{"is_transit":false,"i_lat":-6.161433,"i_long":106.771379,"transit":false,"distance":1614,"station_id":"PSG","station_name":"Pesing","line":5,"time":2},{"station_name":"Grogol","line":5,"is_transit":false,"transit":false,"i_long":106.788277,"time":2,"i_lat":-6.162021,"station_id":"GGL","distance":2036},{"i_lat":-6.155215,"line":1,"is_transit":true,"distance":1700,"transit":true,"station_id":"DU","time":3,"i_long":106.800832,"station_name":"Duri"},{"time":8,"station_id":"THB","distance":3632,"station_name":"Tanah Abang","line":1,"i_lat":-6.185545,"i_long":106.811091,"transit":false,"is_transit":false},{"time":5,"line":1,"is_transit":false,"distance":2029,"transit":false,"station_name":"Karet","station_id":"KAT","i_lat":-6.20132,"i_long":106.816351},{"i_long":106.819881,"transit":false,"station_name":"Sudirman Baru","distance":471,"station_id":"SUDB","is_transit":false,"i_lat":-6.201433,"time":1,"line":1},{"i_lat":-6.202263,"station_name":"Sudirman","is_transit":false,"line":1,"distance":280,"transit":false,"station_id":"SUD","i_long":106.822649,"time":1},{"station_id":"MRI","transit":false,"line":2,"i_lat":-6.209883,"is_transit":false,"station_name":"Manggarai","distance":3186,"time":4,"i_long":106.84912},{"line":1,"station_id":"MTR","time":2,"i_lat":-6.212485,"station_name":"Matraman","is_transit":false,"distance":1275,"i_long":106.858896,"transit":false},{"transit":false,"station_id":"JNG","i_lat":-6.215091,"distance":1377,"line":1,"time":8,"i_long":106.86807400000001,"is_transit":false,"station_name":"Jatinegara"},{"line":1,"i_lat":-6.2135,"transit":false,"station_name":"Klender","distance":3395,"is_transit":false,"station_id":"KLD","time":3,"i_long":106.899548},{"station_id":"BUA","i_lat":-6.215568,"time":2,"line":1,"transit":false,"is_transit":false,"i_long":106.922662,"station_name":"Buaran","distance":3100}],[{"transit":false,"i_lat":-6.162758,"line":5,"station_name":"Rawa Buaya","time":0,"is_transit":false,"station_id":"RW","i_long":106.723064,"distance":0},{"line":5,"time":4,"i_long":106.737035,"transit":false,"station_name":"Bojongindah","is_transit":false,"distance":1152,"station_id":"BOI","i_lat":-6.159876},{"line":5,"transit":false,"station_name":"Taman Kota","is_transit":false,"time":2,"i_lat":-6.1587309999999995,"distance":2334,"i_long":106.756522,"station_id":"TKO"},{"transit":false,"i_long":106.771379,"line":5,"is_transit":false,"station_id":"PSG","time":2,"distance":1614,"i_lat":-6.161433,"station_name":"Pesing"},{"line":5,"time":2,"station_name":"Grogol","transit":false,"station_id":"GGL","distance":2036,"i_lat":-6.162021,"is_transit":false,"i_long":106.788277},{"is_transit":true,"station_name":"Duri","time":3,"station_id":"DU","transit":true,"i_lat":-6.155215,"distance":1700,"i_long":106.800832,"line":1},{"time":4,"station_id":"AK","i_lat":-6.144674,"line":1,"is_transit":false,"transit":false,"station_name":"Angke","i_long":106.79867,"distance":1230},{"station_id":"KPB","station_name":"Kampung Bandan","i_lat":-6.132549,"i_long":106.826365,"line":4,"time":9,"is_transit":true,"transit":true,"distance":4102},{"station_name":"Rajawali","distance":1444,"transit":false,"line":11,"i_long":106.836569,"station_id":"RJW","is_transit":false,"time":3,"i_lat":-6.14505},{"line":11,"is_transit":false,"station_name":"Kemayoran","transit":false,"station_id":"KMO","time":5,"distance":1901,"i_lat":-6.161728,"i_long":106.839204},{"station_name":"Pasar Senen","distance":1436,"i_long":106.84368,"is_transit":false,"time":4,"i_lat":-6.174784,"line":11,"transit":false,"station_id":"PSE"},{"is_transit":false,"station_name":"Gang Sentiong","distance":1567,"time":8,"transit":false,"line":11,"i_long":106.850107,"station_id":"GST","i_lat":-6.185975},{"i_lat":-6.193792,"transit":false,"time":1,"station_name":"Kramat","station_id":"KMT","distance":973,"i_long":106.855437,"line":11,"is_transit":false},{"time":2,"transit":false,"station_id":"POK","station_name":"Pondok Jati","line":11,"i_long":106.861737,"is_transit":false,"distance":1829,"i_lat":-6.209188},{"i_lat":-6.215091,"station_name":"Jatinegara","transit":true,"time":9,"is_transit":true,"i_long":106.86807400000001,"line":1,"station_id":"JNG","distance":1236},{"station_name":"Klender","station_id":"KLD","i_long":106.899548,"is_transit":false,"time":3,"i_lat":-6.2135,"transit":false,"distance":3395,"line":1},{"distance":3100,"line":1,"is_transit":false,"station_id":"BUA","i_lat":-6.215568,"i_long":106.922662,"station_name":"Buaran","time":2,"transit":false}],[{"transit":false,"i_long":106.723064,"is_transit":false,"distance":0,"line":5,"station_name":"Rawa Buaya","station_id":"RW","i_lat":-6.162758,"time":0},{"station_name":"Bojongindah","time":4,"i_long":106.737035,"i_lat":-6.159876,"distance":1152,"is_transit":false,"transit":false,"station_id":"BOI","line":5},{"i_long":106.756522,"line":5,"is_transit":false,"station_id":"TKO","distance":2334,"station_name":"Taman Kota","transit":false,"time":2,"i_lat":-6.1587309999999995},{"is_transit":false,"station_name":"Pesing","distance":1614,"station_id":"PSG","transit":false,"i_long":106.771379,"time":2,"line":5,"i_lat":-6.161433},{"i_lat":-6.162021,"line":5,"is_transit":false,"distance":2036,"station_id":"GGL","transit":false,"i_long":106.788277,"station_name":"Grogol","time":2},{"transit":true,"station_name":"Duri","time":3,"distance":1700,"i_lat":-6.155215,"station_id":"DU","is_transit":true,"line":1,"i_long":106.800832},{"is_transit":false,"time":4,"distance":1230,"i_long":106.79867,"i_lat":-6.144674,"station_id":"AK","line":1,"transit":false,"station_name":"Angke"},{"i_long":106.826365,"transit":true,"station_name":"Kampung Bandan","i_lat":-6.132549,"line":4,"distance":4102,"time":9,"is_transit":true,"station_id":"KPB"},{"is_transit":true,"transit":true,"i_long":106.812439,"station_id":"JAKK","line":2,"time":3,"distance":1364,"i_lat":-6.137569,"station_name":"Jakarta Kota"},{"station_id":"JAY","i_long":106.820901,"is_transit":false,"station_name":"Jayakarta","line":2,"i_lat":-6.141205,"distance":1264,"time":4,"transit":false},{"time":2,"transit":false,"i_long":106.82482,"distance":1080,"i_lat":-6.149769,"line":2,"station_name":"Manggabesar","is_transit":false,"station_id":"MGB"},{"i_lat":-6.160725,"line":2,"station_name":"Sawah Besar","distance":906,"station_id":"SW","time":2,"is_transit":false,"i_long":106.827103,"transit":false},{"distance":1149,"transit":false,"line":2,"is_transit":false,"station_name":"Juanda","time":2,"i_lat":-6.166716,"i_long":106.828284,"station_id":"JUA"},{"transit":false,"station_id":"GDD","is_transit":false,"station_name":"Gondangdia","time":4,"i_lat":-6.186295,"distance":2015,"line":2,"i_long":106.832183},{"i_lat":-6.198556,"line":2,"i_long":106.840169,"station_name":"Cikini","station_id":"CKI","transit":false,"is_transit":false,"time":3,"distance":1750},{"line":2,"time":4,"i_lat":-6.209883,"distance":1590,"is_transit":true,"transit":true,"station_id":"MRI","station_name":"Manggarai","i_long":106.84912},{"transit":false,"i_long":106.858896,"station_name":"Matraman","station_id":"MTR","i_lat":-6.212485,"time":2,"distance":1275,"line":1,"is_transit":false},{"is_transit":false,"station_id":"JNG","distance":1377,"line":1,"time":8,"transit":false,"station_name":"Jatinegara","i_lat":-6.215091,"i_long":106.86807400000001},{"i_long":106.899548,"is_transit":false,"distance":3395,"line":1,"transit":false,"station_id":"KLD","station_name":"Klender","i_lat":-6.2135,"time":3},{"transit":false,"time":2,"i_lat":-6.215568,"i_long":106.922662,"distance":3100,"station_id":"BUA","line":1,"station_name":"Buaran","is_transit":false}],[{"is_transit":false,"station_id":"RW","time":0,"i_lat":-6.162758,"station_name":"Rawa Buaya","transit":false,"line":5,"distance":0,"i_long":106.723064},{"transit":false,"distance":1152,"station_name":"Bojongindah","station_id":"BOI","is_transit":false,"i_lat":-6.159876,"time":4,"i_long":106.737035,"line":5},{"station_name":"Taman Kota","line":5,"transit":false,"station_id":"TKO","time":2,"i_lat":-6.1587309999999995,"is_transit":false,"i_long":106.756522,"distance":2334},{"distance":1614,"is_transit":false,"time":2,"station_name":"Pesing","i_lat":-6.161433,"i_long":106.771379,"transit":false,"line":5,"station_id":"PSG"},{"station_name":"Grogol","transit":false,"i_long":106.788277,"i_lat":-6.162021,"station_id":"GGL","line":5,"distance":2036,"time":2,"is_transit":false},{"station_id":"DU","time":3,"transit":true,"i_long":106.800832,"is_transit":true,"i_lat":-6.155215,"line":1,"distance":1700,"station_name":"Duri"},{"station_id":"THB","station_name":"Tanah Abang","distance":3632,"line":1,"transit":false,"time":8,"i_lat":-6.185545,"is_transit":false,"i_long":106.811091},{"i_long":106.816351,"line":1,"station_name":"Karet","is_transit":false,"distance":2029,"time":5,"transit":false,"station_id":"KAT","i_lat":-6.20132},{"transit":false,"distance":471,"line":1,"station_name":"Sudirman Baru","station_id":"SUDB","i_lat":-6.201433,"time":1,"i_long":106.819881,"is_transit":false},{"station_id":"SUD","i_long":106.822649,"i_lat":-6.202263,"is_transit":false,"line":1,"station_name":"Sudirman","time":1,"distance":280,"transit":false},{"time":4,"transit":true,"i_lat":-6.209883,"station_name":"Manggarai","distance":3186,"station_id":"MRI","i_long":106.84912,"line":2,"is_transit":true},{"transit":false,"distance":1590,"line":2,"time":4,"is_transit":false,"station_name":"Cikini","i_long":106.840169,"i_lat":-6.198556,"station_id":"CKI"},{"station_id":"GDD","transit":false,"station_name":"Gondangdia","i_lat":-6.186295,"distance":1750,"i_long":106.832183,"time":3,"line":2,"is_transit":false},{"transit":false,"i_long":106.828284,"is_transit":false,"time":4,"station_id":"JUA","station_name":"Juanda","distance":2015,"i_lat":-6.166716,"line":2},{"transit":false,"station_id":"SW","distance":1149,"i_lat":-6.160725,"line":2,"is_transit":false,"time":2,"station_name":"Sawah Besar","i_long":106.827103},{"transit":false,"is_transit":false,"i_lat":-6.149769,"station_id":"MGB","i_long":106.82482,"line":2,"time":2,"station_name":"Manggabesar","distance":906},{"station_id":"JAY","station_name":"Jayakarta","i_long":106.820901,"line":2,"is_transit":false,"i_lat":-6.141205,"distance":1080,"time":2,"transit":false},{"distance":1264,"station_name":"Jakarta Kota","transit":true,"time":4,"i_long":106.812439,"i_lat":-6.137569,"line":2,"is_transit":true,"station_id":"JAKK"},{"i_lat":-6.132549,"line":4,"station_id":"KPB","distance":1364,"is_transit":true,"time":3,"station_name":"Kampung Bandan","i_long":106.826365,"transit":true},{"is_transit":false,"station_id":"RJW","transit":false,"distance":1444,"station_name":"Rajawali","time":3,"i_long":106.836569,"i_lat":-6.14505,"line":11},{"distance":1901,"i_long":106.839204,"line":11,"transit":false,"station_name":"Kemayoran","station_id":"KMO","i_lat":-6.161728,"time":5,"is_transit":false},{"i_lat":-6.174784,"distance":1436,"station_id":"PSE","transit":false,"line":11,"time":4,"is_transit":false,"i_long":106.84368,"station_name":"Pasar Senen"},{"line":11,"station_id":"GST","distance":1567,"i_long":106.850107,"station_name":"Gang Sentiong","is_transit":false,"i_lat":-6.185975,"transit":false,"time":8},{"distance":973,"time":1,"i_lat":-6.193792,"station_id":"KMT","is_transit":false,"station_name":"Kramat","transit":false,"i_long":106.855437,"line":11},{"i_long":106.861737,"transit":false,"time":2,"distance":1829,"station_name":"Pondok Jati","station_id":"POK","i_lat":-6.209188,"line":11,"is_transit":false},{"transit":true,"i_lat":-6.215091,"time":9,"station_name":"Jatinegara","station_id":"JNG","line":1,"is_transit":true,"distance":1236,"i_long":106.86807400000001},{"distance":3395,"station_name":"Klender","time":3,"line":1,"transit":false,"is_transit":false,"i_lat":-6.2135,"station_id":"KLD","i_long":106.899548},{"distance":3100,"i_long":106.922662,"line":1,"station_name":"Buaran","transit":false,"is_transit":false,"time":2,"i_lat":-6.215568,"station_id":"BUA"}]]}