{"data":[[{"distance":0,"station_id":"RW","i_lat":-6.162758,"station_name":"Rawa Buaya","is_transit":false,"line":5,"transit":false,"time":0,"i_long":106.723064},{"time":4,"distance":1152,"i_lat":-6.159876,"station_name":"Bojongindah","is_transit":false,"line":5,"transit":false,"station_id":"BOI","i_long":106.737035},{"time":2,"transit":false,"station_name":"Taman Kota","is_transit":false,"distance":2334,"i_long":106.756522,"i_lat":-6.1587309999999995,"line":5,"station_id":"TKO"},{"distance":1614,"station_name":"Pesing","i_long":106.771379,"transit":false,"i_lat":-6.161433,"is_transit":false,"line":5,"station_id":"PSG","time":2},{"i_long":106.788277,"is_transit":false,"transit":false,"distance":2036,"station_name":"Grogol","time":2,"i_lat":-6.162021,"station_id":"GGL","line":5},{"line":1,"distance":1700,"transit":true,"i_lat":-6.155215,"is_transit":true,"station_name":"Duri","station_id":"DU","time":3,"i_long":106.800832},{"i_long":106.811091,"line":1,"is_transit":false,"i_lat":-6.185545,"transit":false,"time":8,"station_name":"Tanah Abang","station_id":"THB","distance":3632},{"time":5,"i_lat":-6.20132,"distance":2029,"transit":false,"i_long":106.816351,"station_name":"Karet","station_id":"KAT","is_transit":false,"line":1},{"time":1,"transit":false,"is_transit":false,"i_lat":-6.201433,"distance":471,"station_name":"Sudirman Baru","i_long":106.819881,"line":1,"station_id":"SUDB"},{"time":1,"is_transit":false,"station_id":"SUD","distance":280,"i_lat":-6.202263,"transit":false,"line":1,"i_long":106.822649,"station_name":"Sudirman"},{"time":4,"i_lat":-6.209883,"station_name":"Manggarai","i_long":106.84912,"distance":3186,"line":2,"transit":false,"is_transit":false,"station_id":"MRI"},{"i_long":106.858896,"transit":false,"station_id":"MTR","i_lat":-6.212485,"line":1,"station_name":"Matraman","is_transit":false,"distance":1275,"time":2},{"transit":false,"station_name":"Jatinegara","line":1,"distance":1377,"station_id":"JNG","i_lat":-6.215091,"i_long":106.86807400000001,"is_transit":false,"time":8},{"time":3,"station_id":"KLD","line":1,"i_long":106.899548,"transit":false,"station_name":"Klender","is_transit":false,"distance":3395,"i_lat":-6.2135},{"station_name":"Buaran","distance":3100,"transit":false,"time":2,"line":1,"i_lat":-6.215568,"station_id":"BUA","is_transit":false,"i_long":106.922662},{"station_name":"Klenderbaru","i_long":106.939679,"time":1,"i_lat":-6.217455,"line":1,"transit":false,"distance":1305,"is_transit":false,"station_id":"KLDB"},{"transit":false,"is_transit":false,"i_lat":-6.219053,"line":1,"station_id":"CUK","time":8,"distance":1385,"station_name":"Cakung","i_long":106.951283},{"time":3,"is_transit":false,"i_long":106.977657,"line":1,"distance":3097,"transit":false,"station_name":"Kranji","station_id":"KRI","i_lat":-6.224515},{"station_name":"Bekasi","i_lat":-6.236616,"time":4,"distance":2520,"line":1,"is_transit":false,"transit":false,"i_long":106.997013,"station_id":"BKS"}],[{"time":0,"i_lat":-6.162758,"distance":0,"station_name":"Rawa Buaya","transit":false,"is_transit":false,"i_long":106.723064,"line":5,"station_id":"RW"},{"station_id":"BOI","i_long":106.737035,"time":4,"distance":1152,"i_lat":-6.159876,"station_name":"Bojongindah","line":5,"is_transit":false,"transit":false},{"station_name":"Taman Kota","distance":2334,"time":2,"is_transit":false,"station_id":"TKO","transit":false,"i_lat":-6.1587309999999995,"i_long":106.756522,"line":5},{"time":2,"is_transit":false,"i_long":106.771379,"transit":false,"station_name":"Pesing","line":5,"station_id":"PSG","distance":1614,"i_lat":-6.161433},{"distance":2036,"station_name":"Grogol","i_lat":-6.162021,"line":5,"transit":false,"i_long":106.788277,"is_transit":false,"time":2,"station_id":"GGL"},{"station_id":"DU","line":1,"transit":true,"distance":1700,"station_name":"Duri","i_lat":-6.155215,"time":3,"is_transit":true,"i_long":106.800832},{"station_id":"AK","distance":1230,"is_transit":false,"time":4,"transit":false,"i_long":106.79867,"i_lat":-6.144674,"line":1,"station_name":"Angke"},{"distance":4102,"time":9,"station_id":"KPB","i_lat":-6.132549,"i_long":106.826365,"station_name":"Kampung Bandan","transit":true,"is_transit":true,"line":4},{"time":3,"station_id":"RJW","station_name":"Rajawali","i_lat":-6.14505,"is_transit":false,"distance":1444,"line":11,"i_long":106.836569,"transit":false},{"line":11,"i_lat":-6.161728,"transit":false,"station_id":"KMO","time":5,"i_long":106.839204,"distance":1901,"station_name":"Kemayoran","is_transit":false},{"transit":false,"station_id":"PSE","time":4,"line":11,"is_transit":false,"distance":1436,"i_long":106.84368,"station_name":"Pasar Senen","i_lat":-6.174784},{"i_lat":-6.185975,"station_id":"GST","station_name":"Gang Sentiong","is_transit":false,"line":11,"i_long":106.850107,"transit":false,"time":8,"distance":1567},{"transit":false,"time":1,"is_transit":false,"i_lat":-6.193792,"i_long":106.855437,"station_id":"KMT","line":11,"distance":973,"station_name":"Kramat"},{"distance":1829,"time":2,"transit":false,"station_id":"POK","station_name":"Pondok Jati","i_lat":-6.209188,"i_long":106.861737,"line":11,"is_transit":false},{"i_lat":-6.215091,"i_long":106.86807400000001,"station_name":"Jatinegara","station_id":"JNG","is_transit":true,"transit":true,"distance":1236,"time":9,"line":1},{"station_name":"Klender","is_transit":false,"distance":3395,"i_long":106.899548,"i_lat":-6.2135,"line":1,"transit":false,"time":3,"station_id":"KLD"},{"i_long":106.922662,"station_name":"Buaran","station_id":"BUA","distance":3100,"i_lat":-6.215568,"time":2,"transit":false,"is_transit":false,"line":1},{"distance":1305,"station_name":"Klenderbaru","i_lat":-6.217455,"i_long":106.939679,"station_id":"KLDB","transit":false,"is_transit":false,"time":1,"line":1},{"station_id":"CUK","station_name":"Cakung","distance":1385,"i_lat":-6.219053,"i_long":106.951283,"line":1,"transit":false,"time":8,"is_transit":false},{"station_name":"Kranji","distance":3097,"is_transit":false,"time":3,"line":1,"i_lat":-6.224515,"i_long":106.977657,"station_id":"KRI","transit":false},{"i_long":106.997013,"transit":false,"i_lat":-6.236616,"station_id":"BKS","line":1,"time":4,"station_name":"Bekasi","is_transit":false,"distance":2520}],[{"distance":0,"is_transit":false,"time":0,"i_lat":-6.162758,"i_long":106.723064,"transit":false,"station_name":"Rawa Buaya","station_id":"RW","line":5},{"is_transit":false,"transit":false,"station_id":"BOI","distance":1152,"i_lat":-6.159876,"station_name":"Bojongindah","i_long":106.737035,"line":5,"time":4},{"station_name":"Taman Kota","distance":2334,"is_transit":false,"transit":false,"i_long":106.756522,"station_id":"TKO","time":2,"i_lat":-6.1587309999999995,"line":5},{"station_id":"PSG","i_lat":-6.161433,"distance":1614,"i_long":106.771379,"station_name":"Pesing","time":2,"line":5,"is_transit":false,"transit":false},{"line":5,"distance":2036,"transit":false,"is_transit":false,"station_id":"GGL","station_name":"Grogol","i_lat":-6.162021,"i_long":106.788277,"time":2},{"i_lat":-6.155215,"station_name":"Duri","station_id":"DU","line":1,"distance":1700,"i_long":106.800832,"is_transit":true,"time":3,"transit":true},{"time":4,"distance":1230,"i_long":106.79867,"is_transit":false,"i_lat":-6.144674,"station_name":"Angke","line":1,"station_id":"AK","transit":false},{"line":4,"station_id":"KPB","is_transit":true,"time":9,"i_long":106.826365,"distance":4102,"transit":true,"i_lat":-6.132549,"station_name":"Kampung Bandan"},{"time":3,"distance":1364,"station_name":"Jakarta Kota","line":2,"is_transit":true,"station_id":"JAKK","i_lat":-6.137569,"transit":true,"i_long":106.812439},{"i_long":106.820901,"time":4,"station_name":"Jayakarta","line":2,"station_id":"JAY","transit":false,"is_transit":false,"distance":1264,"i_lat":-6.141205},{"is_transit":false,"distance":1080,"i_long":106.82482,"station_name":"Manggabesar","time":2,"i_lat":-6.149769,"transit":false,"line":2,"station_id":"MGB"},{"station_id":"SW","line":2,"distance":906,"transit":false,"i_long":106.827103,"is_transit":false,"time":2,"station_name":"Sawah Besar","i_lat":-6.160725},{"is_transit":false,"time":2,"i_lat":-6.166716,"i_long":106.828284,"line":2,"distance":1149,"transit":false,"station_name":"Juanda","station_id":"JUA"},{"i_long":106.832183,"station_id":"GDD","i_lat":-6.186295,"transit":false,"line":2,"distance":2015,"time":4,"is_transit":false,"station_name":"Gondangdia"},{"transit":false,"i_lat":-6.198556,"is_transit":false,"time":3,"station_name":"Cikini","line":2,"station_id":"CKI","i_long":106.840169,"distance":1750},{"station_id":"MRI","is_transit":true,"distance":1590,"i_long":106.84912,"i_lat":-6.209883,"station_name":"Manggarai","time":4,"line":2,"transit":true},{"i_long":106.858896,"distance":1275,"station_name":"Matraman","i_lat":-6.212485,"station_id":"MTR","line":1,"transit":false,"time":2,"is_transit":false},{"time":8,"line":1,"transit":false,"station_id":"JNG","i_lat":-6.215091,"is_transit":false,"distance":1377,"i_long":106.86807400000001,"station_name":"Jatinegara"},{"station_name":"Klender","i_long":106.899548,"time":3,"transit":false,"line":1,"is_transit":false,"station_id":"KLD","distance":3395,"i_lat":-6.2135},{"time":2,"distance":3100,"i_lat":-6.215568,"station_id":"BUA","transit":false,"station_name":"Buaran","is_transit":false,"line":1,"i_long":106.922662},{"i_lat":-6.217455,"i_long":106.939679,"time":1,"is_transit":false,"line":1,"station_name":"Klenderbaru","station_id":"KLDB","distance":1305,"transit":false},{"i_lat":-6.219053,"station_id":"CUK","line":1,"i_long":106.951283,"time":8,"station_name":"Cakung","is_transit":false,"transit":false,"distance":1385},{"is_transit":false,"time":3,"i_lat":-6.224515,"line":1,"distance":3097,"station_id":"KRI","transit":false,"station_name":"Kranji","i_long":106.977657},{"transit":false,"is_transit":false,"time":4,"distance":2520,"i_lat":-6.236616,"station_name":"Bekasi","i_long":106.997013,"station_id":"BKS","line":1}],[{"i_long":106.723064,"distance":0,"time":0,"i_lat":-6.162758,"station_id":"RW","station_name":"Rawa Buaya","line":5,"transit":false,"is_transit":false},{"time":4,"is_transit":false,"i_lat":-6.159876,"line":5,"distance":1152,"i_long":106.737035,"transit":false,"station_name":"Bojongindah","station_id":"BOI"},{"station_name":"Taman Kota","is_transit":false,"i_lat":-6.1587309999999995,"station_id":"TKO","distance":2334,"i_long":106.756522,"transit":false,"line":5,"time":2},{"is_transit":false,"distance":1614,"time":2,"i_long":106.771379,"i_lat":-6.161433,"transit":false,"station_name":"Pesing","station_id":"PSG","line":5},{"station_id":"GGL","station_name":"Grogol","i_long":106.788277,"time":2,"is_transit":false,"distance":2036,"line":5,"transit":false,"i_lat":-6.162021},{"line":1,"station_name":"Duri","station_id":"DU","i_long":106.800832,"distance":1700,"i_lat":-6.155215,"is_transit":true,"time":3,"transit":true},{"distance":3632,"i_long":106.811091,"transit":false,"i_lat":-6.185545,"line":1,"station_id":"THB","station_name":"Tanah Abang","is_transit":false,"time":8},{"station_name":"Karet","transit":false,"station_id":"KAT","is_transit":false,"time":5,"distance":2029,"i_lat":-6.20132,"i_long":106.816351,"line":1},{"i_lat":-6.201433,"station_id":"SUDB","time":1,"line":1,"transit":false,"station_name":"Sudirman Baru","is_transit":false,"i_long":106.819881,"distance":471},{"line":1,"station_name":"Sudirman","station_id":"SUD","i_lat":-6.202263,"time":1,"transit":false,"i_long":106.822649,"is_transit":false,"distance":280},{"i_long":106.84912,"line":2,"distance":3186,"transit":true,"time":4,"i_lat":-6.209883,"is_transit":true,"station_name":"Manggarai","station_id":"MRI"},{"station_name":"Cikini","transit":false,"is_transit":false,"i_lat":-6.198556,"line":2,"i_long":106.840169,"station_id":"CKI","time":4,"distance":1590},{"station_id":"GDD","i_long":106.832183,"line":2,"transit":false,"i_lat":-6.186295,"distance":1750,"station_name":"Gondangdia","time":3,"is_transit":false},{"time":4,"station_id":"JUA","i_lat":-6.166716,"distance":2015,"transit":false,"station_name":"Juanda","i_long":106.828284,"line":2,"is_transit":false},{"distance":1149,"i_long":106.827103,"transit":false,"station_name":"Sawah Besar","is_transit":false,"time":2,"line":2,"i_lat":-6.160725,"station_id":"SW"},{"distance":906,"i_long":106.82482,"transit":false,"is_transit":false,"station_id":"MGB","i_lat":-6.149769,"time":2,"line":2,"station_name":"Manggabesar"},{"is_transit":false,"station_id":"JAY","i_lat":-6.141205,"distance":1080,"i_long":106.820901,"time":2,"line":2,"transit":false,"station_name":"Jayakarta"},{"transit":true,"i_long":106.812439,"station_id":"JAKK","i_lat":-6.137569,"distance":1264,"station_name":"Jakarta Kota","time":4,"line":2,"is_transit":true},{"transit":true,"is_transit":true,"station_id":"KPB","station_name":"Kampung Bandan","distance":1364,"time":3,"i_lat":-6.132549,"i_long":106.826365,"line":4},{"station_id":"RJW","line":11,"time":3,"is_transit":false,"station_name":"Rajawali","i_lat":-6.14505,"i_long":106.836569,"transit":false,"distance":1444},{"transit":false,"station_id":"KMO","time":5,"i_long":106.839204,"line":11,"is_transit":false,"distance":1901,"i_lat":-6.161728,"station_name":"Kemayoran"},{"i_long":106.84368,"line":11,"station_name":"Pasar Senen","station_id":"PSE","is_transit":false,"transit":false,"distance":1436,"i_lat":-6.174784,"time":4},{"i_lat":-6.185975,"i_long":106.850107,"line":11,"time":8,"distance":1567,"is_transit":false,"station_name":"Gang Sentiong","transit":false,"station_id":"GST"},{"distance":973,"station_name":"Kramat","is_transit":false,"i_lat":-6.193792,"time":1,"i_long":106.855437,"line":11,"station_id":"KMT","transit":false},{"distance":1829,"station_id":"POK","line":11,"time":2,"station_name":"Pondok Jati","is_transit":false,"transit":false,"i_lat":-6.209188,"i_long":106.861737},{"station_id":"JNG","station_name":"Jatinegara","time":9,"transit":true,"distance":1236,"i_lat":-6.215091,"i_long":106.86807400000001,"line":1,"is_transit":true},{"time":3,"i_long":106.899548,"station_id":"KLD","is_transit":false,"distance":3395,"transit":false,"station_name":"Klender","i_lat":-6.2135,"line":1},{"line":1,"is_transit":false,"transit":false,"time":2,"distance":3100,"station_id":"BUA","station_name":"Buaran","i_lat":-6.215568,"i_long":106.922662},{"line":1,"transit":false,"i_lat":-6.217455,"time":1,"is_transit":false,"i_long":106.939679,"station_id":"KLDB","station_name":"Klenderbaru","distance":1305},{"transit":false,"station_id":"CUK","distance":1385,"line":1,"i_lat":-6.219053,"i_long":106.951283,"is_transit":false,"station_name":"Cakung","time":8},{"station_id":"KRI","station_name":"Kranji","transit":false,"is_transit":false,"distance":3097,"time":3,"i_long":106.977657,"line":1,"i_lat":-6.224515},{"transit":false,"i_long":106.997013,"station_id":"BKS","line":1,"time":4,"is_transit":false,"distance":2520,"station_name":"Bekasi","i_lat":-6.236616}]]}