{"data":[[{"time":0,"station_name":"Rawa Buaya","line":5,"station_id":"RW","is_transit":false,"transit":false,"distance":0,"i_long":106.723064,"i_lat":-6.162758},{"station_id":"BOI","station_name":"Bojongindah","time":4,"i_long":106.737035,"distance":1152,"is_transit":false,"line":5,"i_lat":-6.159876,"transit":false},{"station_id":"TKO","station_name":"Taman Kota","distance":2334,"i_lat":-6.1587309999999995,"transit":false,"i_long":106.756522,"time":2,"line":5,"is_transit":false},{"i_lat":-6.161433,"time":2,"transit":false,"is_transit":false,"station_id":"PSG","distance":1614,"station_name":"Pesing","line":5,"i_long":106.771379},{"is_transit":false,"i_lat":-6.162021,"distance":2036,"i_long":106.788277,"transit":false,"station_name":"Grogol","time":2,"station_id":"GGL","line":5},{"time":3,"i_lat":-6.155215,"i_long":106.800832,"station_name":"Duri","distance":1700,"line":1,"station_id":"DU","transit":true,"is_transit":true},{"station_name":"Tanah Abang","is_transit":false,"time":8,"line":1,"station_id":"THB","distance":3632,"i_long":106.811091,"i_lat":-6.185545,"transit":false},{"station_id":"KAT","time":5,"i_long":106.816351,"line":1,"distance":2029,"station_name":"Karet","transit":false,"is_transit":false,"i_lat":-6.20132},{"transit":false,"station_id":"SUDB","is_transit":false,"station_name":"Sudirman Baru","distance":471,"time":1,"i_lat":-6.201433,"i_long":106.819881,"line":1},{"is_transit":false,"station_id":"SUD","distance":280,"transit":false,"i_long":106.822649,"time":1,"station_name":"Sudirman","line":1,"i_lat":-6.202263},{"i_lat":-6.209883,"transit":false,"i_long":106.84912,"line":2,"distance":3186,"is_transit":false,"station_id":"MRI","time":4,"station_name":"Manggarai"},{"is_transit":false,"line":1,"transit":false,"time":2,"distance":1275,"i_long":106.858896,"station_name":"Matraman","i_lat":-6.212485,"station_id":"MTR"},{"distance":1377,"time":8,"transit":false,"station_id":"JNG","i_lat":-6.215091,"station_name":"Jatinegara","i_long":106.86807400000001,"line":1,"is_transit":false},{"i_long":106.899548,"line":1,"station_name":"Klender","transit":false,"station_id":"KLD","i_lat":-6.2135,"distance":3395,"is_transit":false,"time":3},{"station_name":"Buaran","time":2,"line":1,"i_lat":-6.215568,"distance":3100,"station_id":"BUA","i_long":106.922662,"is_transit":false,"transit":false},{"i_long":106.939679,"transit":false,"line":1,"station_id":"KLDB","station_name":"Klenderbaru","is_transit":false,"distance":1305,"time":1,"i_lat":-6.217455},{"line":1,"i_lat":-6.219053,"i_long":106.951283,"time":8,"is_transit":false,"station_name":"Cakung","transit":false,"distance":1385,"station_id":"CUK"},{"i_long":106.977657,"transit":false,"distance":3097,"i_lat":-6.224515,"station_name":"Kranji","time":3,"station_id":"KRI","line":1,"is_transit":false},{"transit":false,"distance":2520,"i_lat":-6.236616,"line":1,"time":4,"station_name":"Bekasi","station_id":"BKS","is_transit":false,"i_long":106.997013},{"i_lat":-6.248029,"station_name":"Bekasi Timur","time":2,"is_transit":false,"line":1,"distance":2368,"station_id":"BKST","i_long":107.016735,"transit":false},{"station_id":"TB","time":7,"i_lat":-6.258864,"distance":4460,"line":1,"i_long":107.055722,"station_name":"Tambun","is_transit":false,"transit":false},{"distance":3420,"line":1,"time":3,"station_name":"Cibitung","transit":false,"station_id":"CIT","i_lat":-6.261877,"i_long":107.083084,"is_transit":false},{"station_id":"TLM","station_name":"Metland Telaga Murni","time":2,"i_long":107.093313,"line":1,"distance":2800,"is_transit":false,"i_lat":-6.262938,"transit":false},{"station_id":"CKR","time":4,"is_transit":false,"line":1,"i_long":107.144613,"i_lat":-6.2553149999999995,"distance":3689,"transit":false,"station_name":"Cikarang"}],[{"station_name":"Rawa Buaya","transit":false,"is_transit":false,"i_lat":-6.162758,"i_long":106.723064,"time":0,"line":5,"station_id":"RW","distance":0},{"transit":false,"station_name":"Bojongindah","time":4,"is_transit":false,"distance":1152,"i_lat":-6.159876,"i_long":106.737035,"station_id":"BOI","line":5},{"line":5,"station_id":"TKO","i_lat":-6.1587309999999995,"transit":false,"i_long":106.756522,"distance":2334,"time":2,"station_name":"Taman Kota","is_transit":false},{"i_lat":-6.161433,"station_id":"PSG","transit":false,"distance":1614,"station_name":"Pesing","line":5,"i_long":106.771379,"time":2,"is_transit":false},{"i_long":106.788277,"station_id":"GGL","station_name":"Grogol","time":2,"distance":2036,"transit":false,"line":5,"i_lat":-6.162021,"is_transit":false},{"time":3,"distance":1700,"station_id":"DU","line":1,"station_name":"Duri","transit":true,"is_transit":true,"i_lat":-6.155215,"i_long":106.800832},{"transit":false,"i_lat":-6.144674,"station_name":"Angke","i_long":106.79867,"line":1,"time":4,"is_transit":false,"distance":1230,"station_id":"AK"},{"i_long":106.826365,"distance":4102,"line":4,"is_transit":true,"transit":true,"station_id":"KPB","station_name":"Kampung Bandan","time":9,"i_lat":-6.132549},{"station_name":"Rajawali","distance":1444,"line":11,"is_transit":false,"time":3,"transit":false,"i_lat":-6.14505,"i_long":106.836569,"station_id":"RJW"},{"station_id":"KMO","distance":1901,"station_name":"Kemayoran","line":11,"time":5,"is_transit":false,"i_long":106.839204,"i_lat":-6.161728,"transit":false},{"i_long":106.84368,"distance":1436,"station_id":"PSE","is_transit":false,"time":4,"transit":false,"i_lat":-6.174784,"line":11,"station_name":"Pasar Senen"},{"transit":false,"station_name":"Gang Sentiong","is_transit":false,"i_lat":-6.185975,"distance":1567,"line":11,"station_id":"GST","time":8,"i_long":106.850107},{"i_lat":-6.193792,"line":11,"station_name":"Kramat","i_long":106.855437,"distance":973,"station_id":"KMT","transit":false,"time":1,"is_transit":false},{"transit":false,"distance":1829,"line":11,"is_transit":false,"station_name":"Pondok Jati","time":2,"station_id":"POK","i_long":106.861737,"i_lat":-6.209188},{"line":1,"i_long":106.86807400000001,"is_transit":true,"station_name":"Jatinegara","distance":1236,"transit":true,"time":9,"station_id":"JNG","i_lat":-6.215091},{"is_transit":false,"station_name":"Klender","station_id":"KLD","time":3,"i_lat":-6.2135,"i_long":106.899548,"transit":false,"line":1,"distance":3395},{"time":2,"distance":3100,"transit":false,"station_id":"BUA","line":1,"i_lat":-6.215568,"is_transit":false,"station_name":"Buaran","i_long":106.922662},{"i_long":106.939679,"line":1,"time":1,"is_transit":false,"transit":false,"distance":1305,"station_name":"Klenderbaru","station_id":"KLDB","i_lat":-6.217455},{"transit":false,"time":8,"station_id":"CUK","is_transit":false,"i_lat":-6.219053,"line":1,"distance":1385,"station_name":"Cakung","i_long":106.951283},{"is_transit":false,"station_id":"KRI","distance":3097,"station_name":"Kranji","transit":false,"i_lat":-6.224515,"time":3,"i_long":106.977657,"line":1},{"station_name":"Bekasi","time":4,"i_lat":-6.236616,"i_long":106.997013,"transit":false,"station_id":"BKS","is_transit":false,"distance":2520,"line":1},{"transit":false,"station_name":"Bekasi Timur","i_lat":-6.248029,"line":1,"time":2,"distance":2368,"is_transit":false,"i_long":107.016735,"station_id":"BKST"},{"station_id":"TB","station_name":"Tambun","is_transit":false,"i_lat":-6.258864,"i_long":107.055722,"line":1,"transit":false,"distance":4460,"time":7},{"time":3,"transit":false,"is_transit":false,"line":1,"station_name":"Cibitung","i_long":107.083084,"i_lat":-6.261877,"station_id":"CIT","distance":3420},{"transit":false,"i_lat":-6.262938,"station_name":"Metland Telaga Murni","time":2,"station_id":"TLM","line":1,"distance":2800,"i_long":107.093313,"is_transit":false},{"time":4,"station_name":"Cikarang","transit":false,"is_transit":false,"station_id":"CKR","i_lat":-6.2553149999999995,"i_long":107.144613,"line":1,"distance":3689}],[{"transit":false,"station_id":"RW","distance":0,"i_long":106.723064,"station_name":"Rawa Buaya","time":0,"line":5,"is_transit":false,"i_lat":-6.162758},{"distance":1152,"i_long":106.737035,"station_name":"Bojongindah","transit":false,"station_id":"BOI","time":4,"is_transit":false,"i_lat":-6.159876,"line":5},{"station_id":"TKO","distance":2334,"i_long":106.756522,"transit":false,"station_name":"Taman Kota","time":2,"line":5,"i_lat":-6.1587309999999995,"is_transit":false},{"time":2,"station_id":"PSG","i_lat":-6.161433,"line":5,"distance":1614,"is_transit":false,"transit":false,"i_long":106.771379,"station_name":"Pesing"},{"time":2,"i_lat":-6.162021,"transit":false,"i_long":106.788277,"station_id":"GGL","is_transit":false,"station_name":"Grogol","line":5,"distance":2036},{"distance":1700,"i_lat":-6.155215,"transit":true,"i_long":106.800832,"station_id":"DU","station_name":"Duri","line":1,"is_transit":true,"time":3},{"station_id":"AK","transit":false,"line":1,"station_name":"Angke","i_lat":-6.144674,"i_long":106.79867,"time":4,"is_transit":false,"distance":1230},{"i_long":106.826365,"distance":4102,"is_transit":true,"i_lat":-6.132549,"line":4,"transit":true,"station_name":"Kampung Bandan","time":9,"station_id":"KPB"},{"distance":1364,"line":2,"station_name":"Jakarta Kota","time":3,"is_transit":true,"i_long":106.812439,"station_id":"JAKK","transit":true,"i_lat":-6.137569},{"distance":1264,"station_name":"Jayakarta","time":4,"is_transit":false,"i_lat":-6.141205,"i_long":106.820901,"line":2,"transit":false,"station_id":"JAY"},{"transit":false,"i_long":106.82482,"time":2,"is_transit":false,"station_id":"MGB","i_lat":-6.149769,"station_name":"Manggabesar","distance":1080,"line":2},{"station_id":"SW","time":2,"station_name":"Sawah Besar","transit":false,"i_long":106.827103,"distance":906,"i_lat":-6.160725,"line":2,"is_transit":false},{"station_id":"JUA","i_long":106.828284,"line":2,"i_lat":-6.166716,"transit":false,"is_transit":false,"time":2,"station_name":"Juanda","distance":1149},{"is_transit":false,"time":4,"station_id":"GDD","i_long":106.832183,"transit":false,"station_name":"Gondangdia","i_lat":-6.186295,"distance":2015,"line":2},{"is_transit":false,"station_id":"CKI","transit":false,"time":3,"line":2,"station_name":"Cikini","distance":1750,"i_lat":-6.198556,"i_long":106.840169},{"station_id":"MRI","is_transit":true,"i_long":106.84912,"station_name":"Manggarai","transit":true,"i_lat":-6.209883,"line":2,"distance":1590,"time":4},{"transit":false,"station_name":"Matraman","time":2,"is_transit":false,"i_lat":-6.212485,"line":1,"station_id":"MTR","i_long":106.858896,"distance":1275},{"station_id":"JNG","station_name":"Jatinegara","is_transit":false,"i_long":106.86807400000001,"i_lat":-6.215091,"line":1,"transit":false,"time":8,"distance":1377},{"station_id":"KLD","i_long":106.899548,"distance":3395,"station_name":"Klender","is_transit":false,"transit":false,"time":3,"i_lat":-6.2135,"line":1},{"station_id":"BUA","time":2,"i_long":106.922662,"station_name":"Buaran","distance":3100,"transit":false,"is_transit":false,"i_lat":-6.215568,"line":1},{"station_name":"Klenderbaru","line":1,"is_transit":false,"station_id":"KLDB","i_long":106.939679,"i_lat":-6.217455,"time":1,"distance":1305,"transit":false},{"line":1,"time":8,"distance":1385,"station_name":"Cakung","transit":false,"station_id":"CUK","i_lat":-6.219053,"i_long":106.951283,"is_transit":false},{"time":3,"station_name":"Kranji","station_id":"KRI","i_long":106.977657,"transit":false,"i_lat":-6.224515,"distance":3097,"is_transit":false,"line":1},{"line":1,"station_id":"BKS","station_name":"Bekasi","time":4,"distance":2520,"is_transit":false,"i_lat":-6.236616,"transit":false,"i_long":106.997013},{"transit":false,"distance":2368,"station_id":"BKST","is_transit":false,"i_long":107.016735,"time":2,"line":1,"station_name":"Bekasi Timur","i_lat":-6.248029},{"distance":4460,"station_id":"TB","time":7,"transit":false,"is_transit":false,"i_lat":-6.258864,"station_name":"Tambun","i_long":107.055722,"line":1},{"i_long":107.083084,"station_name":"Cibitung","station_id":"CIT","is_transit":false,"time":3,"transit":false,"line":1,"distance":3420,"i_lat":-6.261877},{"station_name":"Metland Telaga Murni","i_long":107.093313,"line":1,"station_id":"TLM","transit":false,"is_transit":false,"distance":2800,"time":2,"i_lat":-6.262938},{"time":4,"transit":false,"i_lat":-6.2553149999999995,"i_long":107.144613,"line":1,"distance":3689,"station_id":"CKR","is_transit":false,"station_name":"Cikarang"}],[{"station_name":"Rawa Buaya","time":0,"station_id":"RW","is_transit":false,"i_lat":-6.162758,"distance":0,"i_long":106.723064,"transit":false,"line":5},{"distance":1152,"i_lat":-6.159876,"is_transit":false,"i_long":106.737035,"station_id":"BOI","transit":false,"time":4,"line":5,"station_name":"Bojongindah"},{"is_transit":false,"line":5,"time":2,"i_lat":-6.1587309999999995,"distance":2334,"station_name":"Taman Kota","transit":false,"i_long":106.756522,"station_id":"TKO"},{"time":2,"station_id":"PSG","transit":false,"is_transit":false,"station_name":"Pesing","line":5,"i_lat":-6.161433,"i_long":106.771379,"distance":1614},{"is_transit":false,"station_name":"Grogol","transit":false,"i_long":106.788277,"distance":2036,"station_id":"GGL","i_lat":-6.162021,"time":2,"line":5},{"station_id":"DU","distance":1700,"line":1,"is_transit":true,"i_lat":-6.155215,"station_name":"Duri","transit":true,"i_long":106.800832,"time":3},{"is_transit":false,"time":8,"station_id":"THB","line":1,"transit":false,"station_name":"Tanah Abang","distance":3632,"i_lat":-6.185545,"i_long":106.811091},{"i_lat":-6.20132,"station_id":"KAT","line":1,"i_long":106.816351,"transit":false,"distance":2029,"station_name":"Karet","time":5,"is_transit":false},{"distance":471,"transit":false,"line":1,"station_id":"SUDB","is_transit":false,"i_long":106.819881,"station_name":"Sudirman Baru","time":1,"i_lat":-6.201433},{"station_id":"SUD","time":1,"i_lat":-6.202263,"line":1,"station_name":"Sudirman","i_long":106.822649,"is_transit":false,"distance":280,"transit":false},{"time":4,"distance":3186,"is_transit":true,"i_lat":-6.209883,"station_name":"Manggarai","transit":true,"i_long":106.84912,"station_id":"MRI","line":2},{"distance":1590,"transit":false,"time":4,"i_lat":-6.198556,"station_name":"Cikini","i_long":106.840169,"station_id":"CKI","line":2,"is_transit":false},{"time":3,"i_long":106.832183,"station_id":"GDD","line":2,"i_lat":-6.186295,"distance":1750,"station_name":"Gondangdia","transit":false,"is_transit":false},{"station_id":"JUA","is_transit":false,"transit":false,"line":2,"time":4,"station_name":"Juanda","i_lat":-6.166716,"i_long":106.828284,"distance":2015},{"line":2,"station_name":"Sawah Besar","distance":1149,"transit":false,"station_id":"SW","is_transit":false,"time":2,"i_long":106.827103,"i_lat":-6.160725},{"transit":false,"is_transit":false,"i_lat":-6.149769,"time":2,"i_long":106.82482,"station_id":"MGB","station_name":"Manggabesar","line":2,"distance":906},{"i_long":106.820901,"line":2,"station_name":"Jayakarta","station_id":"JAY","distance":1080,"i_lat":-6.141205,"is_transit":false,"transit":false,"time":2},{"distance":1264,"time":4,"station_name":"Jakarta Kota","i_lat":-6.137569,"is_transit":true,"i_long":106.812439,"transit":true,"station_id":"JAKK","line":2},{"time":3,"station_name":"Kampung Bandan","distance":1364,"is_transit":true,"station_id":"KPB","line":4,"i_lat":-6.132549,"transit":true,"i_long":106.826365},{"transit":false,"line":11,"i_lat":-6.14505,"distance":1444,"station_name":"Rajawali","is_transit":false,"i_long":106.836569,"station_id":"RJW","time":3},{"time":5,"distance":1901,"is_transit":false,"i_long":106.839204,"i_lat":-6.161728,"line":11,"station_id":"KMO","transit":false,"station_name":"Kemayoran"},{"distance":1436,"time":4,"transit":false,"i_lat":-6.174784,"i_long":106.84368,"line":11,"is_transit":false,"station_id":"PSE","station_name":"Pasar Senen"},{"station_name":"Gang Sentiong","station_id":"GST","is_transit":false,"line":11,"distance":1567,"i_lat":-6.185975,"transit":false,"i_long":106.850107,"time":8},{"i_long":106.855437,"time":1,"distance":973,"line":11,"transit":false,"station_name":"Kramat","is_transit":false,"i_lat":-6.193792,"station_id":"KMT"},{"i_long":106.861737,"line":11,"time":2,"distance":1829,"transit":false,"station_id":"POK","is_transit":false,"station_name":"Pondok Jati","i_lat":-6.209188},{"line":1,"station_name":"Jatinegara","distance":1236,"time":9,"station_id":"JNG","transit":true,"i_lat":-6.215091,"i_long":106.86807400000001,"is_transit":true},{"is_transit":false,"i_long":106.899548,"transit":false,"line":1,"time":3,"station_id":"KLD","distance":3395,"i_lat":-6.2135,"station_name":"Klender"},{"station_id":"BUA","i_lat":-6.215568,"i_long":106.922662,"line":1,"is_transit":false,"time":2,"transit":false,"distance":3100,"station_name":"Buaran"},{"distance":1305,"i_lat":-6.217455,"transit":false,"i_long":106.939679,"is_transit":false,"station_id":"KLDB","time":1,"station_name":"Klenderbaru","line":1},{"transit":false,"i_long":106.951283,"i_lat":-6.219053,"line":1,"station_name":"Cakung","station_id":"CUK","time":8,"distance":1385,"is_transit":false},{"transit":false,"time":3,"distance":3097,"station_name":"Kranji","station_id":"KRI","is_transit":false,"i_long":106.977657,"line":1,"i_lat":-6.224515},{"distance":2520,"transit":false,"station_id":"BKS","station_name":"Bekasi","i_lat":-6.236616,"is_transit":false,"time":4,"i_long":106.997013,"line":1},{"distance":2368,"time":2,"transit":false,"i_lat":-6.248029,"i_long":107.016735,"station_id":"BKST","station_name":"Bekasi Timur","line":1,"is_transit":false},{"time":7,"transit":false,"station_id":"TB","is_transit":false,"distance":4460,"i_lat":-6.258864,"station_name":"Tambun","i_long":107.055722,"line":1},{"i_long":107.083084,"station_name":"Cibitung","time":3,"line":1,"station_id":"CIT","i_lat":-6.261877,"is_transit":false,"transit":false,"distance":3420},{"time":2,"i_lat":-6.262938,"i_long":107.093313,"is_transit":false,"line":1,"transit":false,"distance":2800,"station_name":"Metland Telaga Murni","station_id":"TLM"},{"station_id":"CKR","is_transit":false,"time":4,"i_lat":-6.2553149999999995,"i_long":107.144613,"line":1,"transit":false,"distance":3689,"station_name":"Cikarang"}]]}