{"data":[[{"transit":false,"is_transit":false,"i_lat":-6.162758,"line":5,"station_name":"Rawa Buaya","station_id":"RW","distance":0,"time":0,"i_long":106.723064},{"i_lat":-6.159876,"line":5,"station_id":"BOI","station_name":"Bojongindah","is_transit":false,"time":4,"i_long":106.737035,"distance":1152,"transit":false},{"transit":false,"line":5,"station_id":"TKO","distance":2334,"i_lat":-6.1587309999999995,"i_long":106.756522,"is_transit":false,"station_name":"Taman Kota","time":2},{"is_transit":false,"line":5,"i_long":106.771379,"transit":false,"station_id":"PSG","time":2,"distance":1614,"i_lat":-6.161433,"station_name":"Pesing"},{"time":2,"station_id":"GGL","distance":2036,"is_transit":false,"i_long":106.788277,"i_lat":-6.162021,"station_name":"Grogol","transit":false,"line":5},{"station_id":"DU","line":1,"is_transit":true,"i_long":106.800832,"transit":true,"time":3,"i_lat":-6.155215,"station_name":"Duri","distance":1700},{"distance":3632,"line":1,"station_id":"THB","time":8,"i_lat":-6.185545,"transit":true,"station_name":"Tanah Abang","is_transit":true,"i_long":106.811091},{"i_lat":-6.207404,"station_name":"Palmerah","distance":3191,"is_transit":false,"station_id":"PLM","transit":false,"time":6,"line":6,"i_long":106.79689},{"station_name":"Kebayoran","i_long":106.780334,"station_id":"KBY","transit":false,"time":7,"i_lat":-6.237242,"line":6,"is_transit":false,"distance":3737},{"i_long":106.74273,"station_id":"PDJ","line":6,"i_lat":-6.276362,"transit":false,"station_name":"Pondokranji","is_transit":false,"time":8,"distance":6218},{"line":6,"i_long":106.728916,"is_transit":false,"i_lat":-6.288927,"station_name":"Jurangmangu","time":3,"transit":false,"station_id":"JMU","distance":2179},{"time":4,"i_long":106.712277,"transit":false,"i_lat":-6.296963,"station_name":"Sudimara","station_id":"SDM","line":6,"distance":1994,"is_transit":false},{"i_long":106.675475,"transit":false,"time":6,"is_transit":false,"distance":4566,"i_lat":-6.314823,"line":6,"station_id":"RU","station_name":"Rawa Buntu"},{"time":4,"line":6,"station_id":"SRP","i_lat":-6.319871,"transit":false,"i_long":106.66566,"station_name":"Serpong","is_transit":false,"distance":2413},{"is_transit":false,"transit":false,"station_id":"CSK","time":4,"line":3,"i_lat":-6.32484,"station_name":"Cisauk","distance":1784,"i_long":106.640411},{"transit":false,"station_id":"CC","i_lat":-6.329547,"i_long":106.617853,"time":4,"line":3,"distance":2519,"station_name":"Cicayur","is_transit":false}],[{"i_lat":-6.162758,"station_id":"RW","i_long":106.723064,"distance":0,"line":5,"is_transit":false,"transit":false,"station_name":"Rawa Buaya","time":0},{"station_id":"BOI","transit":false,"line":5,"distance":1152,"is_transit":false,"i_long":106.737035,"i_lat":-6.159876,"time":4,"station_name":"Bojongindah"},{"distance":2334,"line":5,"i_long":106.756522,"station_name":"Taman Kota","is_transit":false,"i_lat":-6.1587309999999995,"transit":false,"station_id":"TKO","time":2},{"station_id":"PSG","is_transit":false,"time":2,"transit":false,"station_name":"Pesing","line":5,"i_long":106.771379,"distance":1614,"i_lat":-6.161433},{"station_id":"GGL","is_transit":false,"distance":2036,"transit":false,"time":2,"i_lat":-6.162021,"line":5,"i_long":106.788277,"station_name":"Grogol"},{"station_id":"DU","transit":true,"is_transit":true,"line":1,"distance":1700,"time":3,"station_name":"Duri","i_lat":-6.155215,"i_long":106.800832},{"is_transit":false,"distance":1230,"i_long":106.79867,"line":1,"transit":false,"station_id":"AK","station_name":"Angke","time":4,"i_lat":-6.144674},{"i_lat":-6.132549,"i_long":106.826365,"distance":4102,"station_id":"KPB","time":9,"line":4,"transit":true,"station_name":"Kampung Bandan","is_transit":true},{"station_name":"Jakarta Kota","is_transit":true,"transit":true,"station_id":"JAKK","i_long":106.812439,"line":2,"distance":1364,"i_lat":-6.137569,"time":3},{"station_id":"JAY","transit":false,"line":2,"time":4,"i_long":106.820901,"distance":1264,"is_transit":false,"station_name":"Jayakarta","i_lat":-6.141205},{"i_long":106.82482,"line":2,"station_id":"MGB","transit":false,"time":2,"distance":1080,"i_lat":-6.149769,"station_name":"Manggabesar","is_transit":false},{"i_lat":-6.160725,"transit":false,"station_name":"Sawah Besar","distance":906,"i_long":106.827103,"is_transit":false,"time":2,"station_id":"SW","line":2},{"is_transit":false,"time":2,"distance":1149,"i_long":106.828284,"line":2,"transit":false,"i_lat":-6.166716,"station_id":"JUA","station_name":"Juanda"},{"i_long":106.832183,"transit":false,"station_id":"GDD","line":2,"is_transit":false,"i_lat":-6.186295,"time":4,"distance":2015,"station_name":"Gondangdia"},{"station_id":"CKI","station_name":"Cikini","transit":false,"is_transit":false,"distance":1750,"line":2,"i_long":106.840169,"i_lat":-6.198556,"time":3},{"line":2,"transit":true,"station_name":"Manggarai","station_id":"MRI","distance":1590,"is_transit":true,"i_lat":-6.209883,"time":4,"i_long":106.84912},{"transit":false,"station_name":"Sudirman","station_id":"SUD","i_lat":-6.202263,"distance":3186,"i_long":106.822649,"is_transit":false,"time":4,"line":1},{"i_long":106.819881,"transit":false,"station_name":"Sudirman Baru","i_lat":-6.201433,"line":1,"is_transit":false,"time":1,"distance":280,"station_id":"SUDB"},{"i_long":106.816351,"distance":471,"station_name":"Karet","line":1,"transit":false,"is_transit":false,"station_id":"KAT","time":1,"i_lat":-6.20132},{"time":5,"transit":true,"is_transit":true,"i_lat":-6.185545,"station_name":"Tanah Abang","station_id":"THB","line":1,"i_long":106.811091,"distance":2029},{"is_transit":false,"station_id":"PLM","transit":false,"time":6,"i_lat":-6.207404,"station_name":"Palmerah","distance":3191,"line":6,"i_long":106.79689},{"i_long":106.780334,"station_name":"Kebayoran","time":7,"transit":false,"distance":3737,"line":6,"is_transit":false,"station_id":"KBY","i_lat":-6.237242},{"line":6,"i_long":106.74273,"transit":false,"station_id":"PDJ","i_lat":-6.276362,"station_name":"Pondokranji","distance":6218,"is_transit":false,"time":8},{"time":3,"line":6,"transit":false,"is_transit":false,"station_id":"JMU","station_name":"Jurangmangu","distance":2179,"i_lat":-6.288927,"i_long":106.728916},{"i_lat":-6.296963,"transit":false,"time":4,"line":6,"station_name":"Sudimara","is_transit":false,"distance":1994,"station_id":"SDM","i_long":106.712277},{"i_lat":-6.314823,"station_id":"RU","is_transit":false,"distance":4566,"line":6,"time":6,"transit":false,"station_name":"Rawa Buntu","i_long":106.675475},{"station_name":"Serpong","distance":2413,"station_id":"SRP","line":6,"time":4,"i_lat":-6.319871,"transit":false,"is_transit":false,"i_long":106.66566},{"distance":1784,"station_id":"CSK","transit":false,"station_name":"Cisauk","time":4,"is_transit":false,"i_lat":-6.32484,"i_long":106.640411,"line":3},{"i_long":106.617853,"is_transit":false,"station_name":"Cicayur","transit":false,"i_lat":-6.329547,"line":3,"distance":2519,"station_id":"CC","time":4}],[{"i_long":106.723064,"station_id":"RW","time":0,"i_lat":-6.162758,"line":5,"transit":false,"station_name":"Rawa Buaya","is_transit":false,"distance":0},{"is_transit":false,"line":5,"time":4,"transit":false,"i_long":106.737035,"station_name":"Bojongindah","i_lat":-6.159876,"station_id":"BOI","distance":1152},{"transit":false,"station_name":"Taman Kota","distance":2334,"station_id":"TKO","is_transit":false,"i_long":106.756522,"line":5,"i_lat":-6.1587309999999995,"time":2},{"i_lat":-6.161433,"transit":false,"line":5,"is_transit":false,"i_long":106.771379,"station_name":"Pesing","time":2,"distance":1614,"station_id":"PSG"},{"transit":false,"distance":2036,"station_name":"Grogol","is_transit":false,"station_id":"GGL","time":2,"i_long":106.788277,"i_lat":-6.162021,"line":5},{"i_long":106.800832,"time":3,"line":1,"is_transit":true,"i_lat":-6.155215,"transit":true,"distance":1700,"station_id":"DU","station_name":"Duri"},{"i_lat":-6.144674,"line":1,"time":4,"transit":false,"station_name":"Angke","distance":1230,"is_transit":false,"i_long":106.79867,"station_id":"AK"},{"station_name":"Kampung Bandan","time":9,"line":4,"distance":4102,"i_lat":-6.132549,"is_transit":true,"station_id":"KPB","i_long":106.826365,"transit":true},{"line":11,"station_id":"RJW","distance":1444,"i_lat":-6.14505,"transit":false,"station_name":"Rajawali","time":3,"i_long":106.836569,"is_transit":false},{"station_name":"Kemayoran","transit":false,"station_id":"KMO","is_transit":false,"distance":1901,"i_lat":-6.161728,"i_long":106.839204,"time":5,"line":11},{"transit":false,"station_id":"PSE","is_transit":false,"distance":1436,"i_lat":-6.174784,"i_long":106.84368,"line":11,"station_name":"Pasar Senen","time":4},{"transit":false,"time":8,"distance":1567,"i_lat":-6.185975,"station_id":"GST","station_name":"Gang Sentiong","i_long":106.850107,"is_transit":false,"line":11},{"transit":false,"line":11,"station_name":"Kramat","i_lat":-6.193792,"i_long":106.855437,"station_id":"KMT","time":1,"distance":973,"is_transit":false},{"transit":false,"station_name":"Pondok Jati","distance":1829,"i_lat":-6.209188,"i_long":106.861737,"is_transit":false,"station_id":"POK","time":2,"line":11},{"is_transit":true,"i_long":106.86807400000001,"transit":true,"i_lat":-6.215091,"station_id":"JNG","station_name":"Jatinegara","time":9,"distance":1236,"line":1},{"line":1,"station_id":"MTR","station_name":"Matraman","i_long":106.858896,"transit":false,"i_lat":-6.212485,"is_transit":false,"time":2,"distance":1377},{"station_name":"Manggarai","is_transit":false,"time":2,"line":2,"i_long":106.84912,"station_id":"MRI","distance":1275,"i_lat":-6.209883,"transit":false},{"line":1,"time":4,"station_name":"Sudirman","transit":false,"station_id":"SUD","distance":3186,"i_lat":-6.202263,"i_long":106.822649,"is_transit":false},{"time":1,"station_name":"Sudirman Baru","station_id":"SUDB","line":1,"transit":false,"i_long":106.819881,"distance":280,"i_lat":-6.201433,"is_transit":false},{"station_name":"Karet","time":1,"i_lat":-6.20132,"i_long":106.816351,"station_id":"KAT","line":1,"distance":471,"transit":false,"is_transit":false},{"i_long":106.811091,"is_transit":true,"station_name":"Tanah Abang","station_id":"THB","i_lat":-6.185545,"time":5,"line":1,"distance":2029,"transit":true},{"time":6,"is_transit":false,"i_lat":-6.207404,"line":6,"distance":3191,"i_long":106.79689,"transit":false,"station_name":"Palmerah","station_id":"PLM"},{"line":6,"i_long":106.780334,"transit":false,"time":7,"station_id":"KBY","station_name":"Kebayoran","is_transit":false,"i_lat":-6.237242,"distance":3737},{"time":8,"is_transit":false,"transit":false,"station_id":"PDJ","station_name":"Pondokranji","line":6,"distance":6218,"i_long":106.74273,"i_lat":-6.276362},{"i_lat":-6.288927,"transit":false,"station_name":"Jurangmangu","distance":2179,"line":6,"station_id":"JMU","is_transit":false,"i_long":106.728916,"time":3},{"station_name":"Sudimara","distance":1994,"i_long":106.712277,"station_id":"SDM","transit":false,"is_transit":false,"line":6,"i_lat":-6.296963,"time":4},{"station_name":"Rawa Buntu","station_id":"RU","i_long":106.675475,"time":6,"transit":false,"i_lat":-6.314823,"line":6,"distance":4566,"is_transit":false},{"i_lat":-6.319871,"i_long":106.66566,"station_name":"Serpong","distance":2413,"line":6,"transit":false,"station_id":"SRP","is_transit":false,"time":4},{"transit":false,"i_long":106.640411,"station_name":"Cisauk","line":3,"station_id":"CSK","i_lat":-6.32484,"is_transit":false,"time":4,"distance":1784},{"is_transit":false,"time":4,"i_long":106.617853,"transit":false,"line":3,"distance":2519,"station_name":"Cicayur","i_lat":-6.329547,"station_id":"CC"}]]}