{"data":[[{"line":5,"distance":0,"i_lat":-6.162758,"station_id":"RW","is_transit":false,"transit":false,"i_long":106.723064,"station_name":"Rawa Buaya","time":0},{"time":4,"station_id":"BOI","line":5,"is_transit":false,"distance":1152,"transit":false,"i_long":106.737035,"station_name":"Bojongindah","i_lat":-6.159876},{"distance":2334,"i_lat":-6.1587309999999995,"station_id":"TKO","time":2,"station_name":"Taman Kota","i_long":106.756522,"is_transit":false,"line":5,"transit":false},{"station_name":"Pesing","is_transit":false,"time":2,"line":5,"i_long":106.771379,"i_lat":-6.161433,"transit":false,"distance":1614,"station_id":"PSG"},{"line":5,"i_long":106.788277,"transit":false,"i_lat":-6.162021,"is_transit":false,"time":2,"station_id":"GGL","station_name":"Grogol","distance":2036},{"station_name":"Duri","line":1,"station_id":"DU","distance":1700,"transit":true,"time":3,"i_lat":-6.155215,"is_transit":true,"i_long":106.800832},{"distance":3632,"line":1,"station_id":"THB","i_lat":-6.185545,"is_transit":false,"station_name":"Tanah Abang","i_long":106.811091,"transit":false,"time":8},{"i_lat":-6.20132,"line":1,"is_transit":false,"station_id":"KAT","station_name":"Karet","distance":2029,"i_long":106.816351,"time":5,"transit":false},{"line":1,"is_transit":false,"distance":471,"i_long":106.819881,"station_name":"Sudirman Baru","time":1,"transit":false,"i_lat":-6.201433,"station_id":"SUDB"},{"line":1,"i_lat":-6.202263,"i_long":106.822649,"transit":false,"station_id":"SUD","time":1,"is_transit":false,"station_name":"Sudirman","distance":280},{"station_id":"MRI","distance":3186,"i_lat":-6.209883,"station_name":"Manggarai","time":4,"is_transit":true,"i_long":106.84912,"transit":true,"line":2},{"is_transit":false,"i_long":106.857948,"transit":false,"station_id":"TEB","i_lat":-6.226659,"station_name":"Tebet","line":2,"distance":2610,"time":4},{"transit":false,"station_name":"Cawang","i_lat":-6.242512,"time":2,"distance":1230,"station_id":"CW","is_transit":false,"i_long":106.856607,"line":2}],[{"time":0,"station_name":"Rawa Buaya","distance":0,"station_id":"RW","is_transit":false,"i_lat":-6.162758,"i_long":106.723064,"transit":false,"line":5},{"i_lat":-6.159876,"station_name":"Bojongindah","distance":1152,"is_transit":false,"transit":false,"i_long":106.737035,"line":5,"time":4,"station_id":"BOI"},{"line":5,"is_transit":false,"distance":2334,"station_id":"TKO","time":2,"i_long":106.756522,"transit":false,"i_lat":-6.1587309999999995,"station_name":"Taman Kota"},{"i_lat":-6.161433,"is_transit":false,"i_long":106.771379,"time":2,"line":5,"distance":1614,"station_name":"Pesing","transit":false,"station_id":"PSG"},{"transit":false,"distance":2036,"i_lat":-6.162021,"i_long":106.788277,"station_id":"GGL","station_name":"Grogol","is_transit":false,"time":2,"line":5},{"is_transit":true,"time":3,"i_lat":-6.155215,"i_long":106.800832,"distance":1700,"line":1,"transit":true,"station_id":"DU","station_name":"Duri"},{"time":4,"distance":1230,"transit":false,"station_id":"AK","i_lat":-6.144674,"line":1,"i_long":106.79867,"is_transit":false,"station_name":"Angke"},{"time":9,"is_transit":true,"station_id":"KPB","i_lat":-6.132549,"distance":4102,"i_long":106.826365,"transit":true,"station_name":"Kampung Bandan","line":4},{"i_lat":-6.137569,"is_transit":true,"time":3,"distance":1364,"station_name":"Jakarta Kota","line":2,"transit":true,"station_id":"JAKK","i_long":106.812439},{"station_name":"Jayakarta","is_transit":false,"i_long":106.820901,"i_lat":-6.141205,"transit":false,"time":4,"distance":1264,"station_id":"JAY","line":2},{"station_name":"Manggabesar","i_lat":-6.149769,"transit":false,"is_transit":false,"distance":1080,"line":2,"i_long":106.82482,"time":2,"station_id":"MGB"},{"distance":906,"is_transit":false,"time":2,"station_name":"Sawah Besar","i_lat":-6.160725,"line":2,"station_id":"SW","transit":false,"i_long":106.827103},{"i_lat":-6.166716,"line":2,"distance":1149,"station_id":"JUA","i_long":106.828284,"station_name":"Juanda","time":2,"is_transit":false,"transit":false},{"i_lat":-6.186295,"time":4,"station_name":"Gondangdia","is_transit":false,"i_long":106.832183,"line":2,"transit":false,"station_id":"GDD","distance":2015},{"transit":false,"station_id":"CKI","station_name":"Cikini","time":3,"i_long":106.840169,"line":2,"distance":1750,"is_transit":false,"i_lat":-6.198556},{"time":4,"distance":1590,"is_transit":false,"line":2,"station_name":"Manggarai","i_lat":-6.209883,"i_long":106.84912,"transit":false,"station_id":"MRI"},{"station_id":"TEB","station_name":"Tebet","time":4,"i_long":106.857948,"is_transit":false,"i_lat":-6.226659,"line":2,"distance":2610,"transit":false},{"time":2,"i_lat":-6.242512,"station_name":"Cawang","transit":false,"line":2,"is_transit":false,"distance":1230,"i_long":106.856607,"station_id":"CW"}],[{"i_lat":-6.162758,"transit":false,"i_long":106.723064,"distance":0,"line":5,"is_transit":false,"station_name":"Rawa Buaya","station_id":"RW","time":0},{"time":4,"line":5,"distance":1152,"i_long":106.737035,"i_lat":-6.159876,"transit":false,"station_id":"BOI","is_transit":false,"station_name":"Bojongindah"},{"station_id":"TKO","distance":2334,"line":5,"i_lat":-6.1587309999999995,"station_name":"Taman Kota","transit":false,"is_transit":false,"i_long":106.756522,"time":2},{"i_lat":-6.161433,"i_long":106.771379,"time":2,"line":5,"is_transit":false,"station_name":"Pesing","station_id":"PSG","distance":1614,"transit":false},{"is_transit":false,"i_lat":-6.162021,"station_id":"GGL","distance":2036,"i_long":106.788277,"line":5,"transit":false,"station_name":"Grogol","time":2},{"is_transit":true,"distance":1700,"time":3,"i_lat":-6.155215,"line":1,"i_long":106.800832,"station_name":"Duri","station_id":"DU","transit":true},{"station_name":"Angke","distance":1230,"station_id":"AK","line":1,"time":4,"transit":false,"is_transit":false,"i_long":106.79867,"i_lat":-6.144674},{"line":4,"station_name":"Kampung Bandan","station_id":"KPB","time":9,"is_transit":true,"i_long":106.826365,"transit":true,"distance":4102,"i_lat":-6.132549},{"is_transit":false,"station_id":"RJW","station_name":"Rajawali","i_long":106.836569,"i_lat":-6.14505,"time":3,"transit":false,"line":11,"distance":1444},{"i_long":106.839204,"time":5,"is_transit":false,"transit":false,"station_id":"KMO","distance":1901,"i_lat":-6.161728,"line":11,"station_name":"Kemayoran"},{"transit":false,"i_lat":-6.174784,"station_name":"Pasar Senen","is_transit":false,"line":11,"distance":1436,"time":4,"i_long":106.84368,"station_id":"PSE"},{"i_lat":-6.185975,"time":8,"distance":1567,"station_id":"GST","i_long":106.850107,"transit":false,"station_name":"Gang Sentiong","line":11,"is_transit":false},{"i_long":106.855437,"time":1,"station_id":"KMT","distance":973,"line":11,"is_transit":false,"station_name":"Kramat","transit":false,"i_lat":-6.193792},{"transit":false,"station_id":"POK","is_transit":false,"line":11,"distance":1829,"i_long":106.861737,"station_name":"Pondok Jati","time":2,"i_lat":-6.209188},{"is_transit":true,"i_long":106.86807400000001,"line":1,"i_lat":-6.215091,"station_name":"Jatinegara","transit":true,"distance":1236,"time":9,"station_id":"JNG"},{"i_long":106.858896,"station_id":"MTR","i_lat":-6.212485,"time":2,"station_name":"Matraman","line":1,"transit":false,"is_transit":false,"distance":1377},{"line":2,"is_transit":true,"i_long":106.84912,"time":2,"station_name":"Manggarai","station_id":"MRI","transit":true,"distance":1275,"i_lat":-6.209883},{"station_name":"Tebet","i_long":106.857948,"transit":false,"distance":2610,"station_id":"TEB","is_transit":false,"i_lat":-6.226659,"line":2,"time":4},{"i_lat":-6.242512,"time":2,"station_id":"CW","transit":false,"is_transit":false,"station_name":"Cawang","distance":1230,"i_long":106.856607,"line":2}]]}