{"data":[[{"station_id":"RW","i_lat":-6.162758,"is_transit":false,"transit":false,"i_long":106.723064,"time":0,"line":5,"station_name":"Rawa Buaya","distance":0},{"station_id":"BOI","station_name":"Bojongindah","transit":false,"i_long":106.737035,"is_transit":false,"line":0,"i_lat":-6.159876,"distance":1152,"time":4},{"i_long":106.756522,"station_name":"Taman Kota","time":2,"distance":2334,"transit":false,"i_lat":-6.1587309999999995,"line":5,"is_transit":false,"station_id":"TKO"},{"transit":false,"distance":1614,"station_name":"Pesing","line":5,"time":2,"is_transit":false,"i_lat":-6.161433,"i_long":106.771379,"station_id":"PSG"},{"line":5,"station_id":"GGL","transit":false,"time":2,"station_name":"Grogol","is_transit":false,"distance":2036,"i_lat":-6.162021,"i_long":106.788277},{"station_id":"DU","time":3,"i_long":106.800832,"line":1,"station_name":"Duri","transit":true,"i_lat":-6.155215,"is_transit":true,"distance":1700},{"station_name":"Tanah Abang","distance":3632,"i_long":106.811091,"transit":true,"is_transit":true,"line":1,"i_lat":-6.185545,"station_id":"THB","time":8},{"distance":3191,"station_name":"Palmerah","i_lat":-6.207404,"station_id":"PLM","transit":false,"time":6,"is_transit":false,"line":6,"i_long":106.79689},{"is_transit":false,"time":7,"i_lat":-6.237242,"line":6,"i_long":106.780334,"station_id":"KBY","station_name":"Kebayoran","distance":3737,"transit":false},{"station_name":"Pondokranji","transit":false,"is_transit":false,"station_id":"PDJ","line":6,"i_long":106.74273,"time":8,"i_lat":-6.276362,"distance":6218},{"transit":false,"time":3,"is_transit":false,"station_id":"JMU","line":6,"i_lat":-6.288927,"station_name":"Jurangmangu","i_long":106.728916,"distance":2179},{"station_name":"Sudimara","distance":1994,"is_transit":false,"i_lat":-6.296963,"line":6,"time":4,"transit":false,"station_id":"SDM","i_long":106.712277},{"line":6,"transit":false,"i_lat":-6.314823,"station_name":"Rawa Buntu","is_transit":false,"i_long":106.675475,"station_id":"RU","distance":4566,"time":6},{"transit":false,"station_id":"SRP","station_name":"Serpong","distance":2413,"i_lat":-6.319871,"time":4,"line":6,"i_long":106.66566,"is_transit":false},{"distance":1784,"line":0,"i_lat":-6.32484,"station_name":"Cisauk","time":4,"i_long":106.640411,"is_transit":false,"transit":false,"station_id":"CSK"},{"line":0,"station_name":"Cicayur","time":4,"is_transit":false,"i_long":106.617853,"transit":false,"distance":2519,"station_id":"CC","i_lat":-6.329547}],[{"station_name":"Rawa Buaya","time":0,"distance":0,"i_long":106.723064,"is_transit":false,"line":5,"station_id":"RW","i_lat":-6.162758,"transit":false},{"distance":1152,"i_lat":-6.159876,"station_id":"BOI","station_name":"Bojongindah","is_transit":false,"transit":false,"i_long":106.737035,"line":0,"time":4},{"i_lat":-6.1587309999999995,"time":2,"station_id":"TKO","station_name":"Taman Kota","is_transit":false,"line":5,"distance":2334,"transit":false,"i_long":106.756522},{"i_lat":-6.161433,"line":5,"is_transit":false,"station_name":"Pesing","time":2,"distance":1614,"transit":false,"i_long":106.771379,"station_id":"PSG"},{"is_transit":false,"time":2,"station_name":"Grogol","i_long":106.788277,"transit":false,"station_id":"GGL","i_lat":-6.162021,"distance":2036,"line":5},{"time":3,"i_long":106.800832,"is_transit":true,"transit":true,"station_id":"DU","i_lat":-6.155215,"line":1,"distance":1700,"station_name":"Duri"},{"line":0,"station_name":"Angke","transit":false,"time":4,"i_lat":-6.144674,"distance":1230,"i_long":106.79867,"station_id":"AK","is_transit":false},{"is_transit":true,"station_id":"KPB","i_lat":-6.132549,"distance":4102,"station_name":"Kampung Bandan","time":9,"transit":false,"line":0,"i_long":106.826365},{"distance":1364,"transit":true,"i_long":106.812439,"station_id":"JAKK","station_name":"Jakarta Kota","i_lat":-6.137569,"line":0,"is_transit":true,"time":3},{"distance":1264,"i_long":106.820901,"time":4,"station_id":"JAY","is_transit":false,"transit":false,"i_lat":-6.141205,"station_name":"Jayakarta","line":7},{"is_transit":false,"i_lat":-6.149769,"transit":false,"i_long":106.82482,"station_id":"MGB","distance":1080,"time":2,"station_name":"Manggabesar","line":2},{"transit":false,"is_transit":false,"i_lat":-6.160725,"line":2,"time":2,"station_id":"SW","station_name":"Sawah Besar","i_long":106.827103,"distance":906},{"station_id":"JUA","i_long":106.828284,"line":2,"distance":1149,"station_name":"Juanda","i_lat":-6.166716,"transit":false,"is_transit":false,"time":2},{"transit":false,"i_long":106.832183,"time":4,"station_id":"GDD","distance":2015,"i_lat":-6.186295,"station_name":"Gondangdia","is_transit":false,"line":2},{"distance":1750,"i_long":106.840169,"transit":false,"line":0,"time":3,"station_id":"CKI","station_name":"Cikini","is_transit":false,"i_lat":-6.198556},{"transit":true,"station_id":"MRI","line":0,"station_name":"Manggarai","i_lat":-6.209883,"i_long":106.84912,"is_transit":true,"distance":1590,"time":4},{"i_long":106.822649,"transit":false,"is_transit":false,"station_id":"SUD","time":4,"station_name":"Sudirman","i_lat":-6.202263,"line":1,"distance":3186},{"station_id":"SUDB","station_name":"Sudirman Baru","i_lat":-6.201433,"is_transit":false,"i_long":106.819881,"transit":false,"line":1,"distance":280,"time":1},{"station_name":"Karet","transit":false,"station_id":"KAT","is_transit":false,"time":1,"distance":471,"i_lat":-6.20132,"i_long":106.816351,"line":1},{"distance":2029,"line":1,"station_id":"THB","station_name":"Tanah Abang","time":5,"i_lat":-6.185545,"is_transit":true,"i_long":106.811091,"transit":true},{"transit":false,"is_transit":false,"i_lat":-6.207404,"line":6,"time":6,"station_id":"PLM","i_long":106.79689,"distance":3191,"station_name":"Palmerah"},{"distance":3737,"i_long":106.780334,"is_transit":false,"station_id":"KBY","station_name":"Kebayoran","transit":false,"i_lat":-6.237242,"line":6,"time":7},{"station_id":"PDJ","station_name":"Pondokranji","is_transit":false,"line":6,"distance":6218,"i_long":106.74273,"time":8,"transit":false,"i_lat":-6.276362},{"is_transit":false,"i_lat":-6.288927,"line":6,"transit":false,"i_long":106.728916,"distance":2179,"station_id":"JMU","time":3,"station_name":"Jurangmangu"},{"station_id":"SDM","station_name":"Sudimara","time":4,"is_transit":false,"transit":false,"i_long":106.712277,"i_lat":-6.296963,"distance":1994,"line":6},{"distance":4566,"station_name":"Rawa Buntu","transit":false,"is_transit":false,"time":6,"line":6,"i_lat":-6.314823,"i_long":106.675475,"station_id":"RU"},{"is_transit":false,"transit":false,"i_lat":-6.319871,"i_long":106.66566,"line":6,"time":4,"station_id":"SRP","distance":2413,"station_name":"Serpong"},{"time":4,"distance":1784,"line":0,"station_name":"Cisauk","is_transit":false,"i_long":106.640411,"station_id":"CSK","transit":false,"i_lat":-6.32484},{"i_long":106.617853,"i_lat":-6.329547,"station_name":"Cicayur","line":0,"station_id":"CC","transit":false,"distance":2519,"time":4,"is_transit":false}],[{"distance":0,"time":0,"line":5,"is_transit":false,"station_name":"Rawa Buaya","transit":false,"i_lat":-6.162758,"station_id":"RW","i_long":106.723064},{"distance":1152,"line":0,"station_name":"Bojongindah","is_transit":false,"station_id":"BOI","i_long":106.737035,"i_lat":-6.159876,"transit":false,"time":4},{"station_name":"Taman Kota","line":5,"transit":false,"station_id":"TKO","distance":2334,"is_transit":false,"i_lat":-6.1587309999999995,"i_long":106.756522,"time":2},{"station_id":"PSG","i_long":106.771379,"i_lat":-6.161433,"distance":1614,"station_name":"Pesing","line":5,"is_transit":false,"time":2,"transit":false},{"i_long":106.788277,"i_lat":-6.162021,"line":5,"distance":2036,"is_transit":false,"station_name":"Grogol","time":2,"transit":false,"station_id":"GGL"},{"line":1,"distance":1700,"station_name":"Duri","station_id":"DU","transit":true,"time":3,"is_transit":true,"i_lat":-6.155215,"i_long":106.800832},{"i_lat":-6.144674,"is_transit":false,"station_id":"AK","line":0,"station_name":"Angke","transit":false,"distance":1230,"i_long":106.79867,"time":4},{"i_lat":-6.132549,"time":9,"distance":4102,"transit":true,"i_long":106.826365,"line":0,"is_transit":true,"station_name":"Kampung Bandan","station_id":"KPB"},{"station_id":"RJW","i_lat":-6.14505,"i_long":106.836569,"transit":false,"is_transit":false,"distance":1444,"time":3,"line":11,"station_name":"Rajawali"},{"i_lat":-6.161728,"distance":1901,"station_id":"KMO","station_name":"Kemayoran","time":5,"is_transit":false,"i_long":106.839204,"line":11,"transit":false},{"distance":1436,"is_transit":false,"i_long":106.84368,"station_id":"PSE","line":11,"station_name":"Pasar Senen","i_lat":-6.174784,"time":4,"transit":false},{"i_lat":-6.185975,"transit":false,"i_long":106.850107,"line":11,"distance":1567,"is_transit":false,"station_id":"GST","station_name":"Gang Sentiong","time":8},{"station_name":"Kramat","i_lat":-6.193792,"line":11,"is_transit":false,"station_id":"KMT","distance":973,"i_long":106.855437,"transit":false,"time":1},{"time":2,"line":11,"is_transit":false,"i_long":106.861737,"station_id":"POK","transit":false,"distance":1829,"station_name":"Pondok Jati","i_lat":-6.209188},{"time":9,"transit":true,"station_name":"Jatinegara","i_long":106.86807400000001,"is_transit":true,"i_lat":-6.215091,"station_id":"JNG","distance":1236,"line":0},{"station_id":"MTR","line":1,"is_transit":false,"station_name":"Matraman","i_lat":-6.212485,"i_long":106.858896,"distance":1377,"transit":false,"time":2},{"is_transit":true,"i_long":106.84912,"station_id":"MRI","station_name":"Manggarai","distance":1275,"transit":false,"i_lat":-6.209883,"line":0,"time":2},{"is_transit":false,"line":1,"station_name":"Sudirman","i_lat":-6.202263,"i_long":106.822649,"station_id":"SUD","time":4,"distance":3186,"transit":false},{"transit":false,"i_long":106.819881,"i_lat":-6.201433,"line":1,"is_transit":false,"station_name":"Sudirman Baru","time":1,"distance":280,"station_id":"SUDB"},{"transit":false,"is_transit":false,"station_name":"Karet","i_long":106.816351,"time":1,"line":1,"distance":471,"station_id":"KAT","i_lat":-6.20132},{"i_lat":-6.185545,"i_long":106.811091,"time":5,"distance":2029,"station_name":"Tanah Abang","transit":true,"is_transit":true,"station_id":"THB","line":1},{"i_long":106.79689,"station_name":"Palmerah","distance":3191,"is_transit":false,"line":6,"i_lat":-6.207404,"station_id":"PLM","transit":false,"time":6},{"transit":false,"time":7,"distance":3737,"station_id":"KBY","i_lat":-6.237242,"line":6,"is_transit":false,"station_name":"Kebayoran","i_long":106.780334},{"transit":false,"i_long":106.74273,"is_transit":false,"line":6,"station_id":"PDJ","time":8,"i_lat":-6.276362,"distance":6218,"station_name":"Pondokranji"},{"i_lat":-6.288927,"line":6,"time":3,"is_transit":false,"distance":2179,"station_id":"JMU","transit":false,"station_name":"Jurangmangu","i_long":106.728916},{"i_long":106.712277,"time":4,"station_name":"Sudimara","i_lat":-6.296963,"is_transit":false,"distance":1994,"station_id":"SDM","line":6,"transit":false},{"transit":false,"i_long":106.675475,"line":6,"station_id":"RU","station_name":"Rawa Buntu","is_transit":false,"i_lat":-6.314823,"time":6,"distance":4566},{"is_transit":false,"i_long":106.66566,"station_name":"Serpong","station_id":"SRP","i_lat":-6.319871,"time":4,"line":6,"distance":2413,"transit":false},{"distance":1784,"is_transit":false,"line":0,"station_id":"CSK","i_long":106.640411,"time":4,"station_name":"Cisauk","transit":false,"i_lat":-6.32484},{"is_transit":false,"i_long":106.617853,"transit":false,"station_name":"Cicayur","i_lat":-6.329547,"distance":2519,"line":0,"station_id":"CC","time":4}]]}