{"data":[[{"i_lat":-6.162758,"station_name":"Rawa Buaya","i_long":106.723064,"station_id":"RW","transit":false,"time":0,"is_transit":false,"line":5,"distance":0},{"i_lat":-6.159876,"is_transit":false,"distance":1152,"station_name":"Bojongindah","station_id":"BOI","transit":false,"time":4,"i_long":106.737035,"line":5},{"distance":2334,"line":5,"transit":false,"station_name":"Taman Kota","i_long":106.756522,"time":2,"station_id":"TKO","i_lat":-6.1587309999999995,"is_transit":false},{"distance":1614,"i_long":106.771379,"is_transit":false,"i_lat":-6.161433,"station_id":"PSG","time":2,"station_name":"Pesing","transit":false,"line":5},{"time":2,"line":5,"i_lat":-6.162021,"is_transit":false,"station_name":"Grogol","transit":false,"station_id":"GGL","distance":2036,"i_long":106.788277},{"station_id":"DU","i_long":106.800832,"is_transit":true,"line":1,"i_lat":-6.155215,"transit":true,"station_name":"Duri","time":3,"distance":1700},{"distance":3632,"station_id":"THB","station_name":"Tanah Abang","i_long":106.811091,"time":8,"i_lat":-6.185545,"line":1,"transit":false,"is_transit":false},{"line":1,"station_id":"KAT","station_name":"Karet","i_lat":-6.20132,"i_long":106.816351,"transit":false,"is_transit":false,"time":5,"distance":2029},{"distance":471,"line":1,"station_id":"SUDB","is_transit":false,"transit":false,"i_long":106.819881,"time":1,"station_name":"Sudirman Baru","i_lat":-6.201433},{"station_id":"SUD","i_long":106.822649,"transit":false,"is_transit":false,"time":1,"line":1,"station_name":"Sudirman","i_lat":-6.202263,"distance":280},{"is_transit":true,"distance":3186,"station_id":"MRI","i_long":106.84912,"station_name":"Manggarai","time":4,"line":2,"transit":true,"i_lat":-6.209883},{"is_transit":false,"time":4,"station_name":"Tebet","station_id":"TEB","distance":2610,"i_lat":-6.226659,"transit":false,"i_long":106.857948,"line":2},{"i_lat":-6.242512,"station_id":"CW","line":2,"is_transit":false,"transit":false,"distance":1230,"i_long":106.856607,"station_name":"Cawang","time":2}],[{"distance":0,"i_lat":-6.162758,"is_transit":false,"transit":false,"time":0,"station_name":"Rawa Buaya","line":5,"i_long":106.723064,"station_id":"RW"},{"transit":false,"time":4,"i_long":106.737035,"i_lat":-6.159876,"station_name":"Bojongindah","line":5,"is_transit":false,"station_id":"BOI","distance":1152},{"i_lat":-6.1587309999999995,"is_transit":false,"time":2,"line":5,"station_name":"Taman Kota","station_id":"TKO","distance":2334,"i_long":106.756522,"transit":false},{"transit":false,"distance":1614,"i_lat":-6.161433,"i_long":106.771379,"is_transit":false,"station_id":"PSG","line":5,"station_name":"Pesing","time":2},{"line":5,"station_name":"Grogol","is_transit":false,"distance":2036,"i_long":106.788277,"station_id":"GGL","i_lat":-6.162021,"time":2,"transit":false},{"station_id":"DU","distance":1700,"i_long":106.800832,"station_name":"Duri","line":1,"transit":true,"time":3,"i_lat":-6.155215,"is_transit":true},{"i_long":106.79867,"transit":false,"station_name":"Angke","time":4,"is_transit":false,"distance":1230,"station_id":"AK","i_lat":-6.144674,"line":1},{"line":4,"is_transit":true,"i_lat":-6.132549,"i_long":106.826365,"time":9,"transit":true,"station_id":"KPB","distance":4102,"station_name":"Kampung Bandan"},{"station_name":"Jakarta Kota","station_id":"JAKK","transit":true,"time":3,"distance":1364,"line":2,"is_transit":true,"i_long":106.812439,"i_lat":-6.137569},{"is_transit":false,"station_name":"Jayakarta","transit":false,"i_long":106.820901,"distance":1264,"time":4,"i_lat":-6.141205,"line":2,"station_id":"JAY"},{"transit":false,"station_id":"MGB","is_transit":false,"time":2,"i_lat":-6.149769,"i_long":106.82482,"station_name":"Manggabesar","line":2,"distance":1080},{"i_long":106.827103,"line":2,"transit":false,"time":2,"station_id":"SW","is_transit":false,"distance":906,"station_name":"Sawah Besar","i_lat":-6.160725},{"transit":false,"time":2,"i_lat":-6.166716,"station_id":"JUA","distance":1149,"i_long":106.828284,"is_transit":false,"line":2,"station_name":"Juanda"},{"time":4,"distance":2015,"i_lat":-6.186295,"line":2,"transit":false,"station_name":"Gondangdia","is_transit":false,"station_id":"GDD","i_long":106.832183},{"transit":false,"station_id":"CKI","time":3,"i_lat":-6.198556,"line":2,"is_transit":false,"distance":1750,"station_name":"Cikini","i_long":106.840169},{"is_transit":false,"station_name":"Manggarai","transit":false,"line":2,"i_long":106.84912,"i_lat":-6.209883,"station_id":"MRI","distance":1590,"time":4},{"is_transit":false,"station_id":"TEB","distance":2610,"time":4,"transit":false,"line":2,"i_long":106.857948,"i_lat":-6.226659,"station_name":"Tebet"},{"station_name":"Cawang","distance":1230,"i_lat":-6.242512,"station_id":"CW","line":2,"i_long":106.856607,"time":2,"transit":false,"is_transit":false}],[{"station_id":"RW","transit":false,"time":0,"distance":0,"i_lat":-6.162758,"i_long":106.723064,"station_name":"Rawa Buaya","line":5,"is_transit":false},{"station_name":"Bojongindah","station_id":"BOI","transit":false,"i_lat":-6.159876,"i_long":106.737035,"time":4,"is_transit":false,"line":5,"distance":1152},{"station_name":"Taman Kota","station_id":"TKO","transit":false,"is_transit":false,"i_lat":-6.1587309999999995,"i_long":106.756522,"line":5,"time":2,"distance":2334},{"i_lat":-6.161433,"time":2,"distance":1614,"i_long":106.771379,"is_transit":false,"station_name":"Pesing","station_id":"PSG","line":5,"transit":false},{"transit":false,"is_transit":false,"line":5,"station_name":"Grogol","i_lat":-6.162021,"distance":2036,"station_id":"GGL","i_long":106.788277,"time":2},{"station_name":"Duri","line":1,"is_transit":true,"station_id":"DU","i_long":106.800832,"time":3,"distance":1700,"i_lat":-6.155215,"transit":true},{"i_lat":-6.144674,"i_long":106.79867,"is_transit":false,"line":1,"transit":false,"station_name":"Angke","time":4,"station_id":"AK","distance":1230},{"station_id":"KPB","distance":4102,"i_lat":-6.132549,"is_transit":true,"line":4,"transit":true,"time":9,"station_name":"Kampung Bandan","i_long":106.826365},{"line":11,"station_id":"RJW","transit":false,"station_name":"Rajawali","distance":1444,"i_long":106.836569,"is_transit":false,"time":3,"i_lat":-6.14505},{"i_long":106.839204,"station_name":"Kemayoran","line":11,"transit":false,"station_id":"KMO","i_lat":-6.161728,"distance":1901,"is_transit":false,"time":5},{"is_transit":false,"distance":1436,"station_name":"Pasar Senen","time":4,"line":11,"i_long":106.84368,"i_lat":-6.174784,"station_id":"PSE","transit":false},{"station_id":"GST","is_transit":false,"distance":1567,"i_long":106.850107,"line":11,"time":8,"i_lat":-6.185975,"transit":false,"station_name":"Gang Sentiong"},{"is_transit":false,"time":1,"transit":false,"line":11,"i_long":106.855437,"i_lat":-6.193792,"distance":973,"station_name":"Kramat","station_id":"KMT"},{"station_id":"POK","station_name":"Pondok Jati","i_lat":-6.209188,"i_long":106.861737,"transit":false,"line":11,"distance":1829,"time":2,"is_transit":false},{"station_name":"Jatinegara","i_lat":-6.215091,"station_id":"JNG","i_long":106.86807400000001,"line":1,"is_transit":true,"distance":1236,"transit":true,"time":9},{"i_long":106.858896,"station_id":"MTR","distance":1377,"transit":false,"station_name":"Matraman","time":2,"line":1,"i_lat":-6.212485,"is_transit":false},{"line":2,"time":2,"distance":1275,"transit":true,"station_name":"Manggarai","station_id":"MRI","i_long":106.84912,"i_lat":-6.209883,"is_transit":true},{"i_lat":-6.226659,"is_transit":false,"time":4,"line":2,"station_name":"Tebet","i_long":106.857948,"distance":2610,"station_id":"TEB","transit":false},{"distance":1230,"transit":false,"is_transit":false,"i_lat":-6.242512,"i_long":106.856607,"line":2,"station_name":"Cawang","time":2,"station_id":"CW"}]]}