{"data":[[{"i_long":106.723064,"line":5,"transit":false,"is_transit":false,"station_id":"RW","time":0,"i_lat":-6.162758,"station_name":"Rawa Buaya","distance":0},{"line":0,"station_id":"BOI","time":4,"i_lat":-6.159876,"transit":false,"station_name":"Bojongindah","distance":1152,"i_long":106.737035,"is_transit":false},{"distance":2334,"station_id":"TKO","i_long":106.756522,"is_transit":false,"line":5,"station_name":"Taman Kota","transit":false,"time":2,"i_lat":-6.1587309999999995},{"transit":false,"i_lat":-6.161433,"station_id":"PSG","i_long":106.771379,"is_transit":false,"line":5,"station_name":"Pesing","time":2,"distance":1614},{"is_transit":false,"time":2,"station_name":"Grogol","station_id":"GGL","i_long":106.788277,"distance":2036,"line":5,"i_lat":-6.162021,"transit":false},{"transit":true,"is_transit":true,"time":3,"i_long":106.800832,"station_name":"Duri","line":1,"station_id":"DU","distance":1700,"i_lat":-6.155215},{"i_lat":-6.185545,"distance":3632,"is_transit":true,"transit":false,"station_id":"THB","station_name":"Tanah Abang","time":8,"i_long":106.811091,"line":1},{"distance":2029,"i_long":106.816351,"time":5,"station_name":"Karet","i_lat":-6.20132,"station_id":"KAT","is_transit":false,"line":1,"transit":false},{"transit":false,"is_transit":false,"i_lat":-6.201433,"time":1,"distance":471,"station_id":"SUDB","i_long":106.819881,"line":1,"station_name":"Sudirman Baru"},{"distance":280,"station_name":"Sudirman","line":1,"is_transit":false,"time":1,"station_id":"SUD","transit":false,"i_long":106.822649,"i_lat":-6.202263},{"station_id":"MRI","transit":true,"i_lat":-6.209883,"station_name":"Manggarai","is_transit":true,"line":0,"time":4,"distance":3186,"i_long":106.84912},{"transit":false,"distance":2610,"station_name":"Tebet","i_long":106.857948,"time":4,"line":2,"is_transit":false,"station_id":"TEB","i_lat":-6.226659},{"i_lat":-6.242512,"is_transit":false,"station_id":"CW","distance":1230,"transit":false,"i_long":106.856607,"time":2,"station_name":"Cawang","line":0}],[{"station_name":"Rawa Buaya","station_id":"RW","transit":false,"time":0,"distance":0,"is_transit":false,"i_long":106.723064,"line":5,"i_lat":-6.162758},{"time":4,"is_transit":false,"i_lat":-6.159876,"distance":1152,"station_id":"BOI","i_long":106.737035,"station_name":"Bojongindah","transit":false,"line":0},{"station_id":"TKO","station_name":"Taman Kota","distance":2334,"i_long":106.756522,"is_transit":false,"i_lat":-6.1587309999999995,"transit":false,"time":2,"line":5},{"line":5,"station_name":"Pesing","i_long":106.771379,"time":2,"transit":false,"station_id":"PSG","distance":1614,"is_transit":false,"i_lat":-6.161433},{"distance":2036,"time":2,"i_long":106.788277,"transit":false,"station_name":"Grogol","station_id":"GGL","is_transit":false,"i_lat":-6.162021,"line":5},{"is_transit":true,"time":3,"station_id":"DU","station_name":"Duri","distance":1700,"i_lat":-6.155215,"line":1,"transit":true,"i_long":106.800832},{"i_long":106.79867,"i_lat":-6.144674,"line":0,"distance":1230,"station_name":"Angke","transit":false,"station_id":"AK","time":4,"is_transit":false},{"i_lat":-6.132549,"i_long":106.826365,"station_id":"KPB","transit":false,"station_name":"Kampung Bandan","distance":4102,"is_transit":true,"line":0,"time":9},{"station_id":"JAKK","distance":1364,"i_lat":-6.137569,"station_name":"Jakarta Kota","time":3,"i_long":106.812439,"transit":true,"is_transit":true,"line":0},{"line":7,"is_transit":false,"i_long":106.820901,"station_id":"JAY","station_name":"Jayakarta","time":4,"distance":1264,"i_lat":-6.141205,"transit":false},{"transit":false,"station_id":"MGB","distance":1080,"i_long":106.82482,"is_transit":false,"i_lat":-6.149769,"time":2,"station_name":"Manggabesar","line":2},{"is_transit":false,"i_long":106.827103,"line":2,"i_lat":-6.160725,"transit":false,"station_id":"SW","time":2,"station_name":"Sawah Besar","distance":906},{"station_name":"Juanda","transit":false,"is_transit":false,"i_lat":-6.166716,"line":2,"station_id":"JUA","distance":1149,"time":2,"i_long":106.828284},{"i_lat":-6.186295,"i_long":106.832183,"transit":false,"is_transit":false,"distance":2015,"station_id":"GDD","station_name":"Gondangdia","line":2,"time":4},{"station_name":"Cikini","time":3,"i_lat":-6.198556,"station_id":"CKI","line":0,"distance":1750,"i_long":106.840169,"transit":false,"is_transit":false},{"transit":true,"i_long":106.84912,"time":4,"line":0,"station_name":"Manggarai","distance":1590,"is_transit":true,"i_lat":-6.209883,"station_id":"MRI"},{"time":4,"distance":2610,"i_lat":-6.226659,"station_id":"TEB","station_name":"Tebet","line":2,"i_long":106.857948,"transit":false,"is_transit":false},{"is_transit":false,"station_id":"CW","distance":1230,"station_name":"Cawang","transit":false,"i_lat":-6.242512,"time":2,"i_long":106.856607,"line":0}],[{"is_transit":false,"station_name":"Rawa Buaya","transit":false,"station_id":"RW","distance":0,"line":5,"i_lat":-6.162758,"time":0,"i_long":106.723064},{"distance":1152,"station_id":"BOI","i_long":106.737035,"transit":false,"time":4,"line":0,"i_lat":-6.159876,"is_transit":false,"station_name":"Bojongindah"},{"distance":2334,"station_name":"Taman Kota","is_transit":false,"line":5,"i_long":106.756522,"i_lat":-6.1587309999999995,"station_id":"TKO","time":2,"transit":false},{"i_lat":-6.161433,"distance":1614,"line":5,"station_id":"PSG","is_transit":false,"i_long":106.771379,"time":2,"transit":false,"station_name":"Pesing"},{"station_id":"GGL","transit":false,"i_long":106.788277,"is_transit":false,"time":2,"line":5,"station_name":"Grogol","distance":2036,"i_lat":-6.162021},{"i_long":106.800832,"i_lat":-6.155215,"transit":true,"station_name":"Duri","distance":1700,"line":1,"station_id":"DU","time":3,"is_transit":true},{"distance":1230,"time":4,"i_lat":-6.144674,"line":0,"is_transit":false,"station_id":"AK","transit":false,"i_long":106.79867,"station_name":"Angke"},{"transit":true,"is_transit":true,"time":9,"station_name":"Kampung Bandan","line":0,"distance":4102,"i_long":106.826365,"station_id":"KPB","i_lat":-6.132549},{"time":3,"line":11,"transit":false,"is_transit":false,"distance":1444,"i_long":106.836569,"station_id":"RJW","station_name":"Rajawali","i_lat":-6.14505},{"time":5,"i_long":106.839204,"i_lat":-6.161728,"transit":false,"distance":1901,"is_transit":false,"station_name":"Kemayoran","line":11,"station_id":"KMO"},{"station_name":"Pasar Senen","distance":1436,"is_transit":false,"i_lat":-6.174784,"i_long":106.84368,"line":11,"time":4,"transit":false,"station_id":"PSE"},{"time":8,"transit":false,"is_transit":false,"station_name":"Gang Sentiong","i_long":106.850107,"distance":1567,"station_id":"GST","i_lat":-6.185975,"line":11},{"line":11,"i_long":106.855437,"transit":false,"i_lat":-6.193792,"is_transit":false,"station_id":"KMT","station_name":"Kramat","distance":973,"time":1},{"i_long":106.861737,"distance":1829,"station_id":"POK","is_transit":false,"i_lat":-6.209188,"time":2,"station_name":"Pondok Jati","line":11,"transit":false},{"transit":true,"i_long":106.86807400000001,"time":9,"distance":1236,"line":0,"i_lat":-6.215091,"station_id":"JNG","is_transit":true,"station_name":"Jatinegara"},{"line":1,"station_id":"MTR","distance":1377,"time":2,"is_transit":false,"i_long":106.858896,"transit":false,"i_lat":-6.212485,"station_name":"Matraman"},{"station_id":"MRI","transit":true,"distance":1275,"i_long":106.84912,"station_name":"Manggarai","time":2,"is_transit":true,"line":0,"i_lat":-6.209883},{"station_name":"Tebet","line":2,"transit":false,"time":4,"i_long":106.857948,"is_transit":false,"distance":2610,"station_id":"TEB","i_lat":-6.226659},{"is_transit":false,"i_lat":-6.242512,"line":0,"distance":1230,"transit":false,"station_id":"CW","station_name":"Cawang","i_long":106.856607,"time":2}]]}