{"data":[[{"station_name":"Rawa Buaya","line":5,"is_transit":false,"i_long":106.723064,"station_id":"RW","distance":0,"time":0,"transit":false,"i_lat":-6.162758},{"transit":false,"i_lat":-6.159876,"time":4,"line":0,"is_transit":false,"station_name":"Bojongindah","i_long":106.737035,"station_id":"BOI","distance":1152},{"station_name":"Taman Kota","time":2,"i_lat":-6.1587309999999995,"transit":false,"i_long":106.756522,"distance":2334,"line":5,"is_transit":false,"station_id":"TKO"},{"distance":1614,"station_name":"Pesing","transit":false,"time":2,"station_id":"PSG","is_transit":false,"i_long":106.771379,"i_lat":-6.161433,"line":5},{"time":2,"i_long":106.788277,"i_lat":-6.162021,"distance":2036,"is_transit":false,"transit":false,"station_name":"Grogol","line":5,"station_id":"GGL"},{"i_long":106.800832,"time":3,"line":1,"station_id":"DU","i_lat":-6.155215,"distance":1700,"station_name":"Duri","is_transit":true,"transit":true},{"is_transit":true,"transit":false,"station_name":"Tanah Abang","station_id":"THB","distance":3632,"time":8,"i_lat":-6.185545,"i_long":106.811091,"line":1},{"time":5,"line":1,"distance":2029,"i_long":106.816351,"station_id":"KAT","is_transit":false,"station_name":"Karet","i_lat":-6.20132,"transit":false},{"transit":false,"is_transit":false,"i_lat":-6.201433,"distance":471,"station_name":"Sudirman Baru","station_id":"SUDB","time":1,"i_long":106.819881,"line":1},{"is_transit":false,"time":1,"i_long":106.822649,"distance":280,"station_name":"Sudirman","transit":false,"line":1,"i_lat":-6.202263,"station_id":"SUD"},{"transit":false,"time":4,"i_long":106.84912,"line":0,"i_lat":-6.209883,"station_id":"MRI","is_transit":true,"distance":3186,"station_name":"Manggarai"},{"i_lat":-6.212485,"time":2,"distance":1275,"transit":false,"line":1,"i_long":106.858896,"station_name":"Matraman","station_id":"MTR","is_transit":false},{"distance":1377,"station_id":"JNG","time":8,"line":0,"is_transit":true,"station_name":"Jatinegara","transit":false,"i_lat":-6.215091,"i_long":106.86807400000001},{"station_name":"Klender","line":1,"is_transit":false,"i_lat":-6.2135,"i_long":106.899548,"distance":3395,"station_id":"KLD","time":3,"transit":false},{"transit":false,"time":2,"i_long":106.922662,"station_name":"Buaran","line":0,"i_lat":-6.215568,"station_id":"BUA","distance":3100,"is_transit":false},{"is_transit":false,"distance":1305,"line":1,"time":1,"i_long":106.939679,"station_id":"KLDB","station_name":"Klenderbaru","transit":false,"i_lat":-6.217455},{"transit":false,"is_transit":false,"i_long":106.951283,"station_name":"Cakung","distance":1385,"time":8,"station_id":"CUK","i_lat":-6.219053,"line":0},{"is_transit":false,"station_id":"KRI","i_lat":-6.224515,"distance":3097,"station_name":"Kranji","time":3,"transit":false,"line":1,"i_long":106.977657},{"distance":2520,"transit":false,"i_long":106.997013,"station_id":"BKS","station_name":"Bekasi","i_lat":-6.236616,"line":0,"is_transit":false,"time":4},{"distance":2368,"i_long":107.016735,"time":2,"station_id":"BKST","is_transit":false,"transit":false,"i_lat":-6.248029,"station_name":"Bekasi Timur","line":0},{"is_transit":false,"i_lat":-6.258864,"transit":false,"i_long":107.055722,"station_id":"TB","distance":4460,"time":7,"station_name":"Tambun","line":1},{"transit":false,"is_transit":false,"i_lat":-6.261877,"line":0,"time":3,"station_id":"CIT","station_name":"Cibitung","i_long":107.083084,"distance":3420},{"station_id":"TLM","i_long":107.093313,"line":1,"distance":2800,"station_name":"Metland Telaga Murni","i_lat":-6.262938,"transit":false,"is_transit":false,"time":2},{"transit":false,"i_long":107.144613,"time":4,"station_id":"CKR","distance":3689,"i_lat":-6.2553149999999995,"station_name":"Cikarang","is_transit":false,"line":0}],[{"distance":0,"i_long":106.723064,"transit":false,"line":5,"time":0,"station_id":"RW","station_name":"Rawa Buaya","is_transit":false,"i_lat":-6.162758},{"transit":false,"station_id":"BOI","line":0,"station_name":"Bojongindah","i_lat":-6.159876,"i_long":106.737035,"is_transit":false,"distance":1152,"time":4},{"i_long":106.756522,"transit":false,"is_transit":false,"station_id":"TKO","time":2,"station_name":"Taman Kota","i_lat":-6.1587309999999995,"line":5,"distance":2334},{"line":5,"i_long":106.771379,"transit":false,"distance":1614,"i_lat":-6.161433,"station_id":"PSG","time":2,"is_transit":false,"station_name":"Pesing"},{"line":5,"distance":2036,"i_long":106.788277,"station_id":"GGL","is_transit":false,"transit":false,"time":2,"i_lat":-6.162021,"station_name":"Grogol"},{"line":1,"i_lat":-6.155215,"i_long":106.800832,"is_transit":true,"station_id":"DU","station_name":"Duri","time":3,"distance":1700,"transit":true},{"is_transit":false,"i_lat":-6.144674,"time":4,"i_long":106.79867,"station_name":"Angke","distance":1230,"station_id":"AK","transit":false,"line":0},{"is_transit":true,"station_id":"KPB","station_name":"Kampung Bandan","time":9,"i_long":106.826365,"transit":true,"line":0,"distance":4102,"i_lat":-6.132549},{"distance":1444,"time":3,"station_id":"RJW","line":11,"is_transit":false,"i_lat":-6.14505,"transit":false,"station_name":"Rajawali","i_long":106.836569},{"i_long":106.839204,"i_lat":-6.161728,"transit":false,"distance":1901,"time":5,"is_transit":false,"station_name":"Kemayoran","line":11,"station_id":"KMO"},{"station_id":"PSE","time":4,"i_lat":-6.174784,"i_long":106.84368,"transit":false,"line":11,"distance":1436,"is_transit":false,"station_name":"Pasar Senen"},{"i_long":106.850107,"station_id":"GST","station_name":"Gang Sentiong","time":8,"line":11,"distance":1567,"is_transit":false,"transit":false,"i_lat":-6.185975},{"i_lat":-6.193792,"station_name":"Kramat","station_id":"KMT","distance":973,"is_transit":false,"time":1,"i_long":106.855437,"transit":false,"line":11},{"station_id":"POK","is_transit":false,"time":2,"i_lat":-6.209188,"transit":false,"distance":1829,"station_name":"Pondok Jati","i_long":106.861737,"line":11},{"time":9,"i_long":106.86807400000001,"station_name":"Jatinegara","distance":1236,"line":0,"i_lat":-6.215091,"is_transit":true,"station_id":"JNG","transit":true},{"i_long":106.899548,"distance":3395,"time":3,"i_lat":-6.2135,"station_name":"Klender","station_id":"KLD","is_transit":false,"line":1,"transit":false},{"i_lat":-6.215568,"distance":3100,"line":0,"is_transit":false,"i_long":106.922662,"station_id":"BUA","time":2,"station_name":"Buaran","transit":false},{"station_name":"Klenderbaru","line":1,"transit":false,"station_id":"KLDB","distance":1305,"is_transit":false,"i_lat":-6.217455,"i_long":106.939679,"time":1},{"station_id":"CUK","i_long":106.951283,"i_lat":-6.219053,"distance":1385,"station_name":"Cakung","line":0,"is_transit":false,"time":8,"transit":false},{"i_long":106.977657,"i_lat":-6.224515,"line":1,"distance":3097,"is_transit":false,"station_name":"Kranji","time":3,"transit":false,"station_id":"KRI"},{"line":0,"distance":2520,"station_name":"Bekasi","station_id":"BKS","transit":false,"time":4,"is_transit":false,"i_lat":-6.236616,"i_long":106.997013},{"i_lat":-6.248029,"is_transit":false,"station_id":"BKST","line":0,"station_name":"Bekasi Timur","transit":false,"distance":2368,"i_long":107.016735,"time":2},{"i_lat":-6.258864,"time":7,"distance":4460,"transit":false,"i_long":107.055722,"line":1,"is_transit":false,"station_name":"Tambun","station_id":"TB"},{"station_id":"CIT","i_lat":-6.261877,"i_long":107.083084,"transit":false,"is_transit":false,"distance":3420,"time":3,"line":0,"station_name":"Cibitung"},{"i_lat":-6.262938,"distance":2800,"station_id":"TLM","station_name":"Metland Telaga Murni","time":2,"is_transit":false,"i_long":107.093313,"line":1,"transit":false},{"distance":3689,"is_transit":false,"i_long":107.144613,"station_id":"CKR","line":0,"station_name":"Cikarang","i_lat":-6.2553149999999995,"time":4,"transit":false}],[{"i_lat":-6.162758,"transit":false,"i_long":106.723064,"line":5,"distance":0,"is_transit":false,"station_id":"RW","station_name":"Rawa Buaya","time":0},{"station_name":"Bojongindah","i_lat":-6.159876,"line":0,"is_transit":false,"station_id":"BOI","distance":1152,"i_long":106.737035,"transit":false,"time":4},{"time":2,"line":5,"is_transit":false,"i_long":106.756522,"station_id":"TKO","transit":false,"distance":2334,"station_name":"Taman Kota","i_lat":-6.1587309999999995},{"time":2,"transit":false,"station_name":"Pesing","i_long":106.771379,"is_transit":false,"i_lat":-6.161433,"station_id":"PSG","distance":1614,"line":5},{"station_id":"GGL","line":5,"is_transit":false,"station_name":"Grogol","i_lat":-6.162021,"i_long":106.788277,"distance":2036,"transit":false,"time":2},{"is_transit":true,"i_long":106.800832,"station_id":"DU","station_name":"Duri","distance":1700,"transit":true,"i_lat":-6.155215,"line":1,"time":3},{"is_transit":false,"station_name":"Angke","time":4,"transit":false,"i_lat":-6.144674,"distance":1230,"station_id":"AK","i_long":106.79867,"line":0},{"distance":4102,"station_id":"KPB","i_lat":-6.132549,"time":9,"is_transit":true,"i_long":106.826365,"line":0,"transit":false,"station_name":"Kampung Bandan"},{"i_lat":-6.137569,"i_long":106.812439,"is_transit":true,"station_id":"JAKK","distance":1364,"transit":true,"station_name":"Jakarta Kota","line":0,"time":3},{"distance":1264,"i_lat":-6.141205,"time":4,"line":7,"is_transit":false,"station_id":"JAY","transit":false,"i_long":106.820901,"station_name":"Jayakarta"},{"is_transit":false,"station_id":"MGB","distance":1080,"i_long":106.82482,"time":2,"line":2,"i_lat":-6.149769,"station_name":"Manggabesar","transit":false},{"transit":false,"distance":906,"line":2,"i_lat":-6.160725,"i_long":106.827103,"time":2,"station_id":"SW","is_transit":false,"station_name":"Sawah Besar"},{"distance":1149,"station_id":"JUA","station_name":"Juanda","line":2,"time":2,"transit":false,"i_lat":-6.166716,"i_long":106.828284,"is_transit":false},{"station_id":"GDD","transit":false,"distance":2015,"time":4,"i_lat":-6.186295,"is_transit":false,"station_name":"Gondangdia","i_long":106.832183,"line":2},{"i_lat":-6.198556,"line":0,"distance":1750,"is_transit":false,"i_long":106.840169,"station_name":"Cikini","time":3,"station_id":"CKI","transit":false},{"station_id":"MRI","line":0,"i_lat":-6.209883,"time":4,"distance":1590,"i_long":106.84912,"station_name":"Manggarai","is_transit":true,"transit":true},{"line":1,"station_id":"MTR","station_name":"Matraman","distance":1275,"transit":false,"is_transit":false,"time":2,"i_lat":-6.212485,"i_long":106.858896},{"distance":1377,"is_transit":true,"line":0,"station_id":"JNG","i_long":106.86807400000001,"time":8,"station_name":"Jatinegara","transit":false,"i_lat":-6.215091},{"is_transit":false,"i_long":106.899548,"transit":false,"station_name":"Klender","i_lat":-6.2135,"distance":3395,"line":1,"station_id":"KLD","time":3},{"station_id":"BUA","time":2,"is_transit":false,"station_name":"Buaran","i_lat":-6.215568,"line":0,"distance":3100,"i_long":106.922662,"transit":false},{"is_transit":false,"transit":false,"distance":1305,"i_lat":-6.217455,"station_name":"Klenderbaru","time":1,"i_long":106.939679,"line":1,"station_id":"KLDB"},{"i_lat":-6.219053,"transit":false,"line":0,"station_name":"Cakung","station_id":"CUK","distance":1385,"is_transit":false,"time":8,"i_long":106.951283},{"time":3,"is_transit":false,"i_lat":-6.224515,"station_name":"Kranji","distance":3097,"transit":false,"line":1,"station_id":"KRI","i_long":106.977657},{"station_id":"BKS","line":0,"station_name":"Bekasi","i_long":106.997013,"time":4,"transit":false,"distance":2520,"is_transit":false,"i_lat":-6.236616},{"station_id":"BKST","i_long":107.016735,"time":2,"transit":false,"is_transit":false,"i_lat":-6.248029,"line":0,"distance":2368,"station_name":"Bekasi Timur"},{"line":1,"station_id":"TB","distance":4460,"transit":false,"is_transit":false,"station_name":"Tambun","i_long":107.055722,"time":7,"i_lat":-6.258864},{"transit":false,"is_transit":false,"station_id":"CIT","time":3,"i_lat":-6.261877,"distance":3420,"station_name":"Cibitung","i_long":107.083084,"line":0},{"station_name":"Metland Telaga Murni","transit":false,"i_lat":-6.262938,"line":1,"station_id":"TLM","distance":2800,"time":2,"is_transit":false,"i_long":107.093313},{"station_id":"CKR","distance":3689,"line":0,"transit":false,"i_long":107.144613,"time":4,"i_lat":-6.2553149999999995,"is_transit":false,"station_name":"Cikarang"}],[{"time":0,"is_transit":false,"i_long":106.723064,"distance":0,"station_id":"RW","station_name":"Rawa Buaya","transit":false,"line":5,"i_lat":-6.162758},{"distance":1152,"i_lat":-6.159876,"line":0,"station_id":"BOI","time":4,"is_transit":false,"station_name":"Bojongindah","transit":false,"i_long":106.737035},{"is_transit":false,"time":2,"i_long":106.756522,"distance":2334,"i_lat":-6.1587309999999995,"station_name":"Taman Kota","station_id":"TKO","transit":false,"line":5},{"distance":1614,"station_name":"Pesing","time":2,"i_lat":-6.161433,"station_id":"PSG","i_long":106.771379,"transit":false,"line":5,"is_transit":false},{"station_id":"GGL","transit":false,"distance":2036,"is_transit":false,"time":2,"line":5,"i_lat":-6.162021,"station_name":"Grogol","i_long":106.788277},{"transit":true,"i_lat":-6.155215,"time":3,"distance":1700,"station_id":"DU","i_long":106.800832,"line":1,"is_transit":true,"station_name":"Duri"},{"distance":3632,"station_id":"THB","transit":false,"is_transit":true,"i_long":106.811091,"i_lat":-6.185545,"line":1,"station_name":"Tanah Abang","time":8},{"line":1,"i_long":106.816351,"time":5,"station_name":"Karet","i_lat":-6.20132,"distance":2029,"is_transit":false,"transit":false,"station_id":"KAT"},{"transit":false,"time":1,"station_name":"Sudirman Baru","i_lat":-6.201433,"is_transit":false,"distance":471,"i_long":106.819881,"line":1,"station_id":"SUDB"},{"station_id":"SUD","i_long":106.822649,"transit":false,"is_transit":false,"time":1,"i_lat":-6.202263,"station_name":"Sudirman","line":1,"distance":280},{"station_name":"Manggarai","i_lat":-6.209883,"station_id":"MRI","distance":3186,"i_long":106.84912,"line":0,"transit":true,"is_transit":true,"time":4},{"line":0,"station_id":"CKI","transit":false,"i_long":106.840169,"is_transit":false,"i_lat":-6.198556,"station_name":"Cikini","time":4,"distance":1590},{"station_name":"Gondangdia","i_long":106.832183,"time":3,"is_transit":false,"transit":false,"i_lat":-6.186295,"line":2,"station_id":"GDD","distance":1750},{"is_transit":false,"station_name":"Juanda","station_id":"JUA","distance":2015,"time":4,"transit":false,"i_long":106.828284,"i_lat":-6.166716,"line":2},{"is_transit":false,"i_long":106.827103,"i_lat":-6.160725,"station_id":"SW","distance":1149,"station_name":"Sawah Besar","time":2,"line":2,"transit":false},{"is_transit":false,"station_id":"MGB","time":2,"line":2,"transit":false,"i_long":106.82482,"distance":906,"station_name":"Manggabesar","i_lat":-6.149769},{"time":2,"station_name":"Jayakarta","is_transit":false,"station_id":"JAY","line":7,"transit":false,"i_long":106.820901,"distance":1080,"i_lat":-6.141205},{"distance":1264,"i_lat":-6.137569,"line":0,"is_transit":true,"station_id":"JAKK","time":4,"transit":true,"i_long":106.812439,"station_name":"Jakarta Kota"},{"station_name":"Kampung Bandan","is_transit":true,"distance":1364,"transit":true,"line":0,"station_id":"KPB","i_lat":-6.132549,"time":3,"i_long":106.826365},{"station_id":"RJW","i_long":106.836569,"time":3,"distance":1444,"transit":false,"i_lat":-6.14505,"is_transit":false,"line":11,"station_name":"Rajawali"},{"transit":false,"is_transit":false,"distance":1901,"station_id":"KMO","time":5,"i_long":106.839204,"station_name":"Kemayoran","line":11,"i_lat":-6.161728},{"station_id":"PSE","transit":false,"is_transit":false,"time":4,"line":11,"distance":1436,"i_lat":-6.174784,"station_name":"Pasar Senen","i_long":106.84368},{"distance":1567,"is_transit":false,"line":11,"time":8,"i_lat":-6.185975,"i_long":106.850107,"transit":false,"station_name":"Gang Sentiong","station_id":"GST"},{"distance":973,"is_transit":false,"station_name":"Kramat","station_id":"KMT","time":1,"line":11,"transit":false,"i_lat":-6.193792,"i_long":106.855437},{"time":2,"i_lat":-6.209188,"line":11,"transit":false,"distance":1829,"i_long":106.861737,"is_transit":false,"station_name":"Pondok Jati","station_id":"POK"},{"i_long":106.86807400000001,"time":9,"station_name":"Jatinegara","transit":true,"distance":1236,"is_transit":true,"station_id":"JNG","line":0,"i_lat":-6.215091},{"station_id":"KLD","i_lat":-6.2135,"distance":3395,"station_name":"Klender","i_long":106.899548,"is_transit":false,"time":3,"line":1,"transit":false},{"station_id":"BUA","time":2,"distance":3100,"transit":false,"is_transit":false,"i_long":106.922662,"i_lat":-6.215568,"station_name":"Buaran","line":0},{"line":1,"station_name":"Klenderbaru","transit":false,"distance":1305,"time":1,"station_id":"KLDB","i_long":106.939679,"is_transit":false,"i_lat":-6.217455},{"distance":1385,"is_transit":false,"station_name":"Cakung","time":8,"i_lat":-6.219053,"line":0,"station_id":"CUK","transit":false,"i_long":106.951283},{"line":1,"station_id":"KRI","is_transit":false,"transit":false,"distance":3097,"time":3,"i_long":106.977657,"station_name":"Kranji","i_lat":-6.224515},{"station_id":"BKS","time":4,"station_name":"Bekasi","is_transit":false,"line":0,"i_long":106.997013,"distance":2520,"i_lat":-6.236616,"transit":false},{"i_lat":-6.248029,"is_transit":false,"station_id":"BKST","station_name":"Bekasi Timur","time":2,"distance":2368,"line":0,"i_long":107.016735,"transit":false},{"transit":false,"i_long":107.055722,"line":1,"i_lat":-6.258864,"is_transit":false,"station_name":"Tambun","distance":4460,"time":7,"station_id":"TB"},{"distance":3420,"line":0,"i_lat":-6.261877,"i_long":107.083084,"transit":false,"time":3,"station_name":"Cibitung","station_id":"CIT","is_transit":false},{"line":1,"is_transit":false,"station_id":"TLM","time":2,"transit":false,"distance":2800,"station_name":"Metland Telaga Murni","i_long":107.093313,"i_lat":-6.262938},{"i_lat":-6.2553149999999995,"i_long":107.144613,"line":0,"distance":3689,"time":4,"station_name":"Cikarang","station_id":"CKR","transit":false,"is_transit":false}]]}