{"data":[[{"transit":false,"i_long":106.723064,"distance":0,"is_transit":false,"i_lat":-6.162758,"line":5,"time":0,"station_name":"Rawa Buaya","station_id":"RW"},{"is_transit":false,"transit":false,"distance":1152,"station_name":"Bojongindah","station_id":"BOI","time":4,"i_lat":-6.159876,"i_long":106.737035,"line":5},{"i_long":106.756522,"station_name":"Taman Kota","station_id":"TKO","i_lat":-6.1587309999999995,"distance":2334,"line":5,"transit":false,"time":2,"is_transit":false},{"transit":false,"time":2,"i_long":106.771379,"line":5,"i_lat":-6.161433,"station_name":"Pesing","is_transit":false,"station_id":"PSG","distance":1614},{"time":2,"is_transit":false,"i_lat":-6.162021,"transit":false,"line":5,"distance":2036,"station_name":"Grogol","i_long":106.788277,"station_id":"GGL"},{"i_lat":-6.155215,"i_long":106.800832,"time":3,"line":1,"station_name":"Duri","distance":1700,"station_id":"DU","transit":true,"is_transit":true},{"station_name":"Tanah Abang","i_lat":-6.185545,"is_transit":false,"station_id":"THB","i_long":106.811091,"distance":3632,"time":8,"line":1,"transit":false},{"transit":false,"station_name":"Karet","is_transit":false,"i_lat":-6.20132,"distance":2029,"i_long":106.816351,"line":1,"station_id":"KAT","time":5},{"is_transit":false,"station_name":"Sudirman Baru","distance":471,"transit":false,"i_lat":-6.201433,"station_id":"SUDB","time":1,"i_long":106.819881,"line":1},{"station_name":"Sudirman","transit":false,"station_id":"SUD","time":1,"i_lat":-6.202263,"is_transit":false,"line":1,"distance":280,"i_long":106.822649},{"i_long":106.84912,"station_id":"MRI","is_transit":false,"i_lat":-6.209883,"line":2,"station_name":"Manggarai","time":4,"transit":false,"distance":3186},{"transit":false,"i_long":106.858896,"station_name":"Matraman","station_id":"MTR","time":2,"is_transit":false,"distance":1275,"line":1,"i_lat":-6.212485},{"station_name":"Jatinegara","is_transit":false,"transit":false,"i_lat":-6.215091,"line":1,"time":8,"i_long":106.86807400000001,"distance":1377,"station_id":"JNG"},{"station_name":"Klender","i_long":106.899548,"is_transit":false,"time":3,"line":1,"station_id":"KLD","distance":3395,"transit":false,"i_lat":-6.2135},{"line":1,"i_long":106.922662,"station_id":"BUA","i_lat":-6.215568,"station_name":"Buaran","distance":3100,"is_transit":false,"time":2,"transit":false},{"is_transit":false,"i_lat":-6.217455,"time":1,"line":1,"station_id":"KLDB","station_name":"Klenderbaru","distance":1305,"i_long":106.939679,"transit":false},{"station_name":"Cakung","distance":1385,"station_id":"CUK","i_lat":-6.219053,"i_long":106.951283,"is_transit":false,"line":1,"transit":false,"time":8},{"is_transit":false,"i_lat":-6.224515,"time":3,"transit":false,"i_long":106.977657,"line":1,"distance":3097,"station_id":"KRI","station_name":"Kranji"},{"i_long":106.997013,"is_transit":false,"line":1,"transit":false,"time":4,"distance":2520,"station_name":"Bekasi","station_id":"BKS","i_lat":-6.236616},{"i_long":107.016735,"line":1,"is_transit":false,"i_lat":-6.248029,"station_id":"BKST","distance":2368,"station_name":"Bekasi Timur","transit":false,"time":2},{"line":1,"time":7,"i_lat":-6.258864,"transit":false,"station_id":"TB","distance":4460,"is_transit":false,"i_long":107.055722,"station_name":"Tambun"},{"transit":false,"distance":3420,"line":1,"station_name":"Cibitung","station_id":"CIT","is_transit":false,"time":3,"i_lat":-6.261877,"i_long":107.083084},{"is_transit":false,"time":2,"distance":2800,"i_lat":-6.262938,"station_name":"Metland Telaga Murni","transit":false,"i_long":107.093313,"line":1,"station_id":"TLM"},{"line":1,"station_name":"Cikarang","is_transit":false,"station_id":"CKR","time":4,"i_lat":-6.2553149999999995,"i_long":107.144613,"transit":false,"distance":3689}],[{"line":5,"i_long":106.723064,"station_name":"Rawa Buaya","station_id":"RW","time":0,"i_lat":-6.162758,"distance":0,"transit":false,"is_transit":false},{"distance":1152,"i_long":106.737035,"time":4,"transit":false,"i_lat":-6.159876,"is_transit":false,"station_id":"BOI","line":5,"station_name":"Bojongindah"},{"station_id":"TKO","distance":2334,"transit":false,"line":5,"is_transit":false,"station_name":"Taman Kota","time":2,"i_long":106.756522,"i_lat":-6.1587309999999995},{"line":5,"transit":false,"is_transit":false,"station_name":"Pesing","i_lat":-6.161433,"station_id":"PSG","time":2,"i_long":106.771379,"distance":1614},{"i_long":106.788277,"line":5,"i_lat":-6.162021,"is_transit":false,"time":2,"distance":2036,"station_id":"GGL","transit":false,"station_name":"Grogol"},{"time":3,"i_lat":-6.155215,"station_name":"Duri","is_transit":true,"i_long":106.800832,"distance":1700,"station_id":"DU","line":1,"transit":true},{"distance":1230,"i_lat":-6.144674,"transit":false,"station_name":"Angke","line":1,"time":4,"station_id":"AK","is_transit":false,"i_long":106.79867},{"distance":4102,"i_long":106.826365,"i_lat":-6.132549,"station_name":"Kampung Bandan","time":9,"line":4,"station_id":"KPB","transit":true,"is_transit":true},{"i_long":106.836569,"line":11,"i_lat":-6.14505,"transit":false,"station_id":"RJW","station_name":"Rajawali","is_transit":false,"time":3,"distance":1444},{"i_long":106.839204,"transit":false,"station_id":"KMO","line":11,"is_transit":false,"station_name":"Kemayoran","time":5,"distance":1901,"i_lat":-6.161728},{"distance":1436,"is_transit":false,"line":11,"transit":false,"i_lat":-6.174784,"i_long":106.84368,"station_id":"PSE","station_name":"Pasar Senen","time":4},{"station_name":"Gang Sentiong","i_lat":-6.185975,"line":11,"transit":false,"is_transit":false,"distance":1567,"i_long":106.850107,"station_id":"GST","time":8},{"station_name":"Kramat","transit":false,"time":1,"distance":973,"is_transit":false,"i_lat":-6.193792,"i_long":106.855437,"station_id":"KMT","line":11},{"station_name":"Pondok Jati","station_id":"POK","i_long":106.861737,"transit":false,"line":11,"i_lat":-6.209188,"time":2,"is_transit":false,"distance":1829},{"line":1,"station_id":"JNG","station_name":"Jatinegara","distance":1236,"i_long":106.86807400000001,"is_transit":true,"transit":true,"time":9,"i_lat":-6.215091},{"i_lat":-6.2135,"line":1,"is_transit":false,"distance":3395,"i_long":106.899548,"transit":false,"time":3,"station_id":"KLD","station_name":"Klender"},{"i_lat":-6.215568,"i_long":106.922662,"line":1,"station_name":"Buaran","transit":false,"is_transit":false,"distance":3100,"time":2,"station_id":"BUA"},{"station_name":"Klenderbaru","distance":1305,"i_long":106.939679,"transit":false,"i_lat":-6.217455,"time":1,"station_id":"KLDB","is_transit":false,"line":1},{"i_lat":-6.219053,"transit":false,"station_id":"CUK","is_transit":false,"time":8,"line":1,"distance":1385,"station_name":"Cakung","i_long":106.951283},{"i_lat":-6.224515,"i_long":106.977657,"transit":false,"time":3,"station_id":"KRI","station_name":"Kranji","is_transit":false,"distance":3097,"line":1},{"station_id":"BKS","time":4,"i_long":106.997013,"transit":false,"station_name":"Bekasi","i_lat":-6.236616,"is_transit":false,"line":1,"distance":2520},{"station_id":"BKST","i_lat":-6.248029,"line":1,"transit":false,"is_transit":false,"distance":2368,"time":2,"i_long":107.016735,"station_name":"Bekasi Timur"},{"transit":false,"line":1,"station_name":"Tambun","distance":4460,"i_lat":-6.258864,"is_transit":false,"station_id":"TB","i_long":107.055722,"time":7},{"i_long":107.083084,"is_transit":false,"distance":3420,"station_name":"Cibitung","i_lat":-6.261877,"line":1,"time":3,"station_id":"CIT","transit":false},{"station_id":"TLM","distance":2800,"station_name":"Metland Telaga Murni","i_lat":-6.262938,"i_long":107.093313,"is_transit":false,"time":2,"line":1,"transit":false},{"station_name":"Cikarang","line":1,"transit":false,"time":4,"distance":3689,"i_long":107.144613,"station_id":"CKR","is_transit":false,"i_lat":-6.2553149999999995}],[{"station_name":"Rawa Buaya","transit":false,"station_id":"RW","i_long":106.723064,"line":5,"time":0,"distance":0,"i_lat":-6.162758,"is_transit":false},{"line":5,"i_long":106.737035,"station_name":"Bojongindah","time":4,"is_transit":false,"distance":1152,"i_lat":-6.159876,"transit":false,"station_id":"BOI"},{"distance":2334,"i_lat":-6.1587309999999995,"i_long":106.756522,"line":5,"station_name":"Taman Kota","station_id":"TKO","is_transit":false,"transit":false,"time":2},{"i_long":106.771379,"distance":1614,"transit":false,"is_transit":false,"time":2,"i_lat":-6.161433,"line":5,"station_name":"Pesing","station_id":"PSG"},{"transit":false,"i_long":106.788277,"station_name":"Grogol","line":5,"station_id":"GGL","i_lat":-6.162021,"time":2,"distance":2036,"is_transit":false},{"station_name":"Duri","is_transit":true,"station_id":"DU","transit":true,"i_long":106.800832,"distance":1700,"time":3,"line":1,"i_lat":-6.155215},{"station_name":"Angke","transit":false,"line":1,"is_transit":false,"station_id":"AK","distance":1230,"i_long":106.79867,"time":4,"i_lat":-6.144674},{"distance":4102,"is_transit":true,"time":9,"i_lat":-6.132549,"i_long":106.826365,"station_name":"Kampung Bandan","station_id":"KPB","transit":true,"line":4},{"i_long":106.812439,"i_lat":-6.137569,"station_id":"JAKK","station_name":"Jakarta Kota","transit":true,"is_transit":true,"distance":1364,"line":2,"time":3},{"line":2,"transit":false,"i_lat":-6.141205,"station_id":"JAY","time":4,"is_transit":false,"i_long":106.820901,"distance":1264,"station_name":"Jayakarta"},{"transit":false,"station_name":"Manggabesar","station_id":"MGB","i_long":106.82482,"time":2,"i_lat":-6.149769,"line":2,"is_transit":false,"distance":1080},{"is_transit":false,"distance":906,"transit":false,"station_id":"SW","line":2,"time":2,"i_lat":-6.160725,"i_long":106.827103,"station_name":"Sawah Besar"},{"is_transit":false,"station_id":"JUA","station_name":"Juanda","time":2,"line":2,"distance":1149,"transit":false,"i_long":106.828284,"i_lat":-6.166716},{"station_name":"Gondangdia","station_id":"GDD","time":4,"is_transit":false,"distance":2015,"i_long":106.832183,"line":2,"transit":false,"i_lat":-6.186295},{"station_name":"Cikini","distance":1750,"station_id":"CKI","i_lat":-6.198556,"i_long":106.840169,"transit":false,"line":2,"is_transit":false,"time":3},{"i_long":106.84912,"station_id":"MRI","distance":1590,"line":2,"time":4,"transit":true,"is_transit":true,"station_name":"Manggarai","i_lat":-6.209883},{"distance":1275,"station_name":"Matraman","station_id":"MTR","transit":false,"is_transit":false,"i_long":106.858896,"line":1,"i_lat":-6.212485,"time":2},{"distance":1377,"station_name":"Jatinegara","transit":false,"station_id":"JNG","i_long":106.86807400000001,"line":1,"i_lat":-6.215091,"is_transit":false,"time":8},{"time":3,"is_transit":false,"i_long":106.899548,"i_lat":-6.2135,"line":1,"station_id":"KLD","transit":false,"station_name":"Klender","distance":3395},{"time":2,"is_transit":false,"transit":false,"distance":3100,"i_lat":-6.215568,"station_id":"BUA","i_long":106.922662,"station_name":"Buaran","line":1},{"transit":false,"is_transit":false,"time":1,"distance":1305,"station_name":"Klenderbaru","station_id":"KLDB","i_long":106.939679,"i_lat":-6.217455,"line":1},{"transit":false,"is_transit":false,"i_long":106.951283,"line":1,"i_lat":-6.219053,"station_id":"CUK","station_name":"Cakung","distance":1385,"time":8},{"transit":false,"distance":3097,"i_lat":-6.224515,"is_transit":false,"i_long":106.977657,"time":3,"line":1,"station_id":"KRI","station_name":"Kranji"},{"line":1,"distance":2520,"station_name":"Bekasi","is_transit":false,"time":4,"i_long":106.997013,"station_id":"BKS","transit":false,"i_lat":-6.236616},{"i_long":107.016735,"line":1,"distance":2368,"time":2,"station_id":"BKST","transit":false,"is_transit":false,"station_name":"Bekasi Timur","i_lat":-6.248029},{"i_lat":-6.258864,"transit":false,"station_id":"TB","station_name":"Tambun","line":1,"time":7,"distance":4460,"is_transit":false,"i_long":107.055722},{"distance":3420,"transit":false,"i_long":107.083084,"is_transit":false,"station_name":"Cibitung","time":3,"i_lat":-6.261877,"line":1,"station_id":"CIT"},{"transit":false,"line":1,"time":2,"is_transit":false,"station_name":"Metland Telaga Murni","i_long":107.093313,"i_lat":-6.262938,"station_id":"TLM","distance":2800},{"i_lat":-6.2553149999999995,"distance":3689,"line":1,"time":4,"station_name":"Cikarang","transit":false,"station_id":"CKR","is_transit":false,"i_long":107.144613}],[{"distance":0,"i_lat":-6.162758,"line":5,"transit":false,"station_id":"RW","station_name":"Rawa Buaya","is_transit":false,"i_long":106.723064,"time":0},{"station_name":"Bojongindah","is_transit":false,"i_long":106.737035,"i_lat":-6.159876,"transit":false,"time":4,"station_id":"BOI","distance":1152,"line":5},{"is_transit":false,"i_long":106.756522,"line":5,"station_name":"Taman Kota","time":2,"i_lat":-6.1587309999999995,"transit":false,"distance":2334,"station_id":"TKO"},{"line":5,"distance":1614,"time":2,"is_transit":false,"station_id":"PSG","i_lat":-6.161433,"transit":false,"station_name":"Pesing","i_long":106.771379},{"distance":2036,"line":5,"i_long":106.788277,"time":2,"station_id":"GGL","is_transit":false,"i_lat":-6.162021,"transit":false,"station_name":"Grogol"},{"is_transit":true,"station_id":"DU","i_lat":-6.155215,"line":1,"time":3,"station_name":"Duri","transit":true,"distance":1700,"i_long":106.800832},{"is_transit":false,"transit":false,"station_name":"Tanah Abang","time":8,"distance":3632,"i_long":106.811091,"i_lat":-6.185545,"line":1,"station_id":"THB"},{"time":5,"station_id":"KAT","distance":2029,"i_long":106.816351,"line":1,"transit":false,"station_name":"Karet","i_lat":-6.20132,"is_transit":false},{"time":1,"distance":471,"i_lat":-6.201433,"line":1,"station_name":"Sudirman Baru","transit":false,"is_transit":false,"i_long":106.819881,"station_id":"SUDB"},{"time":1,"is_transit":false,"i_lat":-6.202263,"station_name":"Sudirman","distance":280,"line":1,"station_id":"SUD","i_long":106.822649,"transit":false},{"line":2,"transit":true,"i_long":106.84912,"is_transit":true,"time":4,"i_lat":-6.209883,"station_name":"Manggarai","station_id":"MRI","distance":3186},{"i_lat":-6.198556,"is_transit":false,"distance":1590,"transit":false,"line":2,"station_id":"CKI","time":4,"i_long":106.840169,"station_name":"Cikini"},{"transit":false,"is_transit":false,"time":3,"distance":1750,"i_lat":-6.186295,"station_name":"Gondangdia","i_long":106.832183,"line":2,"station_id":"GDD"},{"time":4,"transit":false,"distance":2015,"i_long":106.828284,"line":2,"i_lat":-6.166716,"station_id":"JUA","station_name":"Juanda","is_transit":false},{"line":2,"transit":false,"station_id":"SW","time":2,"i_lat":-6.160725,"is_transit":false,"i_long":106.827103,"station_name":"Sawah Besar","distance":1149},{"station_name":"Manggabesar","i_lat":-6.149769,"transit":false,"i_long":106.82482,"distance":906,"time":2,"is_transit":false,"line":2,"station_id":"MGB"},{"i_lat":-6.141205,"is_transit":false,"transit":false,"line":2,"station_name":"Jayakarta","time":2,"station_id":"JAY","distance":1080,"i_long":106.820901},{"i_lat":-6.137569,"line":2,"station_id":"JAKK","i_long":106.812439,"transit":true,"is_transit":true,"station_name":"Jakarta Kota","time":4,"distance":1264},{"transit":true,"station_name":"Kampung Bandan","time":3,"is_transit":true,"distance":1364,"i_long":106.826365,"line":4,"station_id":"KPB","i_lat":-6.132549},{"i_long":106.836569,"transit":false,"station_name":"Rajawali","i_lat":-6.14505,"line":11,"is_transit":false,"distance":1444,"station_id":"RJW","time":3},{"station_name":"Kemayoran","distance":1901,"station_id":"KMO","is_transit":false,"time":5,"transit":false,"line":11,"i_lat":-6.161728,"i_long":106.839204},{"line":11,"i_lat":-6.174784,"is_transit":false,"time":4,"station_id":"PSE","distance":1436,"station_name":"Pasar Senen","transit":false,"i_long":106.84368},{"time":8,"line":11,"distance":1567,"i_long":106.850107,"i_lat":-6.185975,"transit":false,"station_name":"Gang Sentiong","station_id":"GST","is_transit":false},{"is_transit":false,"line":11,"transit":false,"station_name":"Kramat","time":1,"distance":973,"i_lat":-6.193792,"i_long":106.855437,"station_id":"KMT"},{"distance":1829,"time":2,"station_name":"Pondok Jati","i_lat":-6.209188,"line":11,"is_transit":false,"transit":false,"i_long":106.861737,"station_id":"POK"},{"station_name":"Jatinegara","i_lat":-6.215091,"transit":true,"line":1,"distance":1236,"is_transit":true,"time":9,"i_long":106.86807400000001,"station_id":"JNG"},{"station_id":"KLD","station_name":"Klender","distance":3395,"transit":false,"line":1,"i_long":106.899548,"is_transit":false,"time":3,"i_lat":-6.2135},{"transit":false,"line":1,"is_transit":false,"time":2,"i_lat":-6.215568,"i_long":106.922662,"station_name":"Buaran","station_id":"BUA","distance":3100},{"transit":false,"i_long":106.939679,"station_id":"KLDB","distance":1305,"time":1,"i_lat":-6.217455,"station_name":"Klenderbaru","line":1,"is_transit":false},{"transit":false,"is_transit":false,"distance":1385,"line":1,"i_long":106.951283,"i_lat":-6.219053,"time":8,"station_name":"Cakung","station_id":"CUK"},{"is_transit":false,"station_name":"Kranji","station_id":"KRI","distance":3097,"i_long":106.977657,"line":1,"time":3,"i_lat":-6.224515,"transit":false},{"i_long":106.997013,"distance":2520,"station_name":"Bekasi","station_id":"BKS","is_transit":false,"i_lat":-6.236616,"line":1,"transit":false,"time":4},{"transit":false,"station_name":"Bekasi Timur","i_lat":-6.248029,"time":2,"station_id":"BKST","is_transit":false,"distance":2368,"i_long":107.016735,"line":1},{"transit":false,"is_transit":false,"time":7,"station_name":"Tambun","distance":4460,"line":1,"station_id":"TB","i_lat":-6.258864,"i_long":107.055722},{"is_transit":false,"transit":false,"i_lat":-6.261877,"station_name":"Cibitung","distance":3420,"time":3,"i_long":107.083084,"station_id":"CIT","line":1},{"is_transit":false,"i_lat":-6.262938,"transit":false,"station_id":"TLM","distance":2800,"station_name":"Metland Telaga Murni","time":2,"i_long":107.093313,"line":1},{"i_long":107.144613,"i_lat":-6.2553149999999995,"is_transit":false,"time":4,"distance":3689,"station_name":"Cikarang","line":1,"transit":false,"station_id":"CKR"}]]}