{"data":[[{"distance":0,"transit":false,"time":0,"station_name":"Rawa Buaya","is_transit":false,"station_id":"RW","line":5,"i_long":106.723064,"i_lat":-6.162758},{"distance":1152,"transit":false,"i_long":106.737035,"is_transit":false,"line":5,"station_name":"Bojongindah","i_lat":-6.159876,"time":4,"station_id":"BOI"},{"transit":false,"station_id":"TKO","station_name":"Taman Kota","time":2,"line":5,"i_long":106.756522,"i_lat":-6.1587309999999995,"is_transit":false,"distance":2334},{"line":5,"transit":false,"station_name":"Pesing","is_transit":false,"distance":1614,"i_lat":-6.161433,"station_id":"PSG","time":2,"i_long":106.771379},{"transit":false,"time":2,"distance":2036,"i_long":106.788277,"i_lat":-6.162021,"station_id":"GRG","station_name":"Grogol","is_transit":false,"line":5},{"is_transit":true,"distance":1700,"transit":true,"i_lat":-6.155215,"station_name":"Duri","line":1,"station_id":"DU","i_long":106.800832,"time":3},{"is_transit":true,"station_name":"Tanah Abang","distance":3632,"i_lat":-6.185545,"time":8,"i_long":106.811091,"transit":true,"line":1,"station_id":"THB"},{"is_transit":false,"station_id":"PLM","station_name":"Palmerah","i_lat":-6.207404,"time":6,"line":6,"transit":false,"i_long":106.79689,"distance":3191},{"i_long":106.780334,"station_id":"KBY","distance":3737,"station_name":"Kebayoran","line":6,"transit":false,"i_lat":-6.237242,"is_transit":false,"time":7},{"transit":false,"i_lat":-6.276362,"station_name":"Pondokranji","time":8,"i_long":106.74273,"station_id":"PDJ","distance":6218,"line":6,"is_transit":false},{"is_transit":false,"station_name":"Jurangmangu","i_lat":-6.288927,"station_id":"JMU","i_long":106.728916,"time":3,"distance":2179,"transit":false,"line":6},{"transit":false,"i_lat":-6.296963,"is_transit":false,"line":6,"station_id":"SDM","time":4,"i_long":106.712277,"station_name":"Sudimara","distance":1994},{"line":6,"is_transit":false,"time":6,"distance":4566,"station_name":"Rawa Buntu","transit":false,"i_lat":-6.314823,"station_id":"RU","i_long":106.675475},{"i_lat":-6.319871,"transit":false,"station_id":"SRP","i_long":106.66566,"station_name":"Serpong","time":4,"line":6,"is_transit":false,"distance":2413},{"station_name":"Cisauk","station_id":"CSK","is_transit":false,"time":4,"distance":1784,"transit":false,"i_long":106.640411,"i_lat":-6.32484,"line":3},{"distance":2519,"line":3,"i_lat":-6.329547,"transit":false,"is_transit":false,"i_long":106.617853,"time":4,"station_name":"Cicayur","station_id":"CC"},{"station_id":"PRP","i_lat":-6.3441410000000005,"line":6,"i_long":106.568863,"station_name":"Parung Panjang","distance":5968,"is_transit":false,"transit":false,"time":8},{"time":9,"transit":false,"station_id":"CJT","is_transit":false,"line":3,"distance":7025,"i_long":106.508482,"i_lat":-6.354349,"station_name":"Cilejit"}],[{"line":5,"is_transit":false,"transit":false,"time":0,"i_long":106.723064,"station_name":"Rawa Buaya","station_id":"RW","distance":0,"i_lat":-6.162758},{"i_lat":-6.159876,"time":4,"is_transit":false,"station_id":"BOI","transit":false,"i_long":106.737035,"distance":1152,"station_name":"Bojongindah","line":5},{"time":2,"is_transit":false,"line":5,"station_id":"TKO","distance":2334,"station_name":"Taman Kota","i_long":106.756522,"i_lat":-6.1587309999999995,"transit":false},{"distance":1614,"is_transit":false,"line":5,"i_long":106.771379,"station_id":"PSG","i_lat":-6.161433,"station_name":"Pesing","transit":false,"time":2},{"station_id":"GRG","station_name":"Grogol","i_lat":-6.162021,"line":5,"time":2,"distance":2036,"i_long":106.788277,"transit":false,"is_transit":false},{"i_lat":-6.155215,"station_id":"DU","time":3,"i_long":106.800832,"station_name":"Duri","line":1,"distance":1700,"is_transit":true,"transit":true},{"line":1,"i_long":106.79867,"station_name":"Angke","transit":false,"time":4,"is_transit":false,"station_id":"AK","distance":1230,"i_lat":-6.144674},{"station_name":"Kampung Bandan","transit":true,"is_transit":true,"station_id":"KPB","i_lat":-6.132549,"distance":4102,"i_long":106.826365,"line":4,"time":9},{"time":3,"transit":true,"is_transit":true,"i_long":106.812439,"distance":1364,"line":2,"station_id":"JAKK","station_name":"Jakarta Kota","i_lat":-6.137569},{"distance":1264,"is_transit":false,"time":4,"i_lat":-6.141205,"transit":false,"station_id":"JAY","i_long":106.820901,"line":2,"station_name":"Jayakarta"},{"time":2,"i_lat":-6.149769,"transit":false,"station_id":"MGB","distance":1080,"i_long":106.82482,"line":2,"station_name":"Manggabesar","is_transit":false},{"time":2,"i_lat":-6.160725,"transit":false,"station_id":"SW","i_long":106.827103,"line":2,"is_transit":false,"station_name":"Sawah Besar","distance":906},{"i_long":106.828284,"transit":false,"distance":1149,"i_lat":-6.166716,"is_transit":false,"line":2,"time":2,"station_id":"JUA","station_name":"Juanda"},{"transit":false,"i_lat":-6.186295,"distance":2015,"line":2,"i_long":106.832183,"time":4,"station_name":"Gondangdia","station_id":"GDD","is_transit":false},{"distance":1750,"is_transit":false,"line":2,"station_name":"Cikini","i_long":106.840169,"time":3,"transit":false,"station_id":"CKI","i_lat":-6.198556},{"distance":1590,"station_name":"Manggarai","i_lat":-6.209883,"i_long":106.84912,"line":2,"time":4,"is_transit":true,"transit":true,"station_id":"MRI"},{"station_name":"Sudirman","distance":3186,"is_transit":false,"i_long":106.822649,"i_lat":-6.202263,"time":4,"transit":false,"line":1,"station_id":"SUD"},{"i_lat":-6.201433,"i_long":106.819881,"is_transit":false,"distance":280,"time":1,"station_name":"Sudirman Baru","transit":false,"station_id":"SUDB","line":1},{"distance":471,"transit":false,"i_long":106.816351,"time":1,"line":1,"i_lat":-6.20132,"station_name":"Karet","station_id":"KAT","is_transit":false},{"i_lat":-6.185545,"transit":true,"distance":2029,"station_name":"Tanah Abang","is_transit":true,"i_long":106.811091,"line":1,"time":5,"station_id":"THB"},{"transit":false,"station_name":"Palmerah","i_lat":-6.207404,"time":6,"station_id":"PLM","i_long":106.79689,"is_transit":false,"line":6,"distance":3191},{"i_lat":-6.237242,"is_transit":false,"transit":false,"station_id":"KBY","station_name":"Kebayoran","line":6,"distance":3737,"time":7,"i_long":106.780334},{"distance":6218,"is_transit":false,"line":6,"i_lat":-6.276362,"i_long":106.74273,"station_name":"Pondokranji","transit":false,"station_id":"PDJ","time":8},{"distance":2179,"station_name":"Jurangmangu","line":6,"time":3,"is_transit":false,"i_lat":-6.288927,"i_long":106.728916,"station_id":"JMU","transit":false},{"is_transit":false,"distance":1994,"transit":false,"line":6,"station_id":"SDM","time":4,"station_name":"Sudimara","i_lat":-6.296963,"i_long":106.712277},{"is_transit":false,"line":6,"time":6,"i_long":106.675475,"station_name":"Rawa Buntu","transit":false,"station_id":"RU","distance":4566,"i_lat":-6.314823},{"transit":false,"time":4,"station_name":"Serpong","line":6,"i_long":106.66566,"station_id":"SRP","is_transit":false,"i_lat":-6.319871,"distance":2413},{"is_transit":false,"station_id":"CSK","time":4,"distance":1784,"i_lat":-6.32484,"i_long":106.640411,"line":3,"station_name":"Cisauk","transit":false},{"station_name":"Cicayur","i_lat":-6.329547,"time":4,"i_long":106.617853,"station_id":"CC","distance":2519,"is_transit":false,"transit":false,"line":3},{"i_lat":-6.3441410000000005,"is_transit":false,"station_name":"Parung Panjang","distance":5968,"i_long":106.568863,"station_id":"PRP","time":8,"line":6,"transit":false},{"line":3,"station_name":"Cilejit","is_transit":false,"distance":7025,"i_lat":-6.354349,"time":9,"transit":false,"station_id":"CJT","i_long":106.508482}],[{"is_transit":false,"station_name":"Rawa Buaya","i_lat":-6.162758,"station_id":"RW","line":5,"i_long":106.723064,"time":0,"transit":false,"distance":0},{"is_transit":false,"transit":false,"station_id":"BOI","i_lat":-6.159876,"time":4,"i_long":106.737035,"distance":1152,"station_name":"Bojongindah","line":5},{"transit":false,"station_name":"Taman Kota","i_lat":-6.1587309999999995,"distance":2334,"is_transit":false,"line":5,"station_id":"TKO","i_long":106.756522,"time":2},{"transit":false,"distance":1614,"i_lat":-6.161433,"i_long":106.771379,"line":5,"station_name":"Pesing","is_transit":false,"station_id":"PSG","time":2},{"station_name":"Grogol","distance":2036,"time":2,"is_transit":false,"i_lat":-6.162021,"i_long":106.788277,"line":5,"transit":false,"station_id":"GRG"},{"time":3,"distance":1700,"station_name":"Duri","is_transit":true,"line":1,"station_id":"DU","i_lat":-6.155215,"transit":true,"i_long":106.800832},{"distance":1230,"line":1,"time":4,"station_id":"AK","station_name":"Angke","i_long":106.79867,"i_lat":-6.144674,"is_transit":false,"transit":false},{"station_name":"Kampung Bandan","line":4,"is_transit":true,"time":9,"transit":true,"station_id":"KPB","i_long":106.826365,"distance":4102,"i_lat":-6.132549},{"transit":false,"station_id":"RJW","i_lat":-6.14505,"line":11,"station_name":"Rajawali","distance":1444,"is_transit":false,"i_long":106.836569,"time":3},{"time":5,"distance":1901,"line":11,"station_id":"KMO","is_transit":false,"station_name":"Kemayoran","i_long":106.839204,"i_lat":-6.161728,"transit":false},{"station_name":"Pasar Senen","i_long":106.84368,"time":4,"distance":1436,"line":11,"i_lat":-6.174784,"is_transit":false,"transit":false,"station_id":"PSE"},{"i_long":106.850107,"time":8,"station_id":"GST","distance":1567,"i_lat":-6.185975,"transit":false,"line":11,"station_name":"Gang Sentiong","is_transit":false},{"is_transit":false,"time":1,"i_lat":-6.193792,"i_long":106.855437,"station_name":"Kramat","transit":false,"station_id":"KMT","distance":973,"line":11},{"is_transit":false,"line":11,"time":2,"i_long":106.861737,"i_lat":-6.209188,"transit":false,"station_id":"POK","station_name":"Pondok Jati","distance":1829},{"transit":true,"is_transit":true,"line":1,"i_long":106.86807400000001,"distance":1236,"i_lat":-6.215091,"station_name":"Jatinegara","station_id":"JNG","time":9},{"station_id":"MTR","i_long":106.858896,"distance":1377,"transit":false,"is_transit":false,"station_name":"Matraman","i_lat":-6.212485,"time":2,"line":1},{"station_name":"Manggarai","i_lat":-6.209883,"time":2,"distance":1275,"transit":false,"is_transit":false,"station_id":"MRI","line":2,"i_long":106.84912},{"line":1,"transit":false,"station_name":"Sudirman","time":4,"distance":3186,"is_transit":false,"station_id":"SUD","i_lat":-6.202263,"i_long":106.822649},{"is_transit":false,"i_long":106.819881,"station_id":"SUDB","line":1,"distance":280,"station_name":"Sudirman Baru","i_lat":-6.201433,"time":1,"transit":false},{"line":1,"station_id":"KAT","station_name":"Karet","time":1,"distance":471,"is_transit":false,"transit":false,"i_lat":-6.20132,"i_long":106.816351},{"i_lat":-6.185545,"i_long":106.811091,"line":1,"is_transit":true,"transit":true,"distance":2029,"time":5,"station_id":"THB","station_name":"Tanah Abang"},{"line":6,"distance":3191,"i_long":106.79689,"time":6,"station_id":"PLM","station_name":"Palmerah","transit":false,"is_transit":false,"i_lat":-6.207404},{"is_transit":false,"transit":false,"station_name":"Kebayoran","i_long":106.780334,"distance":3737,"station_id":"KBY","time":7,"i_lat":-6.237242,"line":6},{"is_transit":false,"i_lat":-6.276362,"i_long":106.74273,"line":6,"distance":6218,"time":8,"station_id":"PDJ","station_name":"Pondokranji","transit":false},{"station_id":"JMU","time":3,"is_transit":false,"distance":2179,"i_lat":-6.288927,"transit":false,"i_long":106.728916,"line":6,"station_name":"Jurangmangu"},{"transit":false,"distance":1994,"i_lat":-6.296963,"i_long":106.712277,"time":4,"station_id":"SDM","station_name":"Sudimara","is_transit":false,"line":6},{"line":6,"distance":4566,"station_name":"Rawa Buntu","i_long":106.675475,"time":6,"i_lat":-6.314823,"transit":false,"is_transit":false,"station_id":"RU"},{"distance":2413,"i_long":106.66566,"station_name":"Serpong","is_transit":false,"line":6,"i_lat":-6.319871,"station_id":"SRP","time":4,"transit":false},{"i_lat":-6.32484,"is_transit":false,"transit":false,"line":3,"distance":1784,"station_id":"CSK","i_long":106.640411,"time":4,"station_name":"Cisauk"},{"transit":false,"station_id":"CC","i_lat":-6.329547,"time":4,"distance":2519,"i_long":106.617853,"is_transit":false,"line":3,"station_name":"Cicayur"},{"distance":5968,"i_long":106.568863,"station_name":"Parung Panjang","station_id":"PRP","i_lat":-6.3441410000000005,"line":6,"transit":false,"is_transit":false,"time":8},{"line":3,"station_id":"CJT","station_name":"Cilejit","distance":7025,"is_transit":false,"transit":false,"i_lat":-6.354349,"time":9,"i_long":106.508482}]]}