{"data":[[{"station_name":"Rawa Buaya","i_long":106.723064,"i_lat":-6.162758,"line":5,"time":0,"transit":false,"distance":0,"station_id":"RW","is_transit":false},{"i_lat":-6.159876,"line":5,"transit":false,"is_transit":false,"station_name":"Bojongindah","time":4,"station_id":"BOI","i_long":106.737035,"distance":1152},{"time":2,"station_name":"Taman Kota","i_long":106.756522,"is_transit":false,"distance":2334,"transit":false,"line":5,"station_id":"TKO","i_lat":-6.1587309999999995},{"station_id":"PSG","station_name":"Pesing","is_transit":false,"i_lat":-6.161433,"time":2,"i_long":106.771379,"transit":false,"line":5,"distance":1614},{"station_id":"GGL","distance":2036,"is_transit":false,"transit":false,"i_long":106.788277,"line":5,"i_lat":-6.162021,"time":2,"station_name":"Grogol"},{"is_transit":true,"transit":true,"station_id":"DU","distance":1700,"time":3,"i_long":106.800832,"line":1,"i_lat":-6.155215,"station_name":"Duri"},{"is_transit":true,"line":1,"station_name":"Tanah Abang","i_lat":-6.185545,"i_long":106.811091,"distance":3632,"station_id":"THB","transit":true,"time":8},{"i_long":106.79689,"line":6,"is_transit":false,"distance":3191,"station_name":"Palmerah","transit":false,"i_lat":-6.207404,"time":6,"station_id":"PLM"},{"station_id":"KBY","time":7,"i_long":106.780334,"transit":false,"line":6,"station_name":"Kebayoran","i_lat":-6.237242,"distance":3737,"is_transit":false},{"distance":6218,"line":6,"transit":false,"time":8,"i_long":106.74273,"station_id":"PDJ","i_lat":-6.276362,"is_transit":false,"station_name":"Pondokranji"},{"transit":false,"i_lat":-6.288927,"distance":2179,"line":6,"time":3,"is_transit":false,"station_id":"JMU","station_name":"Jurangmangu","i_long":106.728916},{"station_name":"Sudimara","transit":false,"distance":1994,"line":6,"i_lat":-6.296963,"time":4,"is_transit":false,"i_long":106.712277,"station_id":"SDM"},{"is_transit":false,"time":6,"line":6,"transit":false,"distance":4566,"i_long":106.675475,"station_id":"RU","station_name":"Rawa Buntu","i_lat":-6.314823},{"i_lat":-6.319871,"i_long":106.66566,"station_id":"SRP","line":6,"time":4,"distance":2413,"is_transit":false,"transit":false,"station_name":"Serpong"},{"line":3,"station_id":"CSK","i_lat":-6.32484,"transit":false,"is_transit":false,"time":4,"station_name":"Cisauk","distance":1784,"i_long":106.640411},{"station_name":"Cicayur","is_transit":false,"transit":false,"i_lat":-6.329547,"i_long":106.617853,"line":3,"time":4,"distance":2519,"station_id":"CC"}],[{"is_transit":false,"station_id":"RW","i_long":106.723064,"i_lat":-6.162758,"transit":false,"time":0,"station_name":"Rawa Buaya","line":5,"distance":0},{"time":4,"i_lat":-6.159876,"station_id":"BOI","i_long":106.737035,"distance":1152,"transit":false,"line":5,"is_transit":false,"station_name":"Bojongindah"},{"i_lat":-6.1587309999999995,"distance":2334,"station_id":"TKO","is_transit":false,"transit":false,"time":2,"station_name":"Taman Kota","i_long":106.756522,"line":5},{"line":5,"station_id":"PSG","i_lat":-6.161433,"station_name":"Pesing","time":2,"distance":1614,"is_transit":false,"i_long":106.771379,"transit":false},{"time":2,"line":5,"station_id":"GGL","station_name":"Grogol","distance":2036,"transit":false,"i_long":106.788277,"i_lat":-6.162021,"is_transit":false},{"station_id":"DU","distance":1700,"is_transit":true,"i_lat":-6.155215,"station_name":"Duri","i_long":106.800832,"time":3,"line":1,"transit":true},{"distance":1230,"transit":false,"time":4,"station_id":"AK","i_lat":-6.144674,"i_long":106.79867,"line":1,"is_transit":false,"station_name":"Angke"},{"station_name":"Kampung Bandan","line":4,"time":9,"distance":4102,"station_id":"KPB","is_transit":true,"transit":true,"i_lat":-6.132549,"i_long":106.826365},{"station_name":"Jakarta Kota","i_long":106.812439,"i_lat":-6.137569,"transit":true,"line":2,"distance":1364,"is_transit":true,"station_id":"JAKK","time":3},{"station_name":"Jayakarta","transit":false,"is_transit":false,"i_lat":-6.141205,"time":4,"line":2,"i_long":106.820901,"station_id":"JAY","distance":1264},{"i_lat":-6.149769,"i_long":106.82482,"line":2,"station_id":"MGB","is_transit":false,"distance":1080,"time":2,"transit":false,"station_name":"Manggabesar"},{"station_id":"SW","i_lat":-6.160725,"time":2,"is_transit":false,"line":2,"distance":906,"i_long":106.827103,"transit":false,"station_name":"Sawah Besar"},{"station_id":"JUA","transit":false,"time":2,"is_transit":false,"i_long":106.828284,"station_name":"Juanda","distance":1149,"line":2,"i_lat":-6.166716},{"i_lat":-6.186295,"i_long":106.832183,"station_id":"GDD","distance":2015,"is_transit":false,"transit":false,"line":2,"station_name":"Gondangdia","time":4},{"distance":1750,"station_id":"CKI","i_long":106.840169,"line":2,"time":3,"is_transit":false,"transit":false,"station_name":"Cikini","i_lat":-6.198556},{"station_id":"MRI","is_transit":true,"i_lat":-6.209883,"line":2,"distance":1590,"i_long":106.84912,"transit":true,"station_name":"Manggarai","time":4},{"distance":3186,"i_lat":-6.202263,"line":1,"i_long":106.822649,"station_id":"SUD","time":4,"station_name":"Sudirman","transit":false,"is_transit":false},{"line":1,"is_transit":false,"transit":false,"time":1,"i_lat":-6.201433,"distance":280,"i_long":106.819881,"station_id":"SUDB","station_name":"Sudirman Baru"},{"transit":false,"is_transit":false,"i_lat":-6.20132,"distance":471,"i_long":106.816351,"station_name":"Karet","line":1,"time":1,"station_id":"KAT"},{"station_name":"Tanah Abang","transit":true,"is_transit":true,"station_id":"THB","i_lat":-6.185545,"line":1,"time":5,"i_long":106.811091,"distance":2029},{"station_id":"PLM","i_long":106.79689,"station_name":"Palmerah","is_transit":false,"line":6,"transit":false,"i_lat":-6.207404,"time":6,"distance":3191},{"transit":false,"distance":3737,"i_lat":-6.237242,"station_name":"Kebayoran","line":6,"time":7,"is_transit":false,"station_id":"KBY","i_long":106.780334},{"station_name":"Pondokranji","i_long":106.74273,"distance":6218,"transit":false,"time":8,"is_transit":false,"station_id":"PDJ","i_lat":-6.276362,"line":6},{"time":3,"i_lat":-6.288927,"i_long":106.728916,"distance":2179,"station_name":"Jurangmangu","line":6,"station_id":"JMU","is_transit":false,"transit":false},{"is_transit":false,"i_long":106.712277,"station_id":"SDM","distance":1994,"station_name":"Sudimara","line":6,"i_lat":-6.296963,"transit":false,"time":4},{"line":6,"transit":false,"i_lat":-6.314823,"i_long":106.675475,"station_id":"RU","station_name":"Rawa Buntu","distance":4566,"is_transit":false,"time":6},{"is_transit":false,"i_lat":-6.319871,"line":6,"station_name":"Serpong","station_id":"SRP","transit":false,"distance":2413,"time":4,"i_long":106.66566},{"line":3,"time":4,"distance":1784,"transit":false,"station_name":"Cisauk","is_transit":false,"station_id":"CSK","i_lat":-6.32484,"i_long":106.640411},{"i_lat":-6.329547,"i_long":106.617853,"is_transit":false,"line":3,"distance":2519,"time":4,"transit":false,"station_name":"Cicayur","station_id":"CC"}],[{"station_id":"RW","station_name":"Rawa Buaya","time":0,"line":5,"i_lat":-6.162758,"distance":0,"transit":false,"i_long":106.723064,"is_transit":false},{"time":4,"i_lat":-6.159876,"station_name":"Bojongindah","distance":1152,"line":5,"i_long":106.737035,"transit":false,"is_transit":false,"station_id":"BOI"},{"line":5,"i_lat":-6.1587309999999995,"i_long":106.756522,"transit":false,"time":2,"station_name":"Taman Kota","is_transit":false,"distance":2334,"station_id":"TKO"},{"station_name":"Pesing","is_transit":false,"distance":1614,"time":2,"line":5,"station_id":"PSG","i_long":106.771379,"i_lat":-6.161433,"transit":false},{"i_long":106.788277,"station_name":"Grogol","is_transit":false,"station_id":"GGL","transit":false,"time":2,"distance":2036,"i_lat":-6.162021,"line":5},{"transit":true,"station_name":"Duri","station_id":"DU","is_transit":true,"distance":1700,"line":1,"i_long":106.800832,"time":3,"i_lat":-6.155215},{"time":4,"distance":1230,"transit":false,"station_id":"AK","i_long":106.79867,"station_name":"Angke","i_lat":-6.144674,"is_transit":false,"line":1},{"i_long":106.826365,"line":4,"station_id":"KPB","is_transit":true,"station_name":"Kampung Bandan","distance":4102,"i_lat":-6.132549,"time":9,"transit":true},{"distance":1444,"station_id":"RJW","i_lat":-6.14505,"line":11,"station_name":"Rajawali","transit":false,"time":3,"is_transit":false,"i_long":106.836569},{"is_transit":false,"i_lat":-6.161728,"station_id":"KMO","station_name":"Kemayoran","i_long":106.839204,"distance":1901,"transit":false,"line":11,"time":5},{"time":4,"station_name":"Pasar Senen","transit":false,"distance":1436,"i_lat":-6.174784,"is_transit":false,"i_long":106.84368,"line":11,"station_id":"PSE"},{"i_lat":-6.185975,"station_name":"Gang Sentiong","is_transit":false,"distance":1567,"station_id":"GST","i_long":106.850107,"line":11,"transit":false,"time":8},{"station_id":"KMT","i_long":106.855437,"line":11,"i_lat":-6.193792,"time":1,"distance":973,"station_name":"Kramat","transit":false,"is_transit":false},{"time":2,"line":11,"station_id":"POK","transit":false,"is_transit":false,"station_name":"Pondok Jati","i_lat":-6.209188,"i_long":106.861737,"distance":1829},{"transit":true,"line":1,"time":9,"distance":1236,"i_long":106.86807400000001,"is_transit":true,"station_name":"Jatinegara","station_id":"JNG","i_lat":-6.215091},{"time":2,"distance":1377,"i_long":106.858896,"transit":false,"line":1,"is_transit":false,"station_id":"MTR","i_lat":-6.212485,"station_name":"Matraman"},{"transit":false,"station_id":"MRI","i_lat":-6.209883,"time":2,"i_long":106.84912,"distance":1275,"line":2,"station_name":"Manggarai","is_transit":false},{"i_long":106.822649,"i_lat":-6.202263,"station_name":"Sudirman","time":4,"is_transit":false,"transit":false,"station_id":"SUD","line":1,"distance":3186},{"is_transit":false,"i_lat":-6.201433,"station_name":"Sudirman Baru","line":1,"transit":false,"time":1,"i_long":106.819881,"station_id":"SUDB","distance":280},{"line":1,"distance":471,"station_id":"KAT","i_long":106.816351,"time":1,"station_name":"Karet","transit":false,"i_lat":-6.20132,"is_transit":false},{"transit":true,"is_transit":true,"time":5,"station_id":"THB","station_name":"Tanah Abang","distance":2029,"i_lat":-6.185545,"i_long":106.811091,"line":1},{"time":6,"transit":false,"i_lat":-6.207404,"i_long":106.79689,"station_name":"Palmerah","is_transit":false,"station_id":"PLM","line":6,"distance":3191},{"is_transit":false,"i_lat":-6.237242,"line":6,"station_id":"KBY","i_long":106.780334,"transit":false,"distance":3737,"station_name":"Kebayoran","time":7},{"station_name":"Pondokranji","i_long":106.74273,"time":8,"is_transit":false,"line":6,"transit":false,"station_id":"PDJ","distance":6218,"i_lat":-6.276362},{"i_long":106.728916,"transit":false,"time":3,"i_lat":-6.288927,"distance":2179,"station_name":"Jurangmangu","station_id":"JMU","line":6,"is_transit":false},{"line":6,"is_transit":false,"time":4,"transit":false,"distance":1994,"i_long":106.712277,"station_id":"SDM","i_lat":-6.296963,"station_name":"Sudimara"},{"station_name":"Rawa Buntu","distance":4566,"i_long":106.675475,"transit":false,"line":6,"is_transit":false,"time":6,"i_lat":-6.314823,"station_id":"RU"},{"i_lat":-6.319871,"transit":false,"station_id":"SRP","time":4,"distance":2413,"i_long":106.66566,"is_transit":false,"line":6,"station_name":"Serpong"},{"station_id":"CSK","distance":1784,"is_transit":false,"i_lat":-6.32484,"transit":false,"station_name":"Cisauk","time":4,"i_long":106.640411,"line":3},{"distance":2519,"transit":false,"line":3,"station_name":"Cicayur","i_lat":-6.329547,"station_id":"CC","time":4,"is_transit":false,"i_long":106.617853}]]}