{"data":[[{"time":0,"distance":0,"transit":false,"station_id":"RW","is_transit":false,"i_lat":-6.162758,"station_name":"Rawa Buaya","line":5,"i_long":106.723064},{"is_transit":false,"i_lat":-6.159876,"station_id":"BOI","i_long":106.737035,"transit":false,"time":4,"distance":1152,"station_name":"Bojongindah","line":5},{"station_id":"TKO","transit":false,"is_transit":false,"time":2,"station_name":"Taman Kota","distance":2334,"i_lat":-6.1587309999999995,"i_long":106.756522,"line":5},{"station_id":"PSG","is_transit":false,"transit":false,"i_long":106.771379,"time":2,"i_lat":-6.161433,"line":5,"station_name":"Pesing","distance":1614},{"i_long":106.788277,"line":5,"station_id":"GGL","transit":false,"station_name":"Grogol","time":2,"distance":2036,"is_transit":false,"i_lat":-6.162021},{"i_lat":-6.155215,"station_id":"DU","station_name":"Duri","is_transit":true,"distance":1700,"transit":true,"line":1,"i_long":106.800832,"time":3},{"i_lat":-6.185545,"distance":3632,"i_long":106.811091,"transit":false,"line":1,"station_id":"THB","time":8,"is_transit":false,"station_name":"Tanah Abang"},{"line":1,"station_id":"KAT","i_lat":-6.20132,"is_transit":false,"transit":false,"distance":2029,"i_long":106.816351,"station_name":"Karet","time":5},{"time":1,"transit":false,"station_id":"SUDB","i_lat":-6.201433,"is_transit":false,"i_long":106.819881,"station_name":"Sudirman Baru","line":1,"distance":471},{"station_id":"SUD","i_long":106.822649,"i_lat":-6.202263,"line":1,"transit":false,"is_transit":false,"station_name":"Sudirman","time":1,"distance":280},{"line":2,"time":4,"station_id":"MRI","i_long":106.84912,"i_lat":-6.209883,"transit":true,"is_transit":true,"distance":3186,"station_name":"Manggarai"},{"time":4,"transit":false,"line":2,"station_id":"TEB","distance":2610,"station_name":"Tebet","is_transit":false,"i_lat":-6.226659,"i_long":106.857948},{"i_long":106.856607,"transit":false,"is_transit":false,"i_lat":-6.242512,"station_name":"Cawang","distance":1230,"line":2,"time":2,"station_id":"CW"}],[{"distance":0,"station_id":"RW","time":0,"i_lat":-6.162758,"is_transit":false,"transit":false,"i_long":106.723064,"line":5,"station_name":"Rawa Buaya"},{"station_id":"BOI","distance":1152,"line":5,"transit":false,"time":4,"station_name":"Bojongindah","is_transit":false,"i_lat":-6.159876,"i_long":106.737035},{"i_long":106.756522,"line":5,"time":2,"transit":false,"station_id":"TKO","is_transit":false,"i_lat":-6.1587309999999995,"station_name":"Taman Kota","distance":2334},{"station_name":"Pesing","i_long":106.771379,"time":2,"is_transit":false,"distance":1614,"transit":false,"i_lat":-6.161433,"line":5,"station_id":"PSG"},{"line":5,"i_lat":-6.162021,"station_id":"GGL","time":2,"is_transit":false,"distance":2036,"transit":false,"station_name":"Grogol","i_long":106.788277},{"i_lat":-6.155215,"station_name":"Duri","line":1,"transit":true,"i_long":106.800832,"distance":1700,"station_id":"DU","time":3,"is_transit":true},{"distance":1230,"is_transit":false,"station_id":"AK","station_name":"Angke","time":4,"i_lat":-6.144674,"line":1,"transit":false,"i_long":106.79867},{"i_long":106.826365,"line":4,"is_transit":true,"station_id":"KPB","time":9,"distance":4102,"transit":true,"station_name":"Kampung Bandan","i_lat":-6.132549},{"is_transit":true,"line":2,"transit":true,"station_id":"JAKK","distance":1364,"station_name":"Jakarta Kota","i_long":106.812439,"i_lat":-6.137569,"time":3},{"i_lat":-6.141205,"is_transit":false,"time":4,"distance":1264,"i_long":106.820901,"station_id":"JAY","station_name":"Jayakarta","line":2,"transit":false},{"station_name":"Manggabesar","i_long":106.82482,"line":2,"time":2,"station_id":"MGB","distance":1080,"i_lat":-6.149769,"transit":false,"is_transit":false},{"distance":906,"i_lat":-6.160725,"station_id":"SW","i_long":106.827103,"station_name":"Sawah Besar","transit":false,"line":2,"is_transit":false,"time":2},{"station_name":"Juanda","distance":1149,"station_id":"JUA","transit":false,"time":2,"i_long":106.828284,"i_lat":-6.166716,"line":2,"is_transit":false},{"i_long":106.832183,"time":4,"transit":false,"i_lat":-6.186295,"station_name":"Gondangdia","station_id":"GDD","distance":2015,"is_transit":false,"line":2},{"i_lat":-6.198556,"i_long":106.840169,"line":2,"station_name":"Cikini","station_id":"CKI","transit":false,"time":3,"is_transit":false,"distance":1750},{"station_id":"MRI","station_name":"Manggarai","is_transit":false,"distance":1590,"transit":false,"time":4,"line":2,"i_lat":-6.209883,"i_long":106.84912},{"is_transit":false,"line":2,"station_id":"TEB","transit":false,"i_lat":-6.226659,"i_long":106.857948,"time":4,"distance":2610,"station_name":"Tebet"},{"transit":false,"station_name":"Cawang","line":2,"station_id":"CW","i_long":106.856607,"is_transit":false,"distance":1230,"time":2,"i_lat":-6.242512}],[{"i_long":106.723064,"station_id":"RW","distance":0,"line":5,"station_name":"Rawa Buaya","i_lat":-6.162758,"transit":false,"is_transit":false,"time":0},{"distance":1152,"is_transit":false,"station_id":"BOI","transit":false,"time":4,"i_lat":-6.159876,"station_name":"Bojongindah","i_long":106.737035,"line":5},{"i_long":106.756522,"station_name":"Taman Kota","is_transit":false,"station_id":"TKO","distance":2334,"transit":false,"time":2,"i_lat":-6.1587309999999995,"line":5},{"i_long":106.771379,"i_lat":-6.161433,"line":5,"is_transit":false,"station_id":"PSG","distance":1614,"transit":false,"station_name":"Pesing","time":2},{"transit":false,"station_name":"Grogol","distance":2036,"i_lat":-6.162021,"line":5,"station_id":"GGL","time":2,"i_long":106.788277,"is_transit":false},{"is_transit":true,"station_id":"DU","station_name":"Duri","time":3,"i_long":106.800832,"line":1,"distance":1700,"i_lat":-6.155215,"transit":true},{"is_transit":false,"transit":false,"station_id":"AK","i_lat":-6.144674,"station_name":"Angke","i_long":106.79867,"line":1,"distance":1230,"time":4},{"station_id":"KPB","line":4,"i_long":106.826365,"transit":true,"time":9,"i_lat":-6.132549,"distance":4102,"is_transit":true,"station_name":"Kampung Bandan"},{"distance":1444,"station_id":"RJW","i_lat":-6.14505,"i_long":106.836569,"line":11,"transit":false,"station_name":"Rajawali","time":3,"is_transit":false},{"i_lat":-6.161728,"station_name":"Kemayoran","line":11,"time":5,"i_long":106.839204,"station_id":"KMO","transit":false,"distance":1901,"is_transit":false},{"line":11,"transit":false,"is_transit":false,"distance":1436,"time":4,"i_long":106.84368,"station_id":"PSE","station_name":"Pasar Senen","i_lat":-6.174784},{"station_name":"Gang Sentiong","station_id":"GST","line":11,"time":8,"transit":false,"is_transit":false,"distance":1567,"i_lat":-6.185975,"i_long":106.850107},{"i_long":106.855437,"is_transit":false,"station_id":"KMT","station_name":"Kramat","time":1,"transit":false,"distance":973,"i_lat":-6.193792,"line":11},{"is_transit":false,"station_name":"Pondok Jati","transit":false,"time":2,"station_id":"POK","line":11,"distance":1829,"i_lat":-6.209188,"i_long":106.861737},{"distance":1236,"i_lat":-6.215091,"time":9,"line":1,"station_id":"JNG","transit":true,"is_transit":true,"i_long":106.86807400000001,"station_name":"Jatinegara"},{"station_name":"Matraman","i_lat":-6.212485,"transit":false,"is_transit":false,"i_long":106.858896,"distance":1377,"time":2,"line":1,"station_id":"MTR"},{"transit":true,"is_transit":true,"time":2,"station_name":"Manggarai","i_lat":-6.209883,"i_long":106.84912,"distance":1275,"line":2,"station_id":"MRI"},{"i_long":106.857948,"distance":2610,"line":2,"transit":false,"i_lat":-6.226659,"is_transit":false,"station_name":"Tebet","time":4,"station_id":"TEB"},{"transit":false,"station_id":"CW","is_transit":false,"station_name":"Cawang","i_lat":-6.242512,"line":2,"time":2,"distance":1230,"i_long":106.856607}]]}