{"data":[[{"distance":0,"line":5,"station_name":"Rawa Buaya","i_long":106.723064,"i_lat":-6.162758,"station_id":"RW","is_transit":false,"time":0,"transit":false},{"i_lat":-6.159876,"station_id":"BOI","distance":1152,"transit":false,"time":4,"i_long":106.737035,"is_transit":false,"station_name":"Bojongindah","line":0},{"station_id":"TKO","line":5,"station_name":"Taman Kota","time":2,"is_transit":false,"transit":false,"i_lat":-6.1587309999999995,"i_long":106.756522,"distance":2334},{"distance":1614,"transit":false,"line":5,"is_transit":false,"station_name":"Pesing","time":2,"i_lat":-6.161433,"i_long":106.771379,"station_id":"PSG"},{"station_id":"GGL","i_lat":-6.162021,"distance":2036,"i_long":106.788277,"is_transit":false,"line":5,"transit":false,"station_name":"Grogol","time":2},{"transit":true,"distance":1700,"i_long":106.800832,"i_lat":-6.155215,"station_name":"Duri","is_transit":true,"station_id":"DU","line":1,"time":3},{"time":8,"is_transit":true,"line":1,"i_long":106.811091,"i_lat":-6.185545,"station_name":"Tanah Abang","transit":true,"distance":3632,"station_id":"THB"},{"is_transit":false,"i_long":106.79689,"station_id":"PLM","line":6,"distance":3191,"i_lat":-6.207404,"station_name":"Palmerah","time":6,"transit":false},{"is_transit":false,"time":7,"station_id":"KBY","distance":3737,"i_lat":-6.237242,"i_long":106.780334,"line":6,"transit":false,"station_name":"Kebayoran"},{"i_lat":-6.276362,"station_id":"PDJ","time":8,"distance":6218,"i_long":106.74273,"line":6,"is_transit":false,"transit":false,"station_name":"Pondokranji"},{"i_lat":-6.288927,"i_long":106.728916,"distance":2179,"station_name":"Jurangmangu","is_transit":false,"time":3,"station_id":"JMU","line":6,"transit":false},{"time":4,"i_lat":-6.296963,"i_long":106.712277,"distance":1994,"line":6,"is_transit":false,"station_id":"SDM","station_name":"Sudimara","transit":false},{"station_id":"RU","transit":false,"station_name":"Rawa Buntu","is_transit":false,"i_long":106.675475,"line":6,"distance":4566,"time":6,"i_lat":-6.314823},{"distance":2413,"is_transit":false,"station_id":"SRP","time":4,"station_name":"Serpong","line":6,"i_lat":-6.319871,"transit":false,"i_long":106.66566},{"i_lat":-6.32484,"time":4,"i_long":106.640411,"line":0,"is_transit":false,"distance":1784,"station_id":"CSK","station_name":"Cisauk","transit":false},{"line":0,"station_id":"CC","distance":2519,"i_long":106.617853,"i_lat":-6.329547,"is_transit":false,"station_name":"Cicayur","time":4,"transit":false},{"distance":5968,"is_transit":false,"transit":false,"station_name":"Parung Panjang","i_long":106.568863,"time":8,"i_lat":-6.3441410000000005,"station_id":"PRP","line":6},{"i_lat":-6.354349,"time":9,"line":0,"distance":7025,"transit":false,"is_transit":false,"station_name":"Cilejit","station_id":"CJT","i_long":106.508482}],[{"transit":false,"i_long":106.723064,"line":5,"station_name":"Rawa Buaya","station_id":"RW","time":0,"is_transit":false,"i_lat":-6.162758,"distance":0},{"distance":1152,"transit":false,"is_transit":false,"station_id":"BOI","i_long":106.737035,"i_lat":-6.159876,"line":0,"time":4,"station_name":"Bojongindah"},{"transit":false,"distance":2334,"line":5,"station_id":"TKO","i_long":106.756522,"station_name":"Taman Kota","time":2,"is_transit":false,"i_lat":-6.1587309999999995},{"distance":1614,"is_transit":false,"i_long":106.771379,"station_id":"PSG","station_name":"Pesing","transit":false,"line":5,"time":2,"i_lat":-6.161433},{"distance":2036,"time":2,"is_transit":false,"i_long":106.788277,"transit":false,"station_id":"GGL","station_name":"Grogol","i_lat":-6.162021,"line":5},{"distance":1700,"is_transit":true,"i_long":106.800832,"i_lat":-6.155215,"line":1,"station_id":"DU","time":3,"transit":true,"station_name":"Duri"},{"station_name":"Angke","distance":1230,"i_long":106.79867,"transit":false,"station_id":"AK","is_transit":false,"line":0,"time":4,"i_lat":-6.144674},{"station_id":"KPB","time":9,"is_transit":true,"transit":false,"station_name":"Kampung Bandan","i_long":106.826365,"line":0,"i_lat":-6.132549,"distance":4102},{"distance":1364,"is_transit":true,"station_id":"JAKK","station_name":"Jakarta Kota","transit":true,"time":3,"i_long":106.812439,"i_lat":-6.137569,"line":0},{"i_lat":-6.141205,"i_long":106.820901,"distance":1264,"transit":false,"station_id":"JAY","time":4,"line":7,"station_name":"Jayakarta","is_transit":false},{"i_long":106.82482,"station_name":"Manggabesar","i_lat":-6.149769,"is_transit":false,"transit":false,"time":2,"line":2,"distance":1080,"station_id":"MGB"},{"transit":false,"time":2,"line":2,"distance":906,"station_name":"Sawah Besar","i_long":106.827103,"is_transit":false,"station_id":"SW","i_lat":-6.160725},{"time":2,"i_long":106.828284,"distance":1149,"transit":false,"line":2,"i_lat":-6.166716,"is_transit":false,"station_name":"Juanda","station_id":"JUA"},{"distance":2015,"station_name":"Gondangdia","i_long":106.832183,"line":2,"time":4,"is_transit":false,"station_id":"GDD","transit":false,"i_lat":-6.186295},{"station_name":"Cikini","i_lat":-6.198556,"line":0,"transit":false,"time":3,"i_long":106.840169,"is_transit":false,"station_id":"CKI","distance":1750},{"distance":1590,"transit":true,"is_transit":true,"station_name":"Manggarai","time":4,"line":0,"station_id":"MRI","i_lat":-6.209883,"i_long":106.84912},{"i_long":106.822649,"line":1,"i_lat":-6.202263,"transit":false,"is_transit":false,"time":4,"station_name":"Sudirman","station_id":"SUD","distance":3186},{"station_name":"Sudirman Baru","is_transit":false,"station_id":"SUDB","time":1,"i_long":106.819881,"line":1,"distance":280,"transit":false,"i_lat":-6.201433},{"is_transit":false,"i_long":106.816351,"time":1,"transit":false,"distance":471,"station_id":"KAT","station_name":"Karet","i_lat":-6.20132,"line":1},{"is_transit":true,"station_name":"Tanah Abang","time":5,"i_long":106.811091,"transit":true,"distance":2029,"line":1,"station_id":"THB","i_lat":-6.185545},{"station_id":"PLM","i_lat":-6.207404,"i_long":106.79689,"is_transit":false,"station_name":"Palmerah","transit":false,"line":6,"time":6,"distance":3191},{"line":6,"time":7,"i_long":106.780334,"i_lat":-6.237242,"transit":false,"station_name":"Kebayoran","station_id":"KBY","is_transit":false,"distance":3737},{"distance":6218,"i_lat":-6.276362,"station_name":"Pondokranji","station_id":"PDJ","line":6,"time":8,"is_transit":false,"transit":false,"i_long":106.74273},{"distance":2179,"station_id":"JMU","station_name":"Jurangmangu","i_long":106.728916,"i_lat":-6.288927,"time":3,"is_transit":false,"line":6,"transit":false},{"time":4,"distance":1994,"station_name":"Sudimara","station_id":"SDM","transit":false,"i_lat":-6.296963,"line":6,"i_long":106.712277,"is_transit":false},{"transit":false,"time":6,"line":6,"station_id":"RU","is_transit":false,"station_name":"Rawa Buntu","distance":4566,"i_long":106.675475,"i_lat":-6.314823},{"distance":2413,"line":6,"time":4,"i_long":106.66566,"station_id":"SRP","station_name":"Serpong","i_lat":-6.319871,"transit":false,"is_transit":false},{"transit":false,"station_id":"CSK","i_lat":-6.32484,"is_transit":false,"i_long":106.640411,"time":4,"station_name":"Cisauk","distance":1784,"line":0},{"station_id":"CC","transit":false,"time":4,"station_name":"Cicayur","line":0,"i_long":106.617853,"is_transit":false,"distance":2519,"i_lat":-6.329547},{"i_long":106.568863,"line":6,"station_name":"Parung Panjang","is_transit":false,"station_id":"PRP","i_lat":-6.3441410000000005,"time":8,"distance":5968,"transit":false},{"is_transit":false,"i_long":106.508482,"distance":7025,"i_lat":-6.354349,"station_name":"Cilejit","station_id":"CJT","transit":false,"time":9,"line":0}],[{"station_id":"RW","station_name":"Rawa Buaya","time":0,"i_lat":-6.162758,"i_long":106.723064,"transit":false,"line":5,"distance":0,"is_transit":false},{"station_name":"Bojongindah","transit":false,"distance":1152,"time":4,"i_lat":-6.159876,"i_long":106.737035,"line":0,"station_id":"BOI","is_transit":false},{"is_transit":false,"station_name":"Taman Kota","time":2,"line":5,"i_lat":-6.1587309999999995,"i_long":106.756522,"distance":2334,"station_id":"TKO","transit":false},{"transit":false,"time":2,"is_transit":false,"i_long":106.771379,"i_lat":-6.161433,"station_id":"PSG","line":5,"station_name":"Pesing","distance":1614},{"time":2,"transit":false,"is_transit":false,"i_lat":-6.162021,"line":5,"i_long":106.788277,"station_id":"GGL","distance":2036,"station_name":"Grogol"},{"transit":true,"is_transit":true,"station_name":"Duri","line":1,"station_id":"DU","time":3,"distance":1700,"i_long":106.800832,"i_lat":-6.155215},{"i_lat":-6.144674,"time":4,"distance":1230,"station_id":"AK","i_long":106.79867,"is_transit":false,"transit":false,"line":0,"station_name":"Angke"},{"station_name":"Kampung Bandan","line":0,"distance":4102,"transit":true,"is_transit":true,"i_long":106.826365,"i_lat":-6.132549,"station_id":"KPB","time":9},{"transit":false,"time":3,"i_lat":-6.14505,"line":11,"station_name":"Rajawali","distance":1444,"is_transit":false,"station_id":"RJW","i_long":106.836569},{"line":11,"is_transit":false,"i_long":106.839204,"distance":1901,"station_id":"KMO","station_name":"Kemayoran","transit":false,"i_lat":-6.161728,"time":5},{"i_lat":-6.174784,"time":4,"is_transit":false,"distance":1436,"station_name":"Pasar Senen","transit":false,"station_id":"PSE","i_long":106.84368,"line":11},{"i_long":106.850107,"transit":false,"station_name":"Gang Sentiong","i_lat":-6.185975,"station_id":"GST","time":8,"is_transit":false,"line":11,"distance":1567},{"time":1,"i_long":106.855437,"line":11,"transit":false,"distance":973,"is_transit":false,"i_lat":-6.193792,"station_name":"Kramat","station_id":"KMT"},{"is_transit":false,"time":2,"i_long":106.861737,"distance":1829,"line":11,"station_id":"POK","station_name":"Pondok Jati","transit":false,"i_lat":-6.209188},{"i_long":106.86807400000001,"line":0,"station_id":"JNG","station_name":"Jatinegara","time":9,"i_lat":-6.215091,"distance":1236,"is_transit":true,"transit":true},{"time":2,"i_long":106.858896,"line":1,"i_lat":-6.212485,"station_name":"Matraman","is_transit":false,"transit":false,"distance":1377,"station_id":"MTR"},{"station_id":"MRI","station_name":"Manggarai","is_transit":true,"distance":1275,"time":2,"i_long":106.84912,"transit":false,"line":0,"i_lat":-6.209883},{"station_name":"Sudirman","distance":3186,"time":4,"i_lat":-6.202263,"line":1,"transit":false,"is_transit":false,"station_id":"SUD","i_long":106.822649},{"i_long":106.819881,"is_transit":false,"station_name":"Sudirman Baru","i_lat":-6.201433,"time":1,"transit":false,"line":1,"distance":280,"station_id":"SUDB"},{"distance":471,"i_lat":-6.20132,"transit":false,"time":1,"station_name":"Karet","i_long":106.816351,"line":1,"station_id":"KAT","is_transit":false},{"is_transit":true,"station_name":"Tanah Abang","station_id":"THB","time":5,"line":1,"i_lat":-6.185545,"transit":true,"i_long":106.811091,"distance":2029},{"distance":3191,"transit":false,"station_id":"PLM","is_transit":false,"station_name":"Palmerah","i_lat":-6.207404,"time":6,"i_long":106.79689,"line":6},{"transit":false,"i_lat":-6.237242,"i_long":106.780334,"time":7,"line":6,"distance":3737,"station_id":"KBY","is_transit":false,"station_name":"Kebayoran"},{"i_lat":-6.276362,"station_id":"PDJ","i_long":106.74273,"line":6,"transit":false,"time":8,"distance":6218,"station_name":"Pondokranji","is_transit":false},{"station_id":"JMU","i_long":106.728916,"line":6,"station_name":"Jurangmangu","transit":false,"time":3,"is_transit":false,"distance":2179,"i_lat":-6.288927},{"i_long":106.712277,"is_transit":false,"station_name":"Sudimara","station_id":"SDM","distance":1994,"transit":false,"time":4,"i_lat":-6.296963,"line":6},{"time":6,"i_lat":-6.314823,"station_id":"RU","distance":4566,"i_long":106.675475,"is_transit":false,"transit":false,"line":6,"station_name":"Rawa Buntu"},{"is_transit":false,"time":4,"distance":2413,"station_id":"SRP","i_long":106.66566,"line":6,"transit":false,"station_name":"Serpong","i_lat":-6.319871},{"time":4,"station_id":"CSK","i_long":106.640411,"station_name":"Cisauk","i_lat":-6.32484,"is_transit":false,"line":0,"transit":false,"distance":1784},{"line":0,"is_transit":false,"transit":false,"station_name":"Cicayur","time":4,"i_lat":-6.329547,"i_long":106.617853,"station_id":"CC","distance":2519},{"time":8,"is_transit":false,"i_lat":-6.3441410000000005,"transit":false,"station_name":"Parung Panjang","i_long":106.568863,"distance":5968,"line":6,"station_id":"PRP"},{"i_long":106.508482,"station_name":"Cilejit","distance":7025,"station_id":"CJT","time":9,"i_lat":-6.354349,"line":0,"is_transit":false,"transit":false}]]}