{"data":[[{"i_lat":-6.162758,"line":5,"time":0,"is_transit":false,"station_name":"Rawa Buaya","distance":0,"station_id":"RW","transit":false,"i_long":106.723064},{"distance":1152,"station_name":"Bojongindah","i_lat":-6.159876,"time":4,"station_id":"BOI","line":5,"transit":false,"i_long":106.737035,"is_transit":false},{"line":5,"transit":false,"i_lat":-6.1587309999999995,"time":2,"i_long":106.756522,"station_id":"TKO","station_name":"Taman Kota","is_transit":false,"distance":2334},{"i_long":106.771379,"is_transit":false,"line":5,"time":2,"transit":false,"station_name":"Pesing","i_lat":-6.161433,"station_id":"PSG","distance":1614},{"i_lat":-6.162021,"distance":2036,"station_id":"GGL","is_transit":false,"i_long":106.788277,"time":2,"line":5,"transit":false,"station_name":"Grogol"},{"time":3,"line":1,"station_id":"DU","i_lat":-6.155215,"transit":true,"distance":1700,"i_long":106.800832,"is_transit":true,"station_name":"Duri"},{"line":1,"station_name":"Tanah Abang","station_id":"THB","i_lat":-6.185545,"time":8,"is_transit":true,"transit":true,"i_long":106.811091,"distance":3632},{"i_lat":-6.207404,"time":6,"transit":false,"line":6,"is_transit":false,"i_long":106.79689,"distance":3191,"station_id":"PLM","station_name":"Palmerah"},{"time":7,"is_transit":false,"i_long":106.780334,"transit":false,"station_id":"KBY","i_lat":-6.237242,"line":6,"station_name":"Kebayoran","distance":3737},{"station_name":"Pondokranji","line":6,"i_lat":-6.276362,"station_id":"PDJ","transit":false,"i_long":106.74273,"time":8,"is_transit":false,"distance":6218},{"transit":false,"time":3,"station_name":"Jurangmangu","line":6,"distance":2179,"is_transit":false,"i_long":106.728916,"station_id":"JMU","i_lat":-6.288927},{"station_id":"SDM","station_name":"Sudimara","line":6,"transit":false,"is_transit":false,"distance":1994,"i_long":106.712277,"time":4,"i_lat":-6.296963},{"time":6,"transit":false,"i_long":106.675475,"distance":4566,"station_name":"Rawa Buntu","station_id":"RU","is_transit":false,"line":6,"i_lat":-6.314823},{"i_lat":-6.319871,"i_long":106.66566,"station_id":"SRP","line":6,"transit":false,"station_name":"Serpong","is_transit":false,"distance":2413,"time":4},{"time":4,"line":3,"distance":1784,"station_id":"CSK","i_lat":-6.32484,"station_name":"Cisauk","i_long":106.640411,"transit":false,"is_transit":false},{"i_long":106.617853,"transit":false,"time":4,"station_id":"CC","distance":2519,"is_transit":false,"i_lat":-6.329547,"line":3,"station_name":"Cicayur"},{"distance":5968,"i_long":106.568863,"station_name":"Parung Panjang","is_transit":false,"station_id":"PRP","i_lat":-6.3441410000000005,"line":6,"time":8,"transit":false},{"time":9,"transit":false,"station_id":"CJT","is_transit":false,"i_lat":-6.354349,"i_long":106.508482,"line":3,"distance":7025,"station_name":"Cilejit"}],[{"is_transit":false,"i_long":106.723064,"station_name":"Rawa Buaya","i_lat":-6.162758,"line":5,"station_id":"RW","transit":false,"distance":0,"time":0},{"transit":false,"station_name":"Bojongindah","i_long":106.737035,"line":5,"is_transit":false,"distance":1152,"station_id":"BOI","i_lat":-6.159876,"time":4},{"is_transit":false,"i_lat":-6.1587309999999995,"transit":false,"station_name":"Taman Kota","station_id":"TKO","i_long":106.756522,"distance":2334,"time":2,"line":5},{"distance":1614,"station_id":"PSG","is_transit":false,"i_long":106.771379,"transit":false,"station_name":"Pesing","i_lat":-6.161433,"line":5,"time":2},{"station_name":"Grogol","transit":false,"distance":2036,"is_transit":false,"station_id":"GGL","i_lat":-6.162021,"time":2,"i_long":106.788277,"line":5},{"i_lat":-6.155215,"distance":1700,"station_id":"DU","i_long":106.800832,"line":1,"transit":true,"station_name":"Duri","is_transit":true,"time":3},{"station_name":"Angke","i_long":106.79867,"distance":1230,"line":1,"station_id":"AK","time":4,"i_lat":-6.144674,"is_transit":false,"transit":false},{"time":9,"i_long":106.826365,"i_lat":-6.132549,"station_id":"KPB","station_name":"Kampung Bandan","distance":4102,"line":4,"transit":true,"is_transit":true},{"is_transit":true,"i_lat":-6.137569,"station_name":"Jakarta Kota","transit":true,"distance":1364,"i_long":106.812439,"line":2,"time":3,"station_id":"JAKK"},{"line":2,"station_id":"JAY","transit":false,"distance":1264,"i_long":106.820901,"time":4,"i_lat":-6.141205,"station_name":"Jayakarta","is_transit":false},{"i_lat":-6.149769,"station_id":"MGB","time":2,"is_transit":false,"i_long":106.82482,"station_name":"Manggabesar","line":2,"transit":false,"distance":1080},{"i_lat":-6.160725,"line":2,"transit":false,"station_name":"Sawah Besar","i_long":106.827103,"is_transit":false,"time":2,"distance":906,"station_id":"SW"},{"i_long":106.828284,"line":2,"station_name":"Juanda","transit":false,"distance":1149,"time":2,"station_id":"JUA","is_transit":false,"i_lat":-6.166716},{"is_transit":false,"i_lat":-6.186295,"time":4,"station_name":"Gondangdia","i_long":106.832183,"line":2,"distance":2015,"station_id":"GDD","transit":false},{"is_transit":false,"time":3,"line":2,"distance":1750,"transit":false,"station_id":"CKI","station_name":"Cikini","i_lat":-6.198556,"i_long":106.840169},{"time":4,"i_lat":-6.209883,"line":2,"is_transit":true,"station_id":"MRI","transit":true,"distance":1590,"station_name":"Manggarai","i_long":106.84912},{"station_id":"SUD","line":1,"station_name":"Sudirman","is_transit":false,"i_long":106.822649,"i_lat":-6.202263,"time":4,"distance":3186,"transit":false},{"line":1,"i_lat":-6.201433,"is_transit":false,"distance":280,"i_long":106.819881,"time":1,"station_name":"Sudirman Baru","station_id":"SUDB","transit":false},{"station_id":"KAT","is_transit":false,"i_long":106.816351,"line":1,"transit":false,"station_name":"Karet","i_lat":-6.20132,"distance":471,"time":1},{"station_id":"THB","i_long":106.811091,"time":5,"transit":true,"i_lat":-6.185545,"distance":2029,"is_transit":true,"line":1,"station_name":"Tanah Abang"},{"i_lat":-6.207404,"station_name":"Palmerah","is_transit":false,"i_long":106.79689,"distance":3191,"transit":false,"time":6,"station_id":"PLM","line":6},{"station_id":"KBY","is_transit":false,"transit":false,"time":7,"i_long":106.780334,"station_name":"Kebayoran","line":6,"distance":3737,"i_lat":-6.237242},{"distance":6218,"station_id":"PDJ","i_lat":-6.276362,"is_transit":false,"line":6,"i_long":106.74273,"station_name":"Pondokranji","transit":false,"time":8},{"station_name":"Jurangmangu","is_transit":false,"station_id":"JMU","i_long":106.728916,"distance":2179,"line":6,"i_lat":-6.288927,"time":3,"transit":false},{"distance":1994,"i_long":106.712277,"time":4,"i_lat":-6.296963,"line":6,"station_id":"SDM","transit":false,"station_name":"Sudimara","is_transit":false},{"station_id":"RU","i_lat":-6.314823,"transit":false,"is_transit":false,"distance":4566,"time":6,"i_long":106.675475,"line":6,"station_name":"Rawa Buntu"},{"distance":2413,"line":6,"transit":false,"i_lat":-6.319871,"i_long":106.66566,"station_name":"Serpong","station_id":"SRP","is_transit":false,"time":4},{"is_transit":false,"station_name":"Cisauk","time":4,"distance":1784,"station_id":"CSK","i_lat":-6.32484,"line":3,"transit":false,"i_long":106.640411},{"i_lat":-6.329547,"station_id":"CC","transit":false,"time":4,"line":3,"is_transit":false,"distance":2519,"station_name":"Cicayur","i_long":106.617853},{"station_id":"PRP","time":8,"transit":false,"station_name":"Parung Panjang","line":6,"distance":5968,"is_transit":false,"i_lat":-6.3441410000000005,"i_long":106.568863},{"station_name":"Cilejit","distance":7025,"i_lat":-6.354349,"is_transit":false,"station_id":"CJT","line":3,"time":9,"i_long":106.508482,"transit":false}],[{"i_lat":-6.162758,"line":5,"transit":false,"station_id":"RW","is_transit":false,"station_name":"Rawa Buaya","time":0,"distance":0,"i_long":106.723064},{"i_long":106.737035,"transit":false,"line":5,"is_transit":false,"distance":1152,"station_id":"BOI","i_lat":-6.159876,"time":4,"station_name":"Bojongindah"},{"distance":2334,"i_lat":-6.1587309999999995,"station_name":"Taman Kota","station_id":"TKO","time":2,"line":5,"is_transit":false,"transit":false,"i_long":106.756522},{"transit":false,"is_transit":false,"time":2,"distance":1614,"station_id":"PSG","i_long":106.771379,"line":5,"station_name":"Pesing","i_lat":-6.161433},{"i_long":106.788277,"distance":2036,"station_name":"Grogol","is_transit":false,"line":5,"i_lat":-6.162021,"time":2,"station_id":"GGL","transit":false},{"transit":true,"station_name":"Duri","i_long":106.800832,"time":3,"i_lat":-6.155215,"line":1,"is_transit":true,"station_id":"DU","distance":1700},{"time":4,"station_name":"Angke","distance":1230,"station_id":"AK","transit":false,"is_transit":false,"i_lat":-6.144674,"line":1,"i_long":106.79867},{"is_transit":true,"time":9,"station_id":"KPB","distance":4102,"i_lat":-6.132549,"transit":true,"i_long":106.826365,"line":4,"station_name":"Kampung Bandan"},{"station_id":"RJW","time":3,"distance":1444,"transit":false,"i_long":106.836569,"is_transit":false,"line":11,"i_lat":-6.14505,"station_name":"Rajawali"},{"is_transit":false,"time":5,"station_name":"Kemayoran","transit":false,"i_lat":-6.161728,"station_id":"KMO","distance":1901,"i_long":106.839204,"line":11},{"distance":1436,"time":4,"i_lat":-6.174784,"is_transit":false,"station_id":"PSE","i_long":106.84368,"line":11,"transit":false,"station_name":"Pasar Senen"},{"i_lat":-6.185975,"station_id":"GST","line":11,"time":8,"station_name":"Gang Sentiong","is_transit":false,"i_long":106.850107,"transit":false,"distance":1567},{"station_name":"Kramat","distance":973,"transit":false,"time":1,"i_lat":-6.193792,"i_long":106.855437,"line":11,"is_transit":false,"station_id":"KMT"},{"distance":1829,"i_long":106.861737,"line":11,"is_transit":false,"time":2,"station_id":"POK","transit":false,"i_lat":-6.209188,"station_name":"Pondok Jati"},{"is_transit":true,"station_id":"JNG","line":1,"time":9,"i_lat":-6.215091,"station_name":"Jatinegara","i_long":106.86807400000001,"distance":1236,"transit":true},{"i_long":106.858896,"line":1,"distance":1377,"transit":false,"i_lat":-6.212485,"time":2,"station_name":"Matraman","is_transit":false,"station_id":"MTR"},{"transit":false,"distance":1275,"i_lat":-6.209883,"i_long":106.84912,"line":2,"time":2,"station_id":"MRI","is_transit":false,"station_name":"Manggarai"},{"i_lat":-6.202263,"line":1,"station_name":"Sudirman","i_long":106.822649,"station_id":"SUD","time":4,"distance":3186,"transit":false,"is_transit":false},{"line":1,"i_lat":-6.201433,"time":1,"station_name":"Sudirman Baru","distance":280,"station_id":"SUDB","transit":false,"is_transit":false,"i_long":106.819881},{"i_lat":-6.20132,"i_long":106.816351,"time":1,"line":1,"distance":471,"station_id":"KAT","transit":false,"is_transit":false,"station_name":"Karet"},{"i_long":106.811091,"time":5,"station_id":"THB","line":1,"station_name":"Tanah Abang","is_transit":true,"distance":2029,"i_lat":-6.185545,"transit":true},{"time":6,"distance":3191,"station_name":"Palmerah","i_lat":-6.207404,"station_id":"PLM","transit":false,"is_transit":false,"i_long":106.79689,"line":6},{"station_id":"KBY","station_name":"Kebayoran","is_transit":false,"line":6,"transit":false,"time":7,"i_lat":-6.237242,"i_long":106.780334,"distance":3737},{"station_name":"Pondokranji","transit":false,"line":6,"is_transit":false,"time":8,"station_id":"PDJ","i_lat":-6.276362,"i_long":106.74273,"distance":6218},{"time":3,"distance":2179,"i_long":106.728916,"station_id":"JMU","i_lat":-6.288927,"line":6,"station_name":"Jurangmangu","is_transit":false,"transit":false},{"station_name":"Sudimara","time":4,"transit":false,"is_transit":false,"line":6,"i_lat":-6.296963,"distance":1994,"station_id":"SDM","i_long":106.712277},{"i_lat":-6.314823,"line":6,"station_name":"Rawa Buntu","is_transit":false,"transit":false,"time":6,"station_id":"RU","i_long":106.675475,"distance":4566},{"i_long":106.66566,"i_lat":-6.319871,"station_name":"Serpong","transit":false,"station_id":"SRP","distance":2413,"time":4,"is_transit":false,"line":6},{"line":3,"distance":1784,"station_id":"CSK","transit":false,"i_long":106.640411,"is_transit":false,"station_name":"Cisauk","time":4,"i_lat":-6.32484},{"transit":false,"time":4,"station_id":"CC","i_long":106.617853,"i_lat":-6.329547,"is_transit":false,"station_name":"Cicayur","distance":2519,"line":3},{"station_id":"PRP","time":8,"line":6,"i_long":106.568863,"distance":5968,"i_lat":-6.3441410000000005,"station_name":"Parung Panjang","is_transit":false,"transit":false},{"line":3,"station_name":"Cilejit","station_id":"CJT","i_long":106.508482,"time":9,"distance":7025,"is_transit":false,"transit":false,"i_lat":-6.354349}]]}