{"data":[[{"i_long":106.723064,"station_id":"RW","is_transit":false,"station_name":"Rawa Buaya","time":0,"i_lat":-6.162758,"transit":false,"line":5,"distance":0},{"transit":false,"line":5,"i_lat":-6.159876,"time":4,"distance":1152,"station_name":"Bojongindah","i_long":106.737035,"station_id":"BOI","is_transit":false},{"transit":false,"station_name":"Taman Kota","i_lat":-6.1587309999999995,"line":5,"station_id":"TKO","i_long":106.756522,"is_transit":false,"time":2,"distance":2334},{"line":5,"station_id":"PSG","is_transit":false,"transit":false,"time":2,"i_lat":-6.161433,"i_long":106.771379,"station_name":"Pesing","distance":1614},{"distance":2036,"station_name":"Grogol","transit":false,"station_id":"GGL","line":5,"i_long":106.788277,"is_transit":false,"time":2,"i_lat":-6.162021},{"i_lat":-6.155215,"is_transit":true,"time":3,"station_name":"Duri","distance":1700,"station_id":"DU","transit":true,"i_long":106.800832,"line":1},{"station_name":"Tanah Abang","i_long":106.811091,"line":1,"station_id":"THB","transit":false,"i_lat":-6.185545,"time":8,"distance":3632,"is_transit":false},{"transit":false,"i_lat":-6.20132,"time":5,"station_id":"KAT","station_name":"Karet","i_long":106.816351,"line":1,"distance":2029,"is_transit":false},{"transit":false,"i_long":106.819881,"distance":471,"is_transit":false,"line":1,"station_name":"Sudirman Baru","i_lat":-6.201433,"station_id":"SUDB","time":1},{"i_lat":-6.202263,"time":1,"i_long":106.822649,"station_name":"Sudirman","is_transit":false,"line":1,"distance":280,"station_id":"SUD","transit":false},{"is_transit":false,"station_id":"MRI","transit":false,"i_lat":-6.209883,"station_name":"Manggarai","i_long":106.84912,"distance":3186,"line":2,"time":4},{"transit":false,"time":2,"station_id":"MTR","is_transit":false,"station_name":"Matraman","line":1,"i_long":106.858896,"i_lat":-6.212485,"distance":1275},{"is_transit":false,"time":8,"distance":1377,"station_name":"Jatinegara","i_long":106.86807400000001,"station_id":"JNG","i_lat":-6.215091,"transit":false,"line":1},{"i_long":106.899548,"station_name":"Klender","time":3,"transit":false,"is_transit":false,"i_lat":-6.2135,"distance":3395,"station_id":"KLD","line":1},{"is_transit":false,"transit":false,"station_name":"Buaran","time":2,"i_long":106.922662,"line":1,"i_lat":-6.215568,"station_id":"BUA","distance":3100},{"line":1,"station_name":"Klenderbaru","time":1,"is_transit":false,"i_long":106.939679,"transit":false,"i_lat":-6.217455,"distance":1305,"station_id":"KLDB"},{"line":1,"i_lat":-6.219053,"station_id":"CUK","distance":1385,"i_long":106.951283,"station_name":"Cakung","is_transit":false,"time":8,"transit":false},{"time":3,"i_lat":-6.224515,"distance":3097,"station_id":"KRI","line":1,"station_name":"Kranji","is_transit":false,"transit":false,"i_long":106.977657},{"distance":2520,"station_name":"Bekasi","line":1,"i_long":106.997013,"i_lat":-6.236616,"is_transit":false,"time":4,"station_id":"BKS","transit":false},{"station_name":"Bekasi Timur","i_long":107.016735,"distance":2368,"line":1,"is_transit":false,"transit":false,"time":2,"station_id":"BKST","i_lat":-6.248029},{"transit":false,"time":7,"distance":4460,"is_transit":false,"i_long":107.055722,"station_id":"TB","line":1,"station_name":"Tambun","i_lat":-6.258864},{"transit":false,"is_transit":false,"station_id":"CIT","station_name":"Cibitung","time":3,"i_lat":-6.261877,"line":1,"distance":3420,"i_long":107.083084},{"transit":false,"distance":2800,"i_long":107.093313,"line":1,"is_transit":false,"station_name":"Metland Telaga Murni","time":2,"station_id":"TLM","i_lat":-6.262938},{"station_name":"Cikarang","is_transit":false,"station_id":"CKR","time":4,"distance":3689,"transit":false,"line":1,"i_lat":-6.2553149999999995,"i_long":107.144613}],[{"station_id":"RW","i_lat":-6.162758,"i_long":106.723064,"line":5,"time":0,"is_transit":false,"station_name":"Rawa Buaya","distance":0,"transit":false},{"station_name":"Bojongindah","is_transit":false,"transit":false,"distance":1152,"i_lat":-6.159876,"line":5,"station_id":"BOI","i_long":106.737035,"time":4},{"i_lat":-6.1587309999999995,"station_name":"Taman Kota","time":2,"transit":false,"distance":2334,"i_long":106.756522,"line":5,"is_transit":false,"station_id":"TKO"},{"distance":1614,"i_long":106.771379,"time":2,"i_lat":-6.161433,"line":5,"is_transit":false,"transit":false,"station_name":"Pesing","station_id":"PSG"},{"transit":false,"distance":2036,"station_id":"GGL","i_lat":-6.162021,"station_name":"Grogol","time":2,"i_long":106.788277,"line":5,"is_transit":false},{"distance":1700,"is_transit":true,"i_lat":-6.155215,"time":3,"station_name":"Duri","line":1,"transit":true,"station_id":"DU","i_long":106.800832},{"station_id":"AK","i_long":106.79867,"line":1,"time":4,"distance":1230,"transit":false,"is_transit":false,"i_lat":-6.144674,"station_name":"Angke"},{"station_name":"Kampung Bandan","distance":4102,"station_id":"KPB","i_lat":-6.132549,"line":4,"is_transit":true,"time":9,"transit":true,"i_long":106.826365},{"transit":false,"is_transit":false,"line":11,"i_lat":-6.14505,"distance":1444,"i_long":106.836569,"station_id":"RJW","station_name":"Rajawali","time":3},{"station_id":"KMO","line":11,"transit":false,"time":5,"i_lat":-6.161728,"i_long":106.839204,"is_transit":false,"distance":1901,"station_name":"Kemayoran"},{"transit":false,"line":11,"time":4,"is_transit":false,"station_name":"Pasar Senen","i_lat":-6.174784,"distance":1436,"i_long":106.84368,"station_id":"PSE"},{"time":8,"station_id":"GST","station_name":"Gang Sentiong","line":11,"i_lat":-6.185975,"i_long":106.850107,"distance":1567,"transit":false,"is_transit":false},{"is_transit":false,"line":11,"distance":973,"i_lat":-6.193792,"station_id":"KMT","time":1,"station_name":"Kramat","transit":false,"i_long":106.855437},{"is_transit":false,"i_long":106.861737,"station_id":"POK","time":2,"transit":false,"i_lat":-6.209188,"station_name":"Pondok Jati","distance":1829,"line":11},{"time":9,"transit":true,"is_transit":true,"i_long":106.86807400000001,"distance":1236,"station_id":"JNG","i_lat":-6.215091,"station_name":"Jatinegara","line":1},{"station_name":"Klender","transit":false,"distance":3395,"i_lat":-6.2135,"i_long":106.899548,"time":3,"station_id":"KLD","is_transit":false,"line":1},{"station_id":"BUA","station_name":"Buaran","distance":3100,"transit":false,"line":1,"is_transit":false,"i_lat":-6.215568,"time":2,"i_long":106.922662},{"line":1,"i_lat":-6.217455,"i_long":106.939679,"transit":false,"station_name":"Klenderbaru","time":1,"is_transit":false,"distance":1305,"station_id":"KLDB"},{"is_transit":false,"transit":false,"distance":1385,"time":8,"line":1,"station_id":"CUK","i_long":106.951283,"i_lat":-6.219053,"station_name":"Cakung"},{"i_long":106.977657,"station_name":"Kranji","is_transit":false,"station_id":"KRI","time":3,"transit":false,"distance":3097,"i_lat":-6.224515,"line":1},{"transit":false,"station_name":"Bekasi","station_id":"BKS","is_transit":false,"distance":2520,"line":1,"i_long":106.997013,"time":4,"i_lat":-6.236616},{"time":2,"distance":2368,"transit":false,"station_id":"BKST","i_long":107.016735,"station_name":"Bekasi Timur","i_lat":-6.248029,"is_transit":false,"line":1},{"i_long":107.055722,"line":1,"station_id":"TB","is_transit":false,"station_name":"Tambun","distance":4460,"i_lat":-6.258864,"time":7,"transit":false},{"distance":3420,"station_id":"CIT","i_lat":-6.261877,"line":1,"station_name":"Cibitung","transit":false,"is_transit":false,"time":3,"i_long":107.083084},{"is_transit":false,"i_lat":-6.262938,"station_id":"TLM","station_name":"Metland Telaga Murni","i_long":107.093313,"distance":2800,"transit":false,"line":1,"time":2},{"time":4,"station_name":"Cikarang","transit":false,"distance":3689,"i_lat":-6.2553149999999995,"is_transit":false,"i_long":107.144613,"line":1,"station_id":"CKR"}],[{"i_lat":-6.162758,"station_name":"Rawa Buaya","is_transit":false,"distance":0,"station_id":"RW","i_long":106.723064,"line":5,"time":0,"transit":false},{"station_id":"BOI","i_long":106.737035,"line":5,"i_lat":-6.159876,"time":4,"distance":1152,"station_name":"Bojongindah","is_transit":false,"transit":false},{"time":2,"line":5,"station_id":"TKO","transit":false,"is_transit":false,"station_name":"Taman Kota","i_lat":-6.1587309999999995,"i_long":106.756522,"distance":2334},{"transit":false,"line":5,"time":2,"distance":1614,"i_long":106.771379,"is_transit":false,"station_name":"Pesing","station_id":"PSG","i_lat":-6.161433},{"time":2,"distance":2036,"i_long":106.788277,"transit":false,"line":5,"is_transit":false,"station_id":"GGL","i_lat":-6.162021,"station_name":"Grogol"},{"transit":true,"station_id":"DU","i_lat":-6.155215,"time":3,"i_long":106.800832,"distance":1700,"line":1,"station_name":"Duri","is_transit":true},{"i_lat":-6.144674,"is_transit":false,"transit":false,"station_name":"Angke","distance":1230,"i_long":106.79867,"time":4,"line":1,"station_id":"AK"},{"station_name":"Kampung Bandan","station_id":"KPB","time":9,"distance":4102,"line":4,"i_lat":-6.132549,"transit":true,"i_long":106.826365,"is_transit":true},{"station_id":"JAKK","i_lat":-6.137569,"station_name":"Jakarta Kota","transit":true,"line":2,"time":3,"i_long":106.812439,"is_transit":true,"distance":1364},{"transit":false,"line":2,"distance":1264,"station_name":"Jayakarta","station_id":"JAY","is_transit":false,"i_long":106.820901,"i_lat":-6.141205,"time":4},{"line":2,"station_id":"MGB","i_lat":-6.149769,"i_long":106.82482,"time":2,"is_transit":false,"station_name":"Manggabesar","transit":false,"distance":1080},{"station_id":"SW","time":2,"i_long":106.827103,"line":2,"i_lat":-6.160725,"is_transit":false,"distance":906,"station_name":"Sawah Besar","transit":false},{"time":2,"line":2,"station_id":"JUA","i_lat":-6.166716,"is_transit":false,"station_name":"Juanda","transit":false,"distance":1149,"i_long":106.828284},{"is_transit":false,"distance":2015,"transit":false,"line":2,"i_lat":-6.186295,"station_id":"GDD","station_name":"Gondangdia","time":4,"i_long":106.832183},{"i_lat":-6.198556,"line":2,"time":3,"is_transit":false,"i_long":106.840169,"transit":false,"station_name":"Cikini","distance":1750,"station_id":"CKI"},{"i_long":106.84912,"station_name":"Manggarai","i_lat":-6.209883,"is_transit":true,"transit":true,"line":2,"station_id":"MRI","time":4,"distance":1590},{"transit":false,"i_lat":-6.212485,"i_long":106.858896,"line":1,"station_name":"Matraman","distance":1275,"time":2,"station_id":"MTR","is_transit":false},{"station_id":"JNG","distance":1377,"is_transit":false,"i_lat":-6.215091,"transit":false,"station_name":"Jatinegara","time":8,"i_long":106.86807400000001,"line":1},{"distance":3395,"transit":false,"line":1,"station_name":"Klender","i_lat":-6.2135,"station_id":"KLD","time":3,"is_transit":false,"i_long":106.899548},{"is_transit":false,"i_long":106.922662,"station_name":"Buaran","station_id":"BUA","time":2,"transit":false,"line":1,"i_lat":-6.215568,"distance":3100},{"station_name":"Klenderbaru","distance":1305,"time":1,"i_lat":-6.217455,"is_transit":false,"i_long":106.939679,"line":1,"station_id":"KLDB","transit":false},{"distance":1385,"station_id":"CUK","is_transit":false,"station_name":"Cakung","transit":false,"i_long":106.951283,"i_lat":-6.219053,"time":8,"line":1},{"station_id":"KRI","station_name":"Kranji","transit":false,"i_lat":-6.224515,"is_transit":false,"line":1,"time":3,"i_long":106.977657,"distance":3097},{"line":1,"is_transit":false,"time":4,"i_long":106.997013,"distance":2520,"transit":false,"i_lat":-6.236616,"station_id":"BKS","station_name":"Bekasi"},{"transit":false,"station_id":"BKST","distance":2368,"station_name":"Bekasi Timur","line":1,"time":2,"i_lat":-6.248029,"i_long":107.016735,"is_transit":false},{"time":7,"is_transit":false,"station_name":"Tambun","station_id":"TB","i_lat":-6.258864,"transit":false,"distance":4460,"i_long":107.055722,"line":1},{"is_transit":false,"station_name":"Cibitung","time":3,"station_id":"CIT","distance":3420,"i_lat":-6.261877,"i_long":107.083084,"transit":false,"line":1},{"distance":2800,"station_name":"Metland Telaga Murni","is_transit":false,"transit":false,"station_id":"TLM","i_lat":-6.262938,"i_long":107.093313,"time":2,"line":1},{"transit":false,"station_name":"Cikarang","is_transit":false,"station_id":"CKR","time":4,"distance":3689,"i_lat":-6.2553149999999995,"i_long":107.144613,"line":1}],[{"line":5,"station_name":"Rawa Buaya","transit":false,"is_transit":false,"time":0,"distance":0,"i_long":106.723064,"station_id":"RW","i_lat":-6.162758},{"line":5,"i_lat":-6.159876,"distance":1152,"transit":false,"time":4,"i_long":106.737035,"is_transit":false,"station_name":"Bojongindah","station_id":"BOI"},{"distance":2334,"i_long":106.756522,"transit":false,"line":5,"time":2,"is_transit":false,"i_lat":-6.1587309999999995,"station_name":"Taman Kota","station_id":"TKO"},{"station_name":"Pesing","distance":1614,"i_long":106.771379,"i_lat":-6.161433,"line":5,"transit":false,"station_id":"PSG","is_transit":false,"time":2},{"distance":2036,"line":5,"station_id":"GGL","i_long":106.788277,"time":2,"transit":false,"station_name":"Grogol","i_lat":-6.162021,"is_transit":false},{"transit":true,"i_lat":-6.155215,"time":3,"i_long":106.800832,"distance":1700,"line":1,"station_id":"DU","station_name":"Duri","is_transit":true},{"distance":3632,"i_long":106.811091,"i_lat":-6.185545,"time":8,"line":1,"station_id":"THB","transit":false,"is_transit":false,"station_name":"Tanah Abang"},{"i_lat":-6.20132,"line":1,"station_name":"Karet","transit":false,"i_long":106.816351,"distance":2029,"is_transit":false,"time":5,"station_id":"KAT"},{"i_lat":-6.201433,"i_long":106.819881,"station_name":"Sudirman Baru","time":1,"is_transit":false,"station_id":"SUDB","line":1,"distance":471,"transit":false},{"i_long":106.822649,"station_id":"SUD","i_lat":-6.202263,"transit":false,"distance":280,"time":1,"is_transit":false,"station_name":"Sudirman","line":1},{"distance":3186,"i_long":106.84912,"station_id":"MRI","time":4,"i_lat":-6.209883,"transit":true,"is_transit":true,"line":2,"station_name":"Manggarai"},{"i_lat":-6.198556,"i_long":106.840169,"station_id":"CKI","time":4,"is_transit":false,"transit":false,"line":2,"station_name":"Cikini","distance":1590},{"i_long":106.832183,"is_transit":false,"transit":false,"i_lat":-6.186295,"station_id":"GDD","line":2,"distance":1750,"station_name":"Gondangdia","time":3},{"is_transit":false,"distance":2015,"station_id":"JUA","time":4,"transit":false,"line":2,"station_name":"Juanda","i_long":106.828284,"i_lat":-6.166716},{"is_transit":false,"station_name":"Sawah Besar","transit":false,"i_lat":-6.160725,"distance":1149,"time":2,"line":2,"station_id":"SW","i_long":106.827103},{"i_long":106.82482,"distance":906,"line":2,"is_transit":false,"station_id":"MGB","i_lat":-6.149769,"transit":false,"station_name":"Manggabesar","time":2},{"i_lat":-6.141205,"transit":false,"i_long":106.820901,"station_name":"Jayakarta","is_transit":false,"distance":1080,"time":2,"station_id":"JAY","line":2},{"is_transit":true,"i_long":106.812439,"station_name":"Jakarta Kota","station_id":"JAKK","i_lat":-6.137569,"distance":1264,"transit":true,"line":2,"time":4},{"i_lat":-6.132549,"time":3,"transit":true,"i_long":106.826365,"is_transit":true,"station_id":"KPB","distance":1364,"station_name":"Kampung Bandan","line":4},{"is_transit":false,"i_lat":-6.14505,"line":11,"station_name":"Rajawali","time":3,"distance":1444,"station_id":"RJW","transit":false,"i_long":106.836569},{"is_transit":false,"line":11,"time":5,"i_lat":-6.161728,"station_name":"Kemayoran","i_long":106.839204,"station_id":"KMO","transit":false,"distance":1901},{"line":11,"transit":false,"is_transit":false,"station_name":"Pasar Senen","time":4,"i_lat":-6.174784,"i_long":106.84368,"station_id":"PSE","distance":1436},{"time":8,"i_long":106.850107,"transit":false,"line":11,"station_id":"GST","i_lat":-6.185975,"is_transit":false,"station_name":"Gang Sentiong","distance":1567},{"transit":false,"i_long":106.855437,"distance":973,"time":1,"station_name":"Kramat","line":11,"station_id":"KMT","i_lat":-6.193792,"is_transit":false},{"line":11,"is_transit":false,"time":2,"transit":false,"station_id":"POK","station_name":"Pondok Jati","i_lat":-6.209188,"i_long":106.861737,"distance":1829},{"is_transit":true,"station_name":"Jatinegara","time":9,"station_id":"JNG","i_long":106.86807400000001,"transit":true,"distance":1236,"i_lat":-6.215091,"line":1},{"is_transit":false,"distance":3395,"time":3,"line":1,"station_id":"KLD","i_long":106.899548,"transit":false,"i_lat":-6.2135,"station_name":"Klender"},{"time":2,"station_name":"Buaran","transit":false,"is_transit":false,"distance":3100,"i_lat":-6.215568,"station_id":"BUA","line":1,"i_long":106.922662},{"i_lat":-6.217455,"is_transit":false,"station_id":"KLDB","station_name":"Klenderbaru","transit":false,"line":1,"i_long":106.939679,"distance":1305,"time":1},{"transit":false,"time":8,"is_transit":false,"station_id":"CUK","i_long":106.951283,"station_name":"Cakung","line":1,"distance":1385,"i_lat":-6.219053},{"distance":3097,"station_name":"Kranji","line":1,"time":3,"station_id":"KRI","i_lat":-6.224515,"transit":false,"i_long":106.977657,"is_transit":false},{"i_lat":-6.236616,"time":4,"i_long":106.997013,"line":1,"is_transit":false,"distance":2520,"transit":false,"station_name":"Bekasi","station_id":"BKS"},{"is_transit":false,"i_lat":-6.248029,"i_long":107.016735,"time":2,"transit":false,"line":1,"station_name":"Bekasi Timur","station_id":"BKST","distance":2368},{"distance":4460,"line":1,"i_long":107.055722,"time":7,"station_name":"Tambun","is_transit":false,"transit":false,"i_lat":-6.258864,"station_id":"TB"},{"i_lat":-6.261877,"i_long":107.083084,"time":3,"station_name":"Cibitung","transit":false,"station_id":"CIT","is_transit":false,"line":1,"distance":3420},{"distance":2800,"station_name":"Metland Telaga Murni","station_id":"TLM","is_transit":false,"i_lat":-6.262938,"line":1,"i_long":107.093313,"transit":false,"time":2},{"transit":false,"i_long":107.144613,"time":4,"i_lat":-6.2553149999999995,"station_name":"Cikarang","is_transit":false,"distance":3689,"station_id":"CKR","line":1}]]}