{"data":[[{"i_long":106.723064,"distance":0,"time":0,"i_lat":-6.162758,"is_transit":false,"transit":false,"line":5,"station_id":"RW","station_name":"Rawa Buaya"},{"distance":1152,"is_transit":false,"time":4,"transit":false,"i_lat":-6.159876,"i_long":106.737035,"station_id":"BOI","line":5,"station_name":"Bojongindah"},{"i_long":106.756522,"time":2,"station_id":"TKO","distance":2334,"line":5,"station_name":"Taman Kota","is_transit":false,"transit":false,"i_lat":-6.1587309999999995},{"time":2,"station_name":"Pesing","transit":false,"station_id":"PSG","is_transit":false,"i_lat":-6.161433,"distance":1614,"i_long":106.771379,"line":5},{"distance":2036,"line":5,"i_long":106.788277,"station_name":"Grogol","station_id":"GGL","transit":false,"is_transit":false,"time":2,"i_lat":-6.162021},{"time":3,"i_lat":-6.155215,"line":1,"is_transit":true,"transit":true,"station_id":"DU","distance":1700,"station_name":"Duri","i_long":106.800832},{"transit":true,"station_name":"Tanah Abang","time":8,"distance":3632,"is_transit":true,"i_lat":-6.185545,"i_long":106.811091,"line":1,"station_id":"THB"},{"station_name":"Palmerah","station_id":"PLM","i_long":106.79689,"time":6,"i_lat":-6.207404,"is_transit":false,"line":6,"distance":3191,"transit":false},{"time":7,"station_name":"Kebayoran","station_id":"KBY","distance":3737,"transit":false,"i_lat":-6.237242,"i_long":106.780334,"is_transit":false,"line":6},{"station_id":"PDJ","i_lat":-6.276362,"i_long":106.74273,"line":6,"transit":false,"is_transit":false,"time":8,"distance":6218,"station_name":"Pondokranji"},{"station_id":"JMU","is_transit":false,"i_lat":-6.288927,"i_long":106.728916,"transit":false,"station_name":"Jurangmangu","time":3,"distance":2179,"line":6},{"i_long":106.712277,"time":4,"line":6,"station_id":"SDM","distance":1994,"i_lat":-6.296963,"station_name":"Sudimara","transit":false,"is_transit":false},{"i_lat":-6.314823,"station_name":"Rawa Buntu","i_long":106.675475,"distance":4566,"line":6,"station_id":"RU","time":6,"transit":false,"is_transit":false},{"station_name":"Serpong","i_lat":-6.319871,"transit":false,"station_id":"SRP","i_long":106.66566,"time":4,"is_transit":false,"line":6,"distance":2413},{"station_id":"CSK","distance":1784,"station_name":"Cisauk","i_lat":-6.32484,"line":3,"transit":false,"is_transit":false,"i_long":106.640411,"time":4},{"distance":2519,"i_lat":-6.329547,"line":3,"transit":false,"station_id":"CC","time":4,"i_long":106.617853,"station_name":"Cicayur","is_transit":false},{"distance":5968,"is_transit":false,"time":8,"i_lat":-6.3441410000000005,"i_long":106.568863,"line":6,"station_id":"PRP","transit":false,"station_name":"Parung Panjang"},{"station_id":"CJT","line":3,"station_name":"Cilejit","time":9,"distance":7025,"transit":false,"i_lat":-6.354349,"i_long":106.508482,"is_transit":false}],[{"i_lat":-6.162758,"i_long":106.723064,"station_name":"Rawa Buaya","distance":0,"time":0,"transit":false,"station_id":"RW","is_transit":false,"line":5},{"station_id":"BOI","i_lat":-6.159876,"transit":false,"is_transit":false,"time":4,"distance":1152,"i_long":106.737035,"line":5,"station_name":"Bojongindah"},{"station_name":"Taman Kota","is_transit":false,"i_lat":-6.1587309999999995,"station_id":"TKO","transit":false,"distance":2334,"time":2,"i_long":106.756522,"line":5},{"time":2,"distance":1614,"line":5,"i_lat":-6.161433,"station_name":"Pesing","is_transit":false,"i_long":106.771379,"transit":false,"station_id":"PSG"},{"distance":2036,"time":2,"i_lat":-6.162021,"station_name":"Grogol","is_transit":false,"transit":false,"i_long":106.788277,"line":5,"station_id":"GGL"},{"is_transit":true,"station_id":"DU","i_long":106.800832,"line":1,"transit":true,"i_lat":-6.155215,"distance":1700,"time":3,"station_name":"Duri"},{"station_id":"AK","line":1,"transit":false,"distance":1230,"time":4,"station_name":"Angke","i_long":106.79867,"is_transit":false,"i_lat":-6.144674},{"station_name":"Kampung Bandan","station_id":"KPB","line":4,"time":9,"transit":true,"distance":4102,"i_long":106.826365,"i_lat":-6.132549,"is_transit":true},{"transit":true,"station_id":"JAKK","is_transit":true,"distance":1364,"i_lat":-6.137569,"i_long":106.812439,"time":3,"line":2,"station_name":"Jakarta Kota"},{"line":2,"transit":false,"distance":1264,"station_name":"Jayakarta","i_long":106.820901,"time":4,"i_lat":-6.141205,"is_transit":false,"station_id":"JAY"},{"distance":1080,"transit":false,"time":2,"i_long":106.82482,"line":2,"i_lat":-6.149769,"station_name":"Manggabesar","station_id":"MGB","is_transit":false},{"is_transit":false,"time":2,"distance":906,"i_lat":-6.160725,"line":2,"transit":false,"station_name":"Sawah Besar","i_long":106.827103,"station_id":"SW"},{"is_transit":false,"distance":1149,"i_long":106.828284,"time":2,"transit":false,"line":2,"station_id":"JUA","station_name":"Juanda","i_lat":-6.166716},{"is_transit":false,"station_name":"Gondangdia","distance":2015,"i_lat":-6.186295,"station_id":"GDD","i_long":106.832183,"line":2,"transit":false,"time":4},{"station_id":"CKI","line":2,"is_transit":false,"i_lat":-6.198556,"station_name":"Cikini","time":3,"i_long":106.840169,"distance":1750,"transit":false},{"line":2,"is_transit":true,"i_long":106.84912,"transit":true,"station_id":"MRI","distance":1590,"station_name":"Manggarai","i_lat":-6.209883,"time":4},{"station_name":"Sudirman","is_transit":false,"transit":false,"station_id":"SUD","i_long":106.822649,"i_lat":-6.202263,"time":4,"distance":3186,"line":1},{"time":1,"station_id":"SUDB","distance":280,"i_lat":-6.201433,"transit":false,"i_long":106.819881,"line":1,"is_transit":false,"station_name":"Sudirman Baru"},{"line":1,"i_long":106.816351,"distance":471,"station_id":"KAT","i_lat":-6.20132,"station_name":"Karet","time":1,"transit":false,"is_transit":false},{"line":1,"is_transit":true,"station_name":"Tanah Abang","station_id":"THB","time":5,"i_long":106.811091,"transit":true,"i_lat":-6.185545,"distance":2029},{"distance":3191,"i_long":106.79689,"time":6,"station_name":"Palmerah","station_id":"PLM","transit":false,"i_lat":-6.207404,"is_transit":false,"line":6},{"time":7,"station_id":"KBY","is_transit":false,"i_lat":-6.237242,"i_long":106.780334,"station_name":"Kebayoran","line":6,"transit":false,"distance":3737},{"is_transit":false,"time":8,"i_long":106.74273,"distance":6218,"line":6,"transit":false,"i_lat":-6.276362,"station_name":"Pondokranji","station_id":"PDJ"},{"time":3,"i_lat":-6.288927,"i_long":106.728916,"station_id":"JMU","distance":2179,"station_name":"Jurangmangu","transit":false,"line":6,"is_transit":false},{"station_id":"SDM","i_long":106.712277,"time":4,"is_transit":false,"transit":false,"i_lat":-6.296963,"line":6,"station_name":"Sudimara","distance":1994},{"distance":4566,"i_long":106.675475,"line":6,"transit":false,"i_lat":-6.314823,"is_transit":false,"time":6,"station_name":"Rawa Buntu","station_id":"RU"},{"station_name":"Serpong","distance":2413,"i_long":106.66566,"time":4,"i_lat":-6.319871,"is_transit":false,"line":6,"transit":false,"station_id":"SRP"},{"distance":1784,"is_transit":false,"i_long":106.640411,"line":3,"time":4,"transit":false,"station_id":"CSK","station_name":"Cisauk","i_lat":-6.32484},{"transit":false,"station_name":"Cicayur","distance":2519,"i_lat":-6.329547,"is_transit":false,"station_id":"CC","line":3,"i_long":106.617853,"time":4},{"line":6,"transit":false,"time":8,"station_name":"Parung Panjang","is_transit":false,"i_long":106.568863,"station_id":"PRP","distance":5968,"i_lat":-6.3441410000000005},{"i_long":106.508482,"is_transit":false,"line":3,"i_lat":-6.354349,"time":9,"station_name":"Cilejit","distance":7025,"transit":false,"station_id":"CJT"}],[{"i_lat":-6.162758,"i_long":106.723064,"line":5,"time":0,"station_id":"RW","station_name":"Rawa Buaya","distance":0,"transit":false,"is_transit":false},{"distance":1152,"i_lat":-6.159876,"i_long":106.737035,"is_transit":false,"transit":false,"station_name":"Bojongindah","station_id":"BOI","time":4,"line":5},{"i_long":106.756522,"distance":2334,"time":2,"line":5,"station_name":"Taman Kota","transit":false,"station_id":"TKO","is_transit":false,"i_lat":-6.1587309999999995},{"i_long":106.771379,"line":5,"i_lat":-6.161433,"transit":false,"is_transit":false,"distance":1614,"station_name":"Pesing","station_id":"PSG","time":2},{"transit":false,"i_long":106.788277,"time":2,"station_name":"Grogol","distance":2036,"line":5,"station_id":"GGL","is_transit":false,"i_lat":-6.162021},{"is_transit":true,"i_long":106.800832,"distance":1700,"transit":true,"station_name":"Duri","station_id":"DU","i_lat":-6.155215,"line":1,"time":3},{"time":4,"station_name":"Angke","i_long":106.79867,"line":1,"transit":false,"station_id":"AK","is_transit":false,"distance":1230,"i_lat":-6.144674},{"time":9,"line":4,"i_lat":-6.132549,"distance":4102,"station_name":"Kampung Bandan","station_id":"KPB","i_long":106.826365,"transit":true,"is_transit":true},{"i_long":106.836569,"transit":false,"is_transit":false,"time":3,"station_name":"Rajawali","line":11,"station_id":"RJW","distance":1444,"i_lat":-6.14505},{"transit":false,"i_lat":-6.161728,"line":11,"station_name":"Kemayoran","station_id":"KMO","is_transit":false,"time":5,"distance":1901,"i_long":106.839204},{"is_transit":false,"i_lat":-6.174784,"i_long":106.84368,"line":11,"station_id":"PSE","station_name":"Pasar Senen","time":4,"transit":false,"distance":1436},{"i_long":106.850107,"transit":false,"station_name":"Gang Sentiong","line":11,"time":8,"station_id":"GST","distance":1567,"is_transit":false,"i_lat":-6.185975},{"station_name":"Kramat","is_transit":false,"station_id":"KMT","time":1,"i_long":106.855437,"transit":false,"distance":973,"line":11,"i_lat":-6.193792},{"station_name":"Pondok Jati","station_id":"POK","time":2,"i_long":106.861737,"i_lat":-6.209188,"transit":false,"line":11,"is_transit":false,"distance":1829},{"time":9,"is_transit":true,"i_long":106.86807400000001,"line":1,"transit":true,"station_name":"Jatinegara","distance":1236,"i_lat":-6.215091,"station_id":"JNG"},{"station_id":"MTR","i_long":106.858896,"i_lat":-6.212485,"distance":1377,"is_transit":false,"time":2,"station_name":"Matraman","line":1,"transit":false},{"time":2,"distance":1275,"is_transit":false,"transit":false,"station_id":"MRI","line":2,"i_lat":-6.209883,"i_long":106.84912,"station_name":"Manggarai"},{"is_transit":false,"line":1,"station_id":"SUD","distance":3186,"transit":false,"i_lat":-6.202263,"station_name":"Sudirman","i_long":106.822649,"time":4},{"station_name":"Sudirman Baru","distance":280,"i_lat":-6.201433,"i_long":106.819881,"line":1,"station_id":"SUDB","is_transit":false,"time":1,"transit":false},{"station_name":"Karet","is_transit":false,"distance":471,"i_lat":-6.20132,"time":1,"i_long":106.816351,"station_id":"KAT","line":1,"transit":false},{"i_long":106.811091,"distance":2029,"i_lat":-6.185545,"line":1,"transit":true,"station_id":"THB","station_name":"Tanah Abang","time":5,"is_transit":true},{"distance":3191,"i_lat":-6.207404,"line":6,"transit":false,"station_id":"PLM","is_transit":false,"i_long":106.79689,"station_name":"Palmerah","time":6},{"transit":false,"is_transit":false,"i_long":106.780334,"station_name":"Kebayoran","time":7,"distance":3737,"i_lat":-6.237242,"station_id":"KBY","line":6},{"time":8,"line":6,"i_long":106.74273,"distance":6218,"is_transit":false,"i_lat":-6.276362,"transit":false,"station_name":"Pondokranji","station_id":"PDJ"},{"line":6,"station_name":"Jurangmangu","time":3,"distance":2179,"i_lat":-6.288927,"i_long":106.728916,"transit":false,"station_id":"JMU","is_transit":false},{"station_id":"SDM","time":4,"i_lat":-6.296963,"distance":1994,"line":6,"i_long":106.712277,"station_name":"Sudimara","transit":false,"is_transit":false},{"i_lat":-6.314823,"line":6,"distance":4566,"station_name":"Rawa Buntu","is_transit":false,"i_long":106.675475,"transit":false,"station_id":"RU","time":6},{"transit":false,"station_id":"SRP","i_lat":-6.319871,"is_transit":false,"station_name":"Serpong","distance":2413,"i_long":106.66566,"line":6,"time":4},{"i_lat":-6.32484,"transit":false,"station_id":"CSK","i_long":106.640411,"time":4,"station_name":"Cisauk","line":3,"is_transit":false,"distance":1784},{"distance":2519,"is_transit":false,"i_lat":-6.329547,"line":3,"station_name":"Cicayur","station_id":"CC","time":4,"i_long":106.617853,"transit":false},{"is_transit":false,"transit":false,"station_id":"PRP","station_name":"Parung Panjang","time":8,"distance":5968,"i_long":106.568863,"line":6,"i_lat":-6.3441410000000005},{"transit":false,"is_transit":false,"station_name":"Cilejit","time":9,"i_long":106.508482,"i_lat":-6.354349,"distance":7025,"station_id":"CJT","line":3}]]}