{"data":[[{"time":0,"line":5,"is_transit":false,"transit":false,"station_id":"RW","i_lat":-6.162758,"station_name":"Rawa Buaya","distance":0,"i_long":106.723064},{"station_id":"BOI","time":4,"distance":1152,"is_transit":false,"station_name":"Bojongindah","transit":false,"i_lat":-6.159876,"line":0,"i_long":106.737035},{"station_name":"Taman Kota","is_transit":false,"line":5,"distance":2334,"transit":false,"time":2,"i_lat":-6.1587309999999995,"i_long":106.756522,"station_id":"TKO"},{"i_long":106.771379,"station_name":"Pesing","distance":1614,"transit":false,"i_lat":-6.161433,"is_transit":false,"line":5,"time":2,"station_id":"PSG"},{"distance":2036,"i_long":106.788277,"line":5,"is_transit":false,"station_id":"GGL","station_name":"Grogol","time":2,"transit":false,"i_lat":-6.162021},{"station_id":"DU","i_lat":-6.155215,"i_long":106.800832,"distance":1700,"line":1,"is_transit":true,"station_name":"Duri","transit":true,"time":3},{"station_name":"Tanah Abang","i_long":106.811091,"station_id":"THB","time":8,"distance":3632,"i_lat":-6.185545,"line":1,"transit":false,"is_transit":true},{"station_name":"Karet","station_id":"KAT","distance":2029,"transit":false,"is_transit":false,"i_long":106.816351,"i_lat":-6.20132,"line":1,"time":5},{"distance":471,"is_transit":false,"station_id":"SUDB","station_name":"Sudirman Baru","i_lat":-6.201433,"line":1,"transit":false,"i_long":106.819881,"time":1},{"distance":280,"i_long":106.822649,"transit":false,"station_id":"SUD","line":1,"is_transit":false,"i_lat":-6.202263,"time":1,"station_name":"Sudirman"},{"station_name":"Manggarai","line":0,"station_id":"MRI","time":4,"transit":true,"is_transit":true,"distance":3186,"i_lat":-6.209883,"i_long":106.84912},{"i_long":106.857948,"transit":false,"time":4,"distance":2610,"station_id":"TEB","is_transit":false,"line":2,"station_name":"Tebet","i_lat":-6.226659},{"i_long":106.856607,"i_lat":-6.242512,"distance":1230,"station_id":"CW","is_transit":false,"time":2,"line":0,"station_name":"Cawang","transit":false},{"transit":false,"line":0,"time":3,"station_name":"Duren Kalibata","distance":1546,"i_lat":-6.255332,"i_long":106.85449,"is_transit":false,"station_id":"DRN"},{"transit":false,"i_long":106.851577,"line":2,"station_name":"Pasar Minggu Baru","i_lat":-6.263214,"station_id":"PSMB","is_transit":false,"distance":824,"time":2},{"transit":false,"station_id":"PSM","distance":2380,"station_name":"Pasar Minggu","time":2,"i_lat":-6.2842400000000005,"line":2,"i_long":106.843999,"is_transit":false},{"station_name":"Tanjung Barat","is_transit":false,"time":4,"i_long":106.838896,"i_lat":-6.3080680000000005,"transit":false,"line":2,"distance":2820,"station_id":"TNT"},{"station_id":"LNA","station_name":"Lenteng Agung","time":3,"line":2,"distance":2671,"i_long":106.832616,"i_lat":-6.330363,"is_transit":false,"transit":false},{"station_id":"UP","time":2,"station_name":"Univ. Pancasila","i_lat":-6.339291,"i_long":106.834175,"transit":false,"distance":1029,"line":2,"is_transit":false},{"i_lat":-6.360749,"station_name":"Univ. Indonesia","transit":false,"station_id":"UI","time":3,"i_long":106.831474,"line":2,"distance":2264,"is_transit":false},{"is_transit":false,"i_long":106.831114,"time":2,"station_name":"Pondok Cina","transit":false,"station_id":"POC","i_lat":-6.369073,"distance":1109,"line":2},{"station_id":"DPB","i_long":106.819451,"i_lat":-6.391065,"transit":false,"distance":2727,"is_transit":false,"line":0,"time":4,"station_name":"Depokbaru"}],[{"i_lat":-6.162758,"line":5,"station_id":"RW","is_transit":false,"station_name":"Rawa Buaya","distance":0,"i_long":106.723064,"time":0,"transit":false},{"i_lat":-6.159876,"distance":1152,"station_id":"BOI","line":0,"station_name":"Bojongindah","i_long":106.737035,"is_transit":false,"time":4,"transit":false},{"transit":false,"distance":2334,"station_name":"Taman Kota","station_id":"TKO","time":2,"i_lat":-6.1587309999999995,"line":5,"is_transit":false,"i_long":106.756522},{"distance":1614,"time":2,"is_transit":false,"i_long":106.771379,"station_id":"PSG","i_lat":-6.161433,"transit":false,"line":5,"station_name":"Pesing"},{"is_transit":false,"line":5,"time":2,"distance":2036,"station_id":"GGL","transit":false,"i_long":106.788277,"i_lat":-6.162021,"station_name":"Grogol"},{"i_lat":-6.155215,"line":1,"time":3,"distance":1700,"transit":true,"station_name":"Duri","i_long":106.800832,"is_transit":true,"station_id":"DU"},{"is_transit":false,"i_lat":-6.144674,"line":0,"transit":false,"time":4,"distance":1230,"station_name":"Angke","station_id":"AK","i_long":106.79867},{"is_transit":true,"i_long":106.826365,"distance":4102,"station_id":"KPB","station_name":"Kampung Bandan","i_lat":-6.132549,"transit":false,"time":9,"line":0},{"transit":true,"time":3,"i_lat":-6.137569,"line":0,"is_transit":true,"station_name":"Jakarta Kota","station_id":"JAKK","distance":1364,"i_long":106.812439},{"station_name":"Jayakarta","i_lat":-6.141205,"i_long":106.820901,"distance":1264,"time":4,"is_transit":false,"station_id":"JAY","transit":false,"line":7},{"line":2,"is_transit":false,"i_long":106.82482,"i_lat":-6.149769,"distance":1080,"transit":false,"station_name":"Manggabesar","time":2,"station_id":"MGB"},{"station_id":"SW","i_long":106.827103,"transit":false,"is_transit":false,"time":2,"i_lat":-6.160725,"distance":906,"station_name":"Sawah Besar","line":2},{"station_id":"JUA","station_name":"Juanda","time":2,"i_lat":-6.166716,"transit":false,"is_transit":false,"i_long":106.828284,"line":2,"distance":1149},{"transit":false,"station_id":"GDD","station_name":"Gondangdia","is_transit":false,"distance":2015,"time":4,"i_lat":-6.186295,"line":2,"i_long":106.832183},{"i_long":106.840169,"i_lat":-6.198556,"is_transit":false,"distance":1750,"station_id":"CKI","station_name":"Cikini","transit":false,"line":0,"time":3},{"distance":1590,"i_lat":-6.209883,"is_transit":true,"station_name":"Manggarai","line":0,"transit":true,"time":4,"i_long":106.84912,"station_id":"MRI"},{"distance":2610,"station_name":"Tebet","time":4,"line":2,"i_lat":-6.226659,"i_long":106.857948,"transit":false,"is_transit":false,"station_id":"TEB"},{"transit":false,"distance":1230,"station_id":"CW","time":2,"station_name":"Cawang","i_long":106.856607,"i_lat":-6.242512,"line":0,"is_transit":false},{"is_transit":false,"i_long":106.85449,"station_name":"Duren Kalibata","transit":false,"time":3,"distance":1546,"i_lat":-6.255332,"station_id":"DRN","line":0},{"i_lat":-6.263214,"line":2,"time":2,"station_name":"Pasar Minggu Baru","distance":824,"i_long":106.851577,"is_transit":false,"station_id":"PSMB","transit":false},{"station_id":"PSM","station_name":"Pasar Minggu","transit":false,"is_transit":false,"distance":2380,"time":2,"i_lat":-6.2842400000000005,"i_long":106.843999,"line":2},{"time":4,"i_lat":-6.3080680000000005,"distance":2820,"i_long":106.838896,"station_name":"Tanjung Barat","transit":false,"is_transit":false,"station_id":"TNT","line":2},{"station_name":"Lenteng Agung","i_lat":-6.330363,"i_long":106.832616,"station_id":"LNA","line":2,"is_transit":false,"distance":2671,"transit":false,"time":3},{"line":2,"transit":false,"i_long":106.834175,"station_id":"UP","station_name":"Univ. Pancasila","is_transit":false,"time":2,"distance":1029,"i_lat":-6.339291},{"station_id":"UI","distance":2264,"i_lat":-6.360749,"line":2,"station_name":"Univ. Indonesia","time":3,"is_transit":false,"i_long":106.831474,"transit":false},{"distance":1109,"station_name":"Pondok Cina","time":2,"line":2,"is_transit":false,"transit":false,"i_lat":-6.369073,"station_id":"POC","i_long":106.831114},{"station_id":"DPB","time":4,"distance":2727,"line":0,"i_lat":-6.391065,"i_long":106.819451,"is_transit":false,"station_name":"Depokbaru","transit":false}],[{"transit":false,"time":0,"station_name":"Rawa Buaya","station_id":"RW","i_lat":-6.162758,"is_transit":false,"distance":0,"i_long":106.723064,"line":5},{"station_id":"BOI","transit":false,"i_lat":-6.159876,"is_transit":false,"i_long":106.737035,"distance":1152,"station_name":"Bojongindah","time":4,"line":0},{"distance":2334,"is_transit":false,"station_id":"TKO","transit":false,"i_lat":-6.1587309999999995,"i_long":106.756522,"line":5,"station_name":"Taman Kota","time":2},{"distance":1614,"i_lat":-6.161433,"line":5,"station_id":"PSG","station_name":"Pesing","transit":false,"is_transit":false,"time":2,"i_long":106.771379},{"transit":false,"is_transit":false,"station_id":"GGL","time":2,"station_name":"Grogol","i_lat":-6.162021,"line":5,"distance":2036,"i_long":106.788277},{"distance":1700,"station_id":"DU","line":1,"i_lat":-6.155215,"station_name":"Duri","i_long":106.800832,"transit":true,"time":3,"is_transit":true},{"transit":false,"i_lat":-6.144674,"is_transit":false,"time":4,"station_id":"AK","line":0,"i_long":106.79867,"station_name":"Angke","distance":1230},{"station_id":"KPB","distance":4102,"line":0,"is_transit":true,"transit":true,"station_name":"Kampung Bandan","time":9,"i_lat":-6.132549,"i_long":106.826365},{"station_id":"RJW","i_lat":-6.14505,"transit":false,"i_long":106.836569,"time":3,"distance":1444,"is_transit":false,"station_name":"Rajawali","line":11},{"i_lat":-6.161728,"station_id":"KMO","station_name":"Kemayoran","is_transit":false,"transit":false,"line":11,"i_long":106.839204,"time":5,"distance":1901},{"i_lat":-6.174784,"transit":false,"time":4,"is_transit":false,"distance":1436,"i_long":106.84368,"station_name":"Pasar Senen","line":11,"station_id":"PSE"},{"station_id":"GST","transit":false,"i_lat":-6.185975,"time":8,"line":11,"is_transit":false,"distance":1567,"station_name":"Gang Sentiong","i_long":106.850107},{"time":1,"station_id":"KMT","transit":false,"station_name":"Kramat","distance":973,"i_lat":-6.193792,"is_transit":false,"i_long":106.855437,"line":11},{"station_id":"POK","i_long":106.861737,"transit":false,"line":11,"i_lat":-6.209188,"time":2,"distance":1829,"station_name":"Pondok Jati","is_transit":false},{"i_lat":-6.215091,"i_long":106.86807400000001,"is_transit":true,"station_name":"Jatinegara","distance":1236,"transit":true,"station_id":"JNG","line":0,"time":9},{"distance":1377,"time":2,"i_lat":-6.212485,"line":1,"i_long":106.858896,"is_transit":false,"station_name":"Matraman","station_id":"MTR","transit":false},{"line":0,"station_name":"Manggarai","distance":1275,"i_lat":-6.209883,"i_long":106.84912,"transit":true,"is_transit":true,"station_id":"MRI","time":2},{"line":2,"station_id":"TEB","transit":false,"distance":2610,"time":4,"i_lat":-6.226659,"is_transit":false,"i_long":106.857948,"station_name":"Tebet"},{"distance":1230,"transit":false,"is_transit":false,"station_id":"CW","i_lat":-6.242512,"i_long":106.856607,"line":0,"station_name":"Cawang","time":2},{"is_transit":false,"transit":false,"i_lat":-6.255332,"station_name":"Duren Kalibata","time":3,"line":0,"station_id":"DRN","i_long":106.85449,"distance":1546},{"distance":824,"time":2,"line":2,"station_id":"PSMB","station_name":"Pasar Minggu Baru","transit":false,"i_lat":-6.263214,"is_transit":false,"i_long":106.851577},{"line":2,"is_transit":false,"distance":2380,"transit":false,"station_id":"PSM","station_name":"Pasar Minggu","time":2,"i_long":106.843999,"i_lat":-6.2842400000000005},{"is_transit":false,"time":4,"i_lat":-6.3080680000000005,"station_id":"TNT","station_name":"Tanjung Barat","distance":2820,"line":2,"transit":false,"i_long":106.838896},{"i_lat":-6.330363,"transit":false,"time":3,"station_name":"Lenteng Agung","distance":2671,"is_transit":false,"station_id":"LNA","line":2,"i_long":106.832616},{"is_transit":false,"i_long":106.834175,"distance":1029,"time":2,"station_name":"Univ. Pancasila","transit":false,"i_lat":-6.339291,"station_id":"UP","line":2},{"i_lat":-6.360749,"i_long":106.831474,"is_transit":false,"time":3,"station_id":"UI","distance":2264,"line":2,"station_name":"Univ. Indonesia","transit":false},{"is_transit":false,"station_id":"POC","time":2,"distance":1109,"i_long":106.831114,"line":2,"transit":false,"i_lat":-6.369073,"station_name":"Pondok Cina"},{"transit":false,"i_lat":-6.391065,"station_name":"Depokbaru","line":0,"time":4,"station_id":"DPB","i_long":106.819451,"distance":2727,"is_transit":false}]]}