{"data":[[{"is_transit":false,"station_name":"Rawa Buaya","station_id":"RW","i_lat":-6.162758,"distance":0,"transit":false,"line":5,"time":0,"i_long":106.723064},{"i_lat":-6.159876,"station_id":"BOI","distance":1152,"is_transit":false,"line":5,"i_long":106.737035,"station_name":"Bojongindah","time":4,"transit":false},{"station_name":"Taman Kota","transit":false,"i_lat":-6.1587309999999995,"line":5,"distance":2334,"i_long":106.756522,"time":2,"is_transit":false,"station_id":"TKO"},{"time":2,"station_id":"PSG","is_transit":false,"i_long":106.771379,"station_name":"Pesing","i_lat":-6.161433,"line":5,"distance":1614,"transit":false},{"distance":2036,"station_name":"Grogol","line":5,"i_long":106.788277,"transit":false,"i_lat":-6.162021,"is_transit":false,"time":2,"station_id":"GGL"},{"i_lat":-6.155215,"is_transit":true,"transit":true,"station_id":"DU","line":1,"i_long":106.800832,"distance":1700,"time":3,"station_name":"Duri"},{"station_name":"Tanah Abang","i_long":106.811091,"transit":false,"time":8,"i_lat":-6.185545,"station_id":"THB","distance":3632,"is_transit":false,"line":1},{"distance":2029,"time":5,"station_id":"KAT","station_name":"Karet","transit":false,"i_lat":-6.20132,"i_long":106.816351,"is_transit":false,"line":1},{"line":1,"is_transit":false,"distance":471,"time":1,"transit":false,"i_long":106.819881,"station_id":"SUDB","station_name":"Sudirman Baru","i_lat":-6.201433},{"is_transit":false,"transit":false,"line":1,"i_long":106.822649,"station_name":"Sudirman","time":1,"distance":280,"station_id":"SUD","i_lat":-6.202263},{"station_id":"MRI","i_lat":-6.209883,"time":4,"distance":3186,"transit":true,"station_name":"Manggarai","line":2,"i_long":106.84912,"is_transit":true},{"transit":false,"station_name":"Tebet","line":2,"i_long":106.857948,"station_id":"TEB","distance":2610,"time":4,"i_lat":-6.226659,"is_transit":false},{"station_name":"Cawang","time":2,"i_lat":-6.242512,"distance":1230,"line":2,"i_long":106.856607,"station_id":"CW","transit":false,"is_transit":false},{"station_id":"DRN","i_lat":-6.255332,"distance":1546,"station_name":"Duren Kalibata","line":2,"i_long":106.85449,"is_transit":false,"transit":false,"time":3},{"is_transit":false,"station_id":"PSMB","transit":false,"station_name":"Pasar Minggu Baru","distance":824,"time":2,"i_lat":-6.263214,"i_long":106.851577,"line":2},{"distance":2380,"is_transit":false,"station_name":"Pasar Minggu","i_lat":-6.2842400000000005,"i_long":106.843999,"transit":false,"time":2,"line":2,"station_id":"PSM"},{"transit":false,"station_name":"Tanjung Barat","is_transit":false,"station_id":"TNT","i_lat":-6.3080680000000005,"distance":2820,"time":4,"line":2,"i_long":106.838896},{"line":2,"is_transit":false,"station_name":"Lenteng Agung","distance":2671,"i_lat":-6.330363,"i_long":106.832616,"transit":false,"time":3,"station_id":"LNA"},{"distance":1029,"time":2,"transit":false,"line":2,"i_lat":-6.339291,"is_transit":false,"station_name":"Univ. Pancasila","i_long":106.834175,"station_id":"UP"},{"transit":false,"distance":2264,"time":3,"station_name":"Univ. Indonesia","i_lat":-6.360749,"is_transit":false,"i_long":106.831474,"line":2,"station_id":"UI"},{"station_name":"Pondok Cina","distance":1109,"i_lat":-6.369073,"is_transit":false,"time":2,"i_long":106.831114,"station_id":"POC","line":2,"transit":false},{"distance":2727,"time":4,"i_long":106.819451,"station_name":"Depokbaru","station_id":"DPB","transit":false,"line":2,"is_transit":false,"i_lat":-6.391065}],[{"distance":0,"station_name":"Rawa Buaya","time":0,"i_lat":-6.162758,"line":5,"transit":false,"is_transit":false,"station_id":"RW","i_long":106.723064},{"station_id":"BOI","transit":false,"i_lat":-6.159876,"time":4,"i_long":106.737035,"distance":1152,"is_transit":false,"line":5,"station_name":"Bojongindah"},{"station_name":"Taman Kota","is_transit":false,"station_id":"TKO","distance":2334,"i_lat":-6.1587309999999995,"i_long":106.756522,"line":5,"transit":false,"time":2},{"line":5,"transit":false,"station_name":"Pesing","time":2,"i_long":106.771379,"is_transit":false,"distance":1614,"station_id":"PSG","i_lat":-6.161433},{"distance":2036,"i_lat":-6.162021,"i_long":106.788277,"station_name":"Grogol","station_id":"GGL","time":2,"is_transit":false,"transit":false,"line":5},{"distance":1700,"station_name":"Duri","line":1,"is_transit":true,"time":3,"transit":true,"i_long":106.800832,"station_id":"DU","i_lat":-6.155215},{"transit":false,"time":4,"i_long":106.79867,"i_lat":-6.144674,"station_id":"AK","is_transit":false,"line":1,"distance":1230,"station_name":"Angke"},{"station_name":"Kampung Bandan","transit":true,"station_id":"KPB","time":9,"i_lat":-6.132549,"line":4,"is_transit":true,"distance":4102,"i_long":106.826365},{"station_name":"Jakarta Kota","distance":1364,"i_long":106.812439,"is_transit":true,"i_lat":-6.137569,"line":2,"transit":true,"time":3,"station_id":"JAKK"},{"time":4,"line":2,"station_name":"Jayakarta","is_transit":false,"transit":false,"distance":1264,"i_long":106.820901,"station_id":"JAY","i_lat":-6.141205},{"transit":false,"distance":1080,"station_name":"Manggabesar","time":2,"i_lat":-6.149769,"i_long":106.82482,"line":2,"is_transit":false,"station_id":"MGB"},{"i_lat":-6.160725,"time":2,"i_long":106.827103,"transit":false,"station_id":"SW","distance":906,"station_name":"Sawah Besar","line":2,"is_transit":false},{"is_transit":false,"i_long":106.828284,"time":2,"station_id":"JUA","line":2,"transit":false,"i_lat":-6.166716,"distance":1149,"station_name":"Juanda"},{"i_long":106.832183,"line":2,"time":4,"is_transit":false,"distance":2015,"station_name":"Gondangdia","transit":false,"station_id":"GDD","i_lat":-6.186295},{"i_long":106.840169,"transit":false,"distance":1750,"line":2,"time":3,"station_id":"CKI","i_lat":-6.198556,"is_transit":false,"station_name":"Cikini"},{"station_name":"Manggarai","transit":false,"i_lat":-6.209883,"distance":1590,"line":2,"i_long":106.84912,"station_id":"MRI","time":4,"is_transit":false},{"is_transit":false,"station_name":"Tebet","time":4,"distance":2610,"i_lat":-6.226659,"transit":false,"i_long":106.857948,"line":2,"station_id":"TEB"},{"time":2,"i_lat":-6.242512,"i_long":106.856607,"line":2,"station_name":"Cawang","distance":1230,"is_transit":false,"station_id":"CW","transit":false},{"station_id":"DRN","i_long":106.85449,"line":2,"distance":1546,"i_lat":-6.255332,"transit":false,"time":3,"station_name":"Duren Kalibata","is_transit":false},{"i_long":106.851577,"station_name":"Pasar Minggu Baru","transit":false,"line":2,"i_lat":-6.263214,"is_transit":false,"time":2,"station_id":"PSMB","distance":824},{"transit":false,"is_transit":false,"station_id":"PSM","time":2,"i_lat":-6.2842400000000005,"distance":2380,"station_name":"Pasar Minggu","i_long":106.843999,"line":2},{"i_lat":-6.3080680000000005,"transit":false,"station_name":"Tanjung Barat","time":4,"line":2,"distance":2820,"i_long":106.838896,"station_id":"TNT","is_transit":false},{"is_transit":false,"station_name":"Lenteng Agung","line":2,"station_id":"LNA","transit":false,"i_lat":-6.330363,"distance":2671,"time":3,"i_long":106.832616},{"is_transit":false,"station_id":"UP","distance":1029,"i_long":106.834175,"line":2,"i_lat":-6.339291,"station_name":"Univ. Pancasila","transit":false,"time":2},{"i_lat":-6.360749,"transit":false,"is_transit":false,"time":3,"line":2,"i_long":106.831474,"distance":2264,"station_name":"Univ. Indonesia","station_id":"UI"},{"station_name":"Pondok Cina","i_lat":-6.369073,"station_id":"POC","distance":1109,"time":2,"line":2,"i_long":106.831114,"is_transit":false,"transit":false},{"i_lat":-6.391065,"i_long":106.819451,"time":4,"station_name":"Depokbaru","distance":2727,"is_transit":false,"station_id":"DPB","line":2,"transit":false}],[{"station_name":"Rawa Buaya","i_long":106.723064,"station_id":"RW","distance":0,"time":0,"is_transit":false,"i_lat":-6.162758,"line":5,"transit":false},{"is_transit":false,"station_id":"BOI","distance":1152,"time":4,"i_lat":-6.159876,"i_long":106.737035,"transit":false,"line":5,"station_name":"Bojongindah"},{"station_id":"TKO","i_long":106.756522,"time":2,"transit":false,"distance":2334,"i_lat":-6.1587309999999995,"is_transit":false,"line":5,"station_name":"Taman Kota"},{"is_transit":false,"station_name":"Pesing","line":5,"i_long":106.771379,"station_id":"PSG","i_lat":-6.161433,"transit":false,"time":2,"distance":1614},{"i_lat":-6.162021,"distance":2036,"station_id":"GGL","station_name":"Grogol","time":2,"transit":false,"i_long":106.788277,"line":5,"is_transit":false},{"time":3,"station_id":"DU","is_transit":true,"transit":true,"distance":1700,"station_name":"Duri","i_lat":-6.155215,"i_long":106.800832,"line":1},{"is_transit":false,"line":1,"distance":1230,"transit":false,"station_id":"AK","i_lat":-6.144674,"station_name":"Angke","i_long":106.79867,"time":4},{"station_id":"KPB","is_transit":true,"line":4,"transit":true,"i_long":106.826365,"i_lat":-6.132549,"station_name":"Kampung Bandan","time":9,"distance":4102},{"is_transit":false,"transit":false,"line":11,"i_lat":-6.14505,"distance":1444,"station_id":"RJW","time":3,"station_name":"Rajawali","i_long":106.836569},{"is_transit":false,"i_lat":-6.161728,"station_name":"Kemayoran","transit":false,"station_id":"KMO","line":11,"time":5,"distance":1901,"i_long":106.839204},{"station_id":"PSE","transit":false,"station_name":"Pasar Senen","time":4,"distance":1436,"i_lat":-6.174784,"i_long":106.84368,"line":11,"is_transit":false},{"i_long":106.850107,"station_id":"GST","is_transit":false,"station_name":"Gang Sentiong","distance":1567,"transit":false,"line":11,"i_lat":-6.185975,"time":8},{"time":1,"station_id":"KMT","i_lat":-6.193792,"i_long":106.855437,"line":11,"station_name":"Kramat","distance":973,"transit":false,"is_transit":false},{"time":2,"station_name":"Pondok Jati","line":11,"transit":false,"station_id":"POK","i_long":106.861737,"i_lat":-6.209188,"is_transit":false,"distance":1829},{"i_lat":-6.215091,"distance":1236,"is_transit":true,"transit":true,"time":9,"station_id":"JNG","line":1,"station_name":"Jatinegara","i_long":106.86807400000001},{"station_name":"Matraman","time":2,"i_lat":-6.212485,"station_id":"MTR","transit":false,"line":1,"is_transit":false,"distance":1377,"i_long":106.858896},{"line":2,"is_transit":true,"station_id":"MRI","distance":1275,"transit":true,"time":2,"i_long":106.84912,"station_name":"Manggarai","i_lat":-6.209883},{"distance":2610,"transit":false,"station_id":"TEB","line":2,"i_lat":-6.226659,"station_name":"Tebet","is_transit":false,"time":4,"i_long":106.857948},{"i_long":106.856607,"transit":false,"station_id":"CW","station_name":"Cawang","distance":1230,"is_transit":false,"time":2,"i_lat":-6.242512,"line":2},{"station_id":"DRN","i_long":106.85449,"time":3,"i_lat":-6.255332,"distance":1546,"station_name":"Duren Kalibata","is_transit":false,"line":2,"transit":false},{"station_id":"PSMB","i_long":106.851577,"transit":false,"time":2,"line":2,"is_transit":false,"station_name":"Pasar Minggu Baru","distance":824,"i_lat":-6.263214},{"is_transit":false,"station_name":"Pasar Minggu","station_id":"PSM","transit":false,"i_long":106.843999,"distance":2380,"time":2,"line":2,"i_lat":-6.2842400000000005},{"transit":false,"is_transit":false,"line":2,"i_long":106.838896,"distance":2820,"i_lat":-6.3080680000000005,"time":4,"station_name":"Tanjung Barat","station_id":"TNT"},{"is_transit":false,"time":3,"station_id":"LNA","i_long":106.832616,"line":2,"i_lat":-6.330363,"distance":2671,"station_name":"Lenteng Agung","transit":false},{"is_transit":false,"distance":1029,"transit":false,"station_id":"UP","i_long":106.834175,"i_lat":-6.339291,"line":2,"station_name":"Univ. Pancasila","time":2},{"i_long":106.831474,"distance":2264,"i_lat":-6.360749,"transit":false,"is_transit":false,"time":3,"station_name":"Univ. Indonesia","line":2,"station_id":"UI"},{"time":2,"i_long":106.831114,"is_transit":false,"i_lat":-6.369073,"line":2,"station_id":"POC","transit":false,"distance":1109,"station_name":"Pondok Cina"},{"transit":false,"time":4,"is_transit":false,"line":2,"distance":2727,"i_long":106.819451,"station_name":"Depokbaru","station_id":"DPB","i_lat":-6.391065}]]}