{"data":[[{"i_lat":-6.162758,"i_long":106.723064,"station_name":"Rawa Buaya","distance":0,"time":0,"transit":false,"station_id":"RW","is_transit":false,"line":5},{"station_id":"BOI","i_lat":-6.159876,"transit":false,"is_transit":false,"time":4,"distance":1152,"i_long":106.737035,"line":5,"station_name":"Bojongindah"},{"station_name":"Taman Kota","is_transit":false,"i_lat":-6.1587309999999995,"station_id":"TKO","transit":false,"distance":2334,"time":2,"i_long":106.756522,"line":5},{"time":2,"distance":1614,"line":5,"i_lat":-6.161433,"station_name":"Pesing","is_transit":false,"i_long":106.771379,"transit":false,"station_id":"PSG"},{"distance":2036,"time":2,"i_lat":-6.162021,"station_name":"Grogol","is_transit":false,"transit":false,"i_long":106.788277,"line":5,"station_id":"GGL"},{"is_transit":true,"station_id":"DU","i_long":106.800832,"line":1,"transit":true,"i_lat":-6.155215,"distance":1700,"time":3,"station_name":"Duri"},{"station_id":"THB","line":1,"transit":false,"distance":3632,"time":8,"station_name":"Tanah Abang","i_long":106.811091,"is_transit":false,"i_lat":-6.185545},{"station_name":"Karet","station_id":"KAT","line":1,"time":5,"transit":false,"distance":2029,"i_long":106.816351,"i_lat":-6.20132,"is_transit":false},{"transit":false,"station_id":"SUDB","is_transit":false,"distance":471,"i_lat":-6.201433,"i_long":106.819881,"time":1,"line":1,"station_name":"Sudirman Baru"},{"line":1,"transit":false,"distance":280,"station_name":"Sudirman","i_long":106.822649,"time":1,"i_lat":-6.202263,"is_transit":false,"station_id":"SUD"},{"distance":3186,"transit":true,"time":4,"i_long":106.84912,"line":2,"i_lat":-6.209883,"station_name":"Manggarai","station_id":"MRI","is_transit":true},{"is_transit":false,"time":4,"distance":2610,"i_lat":-6.226659,"line":2,"transit":false,"station_name":"Tebet","i_long":106.857948,"station_id":"TEB"},{"is_transit":false,"distance":1230,"i_long":106.856607,"time":2,"transit":false,"line":2,"station_id":"CW","station_name":"Cawang","i_lat":-6.242512},{"is_transit":false,"station_name":"Duren Kalibata","distance":1546,"i_lat":-6.255332,"station_id":"DRN","i_long":106.85449,"line":2,"transit":false,"time":3},{"station_id":"PSMB","line":2,"is_transit":false,"i_lat":-6.263214,"station_name":"Pasar Minggu Baru","time":2,"i_long":106.851577,"distance":824,"transit":false},{"line":2,"is_transit":false,"i_long":106.843999,"transit":false,"station_id":"PSM","distance":2380,"station_name":"Pasar Minggu","i_lat":-6.2842400000000005,"time":2},{"station_name":"Tanjung Barat","is_transit":false,"transit":false,"station_id":"TNT","i_long":106.838896,"i_lat":-6.3080680000000005,"time":4,"distance":2820,"line":2},{"time":3,"station_id":"LNA","distance":2671,"i_lat":-6.330363,"transit":false,"i_long":106.832616,"line":2,"is_transit":false,"station_name":"Lenteng Agung"},{"line":2,"i_long":106.834175,"distance":1029,"station_id":"UP","i_lat":-6.339291,"station_name":"Univ. Pancasila","time":2,"transit":false,"is_transit":false},{"line":2,"is_transit":false,"station_name":"Univ. Indonesia","station_id":"UI","time":3,"i_long":106.831474,"transit":false,"i_lat":-6.360749,"distance":2264},{"distance":1109,"i_long":106.831114,"time":2,"station_name":"Pondok Cina","station_id":"POC","transit":false,"i_lat":-6.369073,"is_transit":false,"line":2},{"time":4,"station_id":"DPB","is_transit":false,"i_lat":-6.391065,"i_long":106.819451,"station_name":"Depokbaru","line":2,"transit":false,"distance":2727}],[{"is_transit":false,"time":0,"i_long":106.723064,"distance":0,"line":5,"transit":false,"i_lat":-6.162758,"station_name":"Rawa Buaya","station_id":"RW"},{"time":4,"i_lat":-6.159876,"i_long":106.737035,"station_id":"BOI","distance":1152,"station_name":"Bojongindah","transit":false,"line":5,"is_transit":false},{"station_id":"TKO","i_long":106.756522,"time":2,"is_transit":false,"transit":false,"i_lat":-6.1587309999999995,"line":5,"station_name":"Taman Kota","distance":2334},{"distance":1614,"i_long":106.771379,"line":5,"transit":false,"i_lat":-6.161433,"is_transit":false,"time":2,"station_name":"Pesing","station_id":"PSG"},{"station_name":"Grogol","distance":2036,"i_long":106.788277,"time":2,"i_lat":-6.162021,"is_transit":false,"line":5,"transit":false,"station_id":"GGL"},{"distance":1700,"is_transit":true,"i_long":106.800832,"line":1,"time":3,"transit":true,"station_id":"DU","station_name":"Duri","i_lat":-6.155215},{"transit":false,"station_name":"Angke","distance":1230,"i_lat":-6.144674,"is_transit":false,"station_id":"AK","line":1,"i_long":106.79867,"time":4},{"line":4,"transit":true,"time":9,"station_name":"Kampung Bandan","is_transit":true,"i_long":106.826365,"station_id":"KPB","distance":4102,"i_lat":-6.132549},{"i_long":106.812439,"is_transit":true,"line":2,"i_lat":-6.137569,"time":3,"station_name":"Jakarta Kota","distance":1364,"transit":true,"station_id":"JAKK"},{"i_lat":-6.141205,"i_long":106.820901,"line":2,"time":4,"station_id":"JAY","station_name":"Jayakarta","distance":1264,"transit":false,"is_transit":false},{"distance":1080,"i_lat":-6.149769,"i_long":106.82482,"is_transit":false,"transit":false,"station_name":"Manggabesar","station_id":"MGB","time":2,"line":2},{"i_long":106.827103,"distance":906,"time":2,"line":2,"station_name":"Sawah Besar","transit":false,"station_id":"SW","is_transit":false,"i_lat":-6.160725},{"i_long":106.828284,"line":2,"i_lat":-6.166716,"transit":false,"is_transit":false,"distance":1149,"station_name":"Juanda","station_id":"JUA","time":2},{"transit":false,"i_long":106.832183,"time":4,"station_name":"Gondangdia","distance":2015,"line":2,"station_id":"GDD","is_transit":false,"i_lat":-6.186295},{"is_transit":false,"i_long":106.840169,"distance":1750,"transit":false,"station_name":"Cikini","station_id":"CKI","i_lat":-6.198556,"line":2,"time":3},{"time":4,"station_name":"Manggarai","i_long":106.84912,"line":2,"transit":false,"station_id":"MRI","is_transit":false,"distance":1590,"i_lat":-6.209883},{"time":4,"line":2,"i_lat":-6.226659,"distance":2610,"station_name":"Tebet","station_id":"TEB","i_long":106.857948,"transit":false,"is_transit":false},{"transit":false,"station_name":"Cawang","is_transit":false,"distance":1230,"time":2,"station_id":"CW","i_lat":-6.242512,"line":2,"i_long":106.856607},{"is_transit":false,"time":3,"i_long":106.85449,"distance":1546,"station_name":"Duren Kalibata","station_id":"DRN","transit":false,"i_lat":-6.255332,"line":2},{"time":2,"i_lat":-6.263214,"is_transit":false,"transit":false,"station_id":"PSMB","station_name":"Pasar Minggu Baru","distance":824,"line":2,"i_long":106.851577},{"station_id":"PSM","i_lat":-6.2842400000000005,"time":2,"i_long":106.843999,"distance":2380,"line":2,"transit":false,"is_transit":false,"station_name":"Pasar Minggu"},{"transit":false,"station_id":"TNT","line":2,"i_lat":-6.3080680000000005,"distance":2820,"station_name":"Tanjung Barat","time":4,"i_long":106.838896,"is_transit":false},{"is_transit":false,"time":3,"i_lat":-6.330363,"transit":false,"station_name":"Lenteng Agung","line":2,"i_long":106.832616,"station_id":"LNA","distance":2671},{"i_lat":-6.339291,"i_long":106.834175,"transit":false,"distance":1029,"station_id":"UP","station_name":"Univ. Pancasila","is_transit":false,"time":2,"line":2},{"distance":2264,"i_lat":-6.360749,"i_long":106.831474,"is_transit":false,"time":3,"station_name":"Univ. Indonesia","line":2,"transit":false,"station_id":"UI"},{"i_long":106.831114,"station_id":"POC","is_transit":false,"i_lat":-6.369073,"time":2,"station_name":"Pondok Cina","line":2,"transit":false,"distance":1109},{"is_transit":false,"line":2,"station_id":"DPB","distance":2727,"transit":false,"i_lat":-6.391065,"station_name":"Depokbaru","i_long":106.819451,"time":4}],[{"station_name":"Rawa Buaya","distance":0,"i_lat":-6.162758,"i_long":106.723064,"line":5,"station_id":"RW","is_transit":false,"time":0,"transit":false},{"station_name":"Bojongindah","is_transit":false,"distance":1152,"i_lat":-6.159876,"time":4,"i_long":106.737035,"station_id":"BOI","line":5,"transit":false},{"i_long":106.756522,"distance":2334,"i_lat":-6.1587309999999995,"line":5,"transit":false,"station_id":"TKO","station_name":"Taman Kota","time":2,"is_transit":false},{"distance":1614,"i_lat":-6.161433,"line":5,"transit":false,"station_id":"PSG","is_transit":false,"i_long":106.771379,"station_name":"Pesing","time":2},{"transit":false,"is_transit":false,"i_long":106.788277,"station_name":"Grogol","time":2,"distance":2036,"i_lat":-6.162021,"station_id":"GGL","line":5},{"time":3,"line":1,"i_long":106.800832,"distance":1700,"is_transit":true,"i_lat":-6.155215,"transit":true,"station_name":"Duri","station_id":"DU"},{"line":1,"station_name":"Angke","time":4,"distance":1230,"i_lat":-6.144674,"i_long":106.79867,"transit":false,"station_id":"AK","is_transit":false},{"station_id":"KPB","time":9,"i_lat":-6.132549,"distance":4102,"line":4,"i_long":106.826365,"station_name":"Kampung Bandan","transit":true,"is_transit":true},{"i_lat":-6.14505,"line":11,"distance":1444,"station_name":"Rajawali","is_transit":false,"i_long":106.836569,"transit":false,"station_id":"RJW","time":3},{"transit":false,"station_id":"KMO","i_lat":-6.161728,"is_transit":false,"station_name":"Kemayoran","distance":1901,"i_long":106.839204,"line":11,"time":5},{"i_lat":-6.174784,"transit":false,"station_id":"PSE","i_long":106.84368,"time":4,"station_name":"Pasar Senen","line":11,"is_transit":false,"distance":1436},{"distance":1567,"is_transit":false,"i_lat":-6.185975,"line":11,"station_name":"Gang Sentiong","station_id":"GST","time":8,"i_long":106.850107,"transit":false},{"is_transit":false,"transit":false,"station_id":"KMT","station_name":"Kramat","time":1,"distance":973,"i_long":106.855437,"line":11,"i_lat":-6.193792},{"transit":false,"is_transit":false,"station_name":"Pondok Jati","time":2,"i_long":106.861737,"i_lat":-6.209188,"distance":1829,"station_id":"POK","line":11},{"time":9,"transit":true,"station_id":"JNG","i_long":106.86807400000001,"distance":1236,"station_name":"Jatinegara","line":1,"i_lat":-6.215091,"is_transit":true},{"is_transit":false,"station_id":"MTR","i_lat":-6.212485,"transit":false,"station_name":"Matraman","time":2,"i_long":106.858896,"line":1,"distance":1377},{"station_id":"MRI","station_name":"Manggarai","i_lat":-6.209883,"time":2,"i_long":106.84912,"line":2,"transit":true,"is_transit":true,"distance":1275},{"distance":2610,"time":4,"line":2,"station_id":"TEB","i_long":106.857948,"is_transit":false,"station_name":"Tebet","transit":false,"i_lat":-6.226659},{"transit":false,"station_name":"Cawang","i_long":106.856607,"distance":1230,"line":2,"is_transit":false,"i_lat":-6.242512,"time":2,"station_id":"CW"},{"time":3,"line":2,"is_transit":false,"transit":false,"distance":1546,"i_long":106.85449,"i_lat":-6.255332,"station_name":"Duren Kalibata","station_id":"DRN"},{"is_transit":false,"i_long":106.851577,"i_lat":-6.263214,"station_id":"PSMB","line":2,"station_name":"Pasar Minggu Baru","transit":false,"distance":824,"time":2},{"station_id":"PSM","distance":2380,"station_name":"Pasar Minggu","line":2,"time":2,"i_lat":-6.2842400000000005,"i_long":106.843999,"transit":false,"is_transit":false},{"time":4,"line":2,"station_id":"TNT","i_long":106.838896,"transit":false,"is_transit":false,"station_name":"Tanjung Barat","i_lat":-6.3080680000000005,"distance":2820},{"line":2,"time":3,"is_transit":false,"i_lat":-6.330363,"transit":false,"station_name":"Lenteng Agung","station_id":"LNA","distance":2671,"i_long":106.832616},{"station_name":"Univ. Pancasila","transit":false,"i_lat":-6.339291,"i_long":106.834175,"is_transit":false,"distance":1029,"station_id":"UP","time":2,"line":2},{"transit":false,"station_name":"Univ. Indonesia","distance":2264,"i_long":106.831474,"i_lat":-6.360749,"is_transit":false,"station_id":"UI","time":3,"line":2},{"transit":false,"i_lat":-6.369073,"line":2,"time":2,"station_name":"Pondok Cina","is_transit":false,"station_id":"POC","distance":1109,"i_long":106.831114},{"station_name":"Depokbaru","is_transit":false,"station_id":"DPB","time":4,"i_lat":-6.391065,"transit":false,"line":2,"distance":2727,"i_long":106.819451}]]}