{"data":[[{"is_transit":false,"transit":false,"i_lat":-6.162758,"i_long":106.723064,"station_id":"RW","line":5,"station_name":"Rawa Buaya","time":0,"distance":0},{"distance":1152,"line":5,"station_id":"BOI","transit":false,"station_name":"Bojongindah","is_transit":false,"i_lat":-6.159876,"time":4,"i_long":106.737035},{"i_lat":-6.1587309999999995,"time":2,"station_name":"Taman Kota","is_transit":false,"distance":2334,"station_id":"TKO","line":5,"transit":false,"i_long":106.756522},{"i_lat":-6.161433,"station_id":"PSG","i_long":106.771379,"line":5,"transit":false,"station_name":"Pesing","is_transit":false,"time":2,"distance":1614},{"distance":2036,"line":5,"transit":false,"station_name":"Grogol","time":2,"i_lat":-6.162021,"is_transit":false,"station_id":"GRG","i_long":106.788277},{"distance":1700,"i_lat":-6.155215,"transit":true,"station_id":"DU","time":3,"station_name":"Duri","i_long":106.800832,"line":1,"is_transit":true},{"station_name":"Tanah Abang","time":8,"is_transit":false,"distance":3632,"transit":false,"station_id":"THB","i_lat":-6.185545,"i_long":106.811091,"line":1},{"line":1,"is_transit":false,"time":5,"station_id":"KAT","i_lat":-6.20132,"station_name":"Karet","transit":false,"distance":2029,"i_long":106.816351},{"time":1,"station_id":"SUDB","i_lat":-6.201433,"distance":471,"station_name":"Sudirman Baru","i_long":106.819881,"line":1,"transit":false,"is_transit":false},{"is_transit":false,"time":1,"transit":false,"distance":280,"i_long":106.822649,"station_name":"Sudirman","line":1,"station_id":"SUD","i_lat":-6.202263},{"is_transit":true,"transit":true,"i_long":106.84912,"station_id":"MRI","distance":3186,"station_name":"Manggarai","time":4,"i_lat":-6.209883,"line":2},{"is_transit":false,"distance":2610,"i_long":106.857948,"station_name":"Tebet","transit":false,"i_lat":-6.226659,"line":2,"station_id":"TEB","time":4},{"is_transit":false,"time":2,"station_id":"CW","i_lat":-6.242512,"i_long":106.856607,"line":2,"station_name":"Cawang","transit":false,"distance":1230},{"is_transit":false,"transit":false,"distance":1546,"i_lat":-6.255332,"i_long":106.85449,"time":3,"station_name":"Duren Kalibata","station_id":"DRN","line":2},{"i_lat":-6.263214,"time":2,"station_name":"Pasar Minggu Baru","distance":824,"i_long":106.851577,"is_transit":false,"station_id":"PSMB","line":2,"transit":false},{"time":2,"i_long":106.843999,"transit":false,"distance":2380,"i_lat":-6.2842400000000005,"station_name":"Pasar Minggu","is_transit":false,"line":2,"station_id":"PSM"},{"distance":2820,"station_name":"Tanjung Barat","i_long":106.838896,"time":4,"transit":false,"i_lat":-6.3080680000000005,"station_id":"TNT","is_transit":false,"line":2},{"i_lat":-6.330363,"transit":false,"time":3,"line":2,"station_id":"LNA","i_long":106.832616,"station_name":"Lenteng Agung","distance":2671,"is_transit":false},{"station_id":"UP","time":2,"transit":false,"distance":1029,"i_long":106.834175,"is_transit":false,"line":2,"i_lat":-6.339291,"station_name":"Univ. Pancasila"},{"station_name":"Univ. Indonesia","is_transit":false,"line":2,"transit":false,"i_long":106.831474,"i_lat":-6.360749,"time":3,"station_id":"UI","distance":2264},{"i_long":106.831114,"is_transit":false,"station_name":"Pondok Cina","line":2,"transit":false,"i_lat":-6.369073,"time":2,"distance":1109,"station_id":"POC"},{"time":4,"station_id":"DPB","station_name":"Depokbaru","i_lat":-6.391065,"distance":2727,"is_transit":false,"i_long":106.819451,"transit":false,"line":2}],[{"i_lat":-6.162758,"i_long":106.723064,"distance":0,"line":5,"station_name":"Rawa Buaya","station_id":"RW","is_transit":false,"transit":false,"time":0},{"is_transit":false,"line":5,"distance":1152,"i_long":106.737035,"transit":false,"station_id":"BOI","i_lat":-6.159876,"time":4,"station_name":"Bojongindah"},{"line":5,"i_lat":-6.1587309999999995,"station_name":"Taman Kota","is_transit":false,"transit":false,"i_long":106.756522,"time":2,"station_id":"TKO","distance":2334},{"i_long":106.771379,"i_lat":-6.161433,"transit":false,"station_name":"Pesing","time":2,"is_transit":false,"station_id":"PSG","distance":1614,"line":5},{"station_name":"Grogol","i_long":106.788277,"distance":2036,"time":2,"station_id":"GRG","line":5,"i_lat":-6.162021,"is_transit":false,"transit":false},{"station_id":"DU","transit":true,"station_name":"Duri","time":3,"distance":1700,"is_transit":true,"i_lat":-6.155215,"line":1,"i_long":106.800832},{"transit":false,"i_long":106.79867,"distance":1230,"time":4,"i_lat":-6.144674,"is_transit":false,"station_name":"Angke","line":1,"station_id":"AK"},{"distance":4102,"station_id":"KPB","time":9,"station_name":"Kampung Bandan","is_transit":true,"transit":true,"i_lat":-6.132549,"i_long":106.826365,"line":4},{"i_long":106.812439,"distance":1364,"line":2,"station_id":"JAKK","station_name":"Jakarta Kota","is_transit":true,"i_lat":-6.137569,"transit":true,"time":3},{"distance":1264,"time":4,"is_transit":false,"station_id":"JAY","i_long":106.820901,"transit":false,"i_lat":-6.141205,"line":2,"station_name":"Jayakarta"},{"i_lat":-6.149769,"distance":1080,"station_id":"MGB","i_long":106.82482,"line":2,"time":2,"station_name":"Manggabesar","transit":false,"is_transit":false},{"is_transit":false,"station_id":"SW","transit":false,"time":2,"distance":906,"line":2,"station_name":"Sawah Besar","i_lat":-6.160725,"i_long":106.827103},{"i_long":106.828284,"transit":false,"distance":1149,"station_name":"Juanda","is_transit":false,"time":2,"station_id":"JUA","i_lat":-6.166716,"line":2},{"transit":false,"station_name":"Gondangdia","i_long":106.832183,"line":2,"is_transit":false,"distance":2015,"time":4,"station_id":"GDD","i_lat":-6.186295},{"distance":1750,"transit":false,"station_id":"CKI","is_transit":false,"i_lat":-6.198556,"line":2,"i_long":106.840169,"station_name":"Cikini","time":3},{"line":2,"i_lat":-6.209883,"station_id":"MRI","transit":false,"station_name":"Manggarai","i_long":106.84912,"is_transit":false,"distance":1590,"time":4},{"transit":false,"line":2,"i_long":106.857948,"distance":2610,"station_id":"TEB","is_transit":false,"station_name":"Tebet","time":4,"i_lat":-6.226659},{"transit":false,"is_transit":false,"line":2,"i_long":106.856607,"i_lat":-6.242512,"station_id":"CW","time":2,"distance":1230,"station_name":"Cawang"},{"station_name":"Duren Kalibata","station_id":"DRN","transit":false,"i_lat":-6.255332,"line":2,"distance":1546,"time":3,"i_long":106.85449,"is_transit":false},{"is_transit":false,"line":2,"i_long":106.851577,"station_name":"Pasar Minggu Baru","station_id":"PSMB","time":2,"distance":824,"transit":false,"i_lat":-6.263214},{"is_transit":false,"station_name":"Pasar Minggu","distance":2380,"transit":false,"i_lat":-6.2842400000000005,"i_long":106.843999,"line":2,"station_id":"PSM","time":2},{"station_name":"Tanjung Barat","is_transit":false,"time":4,"distance":2820,"i_lat":-6.3080680000000005,"transit":false,"station_id":"TNT","i_long":106.838896,"line":2},{"is_transit":false,"i_long":106.832616,"transit":false,"station_id":"LNA","distance":2671,"station_name":"Lenteng Agung","i_lat":-6.330363,"line":2,"time":3},{"station_id":"UP","i_long":106.834175,"time":2,"distance":1029,"station_name":"Univ. Pancasila","is_transit":false,"line":2,"transit":false,"i_lat":-6.339291},{"i_long":106.831474,"distance":2264,"transit":false,"i_lat":-6.360749,"station_id":"UI","is_transit":false,"station_name":"Univ. Indonesia","time":3,"line":2},{"station_name":"Pondok Cina","distance":1109,"station_id":"POC","line":2,"time":2,"i_lat":-6.369073,"transit":false,"i_long":106.831114,"is_transit":false},{"is_transit":false,"i_lat":-6.391065,"i_long":106.819451,"station_name":"Depokbaru","line":2,"time":4,"station_id":"DPB","distance":2727,"transit":false}],[{"station_name":"Rawa Buaya","station_id":"RW","is_transit":false,"time":0,"i_long":106.723064,"line":5,"transit":false,"i_lat":-6.162758,"distance":0},{"time":4,"station_id":"BOI","station_name":"Bojongindah","i_long":106.737035,"distance":1152,"is_transit":false,"i_lat":-6.159876,"transit":false,"line":5},{"i_long":106.756522,"time":2,"station_id":"TKO","i_lat":-6.1587309999999995,"station_name":"Taman Kota","distance":2334,"transit":false,"line":5,"is_transit":false},{"distance":1614,"station_id":"PSG","i_lat":-6.161433,"time":2,"is_transit":false,"i_long":106.771379,"line":5,"station_name":"Pesing","transit":false},{"station_id":"GRG","i_lat":-6.162021,"time":2,"transit":false,"distance":2036,"i_long":106.788277,"is_transit":false,"station_name":"Grogol","line":5},{"transit":true,"i_lat":-6.155215,"time":3,"distance":1700,"line":1,"is_transit":true,"i_long":106.800832,"station_name":"Duri","station_id":"DU"},{"distance":1230,"i_lat":-6.144674,"line":1,"station_id":"AK","time":4,"i_long":106.79867,"transit":false,"station_name":"Angke","is_transit":false},{"station_id":"KPB","is_transit":true,"line":4,"distance":4102,"time":9,"transit":true,"station_name":"Kampung Bandan","i_lat":-6.132549,"i_long":106.826365},{"station_id":"RJW","is_transit":false,"line":11,"i_long":106.836569,"time":3,"distance":1444,"transit":false,"station_name":"Rajawali","i_lat":-6.14505},{"station_id":"KMO","is_transit":false,"i_lat":-6.161728,"line":11,"distance":1901,"i_long":106.839204,"transit":false,"station_name":"Kemayoran","time":5},{"transit":false,"time":4,"distance":1436,"station_name":"Pasar Senen","station_id":"PSE","is_transit":false,"i_long":106.84368,"i_lat":-6.174784,"line":11},{"time":8,"is_transit":false,"transit":false,"station_id":"GST","i_long":106.850107,"line":11,"station_name":"Gang Sentiong","distance":1567,"i_lat":-6.185975},{"time":1,"distance":973,"i_long":106.855437,"line":11,"transit":false,"is_transit":false,"station_name":"Kramat","i_lat":-6.193792,"station_id":"KMT"},{"time":2,"transit":false,"station_id":"POK","station_name":"Pondok Jati","is_transit":false,"line":11,"i_long":106.861737,"distance":1829,"i_lat":-6.209188},{"is_transit":true,"transit":true,"i_long":106.86807400000001,"distance":1236,"station_id":"JNG","time":9,"station_name":"Jatinegara","line":1,"i_lat":-6.215091},{"station_name":"Matraman","transit":false,"line":1,"i_long":106.858896,"is_transit":false,"time":2,"station_id":"MTR","i_lat":-6.212485,"distance":1377},{"i_lat":-6.209883,"line":2,"distance":1275,"station_id":"MRI","time":2,"station_name":"Manggarai","i_long":106.84912,"is_transit":true,"transit":true},{"is_transit":false,"transit":false,"time":4,"distance":2610,"station_name":"Tebet","i_lat":-6.226659,"i_long":106.857948,"line":2,"station_id":"TEB"},{"i_lat":-6.242512,"distance":1230,"line":2,"station_id":"CW","i_long":106.856607,"time":2,"transit":false,"is_transit":false,"station_name":"Cawang"},{"distance":1546,"station_name":"Duren Kalibata","time":3,"station_id":"DRN","i_long":106.85449,"i_lat":-6.255332,"transit":false,"is_transit":false,"line":2},{"station_name":"Pasar Minggu Baru","i_lat":-6.263214,"line":2,"time":2,"i_long":106.851577,"station_id":"PSMB","distance":824,"is_transit":false,"transit":false},{"time":2,"line":2,"transit":false,"station_id":"PSM","i_long":106.843999,"i_lat":-6.2842400000000005,"is_transit":false,"station_name":"Pasar Minggu","distance":2380},{"line":2,"time":4,"i_lat":-6.3080680000000005,"distance":2820,"station_name":"Tanjung Barat","i_long":106.838896,"is_transit":false,"station_id":"TNT","transit":false},{"station_id":"LNA","is_transit":false,"station_name":"Lenteng Agung","transit":false,"time":3,"i_lat":-6.330363,"i_long":106.832616,"line":2,"distance":2671},{"station_name":"Univ. Pancasila","time":2,"station_id":"UP","transit":false,"i_lat":-6.339291,"i_long":106.834175,"line":2,"distance":1029,"is_transit":false},{"i_long":106.831474,"station_id":"UI","station_name":"Univ. Indonesia","distance":2264,"line":2,"transit":false,"is_transit":false,"time":3,"i_lat":-6.360749},{"transit":false,"station_id":"POC","is_transit":false,"i_lat":-6.369073,"time":2,"i_long":106.831114,"line":2,"station_name":"Pondok Cina","distance":1109},{"i_lat":-6.391065,"line":2,"station_name":"Depokbaru","transit":false,"distance":2727,"time":4,"station_id":"DPB","is_transit":false,"i_long":106.819451}]]}