{"data":[[{"station_name":"Rawa Buaya","is_transit":false,"time":0,"i_long":106.723064,"distance":0,"transit":false,"line":5,"i_lat":-6.162758,"station_id":"RW"},{"station_id":"BOI","is_transit":false,"station_name":"Bojongindah","line":5,"transit":false,"i_long":106.737035,"i_lat":-6.159876,"time":4,"distance":1152},{"station_id":"TKO","distance":2334,"is_transit":false,"transit":false,"time":2,"line":5,"station_name":"Taman Kota","i_long":106.756522,"i_lat":-6.1587309999999995},{"station_name":"Pesing","distance":1614,"i_lat":-6.161433,"i_long":106.771379,"time":2,"transit":false,"is_transit":false,"line":5,"station_id":"PSG"},{"station_name":"Grogol","transit":false,"time":2,"station_id":"GRG","line":5,"is_transit":false,"distance":2036,"i_lat":-6.162021,"i_long":106.788277},{"station_name":"Duri","distance":1700,"transit":true,"i_long":106.800832,"station_id":"DU","i_lat":-6.155215,"line":1,"time":3,"is_transit":true},{"i_lat":-6.144674,"time":4,"is_transit":false,"station_name":"Angke","station_id":"AK","transit":false,"distance":1230,"i_long":106.79867,"line":1},{"i_lat":-6.132549,"is_transit":true,"time":9,"station_id":"KPB","distance":4102,"station_name":"Kampung Bandan","transit":true,"i_long":106.826365,"line":4},{"time":3,"i_lat":-6.14505,"line":11,"distance":1444,"station_name":"Rajawali","transit":false,"i_long":106.836569,"station_id":"RJW","is_transit":false},{"i_lat":-6.161728,"transit":false,"i_long":106.839204,"line":11,"station_name":"Kemayoran","station_id":"KMO","is_transit":false,"distance":1901,"time":5},{"is_transit":false,"distance":1436,"i_lat":-6.174784,"station_id":"PSE","station_name":"Pasar Senen","transit":false,"time":4,"line":11,"i_long":106.84368},{"distance":1567,"i_lat":-6.185975,"i_long":106.850107,"line":11,"station_name":"Gang Sentiong","station_id":"GST","time":8,"transit":false,"is_transit":false}],[{"station_id":"RW","distance":0,"i_long":106.723064,"transit":false,"is_transit":false,"time":0,"i_lat":-6.162758,"station_name":"Rawa Buaya","line":5},{"transit":false,"i_long":106.737035,"line":5,"is_transit":false,"i_lat":-6.159876,"station_name":"Bojongindah","distance":1152,"time":4,"station_id":"BOI"},{"time":2,"i_lat":-6.1587309999999995,"transit":false,"station_id":"TKO","is_transit":false,"line":5,"distance":2334,"station_name":"Taman Kota","i_long":106.756522},{"station_id":"PSG","station_name":"Pesing","is_transit":false,"distance":1614,"i_lat":-6.161433,"line":5,"time":2,"transit":false,"i_long":106.771379},{"line":5,"time":2,"distance":2036,"transit":false,"station_id":"GRG","is_transit":false,"station_name":"Grogol","i_long":106.788277,"i_lat":-6.162021},{"transit":true,"station_id":"DU","time":3,"distance":1700,"i_lat":-6.155215,"i_long":106.800832,"line":1,"is_transit":true,"station_name":"Duri"},{"i_lat":-6.185545,"station_id":"THB","distance":3632,"is_transit":false,"i_long":106.811091,"station_name":"Tanah Abang","line":1,"transit":false,"time":8},{"line":1,"distance":2029,"is_transit":false,"i_lat":-6.20132,"station_name":"Karet","station_id":"KAT","time":5,"i_long":106.816351,"transit":false},{"time":1,"distance":471,"i_long":106.819881,"transit":false,"is_transit":false,"i_lat":-6.201433,"station_id":"SUDB","line":1,"station_name":"Sudirman Baru"},{"line":1,"transit":false,"i_lat":-6.202263,"station_name":"Sudirman","is_transit":false,"i_long":106.822649,"station_id":"SUD","time":1,"distance":280},{"transit":false,"time":4,"i_lat":-6.209883,"station_id":"MRI","is_transit":false,"line":2,"distance":3186,"station_name":"Manggarai","i_long":106.84912},{"i_long":106.858896,"time":2,"line":1,"station_id":"MTR","is_transit":false,"i_lat":-6.212485,"station_name":"Matraman","transit":false,"distance":1275},{"station_id":"JNG","i_lat":-6.215091,"station_name":"Jatinegara","distance":1377,"is_transit":true,"transit":true,"line":1,"i_long":106.86807400000001,"time":8},{"i_lat":-6.209188,"distance":1236,"line":11,"is_transit":false,"transit":false,"station_id":"POK","station_name":"Pondok Jati","time":2,"i_long":106.861737},{"station_name":"Kramat","station_id":"KMT","i_lat":-6.193792,"line":11,"is_transit":false,"distance":1829,"i_long":106.855437,"transit":false,"time":2},{"is_transit":false,"time":1,"distance":973,"i_lat":-6.185975,"station_name":"Gang Sentiong","line":11,"station_id":"GST","transit":false,"i_long":106.850107}],[{"transit":false,"distance":0,"station_name":"Rawa Buaya","line":5,"i_lat":-6.162758,"is_transit":false,"station_id":"RW","time":0,"i_long":106.723064},{"is_transit":false,"station_id":"BOI","transit":false,"time":4,"line":5,"distance":1152,"i_lat":-6.159876,"station_name":"Bojongindah","i_long":106.737035},{"i_lat":-6.1587309999999995,"time":2,"station_id":"TKO","station_name":"Taman Kota","i_long":106.756522,"line":5,"is_transit":false,"distance":2334,"transit":false},{"i_lat":-6.161433,"i_long":106.771379,"station_id":"PSG","is_transit":false,"time":2,"distance":1614,"transit":false,"station_name":"Pesing","line":5},{"station_name":"Grogol","distance":2036,"i_long":106.788277,"is_transit":false,"i_lat":-6.162021,"transit":false,"station_id":"GRG","line":5,"time":2},{"station_name":"Duri","is_transit":true,"i_lat":-6.155215,"distance":1700,"transit":true,"i_long":106.800832,"station_id":"DU","line":1,"time":3},{"i_long":106.79867,"is_transit":false,"transit":false,"time":4,"distance":1230,"i_lat":-6.144674,"station_name":"Angke","line":1,"station_id":"AK"},{"transit":true,"station_id":"KPB","is_transit":true,"station_name":"Kampung Bandan","time":9,"i_lat":-6.132549,"distance":4102,"i_long":106.826365,"line":4},{"station_name":"Jakarta Kota","i_lat":-6.137569,"line":2,"station_id":"JAKK","is_transit":true,"distance":1364,"i_long":106.812439,"time":3,"transit":true},{"i_long":106.820901,"line":2,"distance":1264,"station_id":"JAY","is_transit":false,"station_name":"Jayakarta","time":4,"i_lat":-6.141205,"transit":false},{"distance":1080,"line":2,"is_transit":false,"station_name":"Manggabesar","i_lat":-6.149769,"i_long":106.82482,"transit":false,"time":2,"station_id":"MGB"},{"station_id":"SW","transit":false,"line":2,"i_long":106.827103,"station_name":"Sawah Besar","distance":906,"is_transit":false,"i_lat":-6.160725,"time":2},{"transit":false,"line":2,"i_lat":-6.166716,"station_name":"Juanda","distance":1149,"station_id":"JUA","time":2,"i_long":106.828284,"is_transit":false},{"station_name":"Gondangdia","is_transit":false,"time":4,"line":2,"i_long":106.832183,"transit":false,"station_id":"GDD","distance":2015,"i_lat":-6.186295},{"is_transit":false,"i_long":106.840169,"station_id":"CKI","transit":false,"station_name":"Cikini","distance":1750,"time":3,"i_lat":-6.198556,"line":2},{"line":2,"transit":true,"station_name":"Manggarai","time":4,"distance":1590,"is_transit":true,"station_id":"MRI","i_lat":-6.209883,"i_long":106.84912},{"is_transit":false,"i_long":106.858896,"station_id":"MTR","line":1,"station_name":"Matraman","distance":1275,"i_lat":-6.212485,"time":2,"transit":false},{"station_name":"Jatinegara","time":8,"is_transit":true,"distance":1377,"i_long":106.86807400000001,"station_id":"JNG","i_lat":-6.215091,"transit":true,"line":1},{"station_name":"Pondok Jati","transit":false,"line":11,"station_id":"POK","is_transit":false,"distance":1236,"i_lat":-6.209188,"time":2,"i_long":106.861737},{"station_id":"KMT","transit":false,"line":11,"i_long":106.855437,"is_transit":false,"time":2,"i_lat":-6.193792,"distance":1829,"station_name":"Kramat"},{"station_name":"Gang Sentiong","station_id":"GST","i_lat":-6.185975,"is_transit":false,"transit":false,"line":11,"distance":973,"i_long":106.850107,"time":1}],[{"time":0,"line":5,"i_long":106.723064,"transit":false,"station_name":"Rawa Buaya","is_transit":false,"distance":0,"station_id":"RW","i_lat":-6.162758},{"is_transit":false,"station_id":"BOI","station_name":"Bojongindah","i_lat":-6.159876,"i_long":106.737035,"transit":false,"line":5,"time":4,"distance":1152},{"time":2,"line":5,"station_name":"Taman Kota","i_long":106.756522,"is_transit":false,"transit":false,"station_id":"TKO","i_lat":-6.1587309999999995,"distance":2334},{"is_transit":false,"transit":false,"station_id":"PSG","station_name":"Pesing","distance":1614,"time":2,"line":5,"i_long":106.771379,"i_lat":-6.161433},{"line":5,"distance":2036,"is_transit":false,"transit":false,"station_id":"GRG","i_long":106.788277,"station_name":"Grogol","time":2,"i_lat":-6.162021},{"time":3,"distance":1700,"i_long":106.800832,"station_id":"DU","i_lat":-6.155215,"station_name":"Duri","is_transit":true,"transit":true,"line":1},{"transit":false,"station_id":"THB","i_long":106.811091,"distance":3632,"station_name":"Tanah Abang","line":1,"time":8,"i_lat":-6.185545,"is_transit":false},{"station_name":"Karet","transit":false,"i_long":106.816351,"i_lat":-6.20132,"line":1,"time":5,"station_id":"KAT","is_transit":false,"distance":2029},{"line":1,"time":1,"transit":false,"i_lat":-6.201433,"i_long":106.819881,"is_transit":false,"distance":471,"station_name":"Sudirman Baru","station_id":"SUDB"},{"i_lat":-6.202263,"distance":280,"i_long":106.822649,"station_name":"Sudirman","time":1,"transit":false,"is_transit":false,"station_id":"SUD","line":1},{"time":4,"station_id":"MRI","i_lat":-6.209883,"transit":true,"station_name":"Manggarai","is_transit":true,"distance":3186,"line":2,"i_long":106.84912},{"i_long":106.840169,"is_transit":false,"transit":false,"line":2,"station_id":"CKI","i_lat":-6.198556,"station_name":"Cikini","distance":1590,"time":4},{"station_name":"Gondangdia","i_long":106.832183,"transit":false,"is_transit":false,"line":2,"time":3,"distance":1750,"station_id":"GDD","i_lat":-6.186295},{"transit":false,"station_name":"Juanda","time":4,"line":2,"i_lat":-6.166716,"is_transit":false,"station_id":"JUA","i_long":106.828284,"distance":2015},{"time":2,"transit":false,"distance":1149,"i_lat":-6.160725,"line":2,"station_name":"Sawah Besar","is_transit":false,"station_id":"SW","i_long":106.827103},{"time":2,"station_id":"MGB","line":2,"distance":906,"station_name":"Manggabesar","is_transit":false,"i_long":106.82482,"transit":false,"i_lat":-6.149769},{"distance":1080,"i_lat":-6.141205,"i_long":106.820901,"is_transit":false,"time":2,"station_id":"JAY","line":2,"transit":false,"station_name":"Jayakarta"},{"i_lat":-6.137569,"i_long":106.812439,"is_transit":true,"station_name":"Jakarta Kota","distance":1264,"station_id":"JAKK","line":2,"transit":true,"time":4},{"i_lat":-6.132549,"line":4,"station_name":"Kampung Bandan","is_transit":true,"distance":1364,"time":3,"transit":true,"station_id":"KPB","i_long":106.826365},{"station_name":"Rajawali","line":11,"transit":false,"is_transit":false,"station_id":"RJW","distance":1444,"i_lat":-6.14505,"time":3,"i_long":106.836569},{"line":11,"transit":false,"distance":1901,"is_transit":false,"time":5,"station_name":"Kemayoran","i_long":106.839204,"station_id":"KMO","i_lat":-6.161728},{"is_transit":false,"station_name":"Pasar Senen","time":4,"distance":1436,"station_id":"PSE","i_lat":-6.174784,"transit":false,"i_long":106.84368,"line":11},{"station_name":"Gang Sentiong","station_id":"GST","i_long":106.850107,"is_transit":false,"transit":false,"line":11,"time":8,"i_lat":-6.185975,"distance":1567}]]}