{"data":[[{"i_lat":-6.162758,"i_long":106.723064,"line":5,"transit":false,"distance":0,"station_id":"RW","is_transit":false,"time":0,"station_name":"Rawa Buaya"},{"time":4,"is_transit":false,"station_id":"BOI","transit":false,"line":5,"distance":1152,"station_name":"Bojongindah","i_lat":-6.159876,"i_long":106.737035},{"distance":2334,"time":2,"line":5,"station_id":"TKO","transit":false,"i_lat":-6.1587309999999995,"is_transit":false,"i_long":106.756522,"station_name":"Taman Kota"},{"i_long":106.771379,"time":2,"i_lat":-6.161433,"transit":false,"station_id":"PSG","station_name":"Pesing","distance":1614,"is_transit":false,"line":5},{"time":2,"transit":false,"station_id":"GGL","i_lat":-6.162021,"is_transit":false,"i_long":106.788277,"station_name":"Grogol","distance":2036,"line":5},{"line":1,"station_name":"Duri","distance":1700,"transit":true,"is_transit":true,"time":3,"i_lat":-6.155215,"i_long":106.800832,"station_id":"DU"},{"transit":false,"i_long":106.79867,"is_transit":false,"i_lat":-6.144674,"station_id":"AK","line":1,"distance":1230,"station_name":"Angke","time":4},{"station_name":"Kampung Bandan","i_lat":-6.132549,"i_long":106.826365,"time":9,"is_transit":true,"transit":true,"line":4,"distance":4102,"station_id":"KPB"},{"station_id":"RJW","station_name":"Rajawali","is_transit":false,"time":3,"line":11,"i_long":106.836569,"distance":1444,"i_lat":-6.14505,"transit":false},{"i_long":106.839204,"station_name":"Kemayoran","is_transit":false,"transit":false,"i_lat":-6.161728,"line":11,"time":5,"distance":1901,"station_id":"KMO"},{"distance":1436,"is_transit":false,"station_id":"PSE","i_long":106.84368,"transit":false,"station_name":"Pasar Senen","line":11,"time":4,"i_lat":-6.174784},{"station_name":"Gang Sentiong","distance":1567,"is_transit":false,"transit":false,"i_long":106.850107,"i_lat":-6.185975,"station_id":"GST","line":11,"time":8}],[{"i_long":106.723064,"line":5,"station_name":"Rawa Buaya","distance":0,"station_id":"RW","i_lat":-6.162758,"is_transit":false,"transit":false,"time":0},{"station_name":"Bojongindah","is_transit":false,"transit":false,"station_id":"BOI","time":4,"i_lat":-6.159876,"i_long":106.737035,"line":5,"distance":1152},{"station_name":"Taman Kota","time":2,"is_transit":false,"line":5,"i_long":106.756522,"station_id":"TKO","distance":2334,"i_lat":-6.1587309999999995,"transit":false},{"line":5,"is_transit":false,"time":2,"station_id":"PSG","transit":false,"station_name":"Pesing","i_lat":-6.161433,"distance":1614,"i_long":106.771379},{"i_lat":-6.162021,"i_long":106.788277,"station_name":"Grogol","line":5,"distance":2036,"station_id":"GGL","is_transit":false,"time":2,"transit":false},{"i_long":106.800832,"time":3,"is_transit":true,"transit":true,"i_lat":-6.155215,"station_name":"Duri","distance":1700,"line":1,"station_id":"DU"},{"time":8,"distance":3632,"is_transit":false,"transit":false,"i_lat":-6.185545,"station_id":"THB","station_name":"Tanah Abang","i_long":106.811091,"line":1},{"time":5,"line":1,"is_transit":false,"distance":2029,"i_long":106.816351,"station_name":"Karet","station_id":"KAT","transit":false,"i_lat":-6.20132},{"transit":false,"station_name":"Sudirman Baru","station_id":"SUDB","i_long":106.819881,"line":1,"i_lat":-6.201433,"distance":471,"time":1,"is_transit":false},{"station_name":"Sudirman","i_long":106.822649,"station_id":"SUD","is_transit":false,"line":1,"transit":false,"i_lat":-6.202263,"time":1,"distance":280},{"station_name":"Manggarai","i_long":106.84912,"distance":3186,"station_id":"MRI","is_transit":false,"time":4,"transit":false,"i_lat":-6.209883,"line":2},{"i_long":106.858896,"line":1,"station_id":"MTR","transit":false,"is_transit":false,"i_lat":-6.212485,"station_name":"Matraman","time":2,"distance":1275},{"transit":true,"station_name":"Jatinegara","distance":1377,"station_id":"JNG","is_transit":true,"time":8,"i_lat":-6.215091,"line":1,"i_long":106.86807400000001},{"is_transit":false,"line":11,"distance":1236,"station_id":"POK","i_lat":-6.209188,"time":2,"transit":false,"station_name":"Pondok Jati","i_long":106.861737},{"transit":false,"line":11,"station_name":"Kramat","station_id":"KMT","i_lat":-6.193792,"time":2,"i_long":106.855437,"is_transit":false,"distance":1829},{"station_id":"GST","time":1,"is_transit":false,"line":11,"i_long":106.850107,"station_name":"Gang Sentiong","i_lat":-6.185975,"distance":973,"transit":false}],[{"line":5,"i_long":106.723064,"transit":false,"station_name":"Rawa Buaya","time":0,"station_id":"RW","is_transit":false,"i_lat":-6.162758,"distance":0},{"distance":1152,"i_lat":-6.159876,"transit":false,"line":5,"is_transit":false,"station_id":"BOI","station_name":"Bojongindah","i_long":106.737035,"time":4},{"i_long":106.756522,"distance":2334,"station_id":"TKO","time":2,"is_transit":false,"line":5,"transit":false,"i_lat":-6.1587309999999995,"station_name":"Taman Kota"},{"i_lat":-6.161433,"station_id":"PSG","i_long":106.771379,"transit":false,"time":2,"line":5,"is_transit":false,"station_name":"Pesing","distance":1614},{"is_transit":false,"i_lat":-6.162021,"transit":false,"station_name":"Grogol","station_id":"GGL","i_long":106.788277,"line":5,"time":2,"distance":2036},{"station_name":"Duri","i_lat":-6.155215,"i_long":106.800832,"is_transit":true,"time":3,"station_id":"DU","line":1,"distance":1700,"transit":true},{"line":1,"distance":1230,"time":4,"is_transit":false,"i_long":106.79867,"station_id":"AK","station_name":"Angke","i_lat":-6.144674,"transit":false},{"line":4,"distance":4102,"transit":true,"station_id":"KPB","time":9,"is_transit":true,"station_name":"Kampung Bandan","i_long":106.826365,"i_lat":-6.132549},{"transit":true,"station_name":"Jakarta Kota","i_lat":-6.137569,"i_long":106.812439,"station_id":"JAKK","time":3,"line":2,"is_transit":true,"distance":1364},{"time":4,"i_lat":-6.141205,"station_name":"Jayakarta","station_id":"JAY","line":2,"transit":false,"is_transit":false,"i_long":106.820901,"distance":1264},{"station_name":"Manggabesar","i_long":106.82482,"distance":1080,"is_transit":false,"i_lat":-6.149769,"station_id":"MGB","time":2,"transit":false,"line":2},{"station_name":"Sawah Besar","line":2,"time":2,"is_transit":false,"i_lat":-6.160725,"distance":906,"transit":false,"i_long":106.827103,"station_id":"SW"},{"transit":false,"i_lat":-6.166716,"distance":1149,"is_transit":false,"line":2,"time":2,"i_long":106.828284,"station_id":"JUA","station_name":"Juanda"},{"line":2,"station_name":"Gondangdia","transit":false,"i_lat":-6.186295,"station_id":"GDD","is_transit":false,"time":4,"i_long":106.832183,"distance":2015},{"time":3,"station_name":"Cikini","transit":false,"line":2,"is_transit":false,"i_lat":-6.198556,"i_long":106.840169,"distance":1750,"station_id":"CKI"},{"line":2,"transit":true,"time":4,"i_long":106.84912,"station_id":"MRI","is_transit":true,"station_name":"Manggarai","distance":1590,"i_lat":-6.209883},{"transit":false,"time":2,"station_name":"Matraman","distance":1275,"i_lat":-6.212485,"i_long":106.858896,"station_id":"MTR","line":1,"is_transit":false},{"station_name":"Jatinegara","is_transit":true,"distance":1377,"i_lat":-6.215091,"line":1,"station_id":"JNG","transit":true,"i_long":106.86807400000001,"time":8},{"i_long":106.861737,"transit":false,"time":2,"is_transit":false,"distance":1236,"line":11,"station_name":"Pondok Jati","station_id":"POK","i_lat":-6.209188},{"i_lat":-6.193792,"i_long":106.855437,"station_name":"Kramat","station_id":"KMT","is_transit":false,"transit":false,"distance":1829,"time":2,"line":11},{"is_transit":false,"transit":false,"station_name":"Gang Sentiong","i_long":106.850107,"line":11,"station_id":"GST","time":1,"distance":973,"i_lat":-6.185975}],[{"transit":false,"i_lat":-6.162758,"i_long":106.723064,"time":0,"distance":0,"line":5,"station_id":"RW","station_name":"Rawa Buaya","is_transit":false},{"station_id":"BOI","is_transit":false,"time":4,"distance":1152,"i_lat":-6.159876,"transit":false,"station_name":"Bojongindah","i_long":106.737035,"line":5},{"is_transit":false,"transit":false,"station_name":"Taman Kota","distance":2334,"line":5,"i_lat":-6.1587309999999995,"i_long":106.756522,"time":2,"station_id":"TKO"},{"transit":false,"station_name":"Pesing","time":2,"distance":1614,"line":5,"is_transit":false,"i_lat":-6.161433,"i_long":106.771379,"station_id":"PSG"},{"is_transit":false,"station_id":"GGL","i_lat":-6.162021,"i_long":106.788277,"station_name":"Grogol","time":2,"transit":false,"distance":2036,"line":5},{"station_name":"Duri","transit":true,"i_long":106.800832,"time":3,"i_lat":-6.155215,"line":1,"is_transit":true,"station_id":"DU","distance":1700},{"distance":3632,"is_transit":false,"transit":false,"station_name":"Tanah Abang","time":8,"line":1,"i_long":106.811091,"i_lat":-6.185545,"station_id":"THB"},{"transit":false,"i_long":106.816351,"time":5,"station_name":"Karet","distance":2029,"i_lat":-6.20132,"station_id":"KAT","is_transit":false,"line":1},{"line":1,"is_transit":false,"station_id":"SUDB","i_lat":-6.201433,"time":1,"transit":false,"i_long":106.819881,"distance":471,"station_name":"Sudirman Baru"},{"transit":false,"is_transit":false,"i_lat":-6.202263,"station_id":"SUD","station_name":"Sudirman","time":1,"distance":280,"i_long":106.822649,"line":1},{"distance":3186,"transit":true,"station_name":"Manggarai","time":4,"i_long":106.84912,"line":2,"i_lat":-6.209883,"station_id":"MRI","is_transit":true},{"is_transit":false,"station_id":"CKI","distance":1590,"station_name":"Cikini","i_long":106.840169,"transit":false,"i_lat":-6.198556,"time":4,"line":2},{"station_name":"Gondangdia","transit":false,"i_lat":-6.186295,"is_transit":false,"i_long":106.832183,"station_id":"GDD","line":2,"distance":1750,"time":3},{"time":4,"transit":false,"station_name":"Juanda","i_long":106.828284,"i_lat":-6.166716,"line":2,"is_transit":false,"distance":2015,"station_id":"JUA"},{"transit":false,"time":2,"line":2,"distance":1149,"is_transit":false,"station_name":"Sawah Besar","i_long":106.827103,"i_lat":-6.160725,"station_id":"SW"},{"transit":false,"i_long":106.82482,"time":2,"line":2,"station_id":"MGB","station_name":"Manggabesar","i_lat":-6.149769,"is_transit":false,"distance":906},{"is_transit":false,"i_lat":-6.141205,"station_name":"Jayakarta","time":2,"transit":false,"i_long":106.820901,"distance":1080,"line":2,"station_id":"JAY"},{"is_transit":true,"station_id":"JAKK","station_name":"Jakarta Kota","time":4,"i_long":106.812439,"i_lat":-6.137569,"distance":1264,"line":2,"transit":true},{"i_long":106.826365,"station_name":"Kampung Bandan","is_transit":true,"time":3,"transit":true,"i_lat":-6.132549,"station_id":"KPB","line":4,"distance":1364},{"distance":1444,"i_lat":-6.14505,"i_long":106.836569,"is_transit":false,"transit":false,"station_name":"Rajawali","line":11,"station_id":"RJW","time":3},{"i_lat":-6.161728,"line":11,"is_transit":false,"station_id":"KMO","station_name":"Kemayoran","transit":false,"time":5,"distance":1901,"i_long":106.839204},{"station_name":"Pasar Senen","i_long":106.84368,"transit":false,"is_transit":false,"time":4,"station_id":"PSE","line":11,"i_lat":-6.174784,"distance":1436},{"line":11,"station_name":"Gang Sentiong","i_long":106.850107,"station_id":"GST","time":8,"i_lat":-6.185975,"transit":false,"distance":1567,"is_transit":false}]]}