{"data":[[{"transit":false,"i_lat":-6.162758,"i_long":106.723064,"station_id":"RW","distance":0,"is_transit":false,"station_name":"Rawa Buaya","time":0,"line":5},{"station_id":"BOI","i_long":106.737035,"time":4,"transit":false,"is_transit":false,"i_lat":-6.159876,"station_name":"Bojongindah","line":0,"distance":1152},{"i_lat":-6.1587309999999995,"line":5,"transit":false,"station_id":"TKO","distance":2334,"station_name":"Taman Kota","time":2,"i_long":106.756522,"is_transit":false},{"distance":1614,"is_transit":false,"i_long":106.771379,"line":5,"station_name":"Pesing","transit":false,"i_lat":-6.161433,"time":2,"station_id":"PSG"},{"line":5,"distance":2036,"station_name":"Grogol","i_lat":-6.162021,"is_transit":false,"station_id":"GGL","transit":false,"i_long":106.788277,"time":2},{"station_id":"DU","transit":true,"i_long":106.800832,"station_name":"Duri","line":1,"time":3,"distance":1700,"is_transit":true,"i_lat":-6.155215},{"is_transit":false,"distance":1230,"i_lat":-6.144674,"transit":false,"line":0,"time":4,"i_long":106.79867,"station_id":"AK","station_name":"Angke"},{"time":9,"i_long":106.826365,"station_id":"KPB","i_lat":-6.132549,"station_name":"Kampung Bandan","distance":4102,"is_transit":true,"line":0,"transit":true},{"station_id":"RJW","i_long":106.836569,"i_lat":-6.14505,"line":11,"transit":false,"time":3,"distance":1444,"is_transit":false,"station_name":"Rajawali"},{"time":5,"is_transit":false,"station_id":"KMO","station_name":"Kemayoran","i_lat":-6.161728,"distance":1901,"line":11,"i_long":106.839204,"transit":false},{"distance":1436,"i_lat":-6.174784,"station_name":"Pasar Senen","line":11,"i_long":106.84368,"time":4,"is_transit":false,"station_id":"PSE","transit":false},{"line":11,"station_id":"GST","time":8,"distance":1567,"is_transit":false,"station_name":"Gang Sentiong","i_lat":-6.185975,"i_long":106.850107,"transit":false}],[{"distance":0,"transit":false,"time":0,"i_long":106.723064,"line":5,"i_lat":-6.162758,"is_transit":false,"station_name":"Rawa Buaya","station_id":"RW"},{"station_id":"BOI","line":0,"i_lat":-6.159876,"transit":false,"station_name":"Bojongindah","is_transit":false,"distance":1152,"time":4,"i_long":106.737035},{"transit":false,"distance":2334,"line":5,"i_lat":-6.1587309999999995,"station_id":"TKO","time":2,"is_transit":false,"station_name":"Taman Kota","i_long":106.756522},{"station_name":"Pesing","transit":false,"i_long":106.771379,"distance":1614,"line":5,"station_id":"PSG","i_lat":-6.161433,"time":2,"is_transit":false},{"line":5,"station_id":"GGL","station_name":"Grogol","transit":false,"i_lat":-6.162021,"time":2,"i_long":106.788277,"is_transit":false,"distance":2036},{"station_id":"DU","time":3,"distance":1700,"is_transit":true,"station_name":"Duri","i_long":106.800832,"line":1,"i_lat":-6.155215,"transit":true},{"i_long":106.811091,"transit":false,"station_id":"THB","i_lat":-6.185545,"distance":3632,"station_name":"Tanah Abang","is_transit":true,"time":8,"line":1},{"is_transit":false,"station_id":"KAT","i_long":106.816351,"time":5,"line":1,"distance":2029,"station_name":"Karet","transit":false,"i_lat":-6.20132},{"time":1,"transit":false,"station_id":"SUDB","i_long":106.819881,"distance":471,"is_transit":false,"station_name":"Sudirman Baru","line":1,"i_lat":-6.201433},{"station_id":"SUD","time":1,"line":1,"i_long":106.822649,"station_name":"Sudirman","transit":false,"i_lat":-6.202263,"is_transit":false,"distance":280},{"i_long":106.84912,"is_transit":true,"transit":false,"station_id":"MRI","distance":3186,"station_name":"Manggarai","time":4,"i_lat":-6.209883,"line":0},{"is_transit":false,"line":1,"station_id":"MTR","i_lat":-6.212485,"i_long":106.858896,"station_name":"Matraman","distance":1275,"transit":false,"time":2},{"station_id":"JNG","i_long":106.86807400000001,"time":8,"station_name":"Jatinegara","transit":true,"distance":1377,"is_transit":true,"i_lat":-6.215091,"line":0},{"i_lat":-6.209188,"distance":1236,"station_id":"POK","station_name":"Pondok Jati","i_long":106.861737,"line":11,"transit":false,"time":2,"is_transit":false},{"transit":false,"i_lat":-6.193792,"i_long":106.855437,"distance":1829,"station_id":"KMT","line":11,"time":2,"station_name":"Kramat","is_transit":false},{"station_name":"Gang Sentiong","line":11,"i_long":106.850107,"transit":false,"station_id":"GST","is_transit":false,"distance":973,"time":1,"i_lat":-6.185975}],[{"i_long":106.723064,"station_name":"Rawa Buaya","is_transit":false,"time":0,"line":5,"station_id":"RW","transit":false,"i_lat":-6.162758,"distance":0},{"distance":1152,"station_id":"BOI","i_long":106.737035,"is_transit":false,"line":0,"time":4,"i_lat":-6.159876,"station_name":"Bojongindah","transit":false},{"line":5,"i_lat":-6.1587309999999995,"distance":2334,"is_transit":false,"time":2,"station_name":"Taman Kota","i_long":106.756522,"transit":false,"station_id":"TKO"},{"is_transit":false,"station_id":"PSG","transit":false,"time":2,"i_long":106.771379,"distance":1614,"i_lat":-6.161433,"station_name":"Pesing","line":5},{"distance":2036,"station_name":"Grogol","is_transit":false,"transit":false,"station_id":"GGL","time":2,"i_lat":-6.162021,"i_long":106.788277,"line":5},{"transit":true,"station_name":"Duri","i_lat":-6.155215,"i_long":106.800832,"line":1,"distance":1700,"is_transit":true,"time":3,"station_id":"DU"},{"station_id":"AK","line":0,"distance":1230,"time":4,"i_lat":-6.144674,"is_transit":false,"station_name":"Angke","i_long":106.79867,"transit":false},{"line":0,"distance":4102,"station_name":"Kampung Bandan","station_id":"KPB","i_long":106.826365,"transit":false,"is_transit":true,"time":9,"i_lat":-6.132549},{"distance":1364,"is_transit":true,"time":3,"station_id":"JAKK","station_name":"Jakarta Kota","i_lat":-6.137569,"line":0,"transit":true,"i_long":106.812439},{"station_name":"Jayakarta","distance":1264,"station_id":"JAY","time":4,"i_long":106.820901,"line":7,"transit":false,"i_lat":-6.141205,"is_transit":false},{"line":2,"station_id":"MGB","is_transit":false,"station_name":"Manggabesar","time":2,"i_lat":-6.149769,"transit":false,"distance":1080,"i_long":106.82482},{"distance":906,"time":2,"i_lat":-6.160725,"station_name":"Sawah Besar","line":2,"station_id":"SW","transit":false,"i_long":106.827103,"is_transit":false},{"line":2,"i_long":106.828284,"i_lat":-6.166716,"is_transit":false,"distance":1149,"time":2,"station_id":"JUA","station_name":"Juanda","transit":false},{"station_name":"Gondangdia","i_long":106.832183,"transit":false,"station_id":"GDD","distance":2015,"line":2,"is_transit":false,"i_lat":-6.186295,"time":4},{"i_lat":-6.198556,"transit":false,"time":3,"distance":1750,"is_transit":false,"i_long":106.840169,"station_id":"CKI","line":0,"station_name":"Cikini"},{"time":4,"station_name":"Manggarai","i_lat":-6.209883,"transit":true,"station_id":"MRI","distance":1590,"i_long":106.84912,"is_transit":true,"line":0},{"time":2,"transit":false,"i_lat":-6.212485,"i_long":106.858896,"line":1,"is_transit":false,"station_id":"MTR","station_name":"Matraman","distance":1275},{"distance":1377,"station_name":"Jatinegara","is_transit":true,"i_lat":-6.215091,"line":0,"i_long":106.86807400000001,"station_id":"JNG","transit":true,"time":8},{"i_long":106.861737,"station_id":"POK","station_name":"Pondok Jati","distance":1236,"time":2,"i_lat":-6.209188,"line":11,"transit":false,"is_transit":false},{"distance":1829,"line":11,"transit":false,"is_transit":false,"time":2,"i_long":106.855437,"station_id":"KMT","i_lat":-6.193792,"station_name":"Kramat"},{"distance":973,"is_transit":false,"station_name":"Gang Sentiong","time":1,"transit":false,"i_lat":-6.185975,"line":11,"station_id":"GST","i_long":106.850107}],[{"i_lat":-6.162758,"line":5,"transit":false,"is_transit":false,"station_id":"RW","i_long":106.723064,"distance":0,"station_name":"Rawa Buaya","time":0},{"distance":1152,"line":0,"is_transit":false,"station_id":"BOI","time":4,"i_long":106.737035,"i_lat":-6.159876,"station_name":"Bojongindah","transit":false},{"i_lat":-6.1587309999999995,"i_long":106.756522,"transit":false,"distance":2334,"time":2,"line":5,"is_transit":false,"station_name":"Taman Kota","station_id":"TKO"},{"i_long":106.771379,"distance":1614,"is_transit":false,"station_id":"PSG","transit":false,"line":5,"station_name":"Pesing","time":2,"i_lat":-6.161433},{"time":2,"station_id":"GGL","i_long":106.788277,"line":5,"is_transit":false,"i_lat":-6.162021,"station_name":"Grogol","transit":false,"distance":2036},{"i_lat":-6.155215,"distance":1700,"station_id":"DU","line":1,"station_name":"Duri","transit":true,"i_long":106.800832,"is_transit":true,"time":3},{"is_transit":true,"time":8,"station_name":"Tanah Abang","i_long":106.811091,"line":1,"transit":false,"i_lat":-6.185545,"distance":3632,"station_id":"THB"},{"is_transit":false,"i_lat":-6.20132,"station_name":"Karet","station_id":"KAT","distance":2029,"transit":false,"time":5,"i_long":106.816351,"line":1},{"is_transit":false,"i_lat":-6.201433,"time":1,"station_id":"SUDB","i_long":106.819881,"distance":471,"line":1,"transit":false,"station_name":"Sudirman Baru"},{"station_id":"SUD","time":1,"i_long":106.822649,"distance":280,"is_transit":false,"i_lat":-6.202263,"transit":false,"line":1,"station_name":"Sudirman"},{"time":4,"i_long":106.84912,"line":0,"is_transit":true,"station_name":"Manggarai","distance":3186,"station_id":"MRI","transit":true,"i_lat":-6.209883},{"station_id":"CKI","station_name":"Cikini","i_lat":-6.198556,"is_transit":false,"time":4,"line":0,"transit":false,"i_long":106.840169,"distance":1590},{"transit":false,"time":3,"is_transit":false,"station_id":"GDD","i_lat":-6.186295,"distance":1750,"i_long":106.832183,"station_name":"Gondangdia","line":2},{"distance":2015,"time":4,"i_long":106.828284,"station_id":"JUA","station_name":"Juanda","is_transit":false,"transit":false,"i_lat":-6.166716,"line":2},{"line":2,"station_id":"SW","station_name":"Sawah Besar","time":2,"is_transit":false,"i_long":106.827103,"distance":1149,"transit":false,"i_lat":-6.160725},{"station_id":"MGB","distance":906,"i_lat":-6.149769,"time":2,"transit":false,"is_transit":false,"line":2,"station_name":"Manggabesar","i_long":106.82482},{"line":7,"station_id":"JAY","is_transit":false,"i_long":106.820901,"distance":1080,"station_name":"Jayakarta","transit":false,"time":2,"i_lat":-6.141205},{"line":0,"station_name":"Jakarta Kota","i_long":106.812439,"time":4,"i_lat":-6.137569,"station_id":"JAKK","is_transit":true,"distance":1264,"transit":true},{"distance":1364,"is_transit":true,"i_long":106.826365,"transit":true,"station_name":"Kampung Bandan","time":3,"i_lat":-6.132549,"line":0,"station_id":"KPB"},{"i_long":106.836569,"line":11,"time":3,"station_id":"RJW","station_name":"Rajawali","transit":false,"is_transit":false,"i_lat":-6.14505,"distance":1444},{"station_id":"KMO","station_name":"Kemayoran","transit":false,"time":5,"line":11,"is_transit":false,"i_long":106.839204,"i_lat":-6.161728,"distance":1901},{"i_lat":-6.174784,"transit":false,"distance":1436,"i_long":106.84368,"time":4,"line":11,"station_id":"PSE","is_transit":false,"station_name":"Pasar Senen"},{"transit":false,"i_long":106.850107,"i_lat":-6.185975,"distance":1567,"station_id":"GST","station_name":"Gang Sentiong","time":8,"is_transit":false,"line":11}]]}