{"data":[[{"station_id":"RW","is_transit":false,"transit":false,"i_lat":-6.162758,"i_long":106.723064,"distance":0,"station_name":"Rawa Buaya","time":0,"line":5},{"line":5,"station_name":"Bojongindah","transit":false,"is_transit":false,"station_id":"BOI","time":4,"distance":1152,"i_lat":-6.159876,"i_long":106.737035},{"transit":false,"is_transit":false,"i_lat":-6.1587309999999995,"station_id":"TKO","station_name":"Taman Kota","distance":2334,"time":2,"i_long":106.756522,"line":5},{"is_transit":false,"i_lat":-6.161433,"distance":1614,"line":5,"station_id":"PSG","time":2,"transit":false,"station_name":"Pesing","i_long":106.771379},{"line":5,"station_name":"Grogol","transit":false,"is_transit":false,"i_lat":-6.162021,"i_long":106.788277,"distance":2036,"time":2,"station_id":"GGL"},{"is_transit":true,"distance":1700,"i_long":106.800832,"time":3,"i_lat":-6.155215,"line":1,"transit":true,"station_name":"Duri","station_id":"DU"},{"i_long":106.79867,"is_transit":false,"distance":1230,"transit":false,"station_name":"Angke","station_id":"AK","time":4,"line":1,"i_lat":-6.144674},{"distance":4102,"i_lat":-6.132549,"transit":true,"station_name":"Kampung Bandan","is_transit":true,"line":4,"station_id":"KPB","i_long":106.826365,"time":9},{"transit":false,"i_long":106.836569,"time":3,"station_name":"Rajawali","i_lat":-6.14505,"line":11,"is_transit":false,"distance":1444,"station_id":"RJW"},{"i_long":106.839204,"distance":1901,"line":11,"station_name":"Kemayoran","i_lat":-6.161728,"transit":false,"time":5,"station_id":"KMO","is_transit":false},{"is_transit":false,"i_lat":-6.174784,"i_long":106.84368,"time":4,"line":11,"distance":1436,"station_name":"Pasar Senen","station_id":"PSE","transit":false},{"is_transit":false,"station_id":"GST","distance":1567,"line":11,"station_name":"Gang Sentiong","i_long":106.850107,"time":8,"i_lat":-6.185975,"transit":false}],[{"is_transit":false,"i_long":106.723064,"station_name":"Rawa Buaya","i_lat":-6.162758,"distance":0,"time":0,"transit":false,"station_id":"RW","line":5},{"station_name":"Bojongindah","i_lat":-6.159876,"station_id":"BOI","line":5,"transit":false,"distance":1152,"i_long":106.737035,"time":4,"is_transit":false},{"station_id":"TKO","distance":2334,"line":5,"time":2,"i_long":106.756522,"is_transit":false,"transit":false,"station_name":"Taman Kota","i_lat":-6.1587309999999995},{"i_long":106.771379,"station_name":"Pesing","distance":1614,"line":5,"station_id":"PSG","time":2,"i_lat":-6.161433,"transit":false,"is_transit":false},{"transit":false,"station_name":"Grogol","is_transit":false,"station_id":"GGL","i_long":106.788277,"time":2,"line":5,"distance":2036,"i_lat":-6.162021},{"station_name":"Duri","line":1,"transit":true,"is_transit":true,"station_id":"DU","time":3,"i_long":106.800832,"distance":1700,"i_lat":-6.155215},{"i_lat":-6.185545,"station_name":"Tanah Abang","transit":false,"distance":3632,"line":1,"time":8,"station_id":"THB","i_long":106.811091,"is_transit":false},{"transit":false,"is_transit":false,"distance":2029,"station_id":"KAT","station_name":"Karet","time":5,"i_long":106.816351,"line":1,"i_lat":-6.20132},{"transit":false,"is_transit":false,"i_lat":-6.201433,"i_long":106.819881,"time":1,"station_name":"Sudirman Baru","distance":471,"station_id":"SUDB","line":1},{"transit":false,"station_id":"SUD","time":1,"distance":280,"i_lat":-6.202263,"station_name":"Sudirman","i_long":106.822649,"line":1,"is_transit":false},{"station_id":"MRI","line":2,"transit":false,"time":4,"i_lat":-6.209883,"distance":3186,"station_name":"Manggarai","is_transit":false,"i_long":106.84912},{"time":2,"i_long":106.858896,"transit":false,"line":1,"is_transit":false,"station_id":"MTR","distance":1275,"i_lat":-6.212485,"station_name":"Matraman"},{"line":1,"transit":true,"station_id":"JNG","time":8,"is_transit":true,"distance":1377,"i_lat":-6.215091,"station_name":"Jatinegara","i_long":106.86807400000001},{"transit":false,"station_name":"Pondok Jati","station_id":"POK","is_transit":false,"distance":1236,"i_lat":-6.209188,"line":11,"i_long":106.861737,"time":2},{"i_long":106.855437,"station_id":"KMT","transit":false,"station_name":"Kramat","is_transit":false,"line":11,"distance":1829,"time":2,"i_lat":-6.193792},{"line":11,"distance":973,"is_transit":false,"i_lat":-6.185975,"transit":false,"station_id":"GST","time":1,"i_long":106.850107,"station_name":"Gang Sentiong"}],[{"time":0,"i_lat":-6.162758,"distance":0,"is_transit":false,"line":5,"station_id":"RW","station_name":"Rawa Buaya","i_long":106.723064,"transit":false},{"distance":1152,"transit":false,"line":5,"station_id":"BOI","station_name":"Bojongindah","is_transit":false,"i_lat":-6.159876,"i_long":106.737035,"time":4},{"station_name":"Taman Kota","distance":2334,"station_id":"TKO","line":5,"i_lat":-6.1587309999999995,"transit":false,"time":2,"is_transit":false,"i_long":106.756522},{"is_transit":false,"line":5,"station_id":"PSG","station_name":"Pesing","distance":1614,"time":2,"i_long":106.771379,"transit":false,"i_lat":-6.161433},{"station_id":"GGL","station_name":"Grogol","i_lat":-6.162021,"distance":2036,"i_long":106.788277,"time":2,"is_transit":false,"transit":false,"line":5},{"line":1,"i_lat":-6.155215,"time":3,"distance":1700,"i_long":106.800832,"station_name":"Duri","transit":true,"is_transit":true,"station_id":"DU"},{"time":4,"distance":1230,"line":1,"is_transit":false,"i_long":106.79867,"transit":false,"station_id":"AK","i_lat":-6.144674,"station_name":"Angke"},{"line":4,"station_name":"Kampung Bandan","is_transit":true,"station_id":"KPB","distance":4102,"transit":true,"i_long":106.826365,"time":9,"i_lat":-6.132549},{"station_id":"JAKK","transit":true,"line":2,"is_transit":true,"time":3,"i_lat":-6.137569,"distance":1364,"station_name":"Jakarta Kota","i_long":106.812439},{"distance":1264,"i_long":106.820901,"station_id":"JAY","is_transit":false,"time":4,"i_lat":-6.141205,"line":2,"station_name":"Jayakarta","transit":false},{"line":2,"station_name":"Manggabesar","station_id":"MGB","transit":false,"i_lat":-6.149769,"is_transit":false,"i_long":106.82482,"time":2,"distance":1080},{"distance":906,"is_transit":false,"i_long":106.827103,"station_name":"Sawah Besar","i_lat":-6.160725,"station_id":"SW","line":2,"time":2,"transit":false},{"station_id":"JUA","distance":1149,"is_transit":false,"time":2,"i_long":106.828284,"i_lat":-6.166716,"station_name":"Juanda","line":2,"transit":false},{"distance":2015,"i_lat":-6.186295,"station_id":"GDD","station_name":"Gondangdia","line":2,"is_transit":false,"transit":false,"time":4,"i_long":106.832183},{"i_long":106.840169,"transit":false,"distance":1750,"time":3,"i_lat":-6.198556,"station_id":"CKI","is_transit":false,"line":2,"station_name":"Cikini"},{"i_lat":-6.209883,"i_long":106.84912,"distance":1590,"line":2,"transit":true,"is_transit":true,"station_id":"MRI","time":4,"station_name":"Manggarai"},{"i_lat":-6.212485,"transit":false,"is_transit":false,"station_id":"MTR","distance":1275,"i_long":106.858896,"time":2,"station_name":"Matraman","line":1},{"i_long":106.86807400000001,"is_transit":true,"transit":true,"i_lat":-6.215091,"station_name":"Jatinegara","station_id":"JNG","time":8,"line":1,"distance":1377},{"distance":1236,"i_lat":-6.209188,"i_long":106.861737,"station_name":"Pondok Jati","time":2,"is_transit":false,"line":11,"transit":false,"station_id":"POK"},{"station_id":"KMT","time":2,"distance":1829,"station_name":"Kramat","i_lat":-6.193792,"transit":false,"is_transit":false,"i_long":106.855437,"line":11},{"time":1,"station_name":"Gang Sentiong","line":11,"is_transit":false,"distance":973,"i_lat":-6.185975,"i_long":106.850107,"station_id":"GST","transit":false}],[{"time":0,"transit":false,"is_transit":false,"i_long":106.723064,"distance":0,"station_name":"Rawa Buaya","station_id":"RW","i_lat":-6.162758,"line":5},{"line":5,"station_id":"BOI","i_long":106.737035,"transit":false,"station_name":"Bojongindah","distance":1152,"i_lat":-6.159876,"time":4,"is_transit":false},{"station_id":"TKO","is_transit":false,"i_long":106.756522,"time":2,"distance":2334,"i_lat":-6.1587309999999995,"line":5,"station_name":"Taman Kota","transit":false},{"transit":false,"station_name":"Pesing","i_lat":-6.161433,"line":5,"time":2,"distance":1614,"is_transit":false,"i_long":106.771379,"station_id":"PSG"},{"i_long":106.788277,"station_id":"GGL","transit":false,"time":2,"station_name":"Grogol","distance":2036,"is_transit":false,"line":5,"i_lat":-6.162021},{"line":1,"transit":true,"i_long":106.800832,"distance":1700,"time":3,"is_transit":true,"station_id":"DU","i_lat":-6.155215,"station_name":"Duri"},{"transit":false,"station_name":"Tanah Abang","distance":3632,"i_long":106.811091,"station_id":"THB","is_transit":false,"i_lat":-6.185545,"line":1,"time":8},{"i_lat":-6.20132,"time":5,"line":1,"i_long":106.816351,"distance":2029,"transit":false,"station_name":"Karet","station_id":"KAT","is_transit":false},{"i_lat":-6.201433,"transit":false,"is_transit":false,"i_long":106.819881,"distance":471,"line":1,"station_name":"Sudirman Baru","station_id":"SUDB","time":1},{"station_name":"Sudirman","station_id":"SUD","i_long":106.822649,"time":1,"line":1,"is_transit":false,"distance":280,"transit":false,"i_lat":-6.202263},{"distance":3186,"i_long":106.84912,"station_name":"Manggarai","station_id":"MRI","line":2,"time":4,"is_transit":true,"i_lat":-6.209883,"transit":true},{"station_name":"Cikini","i_long":106.840169,"station_id":"CKI","is_transit":false,"time":4,"distance":1590,"i_lat":-6.198556,"transit":false,"line":2},{"station_id":"GDD","is_transit":false,"station_name":"Gondangdia","distance":1750,"time":3,"i_lat":-6.186295,"line":2,"transit":false,"i_long":106.832183},{"distance":2015,"i_long":106.828284,"i_lat":-6.166716,"transit":false,"line":2,"time":4,"station_name":"Juanda","station_id":"JUA","is_transit":false},{"transit":false,"station_id":"SW","is_transit":false,"time":2,"i_long":106.827103,"line":2,"i_lat":-6.160725,"station_name":"Sawah Besar","distance":1149},{"is_transit":false,"distance":906,"i_lat":-6.149769,"line":2,"time":2,"transit":false,"station_name":"Manggabesar","station_id":"MGB","i_long":106.82482},{"i_long":106.820901,"time":2,"distance":1080,"station_id":"JAY","transit":false,"is_transit":false,"i_lat":-6.141205,"station_name":"Jayakarta","line":2},{"i_lat":-6.137569,"is_transit":true,"time":4,"station_id":"JAKK","distance":1264,"line":2,"station_name":"Jakarta Kota","transit":true,"i_long":106.812439},{"transit":true,"i_lat":-6.132549,"i_long":106.826365,"line":4,"is_transit":true,"station_name":"Kampung Bandan","station_id":"KPB","time":3,"distance":1364},{"transit":false,"distance":1444,"time":3,"i_long":106.836569,"i_lat":-6.14505,"station_name":"Rajawali","line":11,"is_transit":false,"station_id":"RJW"},{"is_transit":false,"line":11,"i_long":106.839204,"station_name":"Kemayoran","i_lat":-6.161728,"transit":false,"station_id":"KMO","time":5,"distance":1901},{"distance":1436,"time":4,"is_transit":false,"i_lat":-6.174784,"station_name":"Pasar Senen","station_id":"PSE","i_long":106.84368,"transit":false,"line":11},{"station_name":"Gang Sentiong","station_id":"GST","transit":false,"i_lat":-6.185975,"is_transit":false,"time":8,"distance":1567,"i_long":106.850107,"line":11}]]}