{"data":[[{"i_long":106.723064,"line":5,"transit":false,"is_transit":false,"station_name":"Rawa Buaya","i_lat":-6.162758,"station_id":"RW","time":0,"distance":0},{"distance":1152,"is_transit":false,"transit":false,"time":4,"station_id":"BOI","station_name":"Bojongindah","i_lat":-6.159876,"i_long":106.737035,"line":5},{"station_name":"Taman Kota","transit":false,"i_long":106.756522,"i_lat":-6.1587309999999995,"line":5,"station_id":"TKO","is_transit":false,"time":2,"distance":2334},{"station_name":"Pesing","distance":1614,"i_long":106.771379,"time":2,"i_lat":-6.161433,"is_transit":false,"transit":false,"station_id":"PSG","line":5},{"station_name":"Grogol","i_long":106.788277,"transit":false,"line":5,"i_lat":-6.162021,"station_id":"GRG","distance":2036,"time":2,"is_transit":false},{"is_transit":true,"station_id":"DU","distance":1700,"i_lat":-6.155215,"i_long":106.800832,"line":1,"transit":true,"station_name":"Duri","time":3},{"i_lat":-6.144674,"i_long":106.79867,"transit":false,"station_name":"Angke","is_transit":false,"time":4,"distance":1230,"line":1,"station_id":"AK"},{"line":4,"i_lat":-6.132549,"is_transit":true,"station_name":"Kampung Bandan","time":9,"i_long":106.826365,"distance":4102,"transit":true,"station_id":"KPB"},{"distance":1364,"i_lat":-6.137569,"station_name":"Jakarta Kota","transit":false,"station_id":"JAKK","line":2,"i_long":106.812439,"is_transit":false,"time":3}],[{"station_id":"RW","is_transit":false,"transit":false,"station_name":"Rawa Buaya","time":0,"distance":0,"i_long":106.723064,"line":5,"i_lat":-6.162758},{"i_long":106.737035,"distance":1152,"transit":false,"is_transit":false,"time":4,"station_name":"Bojongindah","line":5,"station_id":"BOI","i_lat":-6.159876},{"is_transit":false,"transit":false,"i_long":106.756522,"station_name":"Taman Kota","time":2,"line":5,"i_lat":-6.1587309999999995,"distance":2334,"station_id":"TKO"},{"distance":1614,"i_lat":-6.161433,"is_transit":false,"line":5,"station_id":"PSG","station_name":"Pesing","transit":false,"time":2,"i_long":106.771379},{"station_id":"GRG","station_name":"Grogol","distance":2036,"i_lat":-6.162021,"time":2,"i_long":106.788277,"line":5,"is_transit":false,"transit":false},{"time":3,"distance":1700,"i_long":106.800832,"station_name":"Duri","i_lat":-6.155215,"line":1,"transit":true,"is_transit":true,"station_id":"DU"},{"transit":false,"time":8,"station_id":"THB","is_transit":false,"i_lat":-6.185545,"distance":3632,"line":1,"station_name":"Tanah Abang","i_long":106.811091},{"transit":false,"station_name":"Karet","i_lat":-6.20132,"distance":2029,"station_id":"KAT","line":1,"i_long":106.816351,"time":5,"is_transit":false},{"transit":false,"i_long":106.819881,"line":1,"time":1,"distance":471,"i_lat":-6.201433,"station_name":"Sudirman Baru","station_id":"SUDB","is_transit":false},{"transit":false,"time":1,"station_name":"Sudirman","is_transit":false,"i_lat":-6.202263,"distance":280,"i_long":106.822649,"station_id":"SUD","line":1},{"station_name":"Manggarai","i_lat":-6.209883,"line":2,"i_long":106.84912,"station_id":"MRI","time":4,"transit":true,"is_transit":true,"distance":3186},{"is_transit":false,"i_lat":-6.198556,"transit":false,"station_id":"CKI","time":4,"station_name":"Cikini","i_long":106.840169,"distance":1590,"line":2},{"is_transit":false,"distance":1750,"station_name":"Gondangdia","i_long":106.832183,"i_lat":-6.186295,"line":2,"time":3,"station_id":"GDD","transit":false},{"i_long":106.828284,"station_name":"Juanda","station_id":"JUA","transit":false,"is_transit":false,"time":4,"distance":2015,"i_lat":-6.166716,"line":2},{"station_name":"Sawah Besar","distance":1149,"line":2,"i_long":106.827103,"i_lat":-6.160725,"station_id":"SW","transit":false,"is_transit":false,"time":2},{"distance":906,"transit":false,"station_id":"MGB","line":2,"is_transit":false,"station_name":"Manggabesar","i_lat":-6.149769,"i_long":106.82482,"time":2},{"i_long":106.820901,"station_name":"Jayakarta","transit":false,"time":2,"line":2,"station_id":"JAY","is_transit":false,"distance":1080,"i_lat":-6.141205},{"station_id":"JAKK","distance":1264,"i_lat":-6.137569,"station_name":"Jakarta Kota","is_transit":false,"time":4,"i_long":106.812439,"transit":false,"line":2}],[{"time":0,"station_id":"RW","line":5,"distance":0,"transit":false,"i_lat":-6.162758,"i_long":106.723064,"station_name":"Rawa Buaya","is_transit":false},{"distance":1152,"is_transit":false,"transit":false,"i_long":106.737035,"line":5,"station_name":"Bojongindah","i_lat":-6.159876,"time":4,"station_id":"BOI"},{"line":5,"distance":2334,"station_id":"TKO","i_lat":-6.1587309999999995,"station_name":"Taman Kota","i_long":106.756522,"transit":false,"time":2,"is_transit":false},{"station_id":"PSG","distance":1614,"is_transit":false,"time":2,"i_long":106.771379,"station_name":"Pesing","line":5,"transit":false,"i_lat":-6.161433},{"station_id":"GRG","station_name":"Grogol","transit":false,"is_transit":false,"distance":2036,"line":5,"i_lat":-6.162021,"i_long":106.788277,"time":2},{"time":3,"station_id":"DU","station_name":"Duri","line":1,"distance":1700,"i_lat":-6.155215,"is_transit":true,"transit":true,"i_long":106.800832},{"i_long":106.811091,"time":8,"i_lat":-6.185545,"distance":3632,"station_name":"Tanah Abang","line":1,"transit":false,"is_transit":false,"station_id":"THB"},{"distance":2029,"i_lat":-6.20132,"transit":false,"station_id":"KAT","i_long":106.816351,"is_transit":false,"station_name":"Karet","line":1,"time":5},{"is_transit":false,"line":1,"station_name":"Sudirman Baru","i_lat":-6.201433,"station_id":"SUDB","distance":471,"time":1,"i_long":106.819881,"transit":false},{"time":1,"station_id":"SUD","station_name":"Sudirman","line":1,"transit":false,"is_transit":false,"i_lat":-6.202263,"distance":280,"i_long":106.822649},{"transit":false,"i_long":106.84912,"i_lat":-6.209883,"line":2,"is_transit":false,"distance":3186,"station_name":"Manggarai","time":4,"station_id":"MRI"},{"station_id":"MTR","line":1,"station_name":"Matraman","distance":1275,"time":2,"i_lat":-6.212485,"i_long":106.858896,"transit":false,"is_transit":false},{"line":1,"i_long":106.86807400000001,"transit":true,"station_id":"JNG","distance":1377,"is_transit":true,"time":8,"i_lat":-6.215091,"station_name":"Jatinegara"},{"distance":1236,"time":2,"station_name":"Pondok Jati","i_lat":-6.209188,"line":11,"transit":false,"is_transit":false,"station_id":"POK","i_long":106.861737},{"distance":1829,"line":11,"station_id":"KMT","transit":false,"is_transit":false,"i_long":106.855437,"station_name":"Kramat","i_lat":-6.193792,"time":2},{"line":11,"time":1,"station_id":"GST","station_name":"Gang Sentiong","is_transit":false,"transit":false,"distance":973,"i_lat":-6.185975,"i_long":106.850107},{"distance":1567,"station_id":"PSE","transit":false,"i_lat":-6.174784,"i_long":106.84368,"is_transit":false,"time":8,"station_name":"Pasar Senen","line":11},{"station_name":"Kemayoran","i_lat":-6.161728,"line":11,"time":4,"station_id":"KMO","i_long":106.839204,"transit":false,"is_transit":false,"distance":1436},{"station_id":"RJW","is_transit":false,"station_name":"Rajawali","line":11,"i_lat":-6.14505,"time":5,"transit":false,"distance":1901,"i_long":106.836569},{"transit":true,"i_lat":-6.132549,"is_transit":true,"station_id":"KPB","time":3,"i_long":106.826365,"distance":1444,"line":4,"station_name":"Kampung Bandan"},{"station_name":"Jakarta Kota","transit":false,"is_transit":false,"distance":1364,"i_lat":-6.137569,"i_long":106.812439,"line":2,"station_id":"JAKK","time":3}],[{"station_name":"Rawa Buaya","line":5,"station_id":"RW","distance":0,"is_transit":false,"time":0,"i_lat":-6.162758,"transit":false,"i_long":106.723064},{"distance":1152,"transit":false,"i_lat":-6.159876,"station_id":"BOI","line":5,"i_long":106.737035,"is_transit":false,"time":4,"station_name":"Bojongindah"},{"i_lat":-6.1587309999999995,"i_long":106.756522,"line":5,"transit":false,"is_transit":false,"station_id":"TKO","time":2,"distance":2334,"station_name":"Taman Kota"},{"time":2,"station_name":"Pesing","is_transit":false,"i_lat":-6.161433,"station_id":"PSG","distance":1614,"i_long":106.771379,"line":5,"transit":false},{"distance":2036,"i_lat":-6.162021,"line":5,"station_name":"Grogol","time":2,"station_id":"GRG","transit":false,"is_transit":false,"i_long":106.788277},{"i_lat":-6.155215,"station_id":"DU","time":3,"line":1,"distance":1700,"station_name":"Duri","is_transit":true,"i_long":106.800832,"transit":true},{"station_name":"Angke","line":1,"station_id":"AK","is_transit":false,"distance":1230,"i_lat":-6.144674,"i_long":106.79867,"time":4,"transit":false},{"i_long":106.826365,"distance":4102,"line":4,"time":9,"station_id":"KPB","i_lat":-6.132549,"station_name":"Kampung Bandan","is_transit":true,"transit":true},{"station_name":"Rajawali","distance":1444,"line":11,"time":3,"is_transit":false,"transit":false,"i_lat":-6.14505,"station_id":"RJW","i_long":106.836569},{"line":11,"time":5,"is_transit":false,"transit":false,"i_lat":-6.161728,"station_id":"KMO","station_name":"Kemayoran","i_long":106.839204,"distance":1901},{"i_long":106.84368,"line":11,"transit":false,"distance":1436,"time":4,"is_transit":false,"station_id":"PSE","station_name":"Pasar Senen","i_lat":-6.174784},{"distance":1567,"station_name":"Gang Sentiong","i_lat":-6.185975,"transit":false,"station_id":"GST","i_long":106.850107,"is_transit":false,"line":11,"time":8},{"i_long":106.855437,"distance":973,"line":11,"time":1,"i_lat":-6.193792,"transit":false,"station_name":"Kramat","station_id":"KMT","is_transit":false},{"i_long":106.861737,"is_transit":false,"time":2,"line":11,"station_id":"POK","transit":false,"distance":1829,"i_lat":-6.209188,"station_name":"Pondok Jati"},{"line":1,"distance":1236,"i_long":106.86807400000001,"transit":true,"i_lat":-6.215091,"is_transit":true,"station_id":"JNG","time":9,"station_name":"Jatinegara"},{"i_long":106.858896,"time":2,"station_name":"Matraman","line":1,"is_transit":false,"transit":false,"i_lat":-6.212485,"station_id":"MTR","distance":1377},{"is_transit":true,"time":2,"station_id":"MRI","transit":true,"line":2,"station_name":"Manggarai","distance":1275,"i_lat":-6.209883,"i_long":106.84912},{"distance":1590,"time":4,"transit":false,"station_id":"CKI","is_transit":false,"line":2,"i_lat":-6.198556,"station_name":"Cikini","i_long":106.840169},{"time":3,"transit":false,"i_lat":-6.186295,"line":2,"is_transit":false,"i_long":106.832183,"station_name":"Gondangdia","distance":1750,"station_id":"GDD"},{"distance":2015,"transit":false,"station_name":"Juanda","is_transit":false,"station_id":"JUA","i_long":106.828284,"time":4,"i_lat":-6.166716,"line":2},{"station_id":"SW","transit":false,"station_name":"Sawah Besar","line":2,"is_transit":false,"time":2,"i_lat":-6.160725,"distance":1149,"i_long":106.827103},{"station_id":"MGB","line":2,"distance":906,"time":2,"is_transit":false,"i_long":106.82482,"i_lat":-6.149769,"transit":false,"station_name":"Manggabesar"},{"i_lat":-6.141205,"station_id":"JAY","is_transit":false,"transit":false,"time":2,"i_long":106.820901,"station_name":"Jayakarta","distance":1080,"line":2},{"is_transit":false,"station_id":"JAKK","time":4,"i_long":106.812439,"transit":false,"line":2,"station_name":"Jakarta Kota","i_lat":-6.137569,"distance":1264}]]}