{"data":[[{"transit":false,"station_id":"RW","time":0,"is_transit":false,"station_name":"Rawa Buaya","i_long":106.723064,"i_lat":-6.162758,"line":5,"distance":0},{"i_long":106.737035,"is_transit":false,"transit":false,"i_lat":-6.159876,"time":4,"line":5,"distance":1152,"station_name":"Bojongindah","station_id":"BOI"},{"i_long":106.756522,"transit":false,"distance":2334,"is_transit":false,"time":2,"station_id":"TKO","i_lat":-6.1587309999999995,"line":5,"station_name":"Taman Kota"},{"is_transit":false,"transit":false,"i_long":106.771379,"distance":1614,"time":2,"i_lat":-6.161433,"station_name":"Pesing","station_id":"PSG","line":5},{"line":5,"time":2,"is_transit":false,"distance":2036,"i_long":106.788277,"transit":false,"station_id":"GGL","station_name":"Grogol","i_lat":-6.162021},{"is_transit":true,"station_name":"Duri","distance":1700,"i_long":106.800832,"i_lat":-6.155215,"time":3,"station_id":"DU","transit":true,"line":1},{"line":1,"transit":false,"time":4,"i_lat":-6.144674,"station_id":"AK","i_long":106.79867,"is_transit":false,"distance":1230,"station_name":"Angke"},{"i_lat":-6.132549,"station_name":"Kampung Bandan","i_long":106.826365,"station_id":"KPB","is_transit":true,"distance":4102,"time":9,"line":4,"transit":true},{"i_long":106.812439,"transit":false,"distance":1364,"station_id":"JAKK","line":2,"station_name":"Jakarta Kota","time":3,"is_transit":false,"i_lat":-6.137569}],[{"station_name":"Rawa Buaya","station_id":"RW","distance":0,"i_lat":-6.162758,"i_long":106.723064,"line":5,"transit":false,"is_transit":false,"time":0},{"i_long":106.737035,"line":5,"station_id":"BOI","transit":false,"station_name":"Bojongindah","i_lat":-6.159876,"is_transit":false,"distance":1152,"time":4},{"station_id":"TKO","i_long":106.756522,"i_lat":-6.1587309999999995,"time":2,"distance":2334,"is_transit":false,"station_name":"Taman Kota","transit":false,"line":5},{"time":2,"station_name":"Pesing","is_transit":false,"transit":false,"i_long":106.771379,"distance":1614,"i_lat":-6.161433,"line":5,"station_id":"PSG"},{"i_lat":-6.162021,"line":5,"distance":2036,"transit":false,"station_name":"Grogol","time":2,"station_id":"GGL","i_long":106.788277,"is_transit":false},{"is_transit":true,"distance":1700,"i_long":106.800832,"transit":true,"i_lat":-6.155215,"station_id":"DU","line":1,"time":3,"station_name":"Duri"},{"i_long":106.811091,"is_transit":false,"station_name":"Tanah Abang","transit":false,"time":8,"line":1,"station_id":"THB","i_lat":-6.185545,"distance":3632},{"station_id":"KAT","is_transit":false,"distance":2029,"time":5,"station_name":"Karet","transit":false,"line":1,"i_lat":-6.20132,"i_long":106.816351},{"station_name":"Sudirman Baru","i_long":106.819881,"transit":false,"distance":471,"time":1,"station_id":"SUDB","i_lat":-6.201433,"is_transit":false,"line":1},{"is_transit":false,"distance":280,"station_name":"Sudirman","station_id":"SUD","i_lat":-6.202263,"transit":false,"time":1,"line":1,"i_long":106.822649},{"transit":true,"line":2,"is_transit":true,"time":4,"i_lat":-6.209883,"distance":3186,"station_name":"Manggarai","station_id":"MRI","i_long":106.84912},{"time":4,"transit":false,"is_transit":false,"distance":1590,"station_id":"CKI","i_lat":-6.198556,"i_long":106.840169,"line":2,"station_name":"Cikini"},{"line":2,"station_id":"GDD","distance":1750,"i_long":106.832183,"i_lat":-6.186295,"is_transit":false,"transit":false,"time":3,"station_name":"Gondangdia"},{"line":2,"distance":2015,"time":4,"i_long":106.828284,"station_id":"JUA","is_transit":false,"transit":false,"i_lat":-6.166716,"station_name":"Juanda"},{"i_long":106.827103,"transit":false,"distance":1149,"i_lat":-6.160725,"time":2,"is_transit":false,"line":2,"station_id":"SW","station_name":"Sawah Besar"},{"i_lat":-6.149769,"is_transit":false,"station_name":"Manggabesar","line":2,"i_long":106.82482,"station_id":"MGB","transit":false,"time":2,"distance":906},{"station_id":"JAY","is_transit":false,"time":2,"line":2,"i_long":106.820901,"station_name":"Jayakarta","transit":false,"distance":1080,"i_lat":-6.141205},{"distance":1264,"station_id":"JAKK","time":4,"i_lat":-6.137569,"transit":false,"i_long":106.812439,"line":2,"is_transit":false,"station_name":"Jakarta Kota"}],[{"is_transit":false,"transit":false,"time":0,"i_long":106.723064,"station_id":"RW","i_lat":-6.162758,"line":5,"distance":0,"station_name":"Rawa Buaya"},{"i_long":106.737035,"transit":false,"i_lat":-6.159876,"line":5,"station_name":"Bojongindah","station_id":"BOI","distance":1152,"time":4,"is_transit":false},{"is_transit":false,"station_id":"TKO","transit":false,"station_name":"Taman Kota","i_lat":-6.1587309999999995,"time":2,"line":5,"distance":2334,"i_long":106.756522},{"transit":false,"is_transit":false,"station_id":"PSG","distance":1614,"i_lat":-6.161433,"line":5,"station_name":"Pesing","time":2,"i_long":106.771379},{"station_name":"Grogol","line":5,"station_id":"GGL","transit":false,"i_long":106.788277,"time":2,"distance":2036,"i_lat":-6.162021,"is_transit":false},{"station_id":"DU","distance":1700,"transit":true,"time":3,"i_long":106.800832,"is_transit":true,"station_name":"Duri","i_lat":-6.155215,"line":1},{"line":1,"distance":3632,"station_name":"Tanah Abang","time":8,"i_long":106.811091,"station_id":"THB","is_transit":false,"i_lat":-6.185545,"transit":false},{"i_lat":-6.20132,"line":1,"i_long":106.816351,"time":5,"station_name":"Karet","station_id":"KAT","is_transit":false,"distance":2029,"transit":false},{"time":1,"line":1,"is_transit":false,"distance":471,"station_id":"SUDB","transit":false,"station_name":"Sudirman Baru","i_lat":-6.201433,"i_long":106.819881},{"i_lat":-6.202263,"transit":false,"is_transit":false,"distance":280,"station_id":"SUD","i_long":106.822649,"time":1,"station_name":"Sudirman","line":1},{"time":4,"line":2,"station_id":"MRI","is_transit":false,"station_name":"Manggarai","i_long":106.84912,"transit":false,"i_lat":-6.209883,"distance":3186},{"station_id":"MTR","distance":1275,"i_long":106.858896,"time":2,"station_name":"Matraman","line":1,"is_transit":false,"transit":false,"i_lat":-6.212485},{"transit":true,"i_lat":-6.215091,"station_id":"JNG","is_transit":true,"distance":1377,"time":8,"station_name":"Jatinegara","i_long":106.86807400000001,"line":1},{"is_transit":false,"station_name":"Pondok Jati","i_lat":-6.209188,"distance":1236,"line":11,"station_id":"POK","time":2,"transit":false,"i_long":106.861737},{"is_transit":false,"station_id":"KMT","transit":false,"i_long":106.855437,"line":11,"time":2,"i_lat":-6.193792,"distance":1829,"station_name":"Kramat"},{"i_long":106.850107,"station_name":"Gang Sentiong","line":11,"distance":973,"transit":false,"time":1,"i_lat":-6.185975,"station_id":"GST","is_transit":false},{"i_lat":-6.174784,"time":8,"distance":1567,"transit":false,"i_long":106.84368,"station_id":"PSE","is_transit":false,"line":11,"station_name":"Pasar Senen"},{"distance":1436,"i_lat":-6.161728,"time":4,"station_name":"Kemayoran","line":11,"is_transit":false,"i_long":106.839204,"station_id":"KMO","transit":false},{"distance":1901,"line":11,"is_transit":false,"station_name":"Rajawali","transit":false,"i_lat":-6.14505,"time":5,"i_long":106.836569,"station_id":"RJW"},{"transit":true,"station_id":"KPB","is_transit":true,"time":3,"i_lat":-6.132549,"i_long":106.826365,"line":4,"station_name":"Kampung Bandan","distance":1444},{"i_lat":-6.137569,"i_long":106.812439,"station_name":"Jakarta Kota","station_id":"JAKK","transit":false,"is_transit":false,"line":2,"distance":1364,"time":3}],[{"is_transit":false,"station_id":"RW","time":0,"distance":0,"transit":false,"i_long":106.723064,"station_name":"Rawa Buaya","i_lat":-6.162758,"line":5},{"i_lat":-6.159876,"time":4,"distance":1152,"transit":false,"station_name":"Bojongindah","is_transit":false,"i_long":106.737035,"line":5,"station_id":"BOI"},{"is_transit":false,"station_id":"TKO","line":5,"distance":2334,"station_name":"Taman Kota","time":2,"i_lat":-6.1587309999999995,"i_long":106.756522,"transit":false},{"station_id":"PSG","time":2,"station_name":"Pesing","distance":1614,"transit":false,"i_lat":-6.161433,"i_long":106.771379,"line":5,"is_transit":false},{"time":2,"transit":false,"i_lat":-6.162021,"line":5,"i_long":106.788277,"station_id":"GGL","station_name":"Grogol","is_transit":false,"distance":2036},{"time":3,"is_transit":true,"distance":1700,"transit":true,"line":1,"i_long":106.800832,"station_id":"DU","station_name":"Duri","i_lat":-6.155215},{"distance":1230,"is_transit":false,"station_id":"AK","station_name":"Angke","time":4,"i_lat":-6.144674,"transit":false,"i_long":106.79867,"line":1},{"distance":4102,"time":9,"station_id":"KPB","is_transit":true,"transit":true,"i_long":106.826365,"line":4,"station_name":"Kampung Bandan","i_lat":-6.132549},{"station_name":"Rajawali","transit":false,"i_long":106.836569,"station_id":"RJW","line":11,"time":3,"distance":1444,"is_transit":false,"i_lat":-6.14505},{"time":5,"distance":1901,"line":11,"i_long":106.839204,"is_transit":false,"station_name":"Kemayoran","station_id":"KMO","transit":false,"i_lat":-6.161728},{"i_long":106.84368,"transit":false,"i_lat":-6.174784,"station_name":"Pasar Senen","station_id":"PSE","line":11,"distance":1436,"is_transit":false,"time":4},{"line":11,"station_id":"GST","transit":false,"station_name":"Gang Sentiong","i_lat":-6.185975,"time":8,"distance":1567,"is_transit":false,"i_long":106.850107},{"is_transit":false,"transit":false,"station_id":"KMT","distance":973,"station_name":"Kramat","i_long":106.855437,"line":11,"i_lat":-6.193792,"time":1},{"distance":1829,"transit":false,"time":2,"i_lat":-6.209188,"i_long":106.861737,"station_id":"POK","station_name":"Pondok Jati","line":11,"is_transit":false},{"transit":true,"i_lat":-6.215091,"time":9,"line":1,"distance":1236,"station_id":"JNG","i_long":106.86807400000001,"station_name":"Jatinegara","is_transit":true},{"time":2,"line":1,"transit":false,"distance":1377,"is_transit":false,"station_id":"MTR","station_name":"Matraman","i_lat":-6.212485,"i_long":106.858896},{"i_long":106.84912,"line":2,"distance":1275,"i_lat":-6.209883,"time":2,"station_id":"MRI","is_transit":true,"transit":true,"station_name":"Manggarai"},{"line":2,"transit":false,"station_name":"Cikini","station_id":"CKI","i_lat":-6.198556,"is_transit":false,"distance":1590,"time":4,"i_long":106.840169},{"station_id":"GDD","station_name":"Gondangdia","i_lat":-6.186295,"i_long":106.832183,"transit":false,"time":3,"distance":1750,"line":2,"is_transit":false},{"station_id":"JUA","transit":false,"i_lat":-6.166716,"is_transit":false,"distance":2015,"line":2,"station_name":"Juanda","i_long":106.828284,"time":4},{"distance":1149,"transit":false,"station_name":"Sawah Besar","is_transit":false,"time":2,"i_lat":-6.160725,"line":2,"i_long":106.827103,"station_id":"SW"},{"station_name":"Manggabesar","i_long":106.82482,"is_transit":false,"station_id":"MGB","time":2,"line":2,"i_lat":-6.149769,"distance":906,"transit":false},{"i_long":106.820901,"line":2,"i_lat":-6.141205,"station_name":"Jayakarta","distance":1080,"time":2,"is_transit":false,"transit":false,"station_id":"JAY"},{"distance":1264,"is_transit":false,"transit":false,"time":4,"line":2,"station_name":"Jakarta Kota","i_lat":-6.137569,"station_id":"JAKK","i_long":106.812439}]]}