{"data":[[{"i_lat":-6.162758,"line":5,"distance":0,"is_transit":false,"station_id":"RW","transit":false,"station_name":"Rawa Buaya","time":0,"i_long":106.723064},{"is_transit":false,"i_long":106.737035,"distance":1152,"station_id":"BOI","transit":false,"time":4,"i_lat":-6.159876,"station_name":"Bojongindah","line":0},{"i_lat":-6.1587309999999995,"station_name":"Taman Kota","line":5,"station_id":"TKO","time":2,"i_long":106.756522,"distance":2334,"is_transit":false,"transit":false},{"time":2,"station_name":"Pesing","transit":false,"distance":1614,"station_id":"PSG","line":5,"i_lat":-6.161433,"i_long":106.771379,"is_transit":false},{"time":2,"is_transit":false,"station_id":"GGL","i_long":106.788277,"station_name":"Grogol","line":5,"transit":false,"distance":2036,"i_lat":-6.162021},{"time":3,"transit":true,"line":1,"station_name":"Duri","station_id":"DU","is_transit":true,"distance":1700,"i_lat":-6.155215,"i_long":106.800832},{"line":0,"transit":false,"distance":1230,"station_id":"AK","time":4,"i_lat":-6.144674,"station_name":"Angke","is_transit":false,"i_long":106.79867},{"distance":4102,"i_long":106.826365,"is_transit":true,"transit":false,"station_id":"KPB","station_name":"Kampung Bandan","line":0,"i_lat":-6.132549,"time":9},{"station_name":"Jakarta Kota","transit":false,"line":0,"time":3,"distance":1364,"is_transit":true,"i_lat":-6.137569,"i_long":106.812439,"station_id":"JAKK"}],[{"station_name":"Rawa Buaya","time":0,"distance":0,"line":5,"i_lat":-6.162758,"transit":false,"station_id":"RW","i_long":106.723064,"is_transit":false},{"i_lat":-6.159876,"is_transit":false,"line":0,"transit":false,"station_name":"Bojongindah","time":4,"i_long":106.737035,"distance":1152,"station_id":"BOI"},{"is_transit":false,"distance":2334,"station_name":"Taman Kota","i_lat":-6.1587309999999995,"i_long":106.756522,"line":5,"transit":false,"time":2,"station_id":"TKO"},{"station_name":"Pesing","is_transit":false,"time":2,"line":5,"i_long":106.771379,"station_id":"PSG","i_lat":-6.161433,"distance":1614,"transit":false},{"i_lat":-6.162021,"i_long":106.788277,"transit":false,"station_id":"GGL","line":5,"station_name":"Grogol","distance":2036,"is_transit":false,"time":2},{"transit":true,"i_long":106.800832,"is_transit":true,"station_name":"Duri","i_lat":-6.155215,"time":3,"station_id":"DU","line":1,"distance":1700},{"transit":false,"i_lat":-6.185545,"i_long":106.811091,"station_id":"THB","distance":3632,"station_name":"Tanah Abang","is_transit":true,"line":1,"time":8},{"station_name":"Karet","i_long":106.816351,"line":1,"is_transit":false,"transit":false,"distance":2029,"time":5,"i_lat":-6.20132,"station_id":"KAT"},{"transit":false,"station_id":"SUDB","is_transit":false,"distance":471,"i_lat":-6.201433,"line":1,"time":1,"i_long":106.819881,"station_name":"Sudirman Baru"},{"i_lat":-6.202263,"station_name":"Sudirman","is_transit":false,"station_id":"SUD","i_long":106.822649,"line":1,"transit":false,"time":1,"distance":280},{"distance":3186,"transit":true,"time":4,"station_id":"MRI","i_lat":-6.209883,"station_name":"Manggarai","line":0,"is_transit":true,"i_long":106.84912},{"station_name":"Cikini","i_long":106.840169,"i_lat":-6.198556,"distance":1590,"station_id":"CKI","transit":false,"time":4,"is_transit":false,"line":0},{"transit":false,"is_transit":false,"i_long":106.832183,"line":2,"time":3,"i_lat":-6.186295,"distance":1750,"station_id":"GDD","station_name":"Gondangdia"},{"distance":2015,"station_name":"Juanda","i_lat":-6.166716,"is_transit":false,"i_long":106.828284,"transit":false,"time":4,"station_id":"JUA","line":2},{"station_id":"SW","line":2,"time":2,"i_long":106.827103,"distance":1149,"station_name":"Sawah Besar","transit":false,"is_transit":false,"i_lat":-6.160725},{"station_id":"MGB","line":2,"time":2,"transit":false,"i_lat":-6.149769,"distance":906,"station_name":"Manggabesar","is_transit":false,"i_long":106.82482},{"i_long":106.820901,"station_id":"JAY","distance":1080,"station_name":"Jayakarta","time":2,"line":7,"is_transit":false,"transit":false,"i_lat":-6.141205},{"i_lat":-6.137569,"distance":1264,"station_name":"Jakarta Kota","i_long":106.812439,"transit":false,"station_id":"JAKK","line":0,"time":4,"is_transit":true}],[{"transit":false,"i_long":106.723064,"station_id":"RW","line":5,"time":0,"is_transit":false,"station_name":"Rawa Buaya","i_lat":-6.162758,"distance":0},{"station_id":"BOI","is_transit":false,"station_name":"Bojongindah","transit":false,"i_long":106.737035,"line":0,"distance":1152,"time":4,"i_lat":-6.159876},{"line":5,"is_transit":false,"time":2,"distance":2334,"i_lat":-6.1587309999999995,"station_id":"TKO","i_long":106.756522,"transit":false,"station_name":"Taman Kota"},{"i_long":106.771379,"station_name":"Pesing","distance":1614,"transit":false,"i_lat":-6.161433,"line":5,"is_transit":false,"time":2,"station_id":"PSG"},{"line":5,"time":2,"distance":2036,"station_name":"Grogol","is_transit":false,"station_id":"GGL","transit":false,"i_lat":-6.162021,"i_long":106.788277},{"line":1,"i_long":106.800832,"i_lat":-6.155215,"station_id":"DU","station_name":"Duri","time":3,"is_transit":true,"distance":1700,"transit":true},{"station_id":"THB","time":8,"i_long":106.811091,"station_name":"Tanah Abang","transit":false,"line":1,"distance":3632,"i_lat":-6.185545,"is_transit":true},{"station_id":"KAT","station_name":"Karet","transit":false,"i_long":106.816351,"distance":2029,"i_lat":-6.20132,"line":1,"is_transit":false,"time":5},{"time":1,"station_name":"Sudirman Baru","station_id":"SUDB","i_long":106.819881,"distance":471,"transit":false,"i_lat":-6.201433,"line":1,"is_transit":false},{"distance":280,"station_name":"Sudirman","station_id":"SUD","i_lat":-6.202263,"is_transit":false,"time":1,"i_long":106.822649,"transit":false,"line":1},{"i_lat":-6.209883,"i_long":106.84912,"distance":3186,"line":0,"station_name":"Manggarai","time":4,"is_transit":true,"station_id":"MRI","transit":false},{"station_id":"MTR","transit":false,"time":2,"distance":1275,"station_name":"Matraman","line":1,"i_long":106.858896,"i_lat":-6.212485,"is_transit":false},{"station_name":"Jatinegara","i_long":106.86807400000001,"i_lat":-6.215091,"is_transit":true,"station_id":"JNG","line":0,"transit":true,"time":8,"distance":1377},{"i_lat":-6.209188,"i_long":106.861737,"transit":false,"station_id":"POK","line":11,"station_name":"Pondok Jati","distance":1236,"is_transit":false,"time":2},{"station_name":"Kramat","line":11,"distance":1829,"station_id":"KMT","transit":false,"i_long":106.855437,"time":2,"is_transit":false,"i_lat":-6.193792},{"i_long":106.850107,"transit":false,"station_name":"Gang Sentiong","line":11,"is_transit":false,"distance":973,"station_id":"GST","i_lat":-6.185975,"time":1},{"distance":1567,"is_transit":false,"transit":false,"i_lat":-6.174784,"station_id":"PSE","line":11,"station_name":"Pasar Senen","i_long":106.84368,"time":8},{"transit":false,"distance":1436,"line":11,"i_lat":-6.161728,"i_long":106.839204,"station_id":"KMO","is_transit":false,"station_name":"Kemayoran","time":4},{"i_long":106.836569,"station_name":"Rajawali","time":5,"line":11,"distance":1901,"is_transit":false,"i_lat":-6.14505,"transit":false,"station_id":"RJW"},{"i_long":106.826365,"is_transit":true,"station_name":"Kampung Bandan","time":3,"line":0,"distance":1444,"station_id":"KPB","transit":true,"i_lat":-6.132549},{"station_name":"Jakarta Kota","is_transit":true,"i_lat":-6.137569,"distance":1364,"transit":false,"time":3,"i_long":106.812439,"line":0,"station_id":"JAKK"}],[{"is_transit":false,"station_id":"RW","transit":false,"i_long":106.723064,"distance":0,"line":5,"station_name":"Rawa Buaya","time":0,"i_lat":-6.162758},{"distance":1152,"station_name":"Bojongindah","time":4,"station_id":"BOI","line":0,"i_lat":-6.159876,"transit":false,"is_transit":false,"i_long":106.737035},{"distance":2334,"line":5,"i_long":106.756522,"station_name":"Taman Kota","station_id":"TKO","time":2,"i_lat":-6.1587309999999995,"transit":false,"is_transit":false},{"time":2,"station_id":"PSG","i_lat":-6.161433,"station_name":"Pesing","i_long":106.771379,"line":5,"is_transit":false,"distance":1614,"transit":false},{"line":5,"i_long":106.788277,"distance":2036,"is_transit":false,"station_id":"GGL","station_name":"Grogol","i_lat":-6.162021,"transit":false,"time":2},{"line":1,"station_id":"DU","i_lat":-6.155215,"distance":1700,"station_name":"Duri","time":3,"i_long":106.800832,"transit":true,"is_transit":true},{"i_lat":-6.144674,"line":0,"distance":1230,"is_transit":false,"station_id":"AK","station_name":"Angke","time":4,"i_long":106.79867,"transit":false},{"station_id":"KPB","i_long":106.826365,"transit":true,"station_name":"Kampung Bandan","line":0,"time":9,"distance":4102,"is_transit":true,"i_lat":-6.132549},{"time":3,"line":11,"station_name":"Rajawali","transit":false,"station_id":"RJW","i_lat":-6.14505,"distance":1444,"is_transit":false,"i_long":106.836569},{"station_name":"Kemayoran","line":11,"station_id":"KMO","transit":false,"is_transit":false,"i_long":106.839204,"distance":1901,"time":5,"i_lat":-6.161728},{"line":11,"station_id":"PSE","is_transit":false,"transit":false,"i_lat":-6.174784,"station_name":"Pasar Senen","distance":1436,"time":4,"i_long":106.84368},{"line":11,"distance":1567,"transit":false,"time":8,"is_transit":false,"station_id":"GST","station_name":"Gang Sentiong","i_long":106.850107,"i_lat":-6.185975},{"i_long":106.855437,"is_transit":false,"station_name":"Kramat","station_id":"KMT","i_lat":-6.193792,"transit":false,"line":11,"distance":973,"time":1},{"distance":1829,"station_id":"POK","line":11,"is_transit":false,"transit":false,"i_lat":-6.209188,"station_name":"Pondok Jati","time":2,"i_long":106.861737},{"station_name":"Jatinegara","time":9,"station_id":"JNG","distance":1236,"is_transit":true,"transit":true,"i_long":106.86807400000001,"i_lat":-6.215091,"line":0},{"i_long":106.858896,"station_id":"MTR","transit":false,"station_name":"Matraman","distance":1377,"line":1,"time":2,"is_transit":false,"i_lat":-6.212485},{"transit":true,"time":2,"is_transit":true,"station_name":"Manggarai","i_long":106.84912,"distance":1275,"i_lat":-6.209883,"line":0,"station_id":"MRI"},{"station_id":"CKI","i_lat":-6.198556,"i_long":106.840169,"time":4,"line":0,"is_transit":false,"transit":false,"distance":1590,"station_name":"Cikini"},{"is_transit":false,"station_id":"GDD","station_name":"Gondangdia","transit":false,"line":2,"distance":1750,"i_lat":-6.186295,"time":3,"i_long":106.832183},{"i_lat":-6.166716,"station_name":"Juanda","transit":false,"time":4,"station_id":"JUA","line":2,"i_long":106.828284,"distance":2015,"is_transit":false},{"station_name":"Sawah Besar","distance":1149,"time":2,"i_lat":-6.160725,"line":2,"i_long":106.827103,"station_id":"SW","is_transit":false,"transit":false},{"distance":906,"is_transit":false,"station_id":"MGB","station_name":"Manggabesar","time":2,"i_lat":-6.149769,"line":2,"transit":false,"i_long":106.82482},{"station_id":"JAY","i_long":106.820901,"time":2,"transit":false,"i_lat":-6.141205,"line":7,"is_transit":false,"distance":1080,"station_name":"Jayakarta"},{"is_transit":true,"station_name":"Jakarta Kota","i_long":106.812439,"line":0,"transit":false,"station_id":"JAKK","time":4,"i_lat":-6.137569,"distance":1264}]]}