{"data":[[{"i_lat":-6.162758,"i_long":106.723064,"transit":false,"line":5,"distance":0,"station_name":"Rawa Buaya","station_id":"RW","is_transit":false,"time":0},{"station_id":"BOI","distance":1152,"i_long":106.737035,"transit":false,"is_transit":false,"line":5,"i_lat":-6.159876,"time":4,"station_name":"Bojongindah"},{"is_transit":false,"distance":2334,"i_long":106.756522,"station_id":"TKO","station_name":"Taman Kota","i_lat":-6.1587309999999995,"transit":false,"line":5,"time":2},{"transit":false,"distance":1614,"line":5,"station_id":"PSG","station_name":"Pesing","is_transit":false,"time":2,"i_lat":-6.161433,"i_long":106.771379},{"is_transit":false,"time":2,"station_id":"GGL","distance":2036,"station_name":"Grogol","i_long":106.788277,"line":5,"i_lat":-6.162021,"transit":false},{"transit":true,"station_name":"Duri","is_transit":true,"time":3,"distance":1700,"i_lat":-6.155215,"line":1,"station_id":"DU","i_long":106.800832},{"i_lat":-6.144674,"time":4,"i_long":106.79867,"line":1,"transit":false,"station_name":"Angke","is_transit":false,"station_id":"AK","distance":1230},{"i_long":106.826365,"transit":true,"station_id":"KPB","i_lat":-6.132549,"time":9,"distance":4102,"station_name":"Kampung Bandan","is_transit":true,"line":4},{"is_transit":false,"i_long":106.812439,"station_id":"JAKK","i_lat":-6.137569,"time":3,"station_name":"Jakarta Kota","transit":false,"distance":1364,"line":2}],[{"distance":0,"line":5,"station_id":"RW","station_name":"Rawa Buaya","transit":false,"is_transit":false,"i_long":106.723064,"time":0,"i_lat":-6.162758},{"transit":false,"station_name":"Bojongindah","i_lat":-6.159876,"is_transit":false,"station_id":"BOI","distance":1152,"line":5,"time":4,"i_long":106.737035},{"is_transit":false,"station_id":"TKO","time":2,"i_lat":-6.1587309999999995,"station_name":"Taman Kota","transit":false,"distance":2334,"line":5,"i_long":106.756522},{"transit":false,"i_lat":-6.161433,"distance":1614,"time":2,"line":5,"station_name":"Pesing","i_long":106.771379,"station_id":"PSG","is_transit":false},{"station_id":"GGL","is_transit":false,"station_name":"Grogol","time":2,"distance":2036,"i_lat":-6.162021,"i_long":106.788277,"line":5,"transit":false},{"is_transit":true,"distance":1700,"station_name":"Duri","time":3,"line":1,"transit":true,"i_lat":-6.155215,"station_id":"DU","i_long":106.800832},{"transit":false,"line":1,"is_transit":false,"distance":3632,"time":8,"i_long":106.811091,"station_id":"THB","station_name":"Tanah Abang","i_lat":-6.185545},{"time":5,"station_name":"Karet","station_id":"KAT","distance":2029,"i_long":106.816351,"line":1,"i_lat":-6.20132,"is_transit":false,"transit":false},{"station_name":"Sudirman Baru","i_lat":-6.201433,"station_id":"SUDB","transit":false,"time":1,"i_long":106.819881,"line":1,"is_transit":false,"distance":471},{"line":1,"i_lat":-6.202263,"station_id":"SUD","transit":false,"station_name":"Sudirman","is_transit":false,"time":1,"distance":280,"i_long":106.822649},{"is_transit":true,"distance":3186,"i_lat":-6.209883,"i_long":106.84912,"transit":true,"time":4,"station_name":"Manggarai","station_id":"MRI","line":2},{"line":2,"is_transit":false,"time":4,"transit":false,"station_id":"CKI","i_long":106.840169,"station_name":"Cikini","i_lat":-6.198556,"distance":1590},{"station_name":"Gondangdia","distance":1750,"i_long":106.832183,"line":2,"is_transit":false,"time":3,"i_lat":-6.186295,"station_id":"GDD","transit":false},{"i_long":106.828284,"i_lat":-6.166716,"distance":2015,"transit":false,"station_id":"JUA","line":2,"time":4,"station_name":"Juanda","is_transit":false},{"i_lat":-6.160725,"line":2,"station_id":"SW","is_transit":false,"distance":1149,"station_name":"Sawah Besar","time":2,"i_long":106.827103,"transit":false},{"is_transit":false,"time":2,"station_id":"MGB","line":2,"i_long":106.82482,"transit":false,"station_name":"Manggabesar","distance":906,"i_lat":-6.149769},{"i_long":106.820901,"i_lat":-6.141205,"station_id":"JAY","transit":false,"time":2,"line":2,"distance":1080,"is_transit":false,"station_name":"Jayakarta"},{"station_name":"Jakarta Kota","i_lat":-6.137569,"time":4,"station_id":"JAKK","distance":1264,"i_long":106.812439,"transit":false,"line":2,"is_transit":false}],[{"line":5,"transit":false,"station_id":"RW","distance":0,"station_name":"Rawa Buaya","time":0,"i_long":106.723064,"is_transit":false,"i_lat":-6.162758},{"station_name":"Bojongindah","i_lat":-6.159876,"distance":1152,"line":5,"time":4,"is_transit":false,"transit":false,"station_id":"BOI","i_long":106.737035},{"transit":false,"i_lat":-6.1587309999999995,"is_transit":false,"station_id":"TKO","i_long":106.756522,"time":2,"station_name":"Taman Kota","distance":2334,"line":5},{"transit":false,"is_transit":false,"station_id":"PSG","time":2,"distance":1614,"i_lat":-6.161433,"i_long":106.771379,"line":5,"station_name":"Pesing"},{"station_id":"GGL","transit":false,"time":2,"distance":2036,"i_long":106.788277,"station_name":"Grogol","is_transit":false,"line":5,"i_lat":-6.162021},{"station_id":"DU","line":1,"distance":1700,"i_lat":-6.155215,"station_name":"Duri","time":3,"i_long":106.800832,"is_transit":true,"transit":true},{"transit":false,"i_long":106.811091,"station_id":"THB","is_transit":false,"time":8,"station_name":"Tanah Abang","i_lat":-6.185545,"distance":3632,"line":1},{"is_transit":false,"station_id":"KAT","station_name":"Karet","transit":false,"distance":2029,"i_lat":-6.20132,"time":5,"i_long":106.816351,"line":1},{"time":1,"distance":471,"i_lat":-6.201433,"line":1,"is_transit":false,"transit":false,"station_id":"SUDB","i_long":106.819881,"station_name":"Sudirman Baru"},{"station_name":"Sudirman","station_id":"SUD","i_long":106.822649,"i_lat":-6.202263,"distance":280,"transit":false,"is_transit":false,"line":1,"time":1},{"line":2,"is_transit":false,"time":4,"station_id":"MRI","distance":3186,"transit":false,"i_long":106.84912,"station_name":"Manggarai","i_lat":-6.209883},{"transit":false,"distance":1275,"time":2,"line":1,"station_name":"Matraman","is_transit":false,"i_lat":-6.212485,"station_id":"MTR","i_long":106.858896},{"time":8,"distance":1377,"i_lat":-6.215091,"line":1,"station_name":"Jatinegara","i_long":106.86807400000001,"is_transit":true,"station_id":"JNG","transit":true},{"i_long":106.861737,"line":11,"station_name":"Pondok Jati","station_id":"POK","transit":false,"time":2,"is_transit":false,"distance":1236,"i_lat":-6.209188},{"i_long":106.855437,"station_id":"KMT","is_transit":false,"station_name":"Kramat","distance":1829,"i_lat":-6.193792,"line":11,"transit":false,"time":2},{"transit":false,"i_lat":-6.185975,"station_name":"Gang Sentiong","time":1,"distance":973,"is_transit":false,"line":11,"i_long":106.850107,"station_id":"GST"},{"station_id":"PSE","i_lat":-6.174784,"is_transit":false,"time":8,"distance":1567,"transit":false,"station_name":"Pasar Senen","i_long":106.84368,"line":11},{"i_long":106.839204,"transit":false,"is_transit":false,"line":11,"time":4,"station_id":"KMO","distance":1436,"station_name":"Kemayoran","i_lat":-6.161728},{"i_long":106.836569,"distance":1901,"i_lat":-6.14505,"station_id":"RJW","transit":false,"is_transit":false,"time":5,"station_name":"Rajawali","line":11},{"time":3,"is_transit":true,"station_id":"KPB","station_name":"Kampung Bandan","distance":1444,"line":4,"i_lat":-6.132549,"i_long":106.826365,"transit":true},{"i_long":106.812439,"line":2,"i_lat":-6.137569,"is_transit":false,"distance":1364,"station_name":"Jakarta Kota","transit":false,"time":3,"station_id":"JAKK"}],[{"station_id":"RW","time":0,"i_long":106.723064,"line":5,"distance":0,"transit":false,"is_transit":false,"i_lat":-6.162758,"station_name":"Rawa Buaya"},{"is_transit":false,"distance":1152,"line":5,"i_lat":-6.159876,"transit":false,"i_long":106.737035,"time":4,"station_id":"BOI","station_name":"Bojongindah"},{"line":5,"station_id":"TKO","distance":2334,"i_long":106.756522,"station_name":"Taman Kota","transit":false,"is_transit":false,"time":2,"i_lat":-6.1587309999999995},{"distance":1614,"time":2,"i_lat":-6.161433,"transit":false,"is_transit":false,"line":5,"station_id":"PSG","station_name":"Pesing","i_long":106.771379},{"station_name":"Grogol","is_transit":false,"distance":2036,"time":2,"station_id":"GGL","transit":false,"line":5,"i_long":106.788277,"i_lat":-6.162021},{"i_long":106.800832,"transit":true,"i_lat":-6.155215,"station_id":"DU","distance":1700,"time":3,"station_name":"Duri","line":1,"is_transit":true},{"station_name":"Angke","transit":false,"station_id":"AK","distance":1230,"is_transit":false,"i_long":106.79867,"i_lat":-6.144674,"time":4,"line":1},{"distance":4102,"line":4,"station_name":"Kampung Bandan","i_lat":-6.132549,"time":9,"station_id":"KPB","transit":true,"is_transit":true,"i_long":106.826365},{"i_long":106.836569,"station_id":"RJW","time":3,"transit":false,"is_transit":false,"distance":1444,"station_name":"Rajawali","i_lat":-6.14505,"line":11},{"time":5,"station_name":"Kemayoran","i_long":106.839204,"station_id":"KMO","is_transit":false,"distance":1901,"i_lat":-6.161728,"line":11,"transit":false},{"transit":false,"is_transit":false,"station_name":"Pasar Senen","station_id":"PSE","time":4,"distance":1436,"i_long":106.84368,"i_lat":-6.174784,"line":11},{"station_name":"Gang Sentiong","time":8,"distance":1567,"is_transit":false,"i_lat":-6.185975,"line":11,"station_id":"GST","transit":false,"i_long":106.850107},{"i_long":106.855437,"station_name":"Kramat","station_id":"KMT","time":1,"i_lat":-6.193792,"is_transit":false,"distance":973,"line":11,"transit":false},{"i_long":106.861737,"line":11,"transit":false,"station_id":"POK","distance":1829,"station_name":"Pondok Jati","is_transit":false,"time":2,"i_lat":-6.209188},{"station_name":"Jatinegara","is_transit":true,"line":1,"time":9,"i_long":106.86807400000001,"station_id":"JNG","i_lat":-6.215091,"distance":1236,"transit":true},{"distance":1377,"station_id":"MTR","station_name":"Matraman","i_long":106.858896,"transit":false,"i_lat":-6.212485,"time":2,"is_transit":false,"line":1},{"transit":true,"time":2,"distance":1275,"i_lat":-6.209883,"station_id":"MRI","is_transit":true,"station_name":"Manggarai","i_long":106.84912,"line":2},{"station_id":"CKI","distance":1590,"i_long":106.840169,"transit":false,"station_name":"Cikini","time":4,"i_lat":-6.198556,"line":2,"is_transit":false},{"line":2,"station_id":"GDD","i_long":106.832183,"is_transit":false,"time":3,"transit":false,"station_name":"Gondangdia","distance":1750,"i_lat":-6.186295},{"line":2,"distance":2015,"i_lat":-6.166716,"transit":false,"i_long":106.828284,"time":4,"station_name":"Juanda","is_transit":false,"station_id":"JUA"},{"i_lat":-6.160725,"i_long":106.827103,"transit":false,"station_id":"SW","line":2,"station_name":"Sawah Besar","is_transit":false,"time":2,"distance":1149},{"station_name":"Manggabesar","line":2,"is_transit":false,"station_id":"MGB","distance":906,"transit":false,"time":2,"i_lat":-6.149769,"i_long":106.82482},{"is_transit":false,"time":2,"station_id":"JAY","distance":1080,"line":2,"i_lat":-6.141205,"i_long":106.820901,"transit":false,"station_name":"Jayakarta"},{"distance":1264,"i_lat":-6.137569,"station_name":"Jakarta Kota","is_transit":false,"time":4,"transit":false,"station_id":"JAKK","i_long":106.812439,"line":2}]]}