{"data":[[{"is_transit":false,"transit":false,"station_id":"RW","i_lat":-6.162758,"time":0,"i_long":106.723064,"station_name":"Rawa Buaya","distance":0,"line":5},{"transit":false,"time":4,"i_lat":-6.159876,"distance":1152,"is_transit":false,"line":5,"station_id":"BOI","i_long":106.737035,"station_name":"Bojongindah"},{"transit":false,"distance":2334,"i_lat":-6.1587309999999995,"i_long":106.756522,"line":5,"station_name":"Taman Kota","is_transit":false,"station_id":"TKO","time":2},{"station_name":"Pesing","is_transit":false,"time":2,"distance":1614,"i_lat":-6.161433,"i_long":106.771379,"line":5,"transit":false,"station_id":"PSG"},{"station_name":"Grogol","time":2,"is_transit":false,"distance":2036,"line":5,"station_id":"GRG","i_lat":-6.162021,"transit":false,"i_long":106.788277},{"distance":1700,"line":1,"time":3,"station_id":"DU","station_name":"Duri","i_long":106.800832,"i_lat":-6.155215,"is_transit":true,"transit":true},{"station_name":"Tanah Abang","line":1,"is_transit":true,"station_id":"THB","transit":true,"time":8,"i_long":106.811091,"distance":3632,"i_lat":-6.185545},{"transit":false,"time":6,"i_lat":-6.207404,"line":6,"station_name":"Palmerah","distance":3191,"is_transit":false,"i_long":106.79689,"station_id":"PLM"},{"time":7,"distance":3737,"line":6,"station_id":"KBY","is_transit":false,"station_name":"Kebayoran","i_long":106.780334,"i_lat":-6.237242,"transit":false},{"station_name":"Pondokranji","i_long":106.74273,"time":8,"distance":6218,"line":6,"i_lat":-6.276362,"is_transit":false,"transit":false,"station_id":"PDJ"},{"i_long":106.728916,"time":3,"station_id":"JMU","distance":2179,"i_lat":-6.288927,"transit":false,"line":6,"station_name":"Jurangmangu","is_transit":false},{"is_transit":false,"time":4,"i_lat":-6.296963,"i_long":106.712277,"station_name":"Sudimara","transit":false,"station_id":"SDM","distance":1994,"line":6},{"is_transit":false,"line":6,"time":6,"i_long":106.675475,"i_lat":-6.314823,"transit":false,"station_id":"RU","station_name":"Rawa Buntu","distance":4566},{"transit":false,"is_transit":false,"line":6,"i_long":106.66566,"distance":2413,"i_lat":-6.319871,"station_name":"Serpong","station_id":"SRP","time":4},{"station_id":"CSK","i_long":106.640411,"distance":1784,"transit":false,"is_transit":false,"station_name":"Cisauk","i_lat":-6.32484,"time":4,"line":3},{"station_name":"Cicayur","i_lat":-6.329547,"time":4,"distance":2519,"transit":false,"is_transit":false,"station_id":"CC","line":3,"i_long":106.617853},{"line":6,"i_lat":-6.3441410000000005,"i_long":106.568863,"distance":5968,"transit":false,"station_id":"PRP","station_name":"Parung Panjang","time":8,"is_transit":false},{"line":3,"transit":false,"is_transit":false,"i_lat":-6.354349,"station_id":"CJT","time":9,"station_name":"Cilejit","distance":7025,"i_long":106.508482},{"is_transit":false,"distance":2675,"transit":false,"line":0,"i_long":106.491338,"time":6,"i_lat":-6.338021,"station_name":"Daru","station_id":"DAR"},{"time":5,"line":6,"is_transit":false,"transit":false,"station_name":"Tenjo","distance":3902,"i_lat":-6.327251,"i_long":106.460812,"station_id":"TEJ"},{"i_lat":-6.328533,"distance":2974,"i_long":106.425991,"station_id":"TGS","time":5,"transit":false,"station_name":"Tigaraksa","is_transit":false,"line":6},{"station_name":"Cikoya","transit":false,"is_transit":false,"distance":2651,"station_id":"CKY","line":3,"time":3,"i_lat":-6.33561,"i_long":106.411216},{"i_lat":-6.332307,"i_long":106.394373,"station_id":"MJ","transit":false,"line":6,"distance":1853,"station_name":"Maja","is_transit":false,"time":4}],[{"distance":0,"station_id":"RW","i_lat":-6.162758,"is_transit":false,"i_long":106.723064,"time":0,"station_name":"Rawa Buaya","line":5,"transit":false},{"i_lat":-6.159876,"time":4,"is_transit":false,"station_id":"BOI","distance":1152,"transit":false,"line":5,"i_long":106.737035,"station_name":"Bojongindah"},{"station_id":"TKO","distance":2334,"i_long":106.756522,"i_lat":-6.1587309999999995,"time":2,"transit":false,"is_transit":false,"station_name":"Taman Kota","line":5},{"is_transit":false,"distance":1614,"station_id":"PSG","i_lat":-6.161433,"line":5,"time":2,"transit":false,"station_name":"Pesing","i_long":106.771379},{"i_long":106.788277,"station_id":"GRG","i_lat":-6.162021,"is_transit":false,"distance":2036,"station_name":"Grogol","time":2,"transit":false,"line":5},{"i_long":106.800832,"is_transit":true,"station_id":"DU","line":1,"station_name":"Duri","distance":1700,"i_lat":-6.155215,"time":3,"transit":true},{"station_id":"AK","i_lat":-6.144674,"is_transit":false,"distance":1230,"i_long":106.79867,"line":1,"transit":false,"time":4,"station_name":"Angke"},{"time":9,"line":4,"station_id":"KPB","distance":4102,"transit":true,"station_name":"Kampung Bandan","i_lat":-6.132549,"i_long":106.826365,"is_transit":true},{"station_id":"JAKK","distance":1364,"i_long":106.812439,"station_name":"Jakarta Kota","time":3,"line":2,"is_transit":true,"i_lat":-6.137569,"transit":true},{"i_long":106.820901,"line":2,"time":4,"is_transit":false,"distance":1264,"transit":false,"i_lat":-6.141205,"station_name":"Jayakarta","station_id":"JAY"},{"i_long":106.82482,"i_lat":-6.149769,"time":2,"station_id":"MGB","distance":1080,"transit":false,"station_name":"Manggabesar","is_transit":false,"line":2},{"transit":false,"station_id":"SW","is_transit":false,"distance":906,"i_lat":-6.160725,"line":2,"i_long":106.827103,"station_name":"Sawah Besar","time":2},{"i_long":106.828284,"time":2,"i_lat":-6.166716,"distance":1149,"station_id":"JUA","transit":false,"is_transit":false,"line":2,"station_name":"Juanda"},{"distance":2015,"is_transit":false,"line":2,"transit":false,"station_id":"GDD","time":4,"i_lat":-6.186295,"station_name":"Gondangdia","i_long":106.832183},{"is_transit":false,"station_id":"CKI","line":2,"station_name":"Cikini","time":3,"transit":false,"i_lat":-6.198556,"i_long":106.840169,"distance":1750},{"distance":1590,"is_transit":true,"transit":true,"time":4,"line":2,"i_lat":-6.209883,"station_name":"Manggarai","station_id":"MRI","i_long":106.84912},{"transit":false,"i_lat":-6.202263,"i_long":106.822649,"is_transit":false,"time":4,"distance":3186,"station_name":"Sudirman","line":1,"station_id":"SUD"},{"i_lat":-6.201433,"station_id":"SUDB","station_name":"Sudirman Baru","transit":false,"line":1,"is_transit":false,"time":1,"distance":280,"i_long":106.819881},{"station_name":"Karet","line":1,"transit":false,"distance":471,"is_transit":false,"i_lat":-6.20132,"i_long":106.816351,"station_id":"KAT","time":1},{"time":5,"line":1,"distance":2029,"station_name":"Tanah Abang","i_lat":-6.185545,"station_id":"THB","is_transit":true,"i_long":106.811091,"transit":true},{"time":6,"i_lat":-6.207404,"station_id":"PLM","line":6,"i_long":106.79689,"transit":false,"is_transit":false,"distance":3191,"station_name":"Palmerah"},{"distance":3737,"i_lat":-6.237242,"transit":false,"is_transit":false,"line":6,"i_long":106.780334,"station_name":"Kebayoran","time":7,"station_id":"KBY"},{"i_long":106.74273,"is_transit":false,"line":6,"station_name":"Pondokranji","station_id":"PDJ","distance":6218,"transit":false,"time":8,"i_lat":-6.276362},{"line":6,"station_name":"Jurangmangu","is_transit":false,"time":3,"i_long":106.728916,"transit":false,"distance":2179,"station_id":"JMU","i_lat":-6.288927},{"distance":1994,"time":4,"i_lat":-6.296963,"i_long":106.712277,"line":6,"station_id":"SDM","station_name":"Sudimara","transit":false,"is_transit":false},{"distance":4566,"station_name":"Rawa Buntu","time":6,"i_lat":-6.314823,"station_id":"RU","transit":false,"i_long":106.675475,"is_transit":false,"line":6},{"station_id":"SRP","i_lat":-6.319871,"is_transit":false,"distance":2413,"transit":false,"station_name":"Serpong","i_long":106.66566,"time":4,"line":6},{"i_long":106.640411,"station_name":"Cisauk","is_transit":false,"line":3,"transit":false,"station_id":"CSK","time":4,"distance":1784,"i_lat":-6.32484},{"i_long":106.617853,"i_lat":-6.329547,"distance":2519,"station_name":"Cicayur","is_transit":false,"station_id":"CC","line":3,"transit":false,"time":4},{"station_id":"PRP","i_long":106.568863,"time":8,"distance":5968,"transit":false,"line":6,"station_name":"Parung Panjang","is_transit":false,"i_lat":-6.3441410000000005},{"time":9,"distance":7025,"i_lat":-6.354349,"station_id":"CJT","transit":false,"is_transit":false,"line":3,"station_name":"Cilejit","i_long":106.508482},{"station_id":"DAR","is_transit":false,"i_long":106.491338,"line":0,"distance":2675,"i_lat":-6.338021,"time":6,"transit":false,"station_name":"Daru"},{"i_lat":-6.327251,"time":5,"station_name":"Tenjo","line":6,"transit":false,"i_long":106.460812,"station_id":"TEJ","is_transit":false,"distance":3902},{"is_transit":false,"station_name":"Tigaraksa","time":5,"line":6,"station_id":"TGS","i_lat":-6.328533,"transit":false,"i_long":106.425991,"distance":2974},{"station_id":"CKY","transit":false,"i_long":106.411216,"is_transit":false,"station_name":"Cikoya","time":3,"line":3,"distance":2651,"i_lat":-6.33561},{"distance":1853,"i_long":106.394373,"line":6,"station_id":"MJ","i_lat":-6.332307,"transit":false,"station_name":"Maja","is_transit":false,"time":4}],[{"time":0,"transit":false,"station_name":"Rawa Buaya","line":5,"station_id":"RW","is_transit":false,"i_long":106.723064,"distance":0,"i_lat":-6.162758},{"station_name":"Bojongindah","i_lat":-6.159876,"transit":false,"line":5,"i_long":106.737035,"station_id":"BOI","is_transit":false,"time":4,"distance":1152},{"station_name":"Taman Kota","i_long":106.756522,"transit":false,"time":2,"line":5,"station_id":"TKO","is_transit":false,"distance":2334,"i_lat":-6.1587309999999995},{"time":2,"transit":false,"line":5,"i_long":106.771379,"is_transit":false,"i_lat":-6.161433,"distance":1614,"station_name":"Pesing","station_id":"PSG"},{"is_transit":false,"transit":false,"i_long":106.788277,"distance":2036,"time":2,"station_name":"Grogol","station_id":"GRG","i_lat":-6.162021,"line":5},{"time":3,"i_lat":-6.155215,"station_name":"Duri","is_transit":true,"station_id":"DU","i_long":106.800832,"line":1,"distance":1700,"transit":true},{"line":1,"time":4,"distance":1230,"station_name":"Angke","i_lat":-6.144674,"i_long":106.79867,"is_transit":false,"transit":false,"station_id":"AK"},{"time":9,"i_long":106.826365,"transit":true,"is_transit":true,"line":4,"distance":4102,"station_name":"Kampung Bandan","i_lat":-6.132549,"station_id":"KPB"},{"station_name":"Rajawali","station_id":"RJW","distance":1444,"is_transit":false,"transit":false,"i_long":106.836569,"line":11,"i_lat":-6.14505,"time":3},{"distance":1901,"station_name":"Kemayoran","time":5,"i_lat":-6.161728,"line":11,"station_id":"KMO","i_long":106.839204,"is_transit":false,"transit":false},{"i_long":106.84368,"station_id":"PSE","i_lat":-6.174784,"transit":false,"time":4,"is_transit":false,"distance":1436,"line":11,"station_name":"Pasar Senen"},{"is_transit":false,"station_name":"Gang Sentiong","line":11,"i_lat":-6.185975,"time":8,"station_id":"GST","distance":1567,"transit":false,"i_long":106.850107},{"is_transit":false,"time":1,"transit":false,"i_long":106.855437,"line":11,"i_lat":-6.193792,"distance":973,"station_id":"KMT","station_name":"Kramat"},{"line":11,"transit":false,"is_transit":false,"time":2,"i_long":106.861737,"i_lat":-6.209188,"distance":1829,"station_id":"POK","station_name":"Pondok Jati"},{"time":9,"station_name":"Jatinegara","transit":true,"i_long":106.86807400000001,"distance":1236,"line":1,"i_lat":-6.215091,"station_id":"JNG","is_transit":true},{"is_transit":false,"distance":1377,"i_long":106.858896,"station_id":"MTR","transit":false,"station_name":"Matraman","time":2,"line":1,"i_lat":-6.212485},{"time":2,"transit":false,"i_lat":-6.209883,"i_long":106.84912,"distance":1275,"station_id":"MRI","is_transit":false,"station_name":"Manggarai","line":2},{"i_long":106.822649,"line":1,"is_transit":false,"station_id":"SUD","distance":3186,"i_lat":-6.202263,"transit":false,"time":4,"station_name":"Sudirman"},{"i_lat":-6.201433,"distance":280,"transit":false,"station_id":"SUDB","i_long":106.819881,"line":1,"station_name":"Sudirman Baru","time":1,"is_transit":false},{"line":1,"station_name":"Karet","i_lat":-6.20132,"time":1,"i_long":106.816351,"distance":471,"station_id":"KAT","is_transit":false,"transit":false},{"station_name":"Tanah Abang","i_lat":-6.185545,"station_id":"THB","transit":true,"i_long":106.811091,"is_transit":true,"time":5,"line":1,"distance":2029},{"is_transit":false,"distance":3191,"i_long":106.79689,"transit":false,"station_id":"PLM","time":6,"line":6,"i_lat":-6.207404,"station_name":"Palmerah"},{"line":6,"station_name":"Kebayoran","i_long":106.780334,"time":7,"distance":3737,"i_lat":-6.237242,"station_id":"KBY","is_transit":false,"transit":false},{"i_long":106.74273,"is_transit":false,"station_id":"PDJ","i_lat":-6.276362,"line":6,"time":8,"station_name":"Pondokranji","distance":6218,"transit":false},{"i_lat":-6.288927,"time":3,"station_id":"JMU","distance":2179,"transit":false,"i_long":106.728916,"station_name":"Jurangmangu","is_transit":false,"line":6},{"distance":1994,"transit":false,"i_long":106.712277,"line":6,"station_name":"Sudimara","is_transit":false,"station_id":"SDM","i_lat":-6.296963,"time":4},{"line":6,"i_lat":-6.314823,"is_transit":false,"i_long":106.675475,"distance":4566,"station_id":"RU","station_name":"Rawa Buntu","time":6,"transit":false},{"station_id":"SRP","i_lat":-6.319871,"i_long":106.66566,"distance":2413,"line":6,"transit":false,"station_name":"Serpong","is_transit":false,"time":4},{"station_id":"CSK","time":4,"distance":1784,"i_long":106.640411,"line":3,"is_transit":false,"i_lat":-6.32484,"station_name":"Cisauk","transit":false},{"distance":2519,"station_name":"Cicayur","time":4,"line":3,"is_transit":false,"transit":false,"station_id":"CC","i_lat":-6.329547,"i_long":106.617853},{"transit":false,"i_long":106.568863,"time":8,"i_lat":-6.3441410000000005,"is_transit":false,"station_name":"Parung Panjang","line":6,"station_id":"PRP","distance":5968},{"i_long":106.508482,"time":9,"line":3,"distance":7025,"transit":false,"is_transit":false,"station_name":"Cilejit","station_id":"CJT","i_lat":-6.354349},{"distance":2675,"i_lat":-6.338021,"is_transit":false,"line":0,"transit":false,"i_long":106.491338,"station_name":"Daru","time":6,"station_id":"DAR"},{"transit":false,"is_transit":false,"i_long":106.460812,"line":6,"station_id":"TEJ","time":5,"distance":3902,"station_name":"Tenjo","i_lat":-6.327251},{"distance":2974,"line":6,"is_transit":false,"time":5,"transit":false,"station_name":"Tigaraksa","station_id":"TGS","i_lat":-6.328533,"i_long":106.425991},{"transit":false,"is_transit":false,"station_id":"CKY","time":3,"station_name":"Cikoya","i_long":106.411216,"distance":2651,"i_lat":-6.33561,"line":3},{"i_lat":-6.332307,"time":4,"line":6,"is_transit":false,"station_name":"Maja","distance":1853,"i_long":106.394373,"station_id":"MJ","transit":false}]]}