{"data":[[{"time":0,"station_name":"Rawa Buaya","line":5,"station_id":"RW","i_long":106.723064,"distance":0,"is_transit":false,"i_lat":-6.162758,"transit":false},{"distance":1152,"is_transit":false,"time":4,"station_name":"Bojongindah","transit":false,"i_long":106.737035,"line":0,"station_id":"BOI","i_lat":-6.159876},{"i_lat":-6.1587309999999995,"station_id":"TKO","distance":2334,"is_transit":false,"time":2,"station_name":"Taman Kota","transit":false,"line":5,"i_long":106.756522},{"distance":1614,"is_transit":false,"station_id":"PSG","transit":false,"i_long":106.771379,"i_lat":-6.161433,"time":2,"line":5,"station_name":"Pesing"},{"time":2,"line":5,"transit":false,"station_name":"Grogol","is_transit":false,"i_lat":-6.162021,"i_long":106.788277,"distance":2036,"station_id":"GGL"},{"i_long":106.800832,"station_name":"Duri","station_id":"DU","transit":true,"i_lat":-6.155215,"line":1,"is_transit":true,"distance":1700,"time":3},{"station_name":"Tanah Abang","transit":true,"distance":3632,"is_transit":true,"station_id":"THB","i_long":106.811091,"line":1,"i_lat":-6.185545,"time":8},{"station_name":"Palmerah","distance":3191,"is_transit":false,"station_id":"PLM","time":6,"i_long":106.79689,"transit":false,"i_lat":-6.207404,"line":6},{"is_transit":false,"station_name":"Kebayoran","station_id":"KBY","transit":false,"i_long":106.780334,"time":7,"distance":3737,"i_lat":-6.237242,"line":6},{"i_long":106.74273,"transit":false,"i_lat":-6.276362,"time":8,"is_transit":false,"line":6,"station_id":"PDJ","station_name":"Pondokranji","distance":6218},{"transit":false,"i_long":106.728916,"time":3,"i_lat":-6.288927,"station_name":"Jurangmangu","station_id":"JMU","line":6,"is_transit":false,"distance":2179},{"distance":1994,"station_name":"Sudimara","i_lat":-6.296963,"station_id":"SDM","transit":false,"is_transit":false,"line":6,"time":4,"i_long":106.712277},{"transit":false,"distance":4566,"i_lat":-6.314823,"is_transit":false,"line":6,"station_name":"Rawa Buntu","station_id":"RU","time":6,"i_long":106.675475},{"is_transit":false,"i_lat":-6.319871,"transit":false,"station_id":"SRP","line":6,"i_long":106.66566,"distance":2413,"station_name":"Serpong","time":4},{"line":0,"station_id":"CSK","transit":false,"i_lat":-6.32484,"station_name":"Cisauk","is_transit":false,"time":4,"distance":1784,"i_long":106.640411},{"station_id":"CC","is_transit":false,"time":4,"i_lat":-6.329547,"distance":2519,"station_name":"Cicayur","i_long":106.617853,"transit":false,"line":0},{"line":6,"station_name":"Parung Panjang","transit":false,"distance":5968,"station_id":"PRP","time":8,"i_long":106.568863,"i_lat":-6.3441410000000005,"is_transit":false},{"time":9,"i_long":106.508482,"station_id":"CJT","is_transit":false,"i_lat":-6.354349,"line":0,"station_name":"Cilejit","transit":false,"distance":7025},{"i_lat":-6.338021,"i_long":106.491338,"transit":false,"time":6,"line":0,"station_name":"Daru","is_transit":false,"distance":2675,"station_id":"DAR"},{"is_transit":false,"distance":3902,"i_long":106.460812,"station_name":"Tenjo","i_lat":-6.327251,"time":5,"station_id":"TEJ","transit":false,"line":6},{"i_lat":-6.328533,"i_long":106.425991,"time":5,"distance":2974,"line":6,"station_id":"TGS","transit":false,"is_transit":false,"station_name":"Tigaraksa"},{"station_name":"Cikoya","time":3,"is_transit":false,"i_long":106.411216,"transit":false,"line":0,"i_lat":-6.33561,"distance":2651,"station_id":"CKY"},{"line":6,"station_name":"Maja","i_long":106.394373,"is_transit":false,"distance":1853,"i_lat":-6.332307,"station_id":"MJ","transit":false,"time":4}],[{"i_long":106.723064,"i_lat":-6.162758,"is_transit":false,"station_id":"RW","distance":0,"station_name":"Rawa Buaya","transit":false,"line":5,"time":0},{"transit":false,"station_id":"BOI","time":4,"line":0,"station_name":"Bojongindah","i_long":106.737035,"i_lat":-6.159876,"distance":1152,"is_transit":false},{"time":2,"distance":2334,"station_id":"TKO","i_lat":-6.1587309999999995,"i_long":106.756522,"line":5,"is_transit":false,"station_name":"Taman Kota","transit":false},{"station_id":"PSG","transit":false,"i_lat":-6.161433,"is_transit":false,"distance":1614,"station_name":"Pesing","time":2,"i_long":106.771379,"line":5},{"is_transit":false,"time":2,"i_lat":-6.162021,"distance":2036,"station_name":"Grogol","station_id":"GGL","line":5,"i_long":106.788277,"transit":false},{"i_long":106.800832,"station_name":"Duri","transit":true,"i_lat":-6.155215,"time":3,"distance":1700,"line":1,"is_transit":true,"station_id":"DU"},{"line":0,"i_long":106.79867,"is_transit":false,"transit":false,"time":4,"station_name":"Angke","i_lat":-6.144674,"station_id":"AK","distance":1230},{"is_transit":true,"transit":false,"time":9,"distance":4102,"i_long":106.826365,"line":0,"station_id":"KPB","i_lat":-6.132549,"station_name":"Kampung Bandan"},{"is_transit":true,"time":3,"transit":true,"distance":1364,"station_id":"JAKK","i_long":106.812439,"line":0,"station_name":"Jakarta Kota","i_lat":-6.137569},{"transit":false,"distance":1264,"station_id":"JAY","station_name":"Jayakarta","i_lat":-6.141205,"line":7,"time":4,"i_long":106.820901,"is_transit":false},{"transit":false,"station_id":"MGB","time":2,"i_lat":-6.149769,"i_long":106.82482,"line":2,"station_name":"Manggabesar","distance":1080,"is_transit":false},{"distance":906,"i_long":106.827103,"time":2,"station_name":"Sawah Besar","transit":false,"station_id":"SW","line":2,"i_lat":-6.160725,"is_transit":false},{"is_transit":false,"i_lat":-6.166716,"time":2,"station_id":"JUA","station_name":"Juanda","i_long":106.828284,"line":2,"transit":false,"distance":1149},{"station_name":"Gondangdia","transit":false,"station_id":"GDD","distance":2015,"i_long":106.832183,"line":2,"is_transit":false,"time":4,"i_lat":-6.186295},{"station_id":"CKI","i_lat":-6.198556,"transit":false,"time":3,"is_transit":false,"distance":1750,"station_name":"Cikini","i_long":106.840169,"line":0},{"i_long":106.84912,"time":4,"station_name":"Manggarai","i_lat":-6.209883,"is_transit":true,"line":0,"station_id":"MRI","transit":true,"distance":1590},{"is_transit":false,"distance":3186,"station_id":"SUD","time":4,"station_name":"Sudirman","i_lat":-6.202263,"line":1,"i_long":106.822649,"transit":false},{"is_transit":false,"transit":false,"i_lat":-6.201433,"time":1,"station_name":"Sudirman Baru","i_long":106.819881,"station_id":"SUDB","distance":280,"line":1},{"i_lat":-6.20132,"distance":471,"time":1,"station_name":"Karet","is_transit":false,"station_id":"KAT","transit":false,"line":1,"i_long":106.816351},{"transit":true,"distance":2029,"is_transit":true,"time":5,"i_long":106.811091,"i_lat":-6.185545,"line":1,"station_id":"THB","station_name":"Tanah Abang"},{"distance":3191,"is_transit":false,"station_name":"Palmerah","station_id":"PLM","i_lat":-6.207404,"i_long":106.79689,"line":6,"time":6,"transit":false},{"transit":false,"line":6,"station_id":"KBY","time":7,"i_lat":-6.237242,"i_long":106.780334,"station_name":"Kebayoran","distance":3737,"is_transit":false},{"station_name":"Pondokranji","station_id":"PDJ","transit":false,"time":8,"i_long":106.74273,"distance":6218,"is_transit":false,"line":6,"i_lat":-6.276362},{"line":6,"station_name":"Jurangmangu","i_lat":-6.288927,"i_long":106.728916,"distance":2179,"transit":false,"station_id":"JMU","time":3,"is_transit":false},{"i_lat":-6.296963,"line":6,"station_id":"SDM","transit":false,"i_long":106.712277,"station_name":"Sudimara","is_transit":false,"distance":1994,"time":4},{"distance":4566,"line":6,"i_long":106.675475,"station_id":"RU","i_lat":-6.314823,"time":6,"is_transit":false,"station_name":"Rawa Buntu","transit":false},{"station_name":"Serpong","transit":false,"i_long":106.66566,"line":6,"is_transit":false,"station_id":"SRP","i_lat":-6.319871,"time":4,"distance":2413},{"station_id":"CSK","distance":1784,"station_name":"Cisauk","is_transit":false,"time":4,"i_lat":-6.32484,"transit":false,"i_long":106.640411,"line":0},{"transit":false,"i_long":106.617853,"is_transit":false,"station_name":"Cicayur","line":0,"distance":2519,"station_id":"CC","time":4,"i_lat":-6.329547},{"line":6,"transit":false,"i_long":106.568863,"station_name":"Parung Panjang","is_transit":false,"time":8,"station_id":"PRP","i_lat":-6.3441410000000005,"distance":5968},{"distance":7025,"station_name":"Cilejit","transit":false,"i_lat":-6.354349,"i_long":106.508482,"line":0,"is_transit":false,"time":9,"station_id":"CJT"},{"is_transit":false,"i_lat":-6.338021,"distance":2675,"line":0,"i_long":106.491338,"station_name":"Daru","station_id":"DAR","time":6,"transit":false},{"i_lat":-6.327251,"distance":3902,"transit":false,"station_id":"TEJ","i_long":106.460812,"time":5,"station_name":"Tenjo","is_transit":false,"line":6},{"station_id":"TGS","transit":false,"i_long":106.425991,"distance":2974,"line":6,"station_name":"Tigaraksa","time":5,"i_lat":-6.328533,"is_transit":false},{"i_lat":-6.33561,"distance":2651,"station_name":"Cikoya","is_transit":false,"transit":false,"line":0,"i_long":106.411216,"time":3,"station_id":"CKY"},{"transit":false,"line":6,"is_transit":false,"station_id":"MJ","time":4,"i_lat":-6.332307,"station_name":"Maja","i_long":106.394373,"distance":1853}],[{"is_transit":false,"station_name":"Rawa Buaya","i_lat":-6.162758,"distance":0,"station_id":"RW","transit":false,"time":0,"i_long":106.723064,"line":5},{"is_transit":false,"time":4,"i_lat":-6.159876,"station_name":"Bojongindah","line":0,"station_id":"BOI","transit":false,"distance":1152,"i_long":106.737035},{"time":2,"transit":false,"i_lat":-6.1587309999999995,"line":5,"station_id":"TKO","i_long":106.756522,"station_name":"Taman Kota","distance":2334,"is_transit":false},{"station_name":"Pesing","distance":1614,"transit":false,"time":2,"i_long":106.771379,"i_lat":-6.161433,"line":5,"station_id":"PSG","is_transit":false},{"station_name":"Grogol","is_transit":false,"distance":2036,"i_long":106.788277,"transit":false,"line":5,"time":2,"station_id":"GGL","i_lat":-6.162021},{"line":1,"distance":1700,"i_lat":-6.155215,"station_id":"DU","i_long":106.800832,"is_transit":true,"station_name":"Duri","time":3,"transit":true},{"time":4,"i_lat":-6.144674,"i_long":106.79867,"distance":1230,"station_name":"Angke","is_transit":false,"transit":false,"line":0,"station_id":"AK"},{"transit":true,"i_lat":-6.132549,"line":0,"station_id":"KPB","i_long":106.826365,"station_name":"Kampung Bandan","time":9,"distance":4102,"is_transit":true},{"transit":false,"line":11,"distance":1444,"station_name":"Rajawali","is_transit":false,"station_id":"RJW","i_long":106.836569,"i_lat":-6.14505,"time":3},{"station_id":"KMO","line":11,"station_name":"Kemayoran","is_transit":false,"distance":1901,"time":5,"transit":false,"i_lat":-6.161728,"i_long":106.839204},{"line":11,"is_transit":false,"station_name":"Pasar Senen","transit":false,"distance":1436,"station_id":"PSE","time":4,"i_lat":-6.174784,"i_long":106.84368},{"distance":1567,"is_transit":false,"i_lat":-6.185975,"i_long":106.850107,"station_id":"GST","station_name":"Gang Sentiong","time":8,"transit":false,"line":11},{"transit":false,"i_lat":-6.193792,"station_name":"Kramat","time":1,"station_id":"KMT","i_long":106.855437,"line":11,"is_transit":false,"distance":973},{"i_long":106.861737,"is_transit":false,"time":2,"station_name":"Pondok Jati","distance":1829,"i_lat":-6.209188,"line":11,"transit":false,"station_id":"POK"},{"distance":1236,"is_transit":true,"i_lat":-6.215091,"transit":true,"i_long":106.86807400000001,"time":9,"station_name":"Jatinegara","line":0,"station_id":"JNG"},{"station_id":"MTR","is_transit":false,"station_name":"Matraman","time":2,"i_long":106.858896,"line":1,"transit":false,"distance":1377,"i_lat":-6.212485},{"is_transit":true,"station_id":"MRI","i_lat":-6.209883,"time":2,"line":0,"distance":1275,"station_name":"Manggarai","i_long":106.84912,"transit":false},{"distance":3186,"transit":false,"line":1,"time":4,"i_lat":-6.202263,"i_long":106.822649,"station_name":"Sudirman","is_transit":false,"station_id":"SUD"},{"is_transit":false,"i_long":106.819881,"transit":false,"station_id":"SUDB","distance":280,"station_name":"Sudirman Baru","time":1,"i_lat":-6.201433,"line":1},{"i_long":106.816351,"line":1,"distance":471,"station_id":"KAT","time":1,"transit":false,"i_lat":-6.20132,"station_name":"Karet","is_transit":false},{"time":5,"station_name":"Tanah Abang","line":1,"is_transit":true,"transit":true,"i_long":106.811091,"distance":2029,"station_id":"THB","i_lat":-6.185545},{"station_name":"Palmerah","distance":3191,"is_transit":false,"transit":false,"time":6,"line":6,"station_id":"PLM","i_lat":-6.207404,"i_long":106.79689},{"line":6,"station_name":"Kebayoran","time":7,"i_lat":-6.237242,"station_id":"KBY","distance":3737,"is_transit":false,"i_long":106.780334,"transit":false},{"transit":false,"station_name":"Pondokranji","distance":6218,"i_long":106.74273,"i_lat":-6.276362,"time":8,"line":6,"is_transit":false,"station_id":"PDJ"},{"transit":false,"time":3,"line":6,"i_lat":-6.288927,"station_name":"Jurangmangu","station_id":"JMU","distance":2179,"i_long":106.728916,"is_transit":false},{"station_id":"SDM","distance":1994,"i_lat":-6.296963,"station_name":"Sudimara","is_transit":false,"time":4,"i_long":106.712277,"transit":false,"line":6},{"is_transit":false,"i_long":106.675475,"station_id":"RU","distance":4566,"time":6,"transit":false,"i_lat":-6.314823,"line":6,"station_name":"Rawa Buntu"},{"line":6,"distance":2413,"station_id":"SRP","is_transit":false,"i_lat":-6.319871,"i_long":106.66566,"station_name":"Serpong","transit":false,"time":4},{"line":0,"station_id":"CSK","i_lat":-6.32484,"station_name":"Cisauk","transit":false,"distance":1784,"time":4,"i_long":106.640411,"is_transit":false},{"transit":false,"distance":2519,"time":4,"station_name":"Cicayur","i_lat":-6.329547,"station_id":"CC","i_long":106.617853,"line":0,"is_transit":false},{"i_long":106.568863,"transit":false,"is_transit":false,"line":6,"distance":5968,"station_name":"Parung Panjang","i_lat":-6.3441410000000005,"station_id":"PRP","time":8},{"time":9,"distance":7025,"i_lat":-6.354349,"transit":false,"is_transit":false,"i_long":106.508482,"line":0,"station_name":"Cilejit","station_id":"CJT"},{"i_long":106.491338,"station_name":"Daru","transit":false,"station_id":"DAR","time":6,"distance":2675,"line":0,"is_transit":false,"i_lat":-6.338021},{"distance":3902,"i_lat":-6.327251,"time":5,"station_id":"TEJ","i_long":106.460812,"transit":false,"station_name":"Tenjo","line":6,"is_transit":false},{"station_name":"Tigaraksa","distance":2974,"transit":false,"is_transit":false,"time":5,"i_lat":-6.328533,"station_id":"TGS","i_long":106.425991,"line":6},{"i_lat":-6.33561,"transit":false,"is_transit":false,"distance":2651,"station_id":"CKY","i_long":106.411216,"time":3,"line":0,"station_name":"Cikoya"},{"distance":1853,"transit":false,"station_id":"MJ","station_name":"Maja","line":6,"time":4,"is_transit":false,"i_long":106.394373,"i_lat":-6.332307}]]}