{"data":[[{"distance":0,"is_transit":false,"i_lat":-6.162758,"time":0,"station_name":"Rawa Buaya","line":5,"station_id":"RW","transit":false,"i_long":106.723064},{"station_id":"BOI","i_long":106.737035,"line":5,"distance":1152,"time":4,"transit":false,"is_transit":false,"i_lat":-6.159876,"station_name":"Bojongindah"},{"station_id":"TKO","distance":2334,"station_name":"Taman Kota","i_lat":-6.1587309999999995,"line":5,"time":2,"is_transit":false,"transit":false,"i_long":106.756522},{"transit":false,"is_transit":false,"line":5,"i_lat":-6.161433,"distance":1614,"i_long":106.771379,"station_id":"PSG","station_name":"Pesing","time":2},{"station_name":"Grogol","line":5,"transit":false,"time":2,"i_lat":-6.162021,"i_long":106.788277,"is_transit":false,"distance":2036,"station_id":"GGL"},{"transit":true,"line":1,"time":3,"is_transit":true,"station_name":"Duri","i_lat":-6.155215,"distance":1700,"i_long":106.800832,"station_id":"DU"},{"time":8,"station_id":"THB","station_name":"Tanah Abang","line":1,"i_lat":-6.185545,"i_long":106.811091,"distance":3632,"transit":true,"is_transit":true},{"is_transit":false,"line":6,"distance":3191,"i_lat":-6.207404,"station_id":"PLM","time":6,"transit":false,"station_name":"Palmerah","i_long":106.79689},{"is_transit":false,"i_long":106.780334,"station_id":"KBY","time":7,"transit":false,"i_lat":-6.237242,"distance":3737,"station_name":"Kebayoran","line":6},{"time":8,"transit":false,"is_transit":false,"i_long":106.74273,"distance":6218,"station_id":"PDJ","i_lat":-6.276362,"station_name":"Pondokranji","line":6},{"station_name":"Jurangmangu","transit":false,"distance":2179,"i_lat":-6.288927,"i_long":106.728916,"time":3,"station_id":"JMU","is_transit":false,"line":6},{"station_id":"SDM","station_name":"Sudimara","distance":1994,"transit":false,"line":6,"is_transit":false,"i_lat":-6.296963,"time":4,"i_long":106.712277},{"station_id":"RU","i_long":106.675475,"line":6,"time":6,"station_name":"Rawa Buntu","is_transit":false,"transit":false,"distance":4566,"i_lat":-6.314823},{"transit":false,"distance":2413,"station_name":"Serpong","line":6,"time":4,"i_long":106.66566,"station_id":"SRP","is_transit":false,"i_lat":-6.319871},{"i_lat":-6.32484,"distance":1784,"station_id":"CSK","i_long":106.640411,"line":3,"is_transit":false,"station_name":"Cisauk","time":4,"transit":false},{"station_name":"Cicayur","distance":2519,"station_id":"CC","i_long":106.617853,"transit":false,"time":4,"i_lat":-6.329547,"is_transit":false,"line":3},{"i_lat":-6.3441410000000005,"line":6,"i_long":106.568863,"transit":false,"time":8,"station_id":"PRP","station_name":"Parung Panjang","is_transit":false,"distance":5968},{"station_name":"Cilejit","line":3,"time":9,"i_lat":-6.354349,"transit":false,"is_transit":false,"station_id":"CJT","distance":7025,"i_long":106.508482},{"transit":false,"distance":2675,"i_long":106.491338,"time":6,"i_lat":-6.338021,"station_id":"DAR","station_name":"Daru","line":0,"is_transit":false},{"i_long":106.460812,"station_id":"TEJ","transit":false,"is_transit":false,"time":5,"i_lat":-6.327251,"line":6,"station_name":"Tenjo","distance":3902},{"i_lat":-6.328533,"transit":false,"time":5,"distance":2974,"is_transit":false,"station_id":"TGS","station_name":"Tigaraksa","i_long":106.425991,"line":6},{"transit":false,"i_long":106.411216,"i_lat":-6.33561,"distance":2651,"is_transit":false,"station_id":"CKY","station_name":"Cikoya","line":3,"time":3},{"is_transit":false,"station_id":"MJ","station_name":"Maja","line":6,"time":4,"i_lat":-6.332307,"i_long":106.394373,"distance":1853,"transit":false}],[{"station_name":"Rawa Buaya","i_lat":-6.162758,"line":5,"time":0,"station_id":"RW","i_long":106.723064,"distance":0,"transit":false,"is_transit":false},{"station_id":"BOI","transit":false,"time":4,"is_transit":false,"i_long":106.737035,"distance":1152,"line":5,"station_name":"Bojongindah","i_lat":-6.159876},{"transit":false,"time":2,"i_lat":-6.1587309999999995,"station_id":"TKO","line":5,"is_transit":false,"i_long":106.756522,"station_name":"Taman Kota","distance":2334},{"distance":1614,"time":2,"is_transit":false,"transit":false,"station_id":"PSG","i_long":106.771379,"line":5,"i_lat":-6.161433,"station_name":"Pesing"},{"line":5,"time":2,"station_name":"Grogol","i_long":106.788277,"transit":false,"station_id":"GGL","distance":2036,"i_lat":-6.162021,"is_transit":false},{"i_lat":-6.155215,"time":3,"i_long":106.800832,"line":1,"distance":1700,"station_name":"Duri","is_transit":true,"transit":true,"station_id":"DU"},{"station_name":"Angke","i_lat":-6.144674,"time":4,"station_id":"AK","is_transit":false,"i_long":106.79867,"transit":false,"distance":1230,"line":1},{"line":4,"station_id":"KPB","is_transit":true,"station_name":"Kampung Bandan","time":9,"i_lat":-6.132549,"transit":true,"distance":4102,"i_long":106.826365},{"i_lat":-6.137569,"is_transit":true,"time":3,"line":2,"transit":true,"distance":1364,"station_id":"JAKK","station_name":"Jakarta Kota","i_long":106.812439},{"station_id":"JAY","transit":false,"time":4,"line":2,"i_lat":-6.141205,"is_transit":false,"i_long":106.820901,"station_name":"Jayakarta","distance":1264},{"i_lat":-6.149769,"station_id":"MGB","time":2,"is_transit":false,"distance":1080,"transit":false,"i_long":106.82482,"station_name":"Manggabesar","line":2},{"distance":906,"station_name":"Sawah Besar","time":2,"transit":false,"i_long":106.827103,"line":2,"i_lat":-6.160725,"is_transit":false,"station_id":"SW"},{"distance":1149,"line":2,"station_name":"Juanda","i_lat":-6.166716,"station_id":"JUA","i_long":106.828284,"is_transit":false,"transit":false,"time":2},{"station_id":"GDD","time":4,"transit":false,"station_name":"Gondangdia","distance":2015,"i_lat":-6.186295,"line":2,"is_transit":false,"i_long":106.832183},{"line":2,"transit":false,"is_transit":false,"time":3,"distance":1750,"i_long":106.840169,"station_id":"CKI","station_name":"Cikini","i_lat":-6.198556},{"distance":1590,"time":4,"i_long":106.84912,"is_transit":true,"station_id":"MRI","i_lat":-6.209883,"line":2,"station_name":"Manggarai","transit":true},{"time":4,"i_long":106.822649,"distance":3186,"line":1,"is_transit":false,"station_id":"SUD","transit":false,"station_name":"Sudirman","i_lat":-6.202263},{"station_name":"Sudirman Baru","time":1,"distance":280,"i_lat":-6.201433,"transit":false,"i_long":106.819881,"station_id":"SUDB","is_transit":false,"line":1},{"transit":false,"station_name":"Karet","i_long":106.816351,"time":1,"i_lat":-6.20132,"station_id":"KAT","is_transit":false,"line":1,"distance":471},{"i_lat":-6.185545,"time":5,"line":1,"is_transit":true,"station_name":"Tanah Abang","transit":true,"distance":2029,"i_long":106.811091,"station_id":"THB"},{"station_id":"PLM","time":6,"is_transit":false,"distance":3191,"i_lat":-6.207404,"line":6,"station_name":"Palmerah","i_long":106.79689,"transit":false},{"station_id":"KBY","time":7,"i_long":106.780334,"is_transit":false,"i_lat":-6.237242,"station_name":"Kebayoran","line":6,"distance":3737,"transit":false},{"station_name":"Pondokranji","distance":6218,"station_id":"PDJ","i_lat":-6.276362,"transit":false,"i_long":106.74273,"time":8,"is_transit":false,"line":6},{"line":6,"station_id":"JMU","is_transit":false,"i_lat":-6.288927,"station_name":"Jurangmangu","transit":false,"time":3,"i_long":106.728916,"distance":2179},{"time":4,"station_id":"SDM","i_lat":-6.296963,"transit":false,"line":6,"distance":1994,"i_long":106.712277,"is_transit":false,"station_name":"Sudimara"},{"time":6,"i_lat":-6.314823,"distance":4566,"transit":false,"i_long":106.675475,"is_transit":false,"station_id":"RU","line":6,"station_name":"Rawa Buntu"},{"line":6,"is_transit":false,"station_name":"Serpong","distance":2413,"time":4,"i_lat":-6.319871,"station_id":"SRP","i_long":106.66566,"transit":false},{"station_id":"CSK","station_name":"Cisauk","i_lat":-6.32484,"is_transit":false,"transit":false,"distance":1784,"time":4,"line":3,"i_long":106.640411},{"line":3,"station_name":"Cicayur","distance":2519,"i_long":106.617853,"time":4,"is_transit":false,"station_id":"CC","transit":false,"i_lat":-6.329547},{"i_long":106.568863,"station_id":"PRP","is_transit":false,"distance":5968,"time":8,"line":6,"i_lat":-6.3441410000000005,"station_name":"Parung Panjang","transit":false},{"i_long":106.508482,"station_id":"CJT","line":3,"time":9,"transit":false,"station_name":"Cilejit","is_transit":false,"distance":7025,"i_lat":-6.354349},{"time":6,"line":0,"is_transit":false,"transit":false,"station_name":"Daru","station_id":"DAR","i_long":106.491338,"i_lat":-6.338021,"distance":2675},{"is_transit":false,"station_id":"TEJ","time":5,"distance":3902,"i_lat":-6.327251,"i_long":106.460812,"line":6,"station_name":"Tenjo","transit":false},{"station_id":"TGS","i_lat":-6.328533,"i_long":106.425991,"line":6,"transit":false,"is_transit":false,"distance":2974,"time":5,"station_name":"Tigaraksa"},{"is_transit":false,"time":3,"station_name":"Cikoya","i_lat":-6.33561,"line":3,"distance":2651,"station_id":"CKY","transit":false,"i_long":106.411216},{"station_name":"Maja","time":4,"station_id":"MJ","i_long":106.394373,"distance":1853,"i_lat":-6.332307,"is_transit":false,"transit":false,"line":6}],[{"distance":0,"i_lat":-6.162758,"station_id":"RW","is_transit":false,"transit":false,"i_long":106.723064,"line":5,"station_name":"Rawa Buaya","time":0},{"is_transit":false,"transit":false,"station_name":"Bojongindah","time":4,"i_lat":-6.159876,"distance":1152,"station_id":"BOI","i_long":106.737035,"line":5},{"line":5,"i_long":106.756522,"station_id":"TKO","transit":false,"i_lat":-6.1587309999999995,"is_transit":false,"station_name":"Taman Kota","distance":2334,"time":2},{"i_lat":-6.161433,"transit":false,"line":5,"distance":1614,"station_id":"PSG","i_long":106.771379,"station_name":"Pesing","time":2,"is_transit":false},{"transit":false,"station_name":"Grogol","i_lat":-6.162021,"station_id":"GGL","distance":2036,"i_long":106.788277,"line":5,"is_transit":false,"time":2},{"distance":1700,"i_lat":-6.155215,"i_long":106.800832,"is_transit":true,"station_id":"DU","transit":true,"line":1,"station_name":"Duri","time":3},{"i_long":106.79867,"is_transit":false,"station_id":"AK","transit":false,"station_name":"Angke","line":1,"i_lat":-6.144674,"distance":1230,"time":4},{"i_lat":-6.132549,"line":4,"i_long":106.826365,"station_id":"KPB","distance":4102,"time":9,"station_name":"Kampung Bandan","is_transit":true,"transit":true},{"station_id":"RJW","station_name":"Rajawali","distance":1444,"i_lat":-6.14505,"line":11,"transit":false,"time":3,"i_long":106.836569,"is_transit":false},{"time":5,"station_id":"KMO","i_lat":-6.161728,"line":11,"distance":1901,"transit":false,"is_transit":false,"station_name":"Kemayoran","i_long":106.839204},{"station_id":"PSE","station_name":"Pasar Senen","time":4,"i_long":106.84368,"i_lat":-6.174784,"line":11,"distance":1436,"is_transit":false,"transit":false},{"i_long":106.850107,"transit":false,"i_lat":-6.185975,"station_name":"Gang Sentiong","line":11,"time":8,"is_transit":false,"distance":1567,"station_id":"GST"},{"i_long":106.855437,"line":11,"transit":false,"station_name":"Kramat","station_id":"KMT","distance":973,"is_transit":false,"time":1,"i_lat":-6.193792},{"time":2,"i_lat":-6.209188,"i_long":106.861737,"is_transit":false,"transit":false,"line":11,"station_name":"Pondok Jati","station_id":"POK","distance":1829},{"time":9,"distance":1236,"i_long":106.86807400000001,"station_name":"Jatinegara","is_transit":true,"transit":true,"line":1,"station_id":"JNG","i_lat":-6.215091},{"transit":false,"time":2,"distance":1377,"i_lat":-6.212485,"is_transit":false,"line":1,"station_id":"MTR","station_name":"Matraman","i_long":106.858896},{"distance":1275,"i_long":106.84912,"i_lat":-6.209883,"transit":false,"line":2,"is_transit":false,"station_id":"MRI","station_name":"Manggarai","time":2},{"line":1,"is_transit":false,"station_id":"SUD","distance":3186,"i_long":106.822649,"time":4,"station_name":"Sudirman","transit":false,"i_lat":-6.202263},{"time":1,"distance":280,"transit":false,"is_transit":false,"station_name":"Sudirman Baru","i_lat":-6.201433,"station_id":"SUDB","line":1,"i_long":106.819881},{"i_lat":-6.20132,"i_long":106.816351,"transit":false,"line":1,"time":1,"is_transit":false,"station_name":"Karet","distance":471,"station_id":"KAT"},{"is_transit":true,"station_id":"THB","transit":true,"station_name":"Tanah Abang","time":5,"distance":2029,"line":1,"i_long":106.811091,"i_lat":-6.185545},{"station_name":"Palmerah","station_id":"PLM","is_transit":false,"transit":false,"time":6,"line":6,"i_lat":-6.207404,"i_long":106.79689,"distance":3191},{"transit":false,"distance":3737,"station_name":"Kebayoran","station_id":"KBY","i_lat":-6.237242,"time":7,"i_long":106.780334,"line":6,"is_transit":false},{"line":6,"station_name":"Pondokranji","time":8,"is_transit":false,"i_long":106.74273,"station_id":"PDJ","distance":6218,"i_lat":-6.276362,"transit":false},{"transit":false,"station_name":"Jurangmangu","time":3,"distance":2179,"i_long":106.728916,"station_id":"JMU","i_lat":-6.288927,"is_transit":false,"line":6},{"station_name":"Sudimara","i_long":106.712277,"line":6,"is_transit":false,"time":4,"transit":false,"i_lat":-6.296963,"distance":1994,"station_id":"SDM"},{"i_lat":-6.314823,"distance":4566,"line":6,"station_name":"Rawa Buntu","station_id":"RU","is_transit":false,"time":6,"transit":false,"i_long":106.675475},{"i_long":106.66566,"transit":false,"distance":2413,"i_lat":-6.319871,"is_transit":false,"station_name":"Serpong","time":4,"line":6,"station_id":"SRP"},{"station_id":"CSK","line":3,"transit":false,"station_name":"Cisauk","i_long":106.640411,"is_transit":false,"time":4,"distance":1784,"i_lat":-6.32484},{"station_id":"CC","i_lat":-6.329547,"i_long":106.617853,"is_transit":false,"station_name":"Cicayur","time":4,"distance":2519,"transit":false,"line":3},{"is_transit":false,"time":8,"distance":5968,"i_lat":-6.3441410000000005,"station_id":"PRP","line":6,"transit":false,"station_name":"Parung Panjang","i_long":106.568863},{"station_name":"Cilejit","transit":false,"line":3,"i_long":106.508482,"station_id":"CJT","distance":7025,"i_lat":-6.354349,"is_transit":false,"time":9},{"is_transit":false,"station_name":"Daru","transit":false,"time":6,"distance":2675,"i_lat":-6.338021,"station_id":"DAR","line":0,"i_long":106.491338},{"station_id":"TEJ","line":6,"transit":false,"station_name":"Tenjo","time":5,"is_transit":false,"i_lat":-6.327251,"distance":3902,"i_long":106.460812},{"distance":2974,"i_lat":-6.328533,"is_transit":false,"station_name":"Tigaraksa","time":5,"i_long":106.425991,"line":6,"station_id":"TGS","transit":false},{"i_long":106.411216,"time":3,"distance":2651,"i_lat":-6.33561,"transit":false,"is_transit":false,"station_id":"CKY","station_name":"Cikoya","line":3},{"i_lat":-6.332307,"i_long":106.394373,"is_transit":false,"station_id":"MJ","transit":false,"line":6,"station_name":"Maja","time":4,"distance":1853}]]}