{"data":[[{"line":5,"distance":0,"i_long":106.723064,"station_id":"RW","i_lat":-6.162758,"time":0,"transit":false,"station_name":"Rawa Buaya","is_transit":false},{"time":4,"i_lat":-6.159876,"distance":1152,"transit":false,"station_id":"BOI","is_transit":false,"line":5,"station_name":"Bojongindah","i_long":106.737035},{"distance":2334,"is_transit":false,"line":5,"station_id":"TKO","i_lat":-6.1587309999999995,"transit":false,"i_long":106.756522,"time":2,"station_name":"Taman Kota"},{"transit":false,"distance":1614,"i_lat":-6.161433,"i_long":106.771379,"station_name":"Pesing","station_id":"PSG","time":2,"line":5,"is_transit":false},{"station_name":"Grogol","distance":2036,"i_lat":-6.162021,"i_long":106.788277,"transit":false,"line":5,"time":2,"is_transit":false,"station_id":"GGL"},{"is_transit":true,"station_id":"DU","line":1,"station_name":"Duri","transit":true,"i_long":106.800832,"i_lat":-6.155215,"time":3,"distance":1700},{"i_long":106.811091,"station_id":"THB","station_name":"Tanah Abang","is_transit":true,"distance":3632,"transit":true,"line":1,"i_lat":-6.185545,"time":8},{"time":6,"i_long":106.79689,"i_lat":-6.207404,"distance":3191,"line":6,"station_name":"Palmerah","station_id":"PLM","transit":false,"is_transit":false},{"line":6,"is_transit":false,"time":7,"i_long":106.780334,"transit":false,"i_lat":-6.237242,"station_id":"KBY","station_name":"Kebayoran","distance":3737},{"is_transit":false,"transit":false,"i_lat":-6.276362,"time":8,"line":6,"distance":6218,"i_long":106.74273,"station_id":"PDJ","station_name":"Pondokranji"},{"station_name":"Jurangmangu","time":3,"station_id":"JMU","i_lat":-6.288927,"is_transit":false,"distance":2179,"line":6,"transit":false,"i_long":106.728916},{"transit":false,"time":4,"station_id":"SDM","line":6,"distance":1994,"is_transit":false,"station_name":"Sudimara","i_long":106.712277,"i_lat":-6.296963},{"transit":false,"i_lat":-6.314823,"station_id":"RU","station_name":"Rawa Buntu","is_transit":false,"time":6,"line":6,"i_long":106.675475,"distance":4566},{"i_long":106.66566,"station_name":"Serpong","is_transit":false,"time":4,"distance":2413,"line":6,"i_lat":-6.319871,"station_id":"SRP","transit":false},{"is_transit":false,"i_lat":-6.32484,"station_name":"Cisauk","time":4,"transit":false,"distance":1784,"line":3,"station_id":"CSK","i_long":106.640411},{"i_long":106.617853,"line":3,"station_id":"CC","distance":2519,"is_transit":false,"transit":false,"station_name":"Cicayur","time":4,"i_lat":-6.329547},{"station_id":"PRP","station_name":"Parung Panjang","distance":5968,"transit":false,"line":6,"is_transit":false,"i_lat":-6.3441410000000005,"i_long":106.568863,"time":8},{"i_lat":-6.354349,"i_long":106.508482,"station_id":"CJT","time":9,"line":3,"station_name":"Cilejit","transit":false,"distance":7025,"is_transit":false},{"line":0,"station_name":"Daru","time":6,"station_id":"DAR","is_transit":false,"i_lat":-6.338021,"distance":2675,"i_long":106.491338,"transit":false},{"station_name":"Tenjo","transit":false,"line":6,"i_lat":-6.327251,"time":5,"is_transit":false,"distance":3902,"i_long":106.460812,"station_id":"TEJ"},{"i_lat":-6.328533,"i_long":106.425991,"line":6,"station_name":"Tigaraksa","station_id":"TGS","is_transit":false,"time":5,"transit":false,"distance":2974},{"i_lat":-6.33561,"station_name":"Cikoya","transit":false,"time":3,"station_id":"CKY","i_long":106.411216,"line":3,"is_transit":false,"distance":2651},{"station_id":"MJ","is_transit":false,"time":4,"line":6,"i_lat":-6.332307,"distance":1853,"station_name":"Maja","i_long":106.394373,"transit":false}],[{"i_long":106.723064,"station_name":"Rawa Buaya","time":0,"is_transit":false,"transit":false,"station_id":"RW","distance":0,"i_lat":-6.162758,"line":5},{"station_id":"BOI","i_lat":-6.159876,"i_long":106.737035,"time":4,"is_transit":false,"transit":false,"distance":1152,"line":5,"station_name":"Bojongindah"},{"i_lat":-6.1587309999999995,"line":5,"station_id":"TKO","i_long":106.756522,"time":2,"transit":false,"is_transit":false,"distance":2334,"station_name":"Taman Kota"},{"time":2,"station_id":"PSG","i_lat":-6.161433,"i_long":106.771379,"is_transit":false,"distance":1614,"transit":false,"line":5,"station_name":"Pesing"},{"transit":false,"i_long":106.788277,"is_transit":false,"distance":2036,"line":5,"station_name":"Grogol","time":2,"station_id":"GGL","i_lat":-6.162021},{"transit":true,"i_lat":-6.155215,"time":3,"is_transit":true,"i_long":106.800832,"station_id":"DU","distance":1700,"line":1,"station_name":"Duri"},{"time":4,"i_lat":-6.144674,"i_long":106.79867,"line":1,"station_name":"Angke","is_transit":false,"transit":false,"distance":1230,"station_id":"AK"},{"transit":true,"is_transit":true,"station_id":"KPB","distance":4102,"i_long":106.826365,"line":4,"i_lat":-6.132549,"time":9,"station_name":"Kampung Bandan"},{"time":3,"distance":1364,"i_lat":-6.137569,"is_transit":true,"station_name":"Jakarta Kota","line":2,"station_id":"JAKK","i_long":106.812439,"transit":true},{"time":4,"station_name":"Jayakarta","line":2,"transit":false,"station_id":"JAY","is_transit":false,"i_lat":-6.141205,"i_long":106.820901,"distance":1264},{"distance":1080,"station_id":"MGB","time":2,"i_lat":-6.149769,"line":2,"is_transit":false,"i_long":106.82482,"transit":false,"station_name":"Manggabesar"},{"distance":906,"i_long":106.827103,"transit":false,"i_lat":-6.160725,"station_id":"SW","time":2,"station_name":"Sawah Besar","is_transit":false,"line":2},{"station_name":"Juanda","station_id":"JUA","distance":1149,"i_long":106.828284,"transit":false,"time":2,"i_lat":-6.166716,"is_transit":false,"line":2},{"i_lat":-6.186295,"i_long":106.832183,"is_transit":false,"station_name":"Gondangdia","line":2,"distance":2015,"transit":false,"time":4,"station_id":"GDD"},{"distance":1750,"transit":false,"station_name":"Cikini","i_lat":-6.198556,"i_long":106.840169,"line":2,"is_transit":false,"station_id":"CKI","time":3},{"transit":true,"line":2,"is_transit":true,"time":4,"i_lat":-6.209883,"i_long":106.84912,"station_name":"Manggarai","station_id":"MRI","distance":1590},{"station_name":"Sudirman","time":4,"is_transit":false,"i_long":106.822649,"transit":false,"distance":3186,"i_lat":-6.202263,"station_id":"SUD","line":1},{"station_name":"Sudirman Baru","line":1,"i_long":106.819881,"i_lat":-6.201433,"station_id":"SUDB","is_transit":false,"time":1,"distance":280,"transit":false},{"station_name":"Karet","is_transit":false,"line":1,"transit":false,"i_long":106.816351,"station_id":"KAT","time":1,"i_lat":-6.20132,"distance":471},{"transit":true,"is_transit":true,"station_id":"THB","station_name":"Tanah Abang","i_long":106.811091,"line":1,"time":5,"distance":2029,"i_lat":-6.185545},{"i_long":106.79689,"time":6,"line":6,"station_name":"Palmerah","distance":3191,"transit":false,"i_lat":-6.207404,"is_transit":false,"station_id":"PLM"},{"line":6,"transit":false,"station_name":"Kebayoran","distance":3737,"i_long":106.780334,"time":7,"is_transit":false,"i_lat":-6.237242,"station_id":"KBY"},{"station_id":"PDJ","transit":false,"i_lat":-6.276362,"i_long":106.74273,"station_name":"Pondokranji","distance":6218,"line":6,"is_transit":false,"time":8},{"distance":2179,"line":6,"station_name":"Jurangmangu","station_id":"JMU","time":3,"i_lat":-6.288927,"i_long":106.728916,"transit":false,"is_transit":false},{"distance":1994,"i_long":106.712277,"i_lat":-6.296963,"transit":false,"line":6,"station_id":"SDM","is_transit":false,"time":4,"station_name":"Sudimara"},{"distance":4566,"i_long":106.675475,"station_id":"RU","line":6,"time":6,"i_lat":-6.314823,"station_name":"Rawa Buntu","transit":false,"is_transit":false},{"line":6,"time":4,"distance":2413,"transit":false,"i_long":106.66566,"station_id":"SRP","is_transit":false,"station_name":"Serpong","i_lat":-6.319871},{"i_long":106.640411,"i_lat":-6.32484,"time":4,"distance":1784,"station_name":"Cisauk","transit":false,"is_transit":false,"line":3,"station_id":"CSK"},{"is_transit":false,"transit":false,"i_long":106.617853,"time":4,"distance":2519,"i_lat":-6.329547,"line":3,"station_name":"Cicayur","station_id":"CC"},{"line":6,"transit":false,"station_name":"Parung Panjang","time":8,"distance":5968,"is_transit":false,"station_id":"PRP","i_lat":-6.3441410000000005,"i_long":106.568863},{"station_name":"Cilejit","is_transit":false,"distance":7025,"transit":false,"i_lat":-6.354349,"i_long":106.508482,"station_id":"CJT","time":9,"line":3},{"time":6,"transit":false,"distance":2675,"station_name":"Daru","is_transit":false,"i_lat":-6.338021,"station_id":"DAR","i_long":106.491338,"line":0},{"transit":false,"is_transit":false,"distance":3902,"station_id":"TEJ","line":6,"i_lat":-6.327251,"time":5,"i_long":106.460812,"station_name":"Tenjo"},{"i_long":106.425991,"time":5,"transit":false,"line":6,"distance":2974,"is_transit":false,"station_id":"TGS","station_name":"Tigaraksa","i_lat":-6.328533},{"station_name":"Cikoya","time":3,"station_id":"CKY","transit":false,"i_lat":-6.33561,"i_long":106.411216,"distance":2651,"is_transit":false,"line":3},{"station_name":"Maja","i_long":106.394373,"i_lat":-6.332307,"station_id":"MJ","line":6,"distance":1853,"time":4,"is_transit":false,"transit":false}],[{"station_id":"RW","distance":0,"station_name":"Rawa Buaya","i_long":106.723064,"transit":false,"i_lat":-6.162758,"time":0,"is_transit":false,"line":5},{"station_name":"Bojongindah","is_transit":false,"i_long":106.737035,"transit":false,"time":4,"line":5,"i_lat":-6.159876,"station_id":"BOI","distance":1152},{"time":2,"distance":2334,"line":5,"transit":false,"station_name":"Taman Kota","is_transit":false,"station_id":"TKO","i_lat":-6.1587309999999995,"i_long":106.756522},{"time":2,"distance":1614,"is_transit":false,"station_id":"PSG","station_name":"Pesing","i_lat":-6.161433,"line":5,"transit":false,"i_long":106.771379},{"station_name":"Grogol","distance":2036,"i_long":106.788277,"time":2,"transit":false,"is_transit":false,"line":5,"i_lat":-6.162021,"station_id":"GGL"},{"i_lat":-6.155215,"station_name":"Duri","station_id":"DU","is_transit":true,"line":1,"distance":1700,"transit":true,"time":3,"i_long":106.800832},{"line":1,"i_lat":-6.144674,"is_transit":false,"distance":1230,"time":4,"station_name":"Angke","transit":false,"i_long":106.79867,"station_id":"AK"},{"line":4,"transit":true,"i_lat":-6.132549,"distance":4102,"i_long":106.826365,"station_id":"KPB","is_transit":true,"time":9,"station_name":"Kampung Bandan"},{"distance":1444,"i_long":106.836569,"transit":false,"line":11,"is_transit":false,"station_name":"Rajawali","i_lat":-6.14505,"time":3,"station_id":"RJW"},{"station_id":"KMO","line":11,"i_lat":-6.161728,"i_long":106.839204,"is_transit":false,"time":5,"station_name":"Kemayoran","transit":false,"distance":1901},{"line":11,"station_id":"PSE","transit":false,"is_transit":false,"distance":1436,"time":4,"i_lat":-6.174784,"station_name":"Pasar Senen","i_long":106.84368},{"line":11,"transit":false,"distance":1567,"is_transit":false,"time":8,"i_long":106.850107,"station_id":"GST","station_name":"Gang Sentiong","i_lat":-6.185975},{"i_lat":-6.193792,"time":1,"station_name":"Kramat","line":11,"i_long":106.855437,"transit":false,"station_id":"KMT","is_transit":false,"distance":973},{"line":11,"time":2,"distance":1829,"is_transit":false,"i_long":106.861737,"station_name":"Pondok Jati","station_id":"POK","i_lat":-6.209188,"transit":false},{"station_id":"JNG","time":9,"station_name":"Jatinegara","is_transit":true,"i_long":106.86807400000001,"line":1,"distance":1236,"transit":true,"i_lat":-6.215091},{"i_lat":-6.212485,"i_long":106.858896,"line":1,"is_transit":false,"time":2,"transit":false,"station_name":"Matraman","station_id":"MTR","distance":1377},{"transit":false,"station_name":"Manggarai","station_id":"MRI","i_lat":-6.209883,"line":2,"i_long":106.84912,"time":2,"distance":1275,"is_transit":false},{"station_name":"Sudirman","line":1,"station_id":"SUD","transit":false,"is_transit":false,"time":4,"i_lat":-6.202263,"i_long":106.822649,"distance":3186},{"distance":280,"transit":false,"line":1,"i_long":106.819881,"station_id":"SUDB","station_name":"Sudirman Baru","is_transit":false,"i_lat":-6.201433,"time":1},{"station_name":"Karet","i_long":106.816351,"time":1,"is_transit":false,"i_lat":-6.20132,"distance":471,"station_id":"KAT","transit":false,"line":1},{"time":5,"i_lat":-6.185545,"line":1,"station_name":"Tanah Abang","distance":2029,"transit":true,"i_long":106.811091,"station_id":"THB","is_transit":true},{"i_lat":-6.207404,"station_name":"Palmerah","time":6,"distance":3191,"i_long":106.79689,"transit":false,"is_transit":false,"station_id":"PLM","line":6},{"station_id":"KBY","time":7,"i_lat":-6.237242,"distance":3737,"transit":false,"station_name":"Kebayoran","is_transit":false,"i_long":106.780334,"line":6},{"distance":6218,"is_transit":false,"i_lat":-6.276362,"station_id":"PDJ","transit":false,"time":8,"i_long":106.74273,"station_name":"Pondokranji","line":6},{"transit":false,"station_name":"Jurangmangu","i_long":106.728916,"station_id":"JMU","i_lat":-6.288927,"time":3,"line":6,"is_transit":false,"distance":2179},{"time":4,"station_name":"Sudimara","transit":false,"distance":1994,"i_lat":-6.296963,"line":6,"is_transit":false,"station_id":"SDM","i_long":106.712277},{"distance":4566,"i_lat":-6.314823,"time":6,"i_long":106.675475,"transit":false,"station_name":"Rawa Buntu","is_transit":false,"line":6,"station_id":"RU"},{"station_name":"Serpong","is_transit":false,"distance":2413,"station_id":"SRP","i_lat":-6.319871,"line":6,"transit":false,"time":4,"i_long":106.66566},{"transit":false,"station_id":"CSK","station_name":"Cisauk","i_lat":-6.32484,"distance":1784,"line":3,"is_transit":false,"time":4,"i_long":106.640411},{"station_name":"Cicayur","line":3,"distance":2519,"is_transit":false,"time":4,"i_lat":-6.329547,"station_id":"CC","transit":false,"i_long":106.617853},{"station_id":"PRP","i_long":106.568863,"line":6,"station_name":"Parung Panjang","is_transit":false,"i_lat":-6.3441410000000005,"time":8,"distance":5968,"transit":false},{"i_long":106.508482,"transit":false,"station_id":"CJT","i_lat":-6.354349,"line":3,"time":9,"is_transit":false,"distance":7025,"station_name":"Cilejit"},{"station_name":"Daru","time":6,"i_lat":-6.338021,"station_id":"DAR","distance":2675,"transit":false,"line":0,"i_long":106.491338,"is_transit":false},{"line":6,"i_lat":-6.327251,"is_transit":false,"transit":false,"station_name":"Tenjo","i_long":106.460812,"distance":3902,"station_id":"TEJ","time":5},{"transit":false,"time":5,"is_transit":false,"distance":2974,"i_long":106.425991,"line":6,"station_name":"Tigaraksa","station_id":"TGS","i_lat":-6.328533},{"line":3,"is_transit":false,"station_id":"CKY","distance":2651,"i_lat":-6.33561,"station_name":"Cikoya","time":3,"i_long":106.411216,"transit":false},{"is_transit":false,"transit":false,"time":4,"station_id":"MJ","station_name":"Maja","line":6,"i_long":106.394373,"distance":1853,"i_lat":-6.332307}]]}