{"data":[[{"i_lat":-6.162758,"transit":false,"i_long":106.723064,"station_id":"RW","line":5,"station_name":"Rawa Buaya","time":0,"distance":0,"is_transit":false},{"time":4,"transit":false,"i_lat":-6.159876,"i_long":106.737035,"line":5,"station_id":"BOI","station_name":"Bojongindah","distance":1152,"is_transit":false},{"i_long":106.756522,"transit":false,"time":2,"station_id":"TKO","station_name":"Taman Kota","distance":2334,"i_lat":-6.1587309999999995,"line":5,"is_transit":false},{"distance":1614,"station_id":"PSG","transit":false,"i_lat":-6.161433,"time":2,"station_name":"Pesing","line":5,"i_long":106.771379,"is_transit":false},{"line":5,"transit":false,"distance":2036,"i_long":106.788277,"is_transit":false,"station_id":"GGL","time":2,"station_name":"Grogol","i_lat":-6.162021},{"transit":true,"time":3,"i_lat":-6.155215,"distance":1700,"station_id":"DU","is_transit":true,"line":1,"station_name":"Duri","i_long":106.800832},{"line":1,"distance":1230,"i_long":106.79867,"is_transit":false,"time":4,"transit":false,"station_name":"Angke","station_id":"AK","i_lat":-6.144674},{"station_name":"Kampung Bandan","is_transit":true,"station_id":"KPB","distance":4102,"line":4,"time":9,"i_long":106.826365,"transit":true,"i_lat":-6.132549},{"time":3,"is_transit":false,"transit":false,"station_name":"Rajawali","i_lat":-6.14505,"station_id":"RJW","i_long":106.836569,"line":11,"distance":1444},{"station_id":"KMO","transit":false,"i_lat":-6.161728,"time":5,"line":11,"is_transit":false,"station_name":"Kemayoran","distance":1901,"i_long":106.839204},{"i_long":106.84368,"is_transit":false,"distance":1436,"station_name":"Pasar Senen","i_lat":-6.174784,"line":11,"transit":false,"time":4,"station_id":"PSE"}],[{"station_name":"Rawa Buaya","station_id":"RW","is_transit":false,"time":0,"i_long":106.723064,"distance":0,"transit":false,"i_lat":-6.162758,"line":5},{"i_lat":-6.159876,"station_name":"Bojongindah","is_transit":false,"i_long":106.737035,"station_id":"BOI","distance":1152,"time":4,"transit":false,"line":5},{"time":2,"is_transit":false,"station_id":"TKO","i_lat":-6.1587309999999995,"line":5,"distance":2334,"i_long":106.756522,"station_name":"Taman Kota","transit":false},{"distance":1614,"is_transit":false,"station_id":"PSG","station_name":"Pesing","i_lat":-6.161433,"time":2,"transit":false,"i_long":106.771379,"line":5},{"i_long":106.788277,"transit":false,"i_lat":-6.162021,"station_id":"GGL","line":5,"time":2,"station_name":"Grogol","is_transit":false,"distance":2036},{"station_id":"DU","transit":true,"station_name":"Duri","is_transit":true,"distance":1700,"i_lat":-6.155215,"i_long":106.800832,"line":1,"time":3},{"line":1,"is_transit":false,"station_id":"THB","transit":false,"station_name":"Tanah Abang","i_long":106.811091,"i_lat":-6.185545,"time":8,"distance":3632},{"i_long":106.816351,"station_name":"Karet","distance":2029,"station_id":"KAT","i_lat":-6.20132,"is_transit":false,"time":5,"line":1,"transit":false},{"distance":471,"i_lat":-6.201433,"line":1,"time":1,"transit":false,"station_id":"SUDB","station_name":"Sudirman Baru","i_long":106.819881,"is_transit":false},{"i_long":106.822649,"i_lat":-6.202263,"is_transit":false,"transit":false,"time":1,"station_id":"SUD","station_name":"Sudirman","distance":280,"line":1},{"line":2,"distance":3186,"i_lat":-6.209883,"station_id":"MRI","transit":false,"i_long":106.84912,"is_transit":false,"time":4,"station_name":"Manggarai"},{"station_name":"Matraman","i_long":106.858896,"distance":1275,"transit":false,"line":1,"time":2,"station_id":"MTR","is_transit":false,"i_lat":-6.212485},{"time":8,"is_transit":true,"station_name":"Jatinegara","line":1,"station_id":"JNG","i_lat":-6.215091,"i_long":106.86807400000001,"distance":1377,"transit":true},{"i_long":106.861737,"transit":false,"is_transit":false,"i_lat":-6.209188,"distance":1236,"station_name":"Pondok Jati","time":2,"station_id":"POK","line":11},{"station_id":"KMT","i_lat":-6.193792,"i_long":106.855437,"is_transit":false,"station_name":"Kramat","distance":1829,"time":2,"transit":false,"line":11},{"line":11,"time":1,"station_id":"GST","i_lat":-6.185975,"is_transit":false,"transit":false,"i_long":106.850107,"distance":973,"station_name":"Gang Sentiong"},{"time":8,"is_transit":false,"i_long":106.84368,"station_id":"PSE","i_lat":-6.174784,"line":11,"transit":false,"distance":1567,"station_name":"Pasar Senen"}],[{"distance":0,"is_transit":false,"i_lat":-6.162758,"i_long":106.723064,"line":5,"time":0,"transit":false,"station_name":"Rawa Buaya","station_id":"RW"},{"station_name":"Bojongindah","line":5,"i_lat":-6.159876,"i_long":106.737035,"station_id":"BOI","transit":false,"time":4,"distance":1152,"is_transit":false},{"station_name":"Taman Kota","i_lat":-6.1587309999999995,"line":5,"station_id":"TKO","i_long":106.756522,"transit":false,"distance":2334,"time":2,"is_transit":false},{"i_long":106.771379,"transit":false,"station_name":"Pesing","is_transit":false,"time":2,"line":5,"distance":1614,"i_lat":-6.161433,"station_id":"PSG"},{"time":2,"i_lat":-6.162021,"is_transit":false,"distance":2036,"line":5,"transit":false,"station_id":"GGL","station_name":"Grogol","i_long":106.788277},{"is_transit":true,"i_lat":-6.155215,"distance":1700,"i_long":106.800832,"line":1,"time":3,"transit":true,"station_id":"DU","station_name":"Duri"},{"line":1,"transit":false,"distance":1230,"station_id":"AK","time":4,"i_long":106.79867,"station_name":"Angke","is_transit":false,"i_lat":-6.144674},{"time":9,"transit":true,"is_transit":true,"i_long":106.826365,"station_id":"KPB","station_name":"Kampung Bandan","i_lat":-6.132549,"line":4,"distance":4102},{"station_name":"Jakarta Kota","is_transit":true,"time":3,"transit":true,"distance":1364,"i_lat":-6.137569,"line":2,"i_long":106.812439,"station_id":"JAKK"},{"station_id":"JAY","transit":false,"i_long":106.820901,"i_lat":-6.141205,"station_name":"Jayakarta","time":4,"is_transit":false,"distance":1264,"line":2},{"is_transit":false,"station_id":"MGB","time":2,"line":2,"station_name":"Manggabesar","distance":1080,"i_lat":-6.149769,"i_long":106.82482,"transit":false},{"line":2,"time":2,"distance":906,"station_id":"SW","transit":false,"station_name":"Sawah Besar","is_transit":false,"i_lat":-6.160725,"i_long":106.827103},{"is_transit":false,"i_long":106.828284,"distance":1149,"station_id":"JUA","station_name":"Juanda","line":2,"i_lat":-6.166716,"transit":false,"time":2},{"line":2,"transit":false,"is_transit":false,"i_lat":-6.186295,"i_long":106.832183,"station_name":"Gondangdia","station_id":"GDD","time":4,"distance":2015},{"is_transit":false,"i_lat":-6.198556,"time":3,"distance":1750,"station_name":"Cikini","transit":false,"i_long":106.840169,"line":2,"station_id":"CKI"},{"time":4,"i_lat":-6.209883,"station_id":"MRI","station_name":"Manggarai","i_long":106.84912,"line":2,"is_transit":true,"distance":1590,"transit":true},{"i_lat":-6.212485,"transit":false,"time":2,"line":1,"station_id":"MTR","is_transit":false,"i_long":106.858896,"station_name":"Matraman","distance":1275},{"time":8,"distance":1377,"is_transit":true,"i_long":106.86807400000001,"transit":true,"line":1,"i_lat":-6.215091,"station_id":"JNG","station_name":"Jatinegara"},{"line":11,"station_name":"Pondok Jati","transit":false,"i_long":106.861737,"station_id":"POK","time":2,"is_transit":false,"distance":1236,"i_lat":-6.209188},{"station_name":"Kramat","transit":false,"time":2,"i_lat":-6.193792,"i_long":106.855437,"station_id":"KMT","is_transit":false,"line":11,"distance":1829},{"i_lat":-6.185975,"station_id":"GST","distance":973,"time":1,"station_name":"Gang Sentiong","transit":false,"line":11,"is_transit":false,"i_long":106.850107},{"i_lat":-6.174784,"station_id":"PSE","station_name":"Pasar Senen","distance":1567,"transit":false,"time":8,"i_long":106.84368,"is_transit":false,"line":11}],[{"distance":0,"station_id":"RW","is_transit":false,"station_name":"Rawa Buaya","time":0,"i_lat":-6.162758,"i_long":106.723064,"transit":false,"line":5},{"distance":1152,"i_long":106.737035,"transit":false,"station_name":"Bojongindah","i_lat":-6.159876,"line":5,"station_id":"BOI","is_transit":false,"time":4},{"time":2,"station_name":"Taman Kota","station_id":"TKO","is_transit":false,"i_lat":-6.1587309999999995,"distance":2334,"i_long":106.756522,"line":5,"transit":false},{"distance":1614,"is_transit":false,"i_lat":-6.161433,"i_long":106.771379,"station_name":"Pesing","line":5,"transit":false,"station_id":"PSG","time":2},{"time":2,"station_name":"Grogol","transit":false,"station_id":"GGL","distance":2036,"is_transit":false,"i_long":106.788277,"line":5,"i_lat":-6.162021},{"distance":1700,"time":3,"i_lat":-6.155215,"transit":true,"i_long":106.800832,"line":1,"station_id":"DU","station_name":"Duri","is_transit":true},{"is_transit":false,"i_long":106.811091,"distance":3632,"transit":false,"station_name":"Tanah Abang","station_id":"THB","time":8,"i_lat":-6.185545,"line":1},{"time":5,"i_lat":-6.20132,"transit":false,"distance":2029,"is_transit":false,"station_name":"Karet","i_long":106.816351,"station_id":"KAT","line":1},{"station_id":"SUDB","distance":471,"station_name":"Sudirman Baru","i_long":106.819881,"transit":false,"time":1,"is_transit":false,"line":1,"i_lat":-6.201433},{"station_id":"SUD","transit":false,"line":1,"i_lat":-6.202263,"station_name":"Sudirman","distance":280,"is_transit":false,"i_long":106.822649,"time":1},{"is_transit":true,"i_lat":-6.209883,"time":4,"station_name":"Manggarai","station_id":"MRI","i_long":106.84912,"transit":true,"line":2,"distance":3186},{"station_id":"CKI","station_name":"Cikini","i_lat":-6.198556,"time":4,"distance":1590,"transit":false,"line":2,"i_long":106.840169,"is_transit":false},{"is_transit":false,"i_lat":-6.186295,"i_long":106.832183,"transit":false,"station_name":"Gondangdia","station_id":"GDD","distance":1750,"line":2,"time":3},{"line":2,"transit":false,"station_name":"Juanda","distance":2015,"is_transit":false,"station_id":"JUA","time":4,"i_lat":-6.166716,"i_long":106.828284},{"is_transit":false,"i_long":106.827103,"transit":false,"station_id":"SW","time":2,"distance":1149,"station_name":"Sawah Besar","i_lat":-6.160725,"line":2},{"i_long":106.82482,"distance":906,"line":2,"station_name":"Manggabesar","station_id":"MGB","time":2,"transit":false,"is_transit":false,"i_lat":-6.149769},{"time":2,"transit":false,"distance":1080,"station_id":"JAY","station_name":"Jayakarta","i_long":106.820901,"i_lat":-6.141205,"is_transit":false,"line":2},{"distance":1264,"i_lat":-6.137569,"station_id":"JAKK","i_long":106.812439,"time":4,"transit":true,"is_transit":true,"station_name":"Jakarta Kota","line":2},{"is_transit":true,"transit":true,"i_long":106.826365,"station_name":"Kampung Bandan","time":3,"distance":1364,"line":4,"i_lat":-6.132549,"station_id":"KPB"},{"distance":1444,"transit":false,"i_long":106.836569,"station_name":"Rajawali","time":3,"station_id":"RJW","i_lat":-6.14505,"line":11,"is_transit":false},{"line":11,"station_id":"KMO","i_lat":-6.161728,"time":5,"is_transit":false,"transit":false,"i_long":106.839204,"station_name":"Kemayoran","distance":1901},{"i_lat":-6.174784,"transit":false,"station_id":"PSE","station_name":"Pasar Senen","time":4,"distance":1436,"line":11,"is_transit":false,"i_long":106.84368}]]}