{"data":[[{"distance":0,"is_transit":false,"station_name":"Rawa Buaya","i_lat":-6.162758,"time":0,"station_id":"RW","transit":false,"i_long":106.723064,"line":5},{"station_id":"BOI","distance":1152,"line":5,"station_name":"Bojongindah","transit":false,"is_transit":false,"time":4,"i_lat":-6.159876,"i_long":106.737035},{"time":2,"distance":2334,"is_transit":false,"i_long":106.756522,"i_lat":-6.1587309999999995,"line":5,"station_name":"Taman Kota","transit":false,"station_id":"TKO"},{"line":5,"i_long":106.771379,"time":2,"station_name":"Pesing","distance":1614,"transit":false,"is_transit":false,"i_lat":-6.161433,"station_id":"PSG"},{"is_transit":false,"distance":2036,"i_long":106.788277,"transit":false,"line":5,"station_id":"GGL","station_name":"Grogol","time":2,"i_lat":-6.162021},{"i_lat":-6.155215,"time":3,"station_id":"DU","transit":true,"distance":1700,"is_transit":true,"i_long":106.800832,"station_name":"Duri","line":1},{"station_name":"Tanah Abang","time":8,"is_transit":false,"station_id":"THB","line":1,"transit":false,"distance":3632,"i_lat":-6.185545,"i_long":106.811091},{"i_lat":-6.20132,"station_name":"Karet","i_long":106.816351,"line":1,"distance":2029,"is_transit":false,"time":5,"transit":false,"station_id":"KAT"},{"transit":false,"i_lat":-6.201433,"time":1,"is_transit":false,"i_long":106.819881,"distance":471,"line":1,"station_name":"Sudirman Baru","station_id":"SUDB"},{"is_transit":false,"station_name":"Sudirman","i_lat":-6.202263,"distance":280,"transit":false,"i_long":106.822649,"station_id":"SUD","line":1,"time":1},{"station_name":"Manggarai","is_transit":true,"i_lat":-6.209883,"station_id":"MRI","i_long":106.84912,"distance":3186,"time":4,"line":2,"transit":true},{"is_transit":false,"station_name":"Tebet","station_id":"TEB","i_lat":-6.226659,"i_long":106.857948,"time":4,"transit":false,"distance":2610,"line":2},{"distance":1230,"transit":false,"station_name":"Cawang","line":2,"i_long":106.856607,"time":2,"i_lat":-6.242512,"station_id":"CW","is_transit":false},{"transit":false,"line":2,"station_id":"DRN","time":3,"i_long":106.85449,"distance":1546,"i_lat":-6.255332,"is_transit":false,"station_name":"Duren Kalibata"},{"distance":824,"i_long":106.851577,"i_lat":-6.263214,"station_id":"PSMB","transit":false,"is_transit":false,"station_name":"Pasar Minggu Baru","line":2,"time":2}],[{"station_name":"Rawa Buaya","is_transit":false,"transit":false,"line":5,"time":0,"station_id":"RW","i_long":106.723064,"distance":0,"i_lat":-6.162758},{"is_transit":false,"i_long":106.737035,"station_name":"Bojongindah","time":4,"transit":false,"i_lat":-6.159876,"station_id":"BOI","line":5,"distance":1152},{"i_lat":-6.1587309999999995,"line":5,"station_id":"TKO","transit":false,"is_transit":false,"station_name":"Taman Kota","i_long":106.756522,"time":2,"distance":2334},{"is_transit":false,"station_id":"PSG","distance":1614,"i_long":106.771379,"station_name":"Pesing","transit":false,"i_lat":-6.161433,"line":5,"time":2},{"time":2,"distance":2036,"transit":false,"is_transit":false,"station_id":"GGL","station_name":"Grogol","line":5,"i_lat":-6.162021,"i_long":106.788277},{"line":1,"station_id":"DU","transit":true,"is_transit":true,"station_name":"Duri","distance":1700,"i_lat":-6.155215,"time":3,"i_long":106.800832},{"is_transit":false,"i_long":106.79867,"line":1,"station_id":"AK","distance":1230,"station_name":"Angke","i_lat":-6.144674,"time":4,"transit":false},{"distance":4102,"station_name":"Kampung Bandan","station_id":"KPB","i_lat":-6.132549,"is_transit":true,"i_long":106.826365,"line":4,"time":9,"transit":true},{"is_transit":true,"line":2,"i_long":106.812439,"distance":1364,"station_id":"JAKK","time":3,"i_lat":-6.137569,"station_name":"Jakarta Kota","transit":true},{"line":2,"time":4,"transit":false,"station_name":"Jayakarta","distance":1264,"station_id":"JAY","is_transit":false,"i_lat":-6.141205,"i_long":106.820901},{"i_long":106.82482,"station_name":"Manggabesar","station_id":"MGB","transit":false,"line":2,"is_transit":false,"i_lat":-6.149769,"distance":1080,"time":2},{"station_id":"SW","transit":false,"i_lat":-6.160725,"distance":906,"time":2,"station_name":"Sawah Besar","line":2,"i_long":106.827103,"is_transit":false},{"i_lat":-6.166716,"distance":1149,"i_long":106.828284,"line":2,"transit":false,"station_id":"JUA","is_transit":false,"station_name":"Juanda","time":2},{"is_transit":false,"time":4,"distance":2015,"i_long":106.832183,"line":2,"station_id":"GDD","i_lat":-6.186295,"transit":false,"station_name":"Gondangdia"},{"station_name":"Cikini","distance":1750,"i_lat":-6.198556,"transit":false,"is_transit":false,"i_long":106.840169,"line":2,"time":3,"station_id":"CKI"},{"time":4,"transit":false,"station_name":"Manggarai","i_long":106.84912,"station_id":"MRI","is_transit":false,"i_lat":-6.209883,"line":2,"distance":1590},{"time":4,"is_transit":false,"station_name":"Tebet","i_lat":-6.226659,"distance":2610,"i_long":106.857948,"line":2,"station_id":"TEB","transit":false},{"station_name":"Cawang","time":2,"line":2,"is_transit":false,"transit":false,"i_long":106.856607,"i_lat":-6.242512,"distance":1230,"station_id":"CW"},{"i_long":106.85449,"station_id":"DRN","transit":false,"is_transit":false,"station_name":"Duren Kalibata","i_lat":-6.255332,"time":3,"line":2,"distance":1546},{"i_lat":-6.263214,"distance":824,"station_id":"PSMB","transit":false,"is_transit":false,"i_long":106.851577,"line":2,"station_name":"Pasar Minggu Baru","time":2}],[{"i_lat":-6.162758,"transit":false,"time":0,"distance":0,"i_long":106.723064,"is_transit":false,"station_id":"RW","station_name":"Rawa Buaya","line":5},{"line":5,"time":4,"i_long":106.737035,"i_lat":-6.159876,"distance":1152,"is_transit":false,"transit":false,"station_id":"BOI","station_name":"Bojongindah"},{"transit":false,"is_transit":false,"station_id":"TKO","station_name":"Taman Kota","i_lat":-6.1587309999999995,"i_long":106.756522,"line":5,"time":2,"distance":2334},{"i_lat":-6.161433,"is_transit":false,"station_id":"PSG","i_long":106.771379,"distance":1614,"station_name":"Pesing","transit":false,"line":5,"time":2},{"transit":false,"i_long":106.788277,"line":5,"station_id":"GGL","time":2,"i_lat":-6.162021,"is_transit":false,"distance":2036,"station_name":"Grogol"},{"station_id":"DU","distance":1700,"i_lat":-6.155215,"time":3,"i_long":106.800832,"transit":true,"is_transit":true,"station_name":"Duri","line":1},{"transit":false,"time":4,"i_lat":-6.144674,"is_transit":false,"distance":1230,"line":1,"i_long":106.79867,"station_id":"AK","station_name":"Angke"},{"station_name":"Kampung Bandan","i_lat":-6.132549,"time":9,"i_long":106.826365,"line":4,"transit":true,"distance":4102,"station_id":"KPB","is_transit":true},{"i_lat":-6.14505,"station_id":"RJW","station_name":"Rajawali","distance":1444,"is_transit":false,"i_long":106.836569,"transit":false,"time":3,"line":11},{"is_transit":false,"i_long":106.839204,"i_lat":-6.161728,"time":5,"station_name":"Kemayoran","station_id":"KMO","distance":1901,"transit":false,"line":11},{"is_transit":false,"station_id":"PSE","transit":false,"distance":1436,"i_long":106.84368,"station_name":"Pasar Senen","i_lat":-6.174784,"time":4,"line":11},{"line":11,"time":8,"is_transit":false,"station_id":"GST","distance":1567,"i_long":106.850107,"transit":false,"station_name":"Gang Sentiong","i_lat":-6.185975},{"i_long":106.855437,"time":1,"station_id":"KMT","distance":973,"is_transit":false,"line":11,"transit":false,"i_lat":-6.193792,"station_name":"Kramat"},{"distance":1829,"station_name":"Pondok Jati","line":11,"time":2,"i_long":106.861737,"is_transit":false,"station_id":"POK","transit":false,"i_lat":-6.209188},{"i_long":106.86807400000001,"distance":1236,"station_id":"JNG","station_name":"Jatinegara","line":1,"transit":true,"is_transit":true,"time":9,"i_lat":-6.215091},{"line":1,"transit":false,"is_transit":false,"station_id":"MTR","i_long":106.858896,"distance":1377,"i_lat":-6.212485,"station_name":"Matraman","time":2},{"time":2,"transit":true,"station_name":"Manggarai","station_id":"MRI","distance":1275,"is_transit":true,"i_long":106.84912,"i_lat":-6.209883,"line":2},{"i_long":106.857948,"time":4,"distance":2610,"station_id":"TEB","line":2,"is_transit":false,"i_lat":-6.226659,"station_name":"Tebet","transit":false},{"time":2,"station_id":"CW","distance":1230,"transit":false,"is_transit":false,"line":2,"station_name":"Cawang","i_lat":-6.242512,"i_long":106.856607},{"is_transit":false,"distance":1546,"station_name":"Duren Kalibata","transit":false,"i_lat":-6.255332,"i_long":106.85449,"time":3,"line":2,"station_id":"DRN"},{"transit":false,"station_name":"Pasar Minggu Baru","is_transit":false,"i_long":106.851577,"distance":824,"line":2,"i_lat":-6.263214,"time":2,"station_id":"PSMB"}]]}