{"data":[[{"i_lat":-6.162758,"station_id":"RW","time":0,"i_long":106.723064,"line":5,"station_name":"Rawa Buaya","is_transit":false,"distance":0,"transit":false},{"i_long":106.737035,"distance":1152,"line":5,"transit":false,"time":4,"is_transit":false,"station_name":"Bojongindah","station_id":"BOI","i_lat":-6.159876},{"i_lat":-6.1587309999999995,"station_id":"TKO","transit":false,"station_name":"Taman Kota","is_transit":false,"time":2,"distance":2334,"line":5,"i_long":106.756522},{"station_name":"Pesing","distance":1614,"time":2,"line":5,"transit":false,"station_id":"PSG","i_lat":-6.161433,"i_long":106.771379,"is_transit":false},{"time":2,"is_transit":false,"station_name":"Grogol","station_id":"GGL","distance":2036,"i_long":106.788277,"line":5,"i_lat":-6.162021,"transit":false},{"i_long":106.800832,"line":1,"transit":true,"station_id":"DU","time":3,"is_transit":true,"i_lat":-6.155215,"station_name":"Duri","distance":1700},{"line":1,"distance":1230,"i_long":106.79867,"time":4,"station_id":"AK","is_transit":false,"i_lat":-6.144674,"transit":false,"station_name":"Angke"},{"is_transit":true,"time":9,"distance":4102,"i_lat":-6.132549,"station_id":"KPB","station_name":"Kampung Bandan","line":4,"transit":true,"i_long":106.826365},{"station_id":"RJW","station_name":"Rajawali","i_lat":-6.14505,"distance":1444,"transit":false,"is_transit":false,"time":3,"i_long":106.836569,"line":11},{"transit":false,"i_long":106.839204,"station_id":"KMO","i_lat":-6.161728,"distance":1901,"station_name":"Kemayoran","time":5,"line":11,"is_transit":false},{"transit":false,"is_transit":false,"station_id":"PSE","station_name":"Pasar Senen","distance":1436,"time":4,"i_lat":-6.174784,"i_long":106.84368,"line":11}],[{"station_id":"RW","line":5,"time":0,"is_transit":false,"station_name":"Rawa Buaya","i_lat":-6.162758,"i_long":106.723064,"transit":false,"distance":0},{"transit":false,"station_id":"BOI","time":4,"i_long":106.737035,"line":5,"is_transit":false,"distance":1152,"i_lat":-6.159876,"station_name":"Bojongindah"},{"distance":2334,"is_transit":false,"station_id":"TKO","time":2,"transit":false,"i_long":106.756522,"station_name":"Taman Kota","line":5,"i_lat":-6.1587309999999995},{"i_lat":-6.161433,"distance":1614,"station_id":"PSG","line":5,"time":2,"station_name":"Pesing","is_transit":false,"i_long":106.771379,"transit":false},{"transit":false,"station_id":"GGL","distance":2036,"is_transit":false,"i_lat":-6.162021,"i_long":106.788277,"line":5,"time":2,"station_name":"Grogol"},{"transit":true,"time":3,"is_transit":true,"i_long":106.800832,"i_lat":-6.155215,"station_name":"Duri","distance":1700,"station_id":"DU","line":1},{"distance":3632,"time":8,"i_long":106.811091,"station_name":"Tanah Abang","station_id":"THB","is_transit":false,"i_lat":-6.185545,"line":1,"transit":false},{"station_id":"KAT","i_lat":-6.20132,"transit":false,"line":1,"time":5,"distance":2029,"station_name":"Karet","is_transit":false,"i_long":106.816351},{"i_lat":-6.201433,"time":1,"is_transit":false,"line":1,"station_id":"SUDB","station_name":"Sudirman Baru","transit":false,"i_long":106.819881,"distance":471},{"i_long":106.822649,"transit":false,"line":1,"station_name":"Sudirman","i_lat":-6.202263,"distance":280,"is_transit":false,"time":1,"station_id":"SUD"},{"is_transit":false,"time":4,"station_id":"MRI","transit":false,"station_name":"Manggarai","distance":3186,"i_lat":-6.209883,"line":2,"i_long":106.84912},{"line":1,"station_id":"MTR","is_transit":false,"station_name":"Matraman","transit":false,"time":2,"i_long":106.858896,"distance":1275,"i_lat":-6.212485},{"distance":1377,"transit":true,"i_long":106.86807400000001,"line":1,"station_name":"Jatinegara","time":8,"is_transit":true,"i_lat":-6.215091,"station_id":"JNG"},{"time":2,"station_id":"POK","distance":1236,"line":11,"i_long":106.861737,"station_name":"Pondok Jati","is_transit":false,"i_lat":-6.209188,"transit":false},{"i_lat":-6.193792,"station_name":"Kramat","time":2,"line":11,"i_long":106.855437,"is_transit":false,"station_id":"KMT","transit":false,"distance":1829},{"line":11,"distance":973,"i_lat":-6.185975,"time":1,"station_id":"GST","transit":false,"station_name":"Gang Sentiong","is_transit":false,"i_long":106.850107},{"line":11,"transit":false,"station_name":"Pasar Senen","time":8,"station_id":"PSE","distance":1567,"is_transit":false,"i_lat":-6.174784,"i_long":106.84368}],[{"station_name":"Rawa Buaya","station_id":"RW","transit":false,"distance":0,"i_long":106.723064,"line":5,"time":0,"i_lat":-6.162758,"is_transit":false},{"station_id":"BOI","station_name":"Bojongindah","time":4,"line":5,"i_long":106.737035,"is_transit":false,"transit":false,"distance":1152,"i_lat":-6.159876},{"i_long":106.756522,"i_lat":-6.1587309999999995,"line":5,"distance":2334,"time":2,"station_name":"Taman Kota","station_id":"TKO","is_transit":false,"transit":false},{"line":5,"time":2,"distance":1614,"station_id":"PSG","i_long":106.771379,"is_transit":false,"station_name":"Pesing","transit":false,"i_lat":-6.161433},{"station_id":"GGL","transit":false,"station_name":"Grogol","time":2,"line":5,"is_transit":false,"i_lat":-6.162021,"distance":2036,"i_long":106.788277},{"distance":1700,"i_long":106.800832,"transit":true,"time":3,"station_name":"Duri","line":1,"i_lat":-6.155215,"is_transit":true,"station_id":"DU"},{"i_lat":-6.144674,"is_transit":false,"station_id":"AK","time":4,"station_name":"Angke","transit":false,"distance":1230,"i_long":106.79867,"line":1},{"line":4,"is_transit":true,"station_id":"KPB","time":9,"station_name":"Kampung Bandan","distance":4102,"i_long":106.826365,"i_lat":-6.132549,"transit":true},{"time":3,"station_id":"JAKK","is_transit":true,"i_lat":-6.137569,"distance":1364,"i_long":106.812439,"line":2,"station_name":"Jakarta Kota","transit":true},{"line":2,"station_id":"JAY","distance":1264,"station_name":"Jayakarta","i_lat":-6.141205,"time":4,"i_long":106.820901,"is_transit":false,"transit":false},{"transit":false,"is_transit":false,"i_long":106.82482,"station_name":"Manggabesar","station_id":"MGB","distance":1080,"i_lat":-6.149769,"time":2,"line":2},{"i_lat":-6.160725,"time":2,"station_id":"SW","station_name":"Sawah Besar","i_long":106.827103,"is_transit":false,"distance":906,"line":2,"transit":false},{"time":2,"distance":1149,"line":2,"i_long":106.828284,"transit":false,"i_lat":-6.166716,"station_id":"JUA","is_transit":false,"station_name":"Juanda"},{"i_long":106.832183,"station_id":"GDD","i_lat":-6.186295,"time":4,"line":2,"transit":false,"distance":2015,"is_transit":false,"station_name":"Gondangdia"},{"station_id":"CKI","transit":false,"distance":1750,"i_lat":-6.198556,"time":3,"line":2,"station_name":"Cikini","is_transit":false,"i_long":106.840169},{"line":2,"i_lat":-6.209883,"is_transit":true,"transit":true,"time":4,"station_id":"MRI","distance":1590,"i_long":106.84912,"station_name":"Manggarai"},{"line":1,"i_long":106.858896,"time":2,"transit":false,"distance":1275,"i_lat":-6.212485,"station_id":"MTR","is_transit":false,"station_name":"Matraman"},{"transit":true,"is_transit":true,"i_lat":-6.215091,"i_long":106.86807400000001,"line":1,"station_name":"Jatinegara","distance":1377,"station_id":"JNG","time":8},{"transit":false,"station_name":"Pondok Jati","i_long":106.861737,"station_id":"POK","is_transit":false,"time":2,"i_lat":-6.209188,"line":11,"distance":1236},{"time":2,"i_lat":-6.193792,"i_long":106.855437,"station_id":"KMT","distance":1829,"station_name":"Kramat","line":11,"transit":false,"is_transit":false},{"i_lat":-6.185975,"distance":973,"station_name":"Gang Sentiong","transit":false,"is_transit":false,"i_long":106.850107,"station_id":"GST","line":11,"time":1},{"station_id":"PSE","time":8,"station_name":"Pasar Senen","transit":false,"i_long":106.84368,"i_lat":-6.174784,"distance":1567,"line":11,"is_transit":false}],[{"station_id":"RW","is_transit":false,"station_name":"Rawa Buaya","i_lat":-6.162758,"time":0,"transit":false,"distance":0,"i_long":106.723064,"line":5},{"is_transit":false,"i_lat":-6.159876,"distance":1152,"station_id":"BOI","time":4,"transit":false,"station_name":"Bojongindah","i_long":106.737035,"line":5},{"is_transit":false,"line":5,"station_id":"TKO","time":2,"distance":2334,"i_long":106.756522,"i_lat":-6.1587309999999995,"transit":false,"station_name":"Taman Kota"},{"is_transit":false,"transit":false,"line":5,"i_long":106.771379,"distance":1614,"station_id":"PSG","station_name":"Pesing","i_lat":-6.161433,"time":2},{"station_name":"Grogol","station_id":"GGL","transit":false,"i_lat":-6.162021,"is_transit":false,"i_long":106.788277,"time":2,"distance":2036,"line":5},{"i_lat":-6.155215,"station_id":"DU","line":1,"is_transit":true,"station_name":"Duri","distance":1700,"i_long":106.800832,"time":3,"transit":true},{"line":1,"station_name":"Tanah Abang","station_id":"THB","i_lat":-6.185545,"is_transit":false,"transit":false,"time":8,"distance":3632,"i_long":106.811091},{"transit":false,"i_lat":-6.20132,"station_name":"Karet","time":5,"i_long":106.816351,"line":1,"station_id":"KAT","is_transit":false,"distance":2029},{"distance":471,"transit":false,"line":1,"is_transit":false,"time":1,"station_id":"SUDB","i_lat":-6.201433,"i_long":106.819881,"station_name":"Sudirman Baru"},{"transit":false,"is_transit":false,"station_name":"Sudirman","distance":280,"i_long":106.822649,"i_lat":-6.202263,"station_id":"SUD","time":1,"line":1},{"is_transit":true,"time":4,"transit":true,"station_name":"Manggarai","line":2,"station_id":"MRI","distance":3186,"i_long":106.84912,"i_lat":-6.209883},{"time":4,"transit":false,"distance":1590,"i_long":106.840169,"station_name":"Cikini","station_id":"CKI","line":2,"is_transit":false,"i_lat":-6.198556},{"is_transit":false,"time":3,"i_long":106.832183,"transit":false,"line":2,"i_lat":-6.186295,"distance":1750,"station_name":"Gondangdia","station_id":"GDD"},{"i_long":106.828284,"transit":false,"station_name":"Juanda","station_id":"JUA","i_lat":-6.166716,"is_transit":false,"distance":2015,"time":4,"line":2},{"i_lat":-6.160725,"i_long":106.827103,"line":2,"distance":1149,"transit":false,"station_id":"SW","station_name":"Sawah Besar","is_transit":false,"time":2},{"i_lat":-6.149769,"station_id":"MGB","station_name":"Manggabesar","transit":false,"is_transit":false,"distance":906,"i_long":106.82482,"line":2,"time":2},{"station_name":"Jayakarta","is_transit":false,"line":2,"time":2,"station_id":"JAY","transit":false,"distance":1080,"i_lat":-6.141205,"i_long":106.820901},{"transit":true,"station_name":"Jakarta Kota","station_id":"JAKK","distance":1264,"time":4,"is_transit":true,"line":2,"i_lat":-6.137569,"i_long":106.812439},{"line":4,"station_id":"KPB","distance":1364,"is_transit":true,"time":3,"transit":true,"i_lat":-6.132549,"i_long":106.826365,"station_name":"Kampung Bandan"},{"i_lat":-6.14505,"station_id":"RJW","transit":false,"station_name":"Rajawali","i_long":106.836569,"time":3,"line":11,"is_transit":false,"distance":1444},{"time":5,"is_transit":false,"i_long":106.839204,"transit":false,"distance":1901,"i_lat":-6.161728,"line":11,"station_name":"Kemayoran","station_id":"KMO"},{"is_transit":false,"station_id":"PSE","i_lat":-6.174784,"transit":false,"i_long":106.84368,"line":11,"time":4,"station_name":"Pasar Senen","distance":1436}]]}