{"data":[[{"is_transit":false,"station_name":"Rawa Buaya","time":0,"distance":0,"i_lat":-6.162758,"transit":false,"i_long":106.723064,"station_id":"RW","line":5},{"is_transit":false,"line":5,"time":4,"station_id":"BOI","station_name":"Bojongindah","transit":false,"i_lat":-6.159876,"i_long":106.737035,"distance":1152},{"station_name":"Taman Kota","i_lat":-6.1587309999999995,"i_long":106.756522,"station_id":"TKO","transit":false,"line":5,"time":2,"is_transit":false,"distance":2334},{"time":2,"is_transit":false,"i_lat":-6.161433,"i_long":106.771379,"transit":false,"line":5,"station_id":"PSG","station_name":"Pesing","distance":1614},{"station_name":"Grogol","i_lat":-6.162021,"is_transit":false,"distance":2036,"time":2,"line":5,"transit":false,"station_id":"GGL","i_long":106.788277},{"line":1,"station_name":"Duri","i_lat":-6.155215,"distance":1700,"transit":true,"station_id":"DU","time":3,"i_long":106.800832,"is_transit":true},{"i_lat":-6.185545,"distance":3632,"station_name":"Tanah Abang","transit":false,"i_long":106.811091,"line":1,"station_id":"THB","is_transit":false,"time":8},{"is_transit":false,"transit":false,"i_lat":-6.20132,"i_long":106.816351,"distance":2029,"station_id":"KAT","station_name":"Karet","time":5,"line":1},{"line":1,"distance":471,"station_name":"Sudirman Baru","is_transit":false,"time":1,"i_lat":-6.201433,"i_long":106.819881,"transit":false,"station_id":"SUDB"},{"i_long":106.822649,"station_id":"SUD","time":1,"transit":false,"station_name":"Sudirman","line":1,"distance":280,"i_lat":-6.202263,"is_transit":false},{"time":4,"station_name":"Manggarai","is_transit":true,"transit":true,"station_id":"MRI","i_lat":-6.209883,"distance":3186,"i_long":106.84912,"line":2},{"distance":2610,"i_long":106.857948,"station_name":"Tebet","is_transit":false,"station_id":"TEB","time":4,"i_lat":-6.226659,"transit":false,"line":2},{"distance":1230,"station_name":"Cawang","is_transit":false,"line":2,"i_long":106.856607,"transit":false,"i_lat":-6.242512,"time":2,"station_id":"CW"},{"is_transit":false,"station_id":"DRN","i_lat":-6.255332,"station_name":"Duren Kalibata","transit":false,"time":3,"distance":1546,"i_long":106.85449,"line":2},{"line":2,"station_id":"PSMB","distance":824,"i_long":106.851577,"is_transit":false,"transit":false,"i_lat":-6.263214,"time":2,"station_name":"Pasar Minggu Baru"}],[{"i_lat":-6.162758,"station_id":"RW","transit":false,"station_name":"Rawa Buaya","time":0,"is_transit":false,"distance":0,"i_long":106.723064,"line":5},{"line":5,"time":4,"i_long":106.737035,"station_name":"Bojongindah","station_id":"BOI","distance":1152,"is_transit":false,"transit":false,"i_lat":-6.159876},{"is_transit":false,"station_name":"Taman Kota","line":5,"transit":false,"distance":2334,"i_long":106.756522,"time":2,"station_id":"TKO","i_lat":-6.1587309999999995},{"station_id":"PSG","is_transit":false,"i_long":106.771379,"time":2,"transit":false,"distance":1614,"station_name":"Pesing","i_lat":-6.161433,"line":5},{"line":5,"is_transit":false,"time":2,"station_name":"Grogol","station_id":"GGL","i_long":106.788277,"distance":2036,"i_lat":-6.162021,"transit":false},{"station_name":"Duri","transit":true,"station_id":"DU","is_transit":true,"line":1,"i_lat":-6.155215,"time":3,"distance":1700,"i_long":106.800832},{"i_lat":-6.144674,"i_long":106.79867,"time":4,"is_transit":false,"distance":1230,"line":1,"station_id":"AK","transit":false,"station_name":"Angke"},{"i_lat":-6.132549,"is_transit":true,"station_id":"KPB","i_long":106.826365,"distance":4102,"line":4,"station_name":"Kampung Bandan","transit":true,"time":9},{"i_long":106.812439,"transit":true,"distance":1364,"station_name":"Jakarta Kota","time":3,"i_lat":-6.137569,"is_transit":true,"line":2,"station_id":"JAKK"},{"distance":1264,"station_name":"Jayakarta","i_lat":-6.141205,"station_id":"JAY","line":2,"transit":false,"time":4,"i_long":106.820901,"is_transit":false},{"transit":false,"i_long":106.82482,"is_transit":false,"time":2,"station_name":"Manggabesar","distance":1080,"line":2,"i_lat":-6.149769,"station_id":"MGB"},{"station_name":"Sawah Besar","station_id":"SW","i_long":106.827103,"distance":906,"transit":false,"is_transit":false,"line":2,"time":2,"i_lat":-6.160725},{"time":2,"distance":1149,"i_lat":-6.166716,"i_long":106.828284,"station_name":"Juanda","station_id":"JUA","transit":false,"is_transit":false,"line":2},{"station_name":"Gondangdia","line":2,"is_transit":false,"i_lat":-6.186295,"i_long":106.832183,"transit":false,"time":4,"station_id":"GDD","distance":2015},{"time":3,"distance":1750,"i_lat":-6.198556,"line":2,"is_transit":false,"station_name":"Cikini","i_long":106.840169,"station_id":"CKI","transit":false},{"station_id":"MRI","i_long":106.84912,"station_name":"Manggarai","i_lat":-6.209883,"distance":1590,"time":4,"transit":false,"is_transit":false,"line":2},{"line":2,"is_transit":false,"i_long":106.857948,"station_id":"TEB","station_name":"Tebet","distance":2610,"i_lat":-6.226659,"transit":false,"time":4},{"i_lat":-6.242512,"distance":1230,"transit":false,"is_transit":false,"i_long":106.856607,"time":2,"station_name":"Cawang","station_id":"CW","line":2},{"i_lat":-6.255332,"line":2,"time":3,"station_name":"Duren Kalibata","transit":false,"i_long":106.85449,"distance":1546,"is_transit":false,"station_id":"DRN"},{"line":2,"time":2,"station_name":"Pasar Minggu Baru","station_id":"PSMB","i_lat":-6.263214,"i_long":106.851577,"distance":824,"transit":false,"is_transit":false}],[{"distance":0,"station_id":"RW","i_lat":-6.162758,"line":5,"time":0,"station_name":"Rawa Buaya","i_long":106.723064,"transit":false,"is_transit":false},{"time":4,"is_transit":false,"i_lat":-6.159876,"transit":false,"distance":1152,"station_id":"BOI","station_name":"Bojongindah","line":5,"i_long":106.737035},{"i_lat":-6.1587309999999995,"station_name":"Taman Kota","distance":2334,"time":2,"transit":false,"is_transit":false,"station_id":"TKO","i_long":106.756522,"line":5},{"distance":1614,"i_long":106.771379,"line":5,"time":2,"is_transit":false,"transit":false,"i_lat":-6.161433,"station_name":"Pesing","station_id":"PSG"},{"line":5,"distance":2036,"station_name":"Grogol","station_id":"GGL","time":2,"i_lat":-6.162021,"transit":false,"is_transit":false,"i_long":106.788277},{"time":3,"i_lat":-6.155215,"line":1,"i_long":106.800832,"station_name":"Duri","is_transit":true,"transit":true,"station_id":"DU","distance":1700},{"i_lat":-6.144674,"is_transit":false,"station_name":"Angke","i_long":106.79867,"time":4,"distance":1230,"station_id":"AK","transit":false,"line":1},{"station_id":"KPB","i_long":106.826365,"i_lat":-6.132549,"is_transit":true,"time":9,"line":4,"station_name":"Kampung Bandan","transit":true,"distance":4102},{"station_name":"Rajawali","i_lat":-6.14505,"transit":false,"i_long":106.836569,"distance":1444,"is_transit":false,"station_id":"RJW","time":3,"line":11},{"transit":false,"i_long":106.839204,"distance":1901,"is_transit":false,"line":11,"station_name":"Kemayoran","i_lat":-6.161728,"time":5,"station_id":"KMO"},{"distance":1436,"transit":false,"time":4,"station_name":"Pasar Senen","i_long":106.84368,"station_id":"PSE","line":11,"is_transit":false,"i_lat":-6.174784},{"distance":1567,"station_id":"GST","is_transit":false,"line":11,"station_name":"Gang Sentiong","i_long":106.850107,"transit":false,"time":8,"i_lat":-6.185975},{"time":1,"station_name":"Kramat","distance":973,"i_long":106.855437,"is_transit":false,"i_lat":-6.193792,"line":11,"transit":false,"station_id":"KMT"},{"line":11,"distance":1829,"station_id":"POK","time":2,"station_name":"Pondok Jati","i_lat":-6.209188,"i_long":106.861737,"transit":false,"is_transit":false},{"i_long":106.86807400000001,"is_transit":true,"station_id":"JNG","distance":1236,"transit":true,"time":9,"station_name":"Jatinegara","i_lat":-6.215091,"line":1},{"station_name":"Matraman","time":2,"distance":1377,"line":1,"transit":false,"station_id":"MTR","i_long":106.858896,"i_lat":-6.212485,"is_transit":false},{"station_name":"Manggarai","distance":1275,"station_id":"MRI","i_lat":-6.209883,"i_long":106.84912,"line":2,"transit":true,"is_transit":true,"time":2},{"is_transit":false,"time":4,"transit":false,"i_long":106.857948,"line":2,"i_lat":-6.226659,"distance":2610,"station_id":"TEB","station_name":"Tebet"},{"line":2,"transit":false,"is_transit":false,"time":2,"i_long":106.856607,"i_lat":-6.242512,"distance":1230,"station_name":"Cawang","station_id":"CW"},{"station_name":"Duren Kalibata","time":3,"transit":false,"i_long":106.85449,"distance":1546,"line":2,"i_lat":-6.255332,"station_id":"DRN","is_transit":false},{"distance":824,"is_transit":false,"i_long":106.851577,"station_id":"PSMB","transit":false,"station_name":"Pasar Minggu Baru","time":2,"line":2,"i_lat":-6.263214}]]}