{"data":[[{"is_transit":false,"station_id":"RW","station_name":"Rawa Buaya","line":5,"transit":false,"i_lat":-6.162758,"i_long":106.723064,"time":0,"distance":0},{"i_long":106.737035,"is_transit":false,"i_lat":-6.159876,"distance":1152,"transit":false,"station_name":"Bojongindah","line":5,"time":4,"station_id":"BOI"},{"station_name":"Taman Kota","station_id":"TKO","i_long":106.756522,"i_lat":-6.1587309999999995,"line":5,"transit":false,"time":2,"is_transit":false,"distance":2334},{"is_transit":false,"i_lat":-6.161433,"i_long":106.771379,"line":5,"time":2,"distance":1614,"transit":false,"station_name":"Pesing","station_id":"PSG"},{"station_name":"Grogol","line":5,"transit":false,"distance":2036,"is_transit":false,"i_lat":-6.162021,"i_long":106.788277,"station_id":"GGL","time":2},{"line":1,"is_transit":true,"station_id":"DU","transit":true,"distance":1700,"station_name":"Duri","i_lat":-6.155215,"i_long":106.800832,"time":3},{"distance":3632,"transit":false,"i_long":106.811091,"line":1,"station_id":"THB","i_lat":-6.185545,"station_name":"Tanah Abang","is_transit":false,"time":8},{"i_lat":-6.20132,"station_id":"KAT","distance":2029,"time":5,"i_long":106.816351,"station_name":"Karet","is_transit":false,"transit":false,"line":1},{"i_long":106.819881,"transit":false,"is_transit":false,"line":1,"time":1,"station_id":"SUDB","distance":471,"station_name":"Sudirman Baru","i_lat":-6.201433},{"i_long":106.822649,"distance":280,"i_lat":-6.202263,"station_id":"SUD","transit":false,"is_transit":false,"time":1,"station_name":"Sudirman","line":1},{"time":4,"is_transit":true,"station_id":"MRI","station_name":"Manggarai","distance":3186,"line":2,"i_lat":-6.209883,"i_long":106.84912,"transit":true},{"i_long":106.857948,"line":2,"i_lat":-6.226659,"is_transit":false,"distance":2610,"station_name":"Tebet","transit":false,"time":4,"station_id":"TEB"},{"station_id":"CW","time":2,"i_long":106.856607,"line":2,"distance":1230,"transit":false,"is_transit":false,"i_lat":-6.242512,"station_name":"Cawang"},{"is_transit":false,"distance":1546,"line":2,"i_lat":-6.255332,"transit":false,"i_long":106.85449,"time":3,"station_id":"DRN","station_name":"Duren Kalibata"},{"line":2,"station_id":"PSMB","distance":824,"i_long":106.851577,"station_name":"Pasar Minggu Baru","transit":false,"is_transit":false,"time":2,"i_lat":-6.263214}],[{"distance":0,"time":0,"i_lat":-6.162758,"transit":false,"is_transit":false,"line":5,"station_id":"RW","station_name":"Rawa Buaya","i_long":106.723064},{"station_name":"Bojongindah","is_transit":false,"distance":1152,"time":4,"station_id":"BOI","transit":false,"line":5,"i_long":106.737035,"i_lat":-6.159876},{"i_long":106.756522,"transit":false,"i_lat":-6.1587309999999995,"station_id":"TKO","distance":2334,"time":2,"station_name":"Taman Kota","line":5,"is_transit":false},{"station_name":"Pesing","transit":false,"station_id":"PSG","distance":1614,"is_transit":false,"i_long":106.771379,"i_lat":-6.161433,"time":2,"line":5},{"distance":2036,"line":5,"station_name":"Grogol","i_lat":-6.162021,"time":2,"station_id":"GGL","transit":false,"is_transit":false,"i_long":106.788277},{"i_long":106.800832,"station_id":"DU","time":3,"transit":true,"is_transit":true,"distance":1700,"station_name":"Duri","i_lat":-6.155215,"line":1},{"time":4,"station_name":"Angke","i_long":106.79867,"station_id":"AK","is_transit":false,"distance":1230,"i_lat":-6.144674,"line":1,"transit":false},{"transit":true,"is_transit":true,"station_name":"Kampung Bandan","station_id":"KPB","time":9,"distance":4102,"i_long":106.826365,"i_lat":-6.132549,"line":4},{"station_name":"Jakarta Kota","time":3,"distance":1364,"is_transit":true,"i_lat":-6.137569,"line":2,"station_id":"JAKK","transit":true,"i_long":106.812439},{"i_long":106.820901,"station_name":"Jayakarta","station_id":"JAY","time":4,"i_lat":-6.141205,"is_transit":false,"distance":1264,"line":2,"transit":false},{"i_long":106.82482,"line":2,"transit":false,"station_id":"MGB","distance":1080,"station_name":"Manggabesar","is_transit":false,"time":2,"i_lat":-6.149769},{"station_name":"Sawah Besar","is_transit":false,"line":2,"time":2,"i_long":106.827103,"station_id":"SW","i_lat":-6.160725,"distance":906,"transit":false},{"distance":1149,"station_id":"JUA","station_name":"Juanda","i_long":106.828284,"transit":false,"i_lat":-6.166716,"time":2,"is_transit":false,"line":2},{"transit":false,"time":4,"distance":2015,"i_lat":-6.186295,"station_id":"GDD","is_transit":false,"station_name":"Gondangdia","i_long":106.832183,"line":2},{"i_lat":-6.198556,"is_transit":false,"transit":false,"time":3,"distance":1750,"i_long":106.840169,"line":2,"station_name":"Cikini","station_id":"CKI"},{"i_long":106.84912,"station_name":"Manggarai","line":2,"is_transit":false,"distance":1590,"i_lat":-6.209883,"time":4,"station_id":"MRI","transit":false},{"i_lat":-6.226659,"distance":2610,"transit":false,"line":2,"station_name":"Tebet","station_id":"TEB","time":4,"i_long":106.857948,"is_transit":false},{"i_lat":-6.242512,"i_long":106.856607,"transit":false,"station_id":"CW","line":2,"station_name":"Cawang","is_transit":false,"time":2,"distance":1230},{"station_name":"Duren Kalibata","line":2,"is_transit":false,"station_id":"DRN","distance":1546,"transit":false,"time":3,"i_lat":-6.255332,"i_long":106.85449},{"is_transit":false,"time":2,"station_id":"PSMB","distance":824,"line":2,"i_lat":-6.263214,"i_long":106.851577,"transit":false,"station_name":"Pasar Minggu Baru"}],[{"distance":0,"i_lat":-6.162758,"station_name":"Rawa Buaya","is_transit":false,"time":0,"transit":false,"station_id":"RW","i_long":106.723064,"line":5},{"station_name":"Bojongindah","i_long":106.737035,"station_id":"BOI","distance":1152,"transit":false,"is_transit":false,"time":4,"i_lat":-6.159876,"line":5},{"i_lat":-6.1587309999999995,"time":2,"line":5,"station_name":"Taman Kota","station_id":"TKO","is_transit":false,"i_long":106.756522,"transit":false,"distance":2334},{"i_lat":-6.161433,"transit":false,"station_name":"Pesing","i_long":106.771379,"line":5,"time":2,"station_id":"PSG","distance":1614,"is_transit":false},{"station_name":"Grogol","i_lat":-6.162021,"i_long":106.788277,"transit":false,"station_id":"GGL","line":5,"distance":2036,"time":2,"is_transit":false},{"transit":true,"station_name":"Duri","distance":1700,"station_id":"DU","i_lat":-6.155215,"i_long":106.800832,"line":1,"is_transit":true,"time":3},{"transit":false,"i_long":106.79867,"distance":1230,"station_name":"Angke","time":4,"is_transit":false,"i_lat":-6.144674,"line":1,"station_id":"AK"},{"time":9,"station_name":"Kampung Bandan","station_id":"KPB","is_transit":true,"i_long":106.826365,"i_lat":-6.132549,"transit":true,"distance":4102,"line":4},{"station_name":"Rajawali","distance":1444,"i_lat":-6.14505,"line":11,"i_long":106.836569,"transit":false,"time":3,"station_id":"RJW","is_transit":false},{"i_lat":-6.161728,"transit":false,"station_name":"Kemayoran","is_transit":false,"time":5,"station_id":"KMO","distance":1901,"i_long":106.839204,"line":11},{"station_id":"PSE","distance":1436,"i_lat":-6.174784,"line":11,"time":4,"transit":false,"i_long":106.84368,"station_name":"Pasar Senen","is_transit":false},{"transit":false,"station_id":"GST","station_name":"Gang Sentiong","time":8,"distance":1567,"i_lat":-6.185975,"i_long":106.850107,"line":11,"is_transit":false},{"line":11,"i_long":106.855437,"station_name":"Kramat","distance":973,"i_lat":-6.193792,"is_transit":false,"transit":false,"time":1,"station_id":"KMT"},{"transit":false,"time":2,"distance":1829,"station_id":"POK","line":11,"is_transit":false,"i_long":106.861737,"station_name":"Pondok Jati","i_lat":-6.209188},{"station_name":"Jatinegara","time":9,"i_lat":-6.215091,"i_long":106.86807400000001,"line":1,"transit":true,"is_transit":true,"distance":1236,"station_id":"JNG"},{"is_transit":false,"distance":1377,"i_long":106.858896,"station_id":"MTR","time":2,"line":1,"i_lat":-6.212485,"station_name":"Matraman","transit":false},{"transit":true,"station_id":"MRI","time":2,"i_long":106.84912,"line":2,"is_transit":true,"distance":1275,"i_lat":-6.209883,"station_name":"Manggarai"},{"i_lat":-6.226659,"time":4,"station_name":"Tebet","line":2,"i_long":106.857948,"transit":false,"station_id":"TEB","is_transit":false,"distance":2610},{"line":2,"time":2,"distance":1230,"is_transit":false,"i_long":106.856607,"station_name":"Cawang","station_id":"CW","i_lat":-6.242512,"transit":false},{"station_id":"DRN","time":3,"station_name":"Duren Kalibata","is_transit":false,"i_long":106.85449,"line":2,"distance":1546,"transit":false,"i_lat":-6.255332},{"i_lat":-6.263214,"i_long":106.851577,"line":2,"is_transit":false,"time":2,"transit":false,"station_name":"Pasar Minggu Baru","station_id":"PSMB","distance":824}]]}