{"data":[[{"line":5,"transit":false,"station_name":"Rawa Buaya","station_id":"RW","i_long":106.723064,"time":0,"distance":0,"i_lat":-6.162758,"is_transit":false},{"transit":false,"time":4,"line":0,"is_transit":false,"distance":1152,"i_lat":-6.159876,"i_long":106.737035,"station_name":"Bojongindah","station_id":"BOI"},{"line":5,"distance":2334,"station_name":"Taman Kota","time":2,"transit":false,"i_long":106.756522,"station_id":"TKO","is_transit":false,"i_lat":-6.1587309999999995},{"i_lat":-6.161433,"distance":1614,"is_transit":false,"time":2,"station_name":"Pesing","i_long":106.771379,"line":5,"station_id":"PSG","transit":false},{"transit":false,"time":2,"station_id":"GGL","line":5,"distance":2036,"is_transit":false,"station_name":"Grogol","i_lat":-6.162021,"i_long":106.788277},{"i_long":106.800832,"station_id":"DU","i_lat":-6.155215,"line":1,"transit":true,"station_name":"Duri","is_transit":true,"time":3,"distance":1700},{"line":0,"distance":1230,"is_transit":false,"station_id":"AK","transit":false,"i_long":106.79867,"time":4,"i_lat":-6.144674,"station_name":"Angke"},{"i_long":106.826365,"station_id":"KPB","line":0,"station_name":"Kampung Bandan","distance":4102,"is_transit":true,"time":9,"i_lat":-6.132549,"transit":true},{"distance":1444,"i_lat":-6.14505,"transit":false,"time":3,"is_transit":false,"i_long":106.836569,"line":11,"station_id":"RJW","station_name":"Rajawali"},{"station_id":"KMO","transit":false,"station_name":"Kemayoran","i_lat":-6.161728,"distance":1901,"line":11,"time":5,"is_transit":false,"i_long":106.839204},{"station_id":"PSE","i_long":106.84368,"line":11,"time":4,"i_lat":-6.174784,"transit":false,"is_transit":false,"station_name":"Pasar Senen","distance":1436}],[{"line":5,"is_transit":false,"distance":0,"station_id":"RW","station_name":"Rawa Buaya","transit":false,"time":0,"i_lat":-6.162758,"i_long":106.723064},{"line":0,"station_id":"BOI","station_name":"Bojongindah","transit":false,"time":4,"i_lat":-6.159876,"distance":1152,"is_transit":false,"i_long":106.737035},{"distance":2334,"i_long":106.756522,"line":5,"station_name":"Taman Kota","time":2,"i_lat":-6.1587309999999995,"station_id":"TKO","is_transit":false,"transit":false},{"station_id":"PSG","is_transit":false,"transit":false,"distance":1614,"time":2,"line":5,"i_lat":-6.161433,"i_long":106.771379,"station_name":"Pesing"},{"i_long":106.788277,"line":5,"is_transit":false,"distance":2036,"station_name":"Grogol","i_lat":-6.162021,"station_id":"GGL","time":2,"transit":false},{"i_long":106.800832,"distance":1700,"station_id":"DU","is_transit":true,"time":3,"i_lat":-6.155215,"transit":true,"line":1,"station_name":"Duri"},{"time":8,"station_name":"Tanah Abang","i_lat":-6.185545,"line":1,"i_long":106.811091,"is_transit":true,"transit":false,"distance":3632,"station_id":"THB"},{"distance":2029,"station_id":"KAT","i_long":106.816351,"time":5,"line":1,"station_name":"Karet","transit":false,"is_transit":false,"i_lat":-6.20132},{"transit":false,"station_id":"SUDB","time":1,"distance":471,"is_transit":false,"line":1,"i_lat":-6.201433,"i_long":106.819881,"station_name":"Sudirman Baru"},{"is_transit":false,"station_name":"Sudirman","i_lat":-6.202263,"station_id":"SUD","time":1,"i_long":106.822649,"transit":false,"line":1,"distance":280},{"transit":false,"station_name":"Manggarai","is_transit":true,"i_long":106.84912,"distance":3186,"time":4,"station_id":"MRI","i_lat":-6.209883,"line":0},{"station_id":"MTR","transit":false,"station_name":"Matraman","line":1,"time":2,"i_long":106.858896,"is_transit":false,"i_lat":-6.212485,"distance":1275},{"station_id":"JNG","transit":true,"time":8,"line":0,"i_long":106.86807400000001,"is_transit":true,"station_name":"Jatinegara","distance":1377,"i_lat":-6.215091},{"transit":false,"i_long":106.861737,"line":11,"station_id":"POK","station_name":"Pondok Jati","i_lat":-6.209188,"time":2,"is_transit":false,"distance":1236},{"line":11,"distance":1829,"i_lat":-6.193792,"transit":false,"is_transit":false,"time":2,"station_name":"Kramat","i_long":106.855437,"station_id":"KMT"},{"line":11,"station_id":"GST","transit":false,"i_lat":-6.185975,"i_long":106.850107,"is_transit":false,"time":1,"station_name":"Gang Sentiong","distance":973},{"transit":false,"time":8,"i_lat":-6.174784,"line":11,"i_long":106.84368,"distance":1567,"is_transit":false,"station_id":"PSE","station_name":"Pasar Senen"}],[{"line":5,"i_long":106.723064,"station_id":"RW","transit":false,"distance":0,"station_name":"Rawa Buaya","time":0,"i_lat":-6.162758,"is_transit":false},{"time":4,"station_id":"BOI","i_long":106.737035,"i_lat":-6.159876,"station_name":"Bojongindah","line":0,"distance":1152,"is_transit":false,"transit":false},{"is_transit":false,"time":2,"line":5,"i_long":106.756522,"station_name":"Taman Kota","distance":2334,"i_lat":-6.1587309999999995,"transit":false,"station_id":"TKO"},{"i_lat":-6.161433,"distance":1614,"transit":false,"station_id":"PSG","station_name":"Pesing","i_long":106.771379,"line":5,"time":2,"is_transit":false},{"distance":2036,"is_transit":false,"station_name":"Grogol","transit":false,"time":2,"i_lat":-6.162021,"i_long":106.788277,"station_id":"GGL","line":5},{"line":1,"is_transit":true,"station_name":"Duri","i_lat":-6.155215,"i_long":106.800832,"station_id":"DU","time":3,"distance":1700,"transit":true},{"i_lat":-6.144674,"distance":1230,"line":0,"i_long":106.79867,"station_id":"AK","transit":false,"is_transit":false,"time":4,"station_name":"Angke"},{"i_long":106.826365,"line":0,"transit":false,"is_transit":true,"station_name":"Kampung Bandan","station_id":"KPB","distance":4102,"time":9,"i_lat":-6.132549},{"station_id":"JAKK","transit":true,"i_lat":-6.137569,"time":3,"i_long":106.812439,"is_transit":true,"line":0,"distance":1364,"station_name":"Jakarta Kota"},{"is_transit":false,"station_name":"Jayakarta","time":4,"distance":1264,"station_id":"JAY","transit":false,"i_lat":-6.141205,"i_long":106.820901,"line":7},{"station_id":"MGB","time":2,"line":2,"station_name":"Manggabesar","is_transit":false,"i_lat":-6.149769,"transit":false,"i_long":106.82482,"distance":1080},{"i_long":106.827103,"is_transit":false,"distance":906,"station_id":"SW","station_name":"Sawah Besar","transit":false,"line":2,"i_lat":-6.160725,"time":2},{"station_id":"JUA","i_long":106.828284,"distance":1149,"station_name":"Juanda","time":2,"transit":false,"i_lat":-6.166716,"line":2,"is_transit":false},{"i_lat":-6.186295,"is_transit":false,"time":4,"station_id":"GDD","station_name":"Gondangdia","line":2,"distance":2015,"i_long":106.832183,"transit":false},{"line":0,"is_transit":false,"station_name":"Cikini","distance":1750,"transit":false,"i_lat":-6.198556,"station_id":"CKI","time":3,"i_long":106.840169},{"time":4,"i_long":106.84912,"line":0,"station_id":"MRI","station_name":"Manggarai","transit":true,"i_lat":-6.209883,"is_transit":true,"distance":1590},{"i_lat":-6.212485,"station_id":"MTR","station_name":"Matraman","i_long":106.858896,"line":1,"distance":1275,"transit":false,"time":2,"is_transit":false},{"station_name":"Jatinegara","i_long":106.86807400000001,"is_transit":true,"i_lat":-6.215091,"transit":true,"time":8,"line":0,"station_id":"JNG","distance":1377},{"is_transit":false,"station_name":"Pondok Jati","i_long":106.861737,"distance":1236,"transit":false,"time":2,"station_id":"POK","line":11,"i_lat":-6.209188},{"transit":false,"station_id":"KMT","station_name":"Kramat","distance":1829,"is_transit":false,"time":2,"i_lat":-6.193792,"i_long":106.855437,"line":11},{"i_long":106.850107,"is_transit":false,"station_name":"Gang Sentiong","line":11,"transit":false,"distance":973,"time":1,"i_lat":-6.185975,"station_id":"GST"},{"i_lat":-6.174784,"transit":false,"i_long":106.84368,"distance":1567,"station_name":"Pasar Senen","time":8,"is_transit":false,"line":11,"station_id":"PSE"}],[{"station_name":"Rawa Buaya","transit":false,"time":0,"i_lat":-6.162758,"i_long":106.723064,"line":5,"station_id":"RW","is_transit":false,"distance":0},{"time":4,"is_transit":false,"station_name":"Bojongindah","line":0,"i_long":106.737035,"station_id":"BOI","distance":1152,"transit":false,"i_lat":-6.159876},{"transit":false,"i_lat":-6.1587309999999995,"time":2,"distance":2334,"station_name":"Taman Kota","i_long":106.756522,"station_id":"TKO","is_transit":false,"line":5},{"station_name":"Pesing","distance":1614,"station_id":"PSG","is_transit":false,"time":2,"i_long":106.771379,"i_lat":-6.161433,"transit":false,"line":5},{"station_id":"GGL","transit":false,"station_name":"Grogol","distance":2036,"line":5,"i_lat":-6.162021,"i_long":106.788277,"is_transit":false,"time":2},{"time":3,"i_lat":-6.155215,"line":1,"is_transit":true,"transit":true,"station_id":"DU","station_name":"Duri","i_long":106.800832,"distance":1700},{"time":8,"line":1,"distance":3632,"station_id":"THB","is_transit":true,"station_name":"Tanah Abang","transit":false,"i_long":106.811091,"i_lat":-6.185545},{"distance":2029,"station_id":"KAT","station_name":"Karet","time":5,"i_long":106.816351,"i_lat":-6.20132,"is_transit":false,"line":1,"transit":false},{"station_id":"SUDB","distance":471,"line":1,"station_name":"Sudirman Baru","time":1,"i_long":106.819881,"i_lat":-6.201433,"is_transit":false,"transit":false},{"station_name":"Sudirman","time":1,"i_long":106.822649,"line":1,"i_lat":-6.202263,"transit":false,"distance":280,"is_transit":false,"station_id":"SUD"},{"station_id":"MRI","is_transit":true,"distance":3186,"line":0,"time":4,"station_name":"Manggarai","transit":true,"i_lat":-6.209883,"i_long":106.84912},{"station_name":"Cikini","is_transit":false,"time":4,"transit":false,"i_lat":-6.198556,"line":0,"distance":1590,"i_long":106.840169,"station_id":"CKI"},{"transit":false,"i_lat":-6.186295,"station_id":"GDD","line":2,"station_name":"Gondangdia","time":3,"i_long":106.832183,"is_transit":false,"distance":1750},{"i_lat":-6.166716,"distance":2015,"time":4,"i_long":106.828284,"station_id":"JUA","station_name":"Juanda","line":2,"is_transit":false,"transit":false},{"station_name":"Sawah Besar","transit":false,"i_long":106.827103,"time":2,"line":2,"distance":1149,"i_lat":-6.160725,"station_id":"SW","is_transit":false},{"time":2,"station_name":"Manggabesar","i_lat":-6.149769,"is_transit":false,"i_long":106.82482,"distance":906,"line":2,"station_id":"MGB","transit":false},{"i_long":106.820901,"station_name":"Jayakarta","distance":1080,"i_lat":-6.141205,"station_id":"JAY","time":2,"transit":false,"line":7,"is_transit":false},{"station_name":"Jakarta Kota","time":4,"line":0,"is_transit":true,"distance":1264,"i_long":106.812439,"transit":true,"station_id":"JAKK","i_lat":-6.137569},{"station_id":"KPB","i_lat":-6.132549,"is_transit":true,"time":3,"station_name":"Kampung Bandan","i_long":106.826365,"line":0,"distance":1364,"transit":true},{"is_transit":false,"i_long":106.836569,"station_name":"Rajawali","station_id":"RJW","i_lat":-6.14505,"time":3,"line":11,"transit":false,"distance":1444},{"station_name":"Kemayoran","transit":false,"station_id":"KMO","distance":1901,"time":5,"is_transit":false,"i_long":106.839204,"i_lat":-6.161728,"line":11},{"is_transit":false,"transit":false,"i_long":106.84368,"time":4,"station_name":"Pasar Senen","distance":1436,"i_lat":-6.174784,"line":11,"station_id":"PSE"}]]}