{"data":[[{"station_name":"Rawa Buaya","distance":0,"station_id":"RW","time":0,"transit":false,"i_lat":-6.162758,"is_transit":false,"line":5,"i_long":106.723064},{"transit":false,"time":4,"line":0,"station_id":"BOI","i_long":106.737035,"i_lat":-6.159876,"is_transit":false,"station_name":"Bojongindah","distance":1152},{"is_transit":false,"i_long":106.756522,"distance":2334,"line":5,"i_lat":-6.1587309999999995,"transit":false,"time":2,"station_id":"TKO","station_name":"Taman Kota"},{"station_id":"PSG","distance":1614,"is_transit":false,"i_lat":-6.161433,"line":5,"i_long":106.771379,"transit":false,"time":2,"station_name":"Pesing"},{"transit":false,"time":2,"distance":2036,"is_transit":false,"station_name":"Grogol","line":5,"i_lat":-6.162021,"station_id":"GGL","i_long":106.788277},{"station_name":"Duri","is_transit":true,"i_long":106.800832,"line":1,"transit":true,"station_id":"DU","distance":1700,"i_lat":-6.155215,"time":3},{"time":8,"distance":3632,"line":1,"station_id":"THB","transit":false,"i_lat":-6.185545,"i_long":106.811091,"is_transit":true,"station_name":"Tanah Abang"},{"i_lat":-6.20132,"transit":false,"line":1,"distance":2029,"station_id":"KAT","station_name":"Karet","i_long":106.816351,"is_transit":false,"time":5},{"transit":false,"line":1,"i_long":106.819881,"time":1,"distance":471,"is_transit":false,"i_lat":-6.201433,"station_id":"SUDB","station_name":"Sudirman Baru"},{"transit":false,"is_transit":false,"distance":280,"i_lat":-6.202263,"station_id":"SUD","station_name":"Sudirman","time":1,"line":1,"i_long":106.822649},{"distance":3186,"time":4,"i_lat":-6.209883,"is_transit":true,"line":0,"transit":true,"station_id":"MRI","i_long":106.84912,"station_name":"Manggarai"},{"station_name":"Tebet","transit":false,"distance":2610,"is_transit":false,"time":4,"i_lat":-6.226659,"i_long":106.857948,"line":2,"station_id":"TEB"},{"distance":1230,"time":2,"i_lat":-6.242512,"i_long":106.856607,"station_name":"Cawang","is_transit":false,"station_id":"CW","transit":false,"line":0},{"i_long":106.85449,"station_id":"DRN","i_lat":-6.255332,"station_name":"Duren Kalibata","transit":false,"line":0,"is_transit":false,"time":3,"distance":1546},{"station_name":"Pasar Minggu Baru","i_lat":-6.263214,"distance":824,"transit":false,"time":2,"i_long":106.851577,"is_transit":false,"station_id":"PSMB","line":2}],[{"i_lat":-6.162758,"i_long":106.723064,"line":5,"is_transit":false,"transit":false,"station_id":"RW","time":0,"station_name":"Rawa Buaya","distance":0},{"is_transit":false,"time":4,"station_name":"Bojongindah","i_lat":-6.159876,"station_id":"BOI","i_long":106.737035,"line":0,"transit":false,"distance":1152},{"is_transit":false,"transit":false,"i_long":106.756522,"line":5,"station_name":"Taman Kota","station_id":"TKO","i_lat":-6.1587309999999995,"time":2,"distance":2334},{"line":5,"transit":false,"i_lat":-6.161433,"is_transit":false,"station_id":"PSG","station_name":"Pesing","time":2,"i_long":106.771379,"distance":1614},{"distance":2036,"is_transit":false,"line":5,"i_long":106.788277,"station_id":"GGL","time":2,"i_lat":-6.162021,"station_name":"Grogol","transit":false},{"station_name":"Duri","distance":1700,"transit":true,"line":1,"station_id":"DU","is_transit":true,"time":3,"i_long":106.800832,"i_lat":-6.155215},{"distance":1230,"station_name":"Angke","is_transit":false,"transit":false,"time":4,"line":0,"station_id":"AK","i_long":106.79867,"i_lat":-6.144674},{"is_transit":true,"time":9,"i_long":106.826365,"i_lat":-6.132549,"station_id":"KPB","station_name":"Kampung Bandan","line":0,"distance":4102,"transit":false},{"distance":1364,"station_id":"JAKK","station_name":"Jakarta Kota","transit":true,"line":0,"time":3,"i_long":106.812439,"is_transit":true,"i_lat":-6.137569},{"transit":false,"line":7,"i_long":106.820901,"is_transit":false,"i_lat":-6.141205,"station_name":"Jayakarta","distance":1264,"time":4,"station_id":"JAY"},{"station_id":"MGB","time":2,"line":2,"distance":1080,"i_long":106.82482,"station_name":"Manggabesar","i_lat":-6.149769,"is_transit":false,"transit":false},{"station_name":"Sawah Besar","i_lat":-6.160725,"distance":906,"is_transit":false,"i_long":106.827103,"line":2,"station_id":"SW","transit":false,"time":2},{"time":2,"station_name":"Juanda","i_lat":-6.166716,"i_long":106.828284,"station_id":"JUA","line":2,"distance":1149,"is_transit":false,"transit":false},{"line":2,"distance":2015,"station_id":"GDD","i_lat":-6.186295,"time":4,"is_transit":false,"transit":false,"i_long":106.832183,"station_name":"Gondangdia"},{"station_id":"CKI","i_long":106.840169,"time":3,"is_transit":false,"station_name":"Cikini","transit":false,"line":0,"distance":1750,"i_lat":-6.198556},{"is_transit":true,"distance":1590,"time":4,"i_long":106.84912,"station_name":"Manggarai","transit":true,"station_id":"MRI","i_lat":-6.209883,"line":0},{"distance":2610,"line":2,"is_transit":false,"i_long":106.857948,"time":4,"station_id":"TEB","i_lat":-6.226659,"station_name":"Tebet","transit":false},{"station_name":"Cawang","transit":false,"is_transit":false,"i_lat":-6.242512,"i_long":106.856607,"station_id":"CW","time":2,"distance":1230,"line":0},{"station_id":"DRN","station_name":"Duren Kalibata","transit":false,"line":0,"is_transit":false,"i_long":106.85449,"i_lat":-6.255332,"time":3,"distance":1546},{"time":2,"station_name":"Pasar Minggu Baru","i_long":106.851577,"station_id":"PSMB","i_lat":-6.263214,"transit":false,"line":2,"distance":824,"is_transit":false}],[{"station_id":"RW","station_name":"Rawa Buaya","is_transit":false,"time":0,"distance":0,"transit":false,"i_long":106.723064,"line":5,"i_lat":-6.162758},{"distance":1152,"station_id":"BOI","time":4,"is_transit":false,"station_name":"Bojongindah","transit":false,"i_lat":-6.159876,"i_long":106.737035,"line":0},{"i_long":106.756522,"station_id":"TKO","transit":false,"time":2,"i_lat":-6.1587309999999995,"station_name":"Taman Kota","distance":2334,"is_transit":false,"line":5},{"transit":false,"line":5,"distance":1614,"i_long":106.771379,"is_transit":false,"station_id":"PSG","time":2,"i_lat":-6.161433,"station_name":"Pesing"},{"line":5,"distance":2036,"is_transit":false,"time":2,"station_id":"GGL","transit":false,"i_lat":-6.162021,"station_name":"Grogol","i_long":106.788277},{"time":3,"i_lat":-6.155215,"i_long":106.800832,"line":1,"distance":1700,"station_name":"Duri","station_id":"DU","is_transit":true,"transit":true},{"i_long":106.79867,"line":0,"distance":1230,"transit":false,"is_transit":false,"i_lat":-6.144674,"station_id":"AK","station_name":"Angke","time":4},{"is_transit":true,"distance":4102,"i_lat":-6.132549,"station_id":"KPB","line":0,"time":9,"transit":true,"i_long":106.826365,"station_name":"Kampung Bandan"},{"station_id":"RJW","station_name":"Rajawali","transit":false,"distance":1444,"i_lat":-6.14505,"is_transit":false,"time":3,"line":11,"i_long":106.836569},{"i_long":106.839204,"station_id":"KMO","distance":1901,"is_transit":false,"station_name":"Kemayoran","transit":false,"time":5,"i_lat":-6.161728,"line":11},{"transit":false,"i_long":106.84368,"line":11,"i_lat":-6.174784,"station_name":"Pasar Senen","station_id":"PSE","time":4,"is_transit":false,"distance":1436},{"is_transit":false,"station_id":"GST","time":8,"i_long":106.850107,"distance":1567,"station_name":"Gang Sentiong","transit":false,"i_lat":-6.185975,"line":11},{"station_id":"KMT","time":1,"line":11,"i_lat":-6.193792,"distance":973,"is_transit":false,"i_long":106.855437,"transit":false,"station_name":"Kramat"},{"time":2,"i_lat":-6.209188,"station_id":"POK","is_transit":false,"distance":1829,"line":11,"i_long":106.861737,"transit":false,"station_name":"Pondok Jati"},{"station_id":"JNG","station_name":"Jatinegara","transit":true,"distance":1236,"i_lat":-6.215091,"time":9,"i_long":106.86807400000001,"is_transit":true,"line":0},{"station_name":"Matraman","i_lat":-6.212485,"station_id":"MTR","time":2,"i_long":106.858896,"transit":false,"line":1,"distance":1377,"is_transit":false},{"station_name":"Manggarai","station_id":"MRI","is_transit":true,"time":2,"i_long":106.84912,"line":0,"distance":1275,"transit":true,"i_lat":-6.209883},{"distance":2610,"transit":false,"i_lat":-6.226659,"i_long":106.857948,"is_transit":false,"station_name":"Tebet","station_id":"TEB","line":2,"time":4},{"i_lat":-6.242512,"line":0,"distance":1230,"station_id":"CW","station_name":"Cawang","time":2,"transit":false,"i_long":106.856607,"is_transit":false},{"time":3,"is_transit":false,"station_id":"DRN","i_lat":-6.255332,"line":0,"distance":1546,"transit":false,"i_long":106.85449,"station_name":"Duren Kalibata"},{"line":2,"distance":824,"station_name":"Pasar Minggu Baru","transit":false,"time":2,"is_transit":false,"station_id":"PSMB","i_long":106.851577,"i_lat":-6.263214}]]}