{"data":[[{"is_transit":false,"i_long":106.723064,"station_name":"Rawa Buaya","i_lat":-6.162758,"station_id":"RW","time":0,"distance":0,"transit":false,"line":5},{"station_name":"Bojongindah","i_lat":-6.159876,"station_id":"BOI","is_transit":false,"line":5,"time":4,"distance":1152,"transit":false,"i_long":106.737035},{"distance":2334,"is_transit":false,"transit":false,"i_lat":-6.1587309999999995,"i_long":106.756522,"time":2,"line":5,"station_name":"Taman Kota","station_id":"TKO"},{"station_id":"PSG","time":2,"transit":false,"line":5,"is_transit":false,"i_lat":-6.161433,"i_long":106.771379,"distance":1614,"station_name":"Pesing"},{"is_transit":false,"i_long":106.788277,"line":5,"station_name":"Grogol","time":2,"distance":2036,"station_id":"GGL","transit":false,"i_lat":-6.162021},{"transit":true,"station_name":"Duri","i_lat":-6.155215,"i_long":106.800832,"distance":1700,"station_id":"DU","is_transit":true,"time":3,"line":1},{"station_name":"Angke","time":4,"distance":1230,"is_transit":false,"line":1,"transit":false,"i_long":106.79867,"station_id":"AK","i_lat":-6.144674},{"transit":true,"is_transit":true,"i_lat":-6.132549,"station_name":"Kampung Bandan","i_long":106.826365,"line":4,"station_id":"KPB","time":9,"distance":4102},{"i_lat":-6.14505,"time":3,"station_name":"Rajawali","transit":false,"is_transit":false,"i_long":106.836569,"line":11,"station_id":"RJW","distance":1444},{"is_transit":false,"i_long":106.839204,"time":5,"transit":false,"line":11,"i_lat":-6.161728,"distance":1901,"station_id":"KMO","station_name":"Kemayoran"},{"i_long":106.84368,"distance":1436,"is_transit":false,"line":11,"station_id":"PSE","i_lat":-6.174784,"transit":false,"time":4,"station_name":"Pasar Senen"}],[{"line":5,"transit":false,"station_id":"RW","i_long":106.723064,"distance":0,"is_transit":false,"station_name":"Rawa Buaya","time":0,"i_lat":-6.162758},{"station_name":"Bojongindah","transit":false,"station_id":"BOI","i_lat":-6.159876,"i_long":106.737035,"line":5,"distance":1152,"time":4,"is_transit":false},{"transit":false,"station_name":"Taman Kota","time":2,"line":5,"distance":2334,"is_transit":false,"i_lat":-6.1587309999999995,"i_long":106.756522,"station_id":"TKO"},{"station_id":"PSG","line":5,"i_long":106.771379,"i_lat":-6.161433,"station_name":"Pesing","time":2,"distance":1614,"transit":false,"is_transit":false},{"time":2,"distance":2036,"i_long":106.788277,"station_id":"GGL","transit":false,"i_lat":-6.162021,"is_transit":false,"line":5,"station_name":"Grogol"},{"line":1,"station_id":"DU","is_transit":true,"time":3,"i_lat":-6.155215,"station_name":"Duri","transit":true,"distance":1700,"i_long":106.800832},{"station_id":"THB","is_transit":false,"i_long":106.811091,"station_name":"Tanah Abang","distance":3632,"i_lat":-6.185545,"time":8,"line":1,"transit":false},{"station_id":"KAT","station_name":"Karet","distance":2029,"i_lat":-6.20132,"line":1,"time":5,"i_long":106.816351,"is_transit":false,"transit":false},{"is_transit":false,"time":1,"transit":false,"distance":471,"station_name":"Sudirman Baru","line":1,"i_long":106.819881,"i_lat":-6.201433,"station_id":"SUDB"},{"transit":false,"i_lat":-6.202263,"line":1,"time":1,"i_long":106.822649,"station_id":"SUD","station_name":"Sudirman","is_transit":false,"distance":280},{"transit":false,"i_long":106.84912,"is_transit":false,"distance":3186,"i_lat":-6.209883,"station_name":"Manggarai","station_id":"MRI","line":2,"time":4},{"transit":false,"i_lat":-6.212485,"is_transit":false,"station_name":"Matraman","time":2,"station_id":"MTR","distance":1275,"line":1,"i_long":106.858896},{"i_lat":-6.215091,"transit":true,"distance":1377,"station_id":"JNG","time":8,"is_transit":true,"i_long":106.86807400000001,"station_name":"Jatinegara","line":1},{"i_long":106.861737,"station_name":"Pondok Jati","station_id":"POK","is_transit":false,"line":11,"transit":false,"i_lat":-6.209188,"time":2,"distance":1236},{"is_transit":false,"line":11,"i_lat":-6.193792,"transit":false,"station_name":"Kramat","i_long":106.855437,"station_id":"KMT","time":2,"distance":1829},{"line":11,"is_transit":false,"station_name":"Gang Sentiong","transit":false,"distance":973,"i_lat":-6.185975,"time":1,"i_long":106.850107,"station_id":"GST"},{"i_long":106.84368,"station_name":"Pasar Senen","station_id":"PSE","distance":1567,"is_transit":false,"time":8,"i_lat":-6.174784,"line":11,"transit":false}],[{"transit":false,"station_id":"RW","line":5,"i_long":106.723064,"is_transit":false,"distance":0,"station_name":"Rawa Buaya","time":0,"i_lat":-6.162758},{"line":5,"station_id":"BOI","transit":false,"distance":1152,"time":4,"i_lat":-6.159876,"station_name":"Bojongindah","i_long":106.737035,"is_transit":false},{"time":2,"transit":false,"is_transit":false,"i_long":106.756522,"station_id":"TKO","station_name":"Taman Kota","distance":2334,"line":5,"i_lat":-6.1587309999999995},{"line":5,"station_name":"Pesing","transit":false,"time":2,"station_id":"PSG","is_transit":false,"i_lat":-6.161433,"distance":1614,"i_long":106.771379},{"time":2,"station_name":"Grogol","transit":false,"line":5,"distance":2036,"i_long":106.788277,"is_transit":false,"i_lat":-6.162021,"station_id":"GGL"},{"is_transit":true,"time":3,"i_lat":-6.155215,"station_id":"DU","distance":1700,"line":1,"i_long":106.800832,"transit":true,"station_name":"Duri"},{"line":1,"i_lat":-6.144674,"transit":false,"station_id":"AK","is_transit":false,"time":4,"station_name":"Angke","distance":1230,"i_long":106.79867},{"time":9,"line":4,"is_transit":true,"transit":true,"distance":4102,"station_id":"KPB","station_name":"Kampung Bandan","i_lat":-6.132549,"i_long":106.826365},{"i_lat":-6.137569,"time":3,"line":2,"transit":true,"i_long":106.812439,"station_name":"Jakarta Kota","is_transit":true,"station_id":"JAKK","distance":1364},{"transit":false,"time":4,"station_id":"JAY","station_name":"Jayakarta","i_long":106.820901,"distance":1264,"i_lat":-6.141205,"is_transit":false,"line":2},{"i_lat":-6.149769,"is_transit":false,"station_id":"MGB","station_name":"Manggabesar","transit":false,"time":2,"distance":1080,"line":2,"i_long":106.82482},{"time":2,"line":2,"i_long":106.827103,"transit":false,"station_name":"Sawah Besar","i_lat":-6.160725,"distance":906,"is_transit":false,"station_id":"SW"},{"transit":false,"i_long":106.828284,"distance":1149,"is_transit":false,"line":2,"time":2,"station_name":"Juanda","station_id":"JUA","i_lat":-6.166716},{"transit":false,"time":4,"i_lat":-6.186295,"i_long":106.832183,"line":2,"station_name":"Gondangdia","distance":2015,"station_id":"GDD","is_transit":false},{"is_transit":false,"distance":1750,"station_name":"Cikini","station_id":"CKI","i_lat":-6.198556,"i_long":106.840169,"line":2,"time":3,"transit":false},{"i_lat":-6.209883,"i_long":106.84912,"line":2,"is_transit":true,"transit":true,"station_name":"Manggarai","time":4,"distance":1590,"station_id":"MRI"},{"i_long":106.858896,"i_lat":-6.212485,"station_name":"Matraman","time":2,"is_transit":false,"transit":false,"station_id":"MTR","distance":1275,"line":1},{"distance":1377,"is_transit":true,"time":8,"station_id":"JNG","transit":true,"station_name":"Jatinegara","i_lat":-6.215091,"i_long":106.86807400000001,"line":1},{"line":11,"transit":false,"station_id":"POK","i_lat":-6.209188,"distance":1236,"is_transit":false,"station_name":"Pondok Jati","time":2,"i_long":106.861737},{"i_lat":-6.193792,"transit":false,"i_long":106.855437,"distance":1829,"is_transit":false,"line":11,"station_name":"Kramat","time":2,"station_id":"KMT"},{"transit":false,"station_name":"Gang Sentiong","station_id":"GST","i_lat":-6.185975,"time":1,"distance":973,"i_long":106.850107,"is_transit":false,"line":11},{"i_long":106.84368,"line":11,"i_lat":-6.174784,"is_transit":false,"station_name":"Pasar Senen","transit":false,"distance":1567,"station_id":"PSE","time":8}],[{"i_long":106.723064,"time":0,"station_id":"RW","distance":0,"i_lat":-6.162758,"line":5,"is_transit":false,"transit":false,"station_name":"Rawa Buaya"},{"transit":false,"time":4,"station_name":"Bojongindah","line":5,"station_id":"BOI","i_lat":-6.159876,"distance":1152,"i_long":106.737035,"is_transit":false},{"station_name":"Taman Kota","i_long":106.756522,"station_id":"TKO","is_transit":false,"time":2,"i_lat":-6.1587309999999995,"transit":false,"distance":2334,"line":5},{"transit":false,"is_transit":false,"station_name":"Pesing","distance":1614,"i_lat":-6.161433,"i_long":106.771379,"station_id":"PSG","time":2,"line":5},{"time":2,"station_id":"GGL","transit":false,"is_transit":false,"i_long":106.788277,"distance":2036,"station_name":"Grogol","line":5,"i_lat":-6.162021},{"time":3,"station_id":"DU","distance":1700,"line":1,"is_transit":true,"transit":true,"station_name":"Duri","i_lat":-6.155215,"i_long":106.800832},{"station_name":"Tanah Abang","time":8,"line":1,"distance":3632,"station_id":"THB","transit":false,"i_lat":-6.185545,"is_transit":false,"i_long":106.811091},{"is_transit":false,"line":1,"transit":false,"i_long":106.816351,"time":5,"station_id":"KAT","distance":2029,"station_name":"Karet","i_lat":-6.20132},{"station_name":"Sudirman Baru","transit":false,"line":1,"is_transit":false,"distance":471,"station_id":"SUDB","i_lat":-6.201433,"time":1,"i_long":106.819881},{"i_lat":-6.202263,"time":1,"station_name":"Sudirman","transit":false,"distance":280,"i_long":106.822649,"station_id":"SUD","is_transit":false,"line":1},{"transit":true,"station_name":"Manggarai","i_long":106.84912,"time":4,"distance":3186,"line":2,"station_id":"MRI","is_transit":true,"i_lat":-6.209883},{"transit":false,"i_long":106.840169,"time":4,"is_transit":false,"i_lat":-6.198556,"line":2,"station_name":"Cikini","distance":1590,"station_id":"CKI"},{"is_transit":false,"transit":false,"distance":1750,"station_name":"Gondangdia","station_id":"GDD","line":2,"i_long":106.832183,"time":3,"i_lat":-6.186295},{"time":4,"transit":false,"i_long":106.828284,"line":2,"station_id":"JUA","is_transit":false,"i_lat":-6.166716,"distance":2015,"station_name":"Juanda"},{"time":2,"station_id":"SW","i_lat":-6.160725,"distance":1149,"line":2,"i_long":106.827103,"is_transit":false,"station_name":"Sawah Besar","transit":false},{"transit":false,"is_transit":false,"line":2,"i_lat":-6.149769,"station_name":"Manggabesar","distance":906,"station_id":"MGB","i_long":106.82482,"time":2},{"distance":1080,"time":2,"i_lat":-6.141205,"transit":false,"line":2,"station_id":"JAY","is_transit":false,"station_name":"Jayakarta","i_long":106.820901},{"distance":1264,"i_lat":-6.137569,"station_id":"JAKK","time":4,"i_long":106.812439,"line":2,"is_transit":true,"transit":true,"station_name":"Jakarta Kota"},{"line":4,"transit":true,"time":3,"i_long":106.826365,"is_transit":true,"station_id":"KPB","distance":1364,"station_name":"Kampung Bandan","i_lat":-6.132549},{"station_name":"Rajawali","i_lat":-6.14505,"station_id":"RJW","transit":false,"line":11,"i_long":106.836569,"is_transit":false,"distance":1444,"time":3},{"is_transit":false,"station_id":"KMO","station_name":"Kemayoran","i_lat":-6.161728,"distance":1901,"i_long":106.839204,"transit":false,"line":11,"time":5},{"time":4,"station_id":"PSE","i_lat":-6.174784,"transit":false,"distance":1436,"i_long":106.84368,"station_name":"Pasar Senen","line":11,"is_transit":false}]]}