{"data":[[{"distance":0,"time":0,"station_name":"Rawa Buaya","is_transit":false,"station_id":"RW","line":5,"i_long":106.723064,"i_lat":-6.162758,"transit":false},{"is_transit":false,"i_lat":-6.159876,"i_long":106.737035,"line":5,"time":4,"transit":false,"distance":1152,"station_id":"BOI","station_name":"Bojongindah"},{"is_transit":false,"station_name":"Taman Kota","transit":false,"i_lat":-6.1587309999999995,"distance":2334,"line":5,"i_long":106.756522,"time":2,"station_id":"TKO"},{"i_lat":-6.161433,"i_long":106.771379,"station_id":"PSG","station_name":"Pesing","time":2,"line":5,"distance":1614,"transit":false,"is_transit":false},{"time":2,"distance":2036,"is_transit":false,"i_lat":-6.162021,"line":5,"station_id":"GGL","station_name":"Grogol","i_long":106.788277,"transit":false},{"distance":1700,"is_transit":true,"station_id":"DU","line":1,"station_name":"Duri","i_lat":-6.155215,"transit":true,"time":3,"i_long":106.800832},{"is_transit":true,"distance":3632,"i_lat":-6.185545,"i_long":106.811091,"line":1,"station_id":"THB","transit":true,"time":8,"station_name":"Tanah Abang"},{"is_transit":false,"time":6,"station_id":"PLM","distance":3191,"station_name":"Palmerah","i_lat":-6.207404,"transit":false,"i_long":106.79689,"line":6},{"time":7,"distance":3737,"i_long":106.780334,"i_lat":-6.237242,"station_id":"KBY","is_transit":false,"transit":false,"line":6,"station_name":"Kebayoran"},{"i_long":106.74273,"i_lat":-6.276362,"line":6,"time":8,"station_id":"PDJ","transit":false,"distance":6218,"is_transit":false,"station_name":"Pondokranji"},{"time":3,"distance":2179,"station_name":"Jurangmangu","transit":false,"i_lat":-6.288927,"line":6,"i_long":106.728916,"station_id":"JMU","is_transit":false},{"time":4,"line":6,"transit":false,"i_long":106.712277,"i_lat":-6.296963,"station_name":"Sudimara","station_id":"SDM","distance":1994,"is_transit":false},{"line":6,"station_name":"Rawa Buntu","i_lat":-6.314823,"is_transit":false,"station_id":"RU","i_long":106.675475,"time":6,"transit":false,"distance":4566},{"transit":false,"i_long":106.66566,"line":6,"time":4,"is_transit":false,"station_name":"Serpong","station_id":"SRP","i_lat":-6.319871,"distance":2413},{"is_transit":false,"transit":false,"line":3,"distance":1784,"station_name":"Cisauk","time":4,"i_lat":-6.32484,"station_id":"CSK","i_long":106.640411},{"i_long":106.617853,"transit":false,"time":4,"i_lat":-6.329547,"line":3,"station_id":"CC","is_transit":false,"distance":2519,"station_name":"Cicayur"},{"time":8,"station_id":"PRP","i_long":106.568863,"station_name":"Parung Panjang","is_transit":false,"transit":false,"i_lat":-6.3441410000000005,"line":6,"distance":5968},{"station_name":"Cilejit","is_transit":false,"i_long":106.508482,"time":9,"distance":7025,"i_lat":-6.354349,"transit":false,"line":3,"station_id":"CJT"},{"i_long":106.491338,"station_id":"DAR","station_name":"Daru","time":6,"i_lat":-6.338021,"line":0,"is_transit":false,"distance":2675,"transit":false},{"time":5,"is_transit":false,"i_lat":-6.327251,"transit":false,"station_name":"Tenjo","line":6,"i_long":106.460812,"station_id":"TEJ","distance":3902},{"station_name":"Tigaraksa","time":5,"distance":2974,"transit":false,"is_transit":false,"station_id":"TGS","i_lat":-6.328533,"i_long":106.425991,"line":6},{"time":3,"station_id":"CKY","transit":false,"distance":2651,"station_name":"Cikoya","i_long":106.411216,"is_transit":false,"i_lat":-6.33561,"line":3},{"distance":1853,"transit":false,"station_id":"MJ","i_lat":-6.332307,"time":4,"is_transit":false,"i_long":106.394373,"line":6,"station_name":"Maja"},{"line":3,"station_name":"Citeras","distance":7293,"is_transit":false,"transit":false,"time":10,"station_id":"CTR","i_lat":-6.334892,"i_long":106.332092},{"distance":9847,"transit":false,"time":13,"station_name":"Rangkasbitung","station_id":"RK","i_lat":-6.352675,"line":3,"is_transit":false,"i_long":106.250396}],[{"line":5,"station_name":"Rawa Buaya","time":0,"i_lat":-6.162758,"station_id":"RW","transit":false,"distance":0,"is_transit":false,"i_long":106.723064},{"transit":false,"station_name":"Bojongindah","time":4,"is_transit":false,"i_long":106.737035,"distance":1152,"i_lat":-6.159876,"station_id":"BOI","line":5},{"transit":false,"station_name":"Taman Kota","time":2,"station_id":"TKO","is_transit":false,"i_long":106.756522,"line":5,"i_lat":-6.1587309999999995,"distance":2334},{"i_long":106.771379,"station_name":"Pesing","i_lat":-6.161433,"line":5,"time":2,"is_transit":false,"station_id":"PSG","transit":false,"distance":1614},{"station_id":"GGL","i_long":106.788277,"distance":2036,"transit":false,"station_name":"Grogol","i_lat":-6.162021,"line":5,"time":2,"is_transit":false},{"i_lat":-6.155215,"distance":1700,"i_long":106.800832,"station_id":"DU","station_name":"Duri","transit":true,"time":3,"is_transit":true,"line":1},{"station_id":"AK","transit":false,"i_long":106.79867,"i_lat":-6.144674,"station_name":"Angke","is_transit":false,"time":4,"distance":1230,"line":1},{"time":9,"distance":4102,"station_id":"KPB","is_transit":true,"i_long":106.826365,"line":4,"i_lat":-6.132549,"station_name":"Kampung Bandan","transit":true},{"i_lat":-6.137569,"transit":true,"time":3,"i_long":106.812439,"station_id":"JAKK","line":2,"distance":1364,"is_transit":true,"station_name":"Jakarta Kota"},{"is_transit":false,"i_lat":-6.141205,"i_long":106.820901,"line":2,"time":4,"station_name":"Jayakarta","transit":false,"distance":1264,"station_id":"JAY"},{"is_transit":false,"distance":1080,"station_name":"Manggabesar","line":2,"i_long":106.82482,"station_id":"MGB","transit":false,"time":2,"i_lat":-6.149769},{"line":2,"station_id":"SW","station_name":"Sawah Besar","transit":false,"distance":906,"i_lat":-6.160725,"i_long":106.827103,"time":2,"is_transit":false},{"i_long":106.828284,"is_transit":false,"distance":1149,"line":2,"i_lat":-6.166716,"station_id":"JUA","transit":false,"time":2,"station_name":"Juanda"},{"time":4,"station_id":"GDD","transit":false,"distance":2015,"i_long":106.832183,"station_name":"Gondangdia","i_lat":-6.186295,"line":2,"is_transit":false},{"time":3,"station_name":"Cikini","transit":false,"distance":1750,"i_long":106.840169,"is_transit":false,"station_id":"CKI","i_lat":-6.198556,"line":2},{"transit":true,"i_lat":-6.209883,"line":2,"station_name":"Manggarai","i_long":106.84912,"is_transit":true,"station_id":"MRI","time":4,"distance":1590},{"distance":3186,"is_transit":false,"line":1,"station_id":"SUD","transit":false,"i_lat":-6.202263,"i_long":106.822649,"station_name":"Sudirman","time":4},{"line":1,"time":1,"station_name":"Sudirman Baru","i_lat":-6.201433,"i_long":106.819881,"is_transit":false,"distance":280,"station_id":"SUDB","transit":false},{"distance":471,"is_transit":false,"line":1,"transit":false,"i_long":106.816351,"station_id":"KAT","time":1,"station_name":"Karet","i_lat":-6.20132},{"station_id":"THB","time":5,"i_lat":-6.185545,"is_transit":true,"distance":2029,"station_name":"Tanah Abang","line":1,"transit":true,"i_long":106.811091},{"i_long":106.79689,"transit":false,"time":6,"line":6,"station_id":"PLM","distance":3191,"station_name":"Palmerah","i_lat":-6.207404,"is_transit":false},{"distance":3737,"time":7,"is_transit":false,"station_name":"Kebayoran","line":6,"station_id":"KBY","i_long":106.780334,"i_lat":-6.237242,"transit":false},{"transit":false,"time":8,"distance":6218,"is_transit":false,"i_lat":-6.276362,"i_long":106.74273,"station_id":"PDJ","line":6,"station_name":"Pondokranji"},{"i_long":106.728916,"transit":false,"time":3,"distance":2179,"station_name":"Jurangmangu","station_id":"JMU","i_lat":-6.288927,"is_transit":false,"line":6},{"line":6,"station_id":"SDM","transit":false,"station_name":"Sudimara","i_long":106.712277,"is_transit":false,"distance":1994,"time":4,"i_lat":-6.296963},{"station_id":"RU","distance":4566,"transit":false,"time":6,"i_long":106.675475,"station_name":"Rawa Buntu","line":6,"is_transit":false,"i_lat":-6.314823},{"is_transit":false,"station_id":"SRP","i_long":106.66566,"station_name":"Serpong","line":6,"transit":false,"distance":2413,"i_lat":-6.319871,"time":4},{"i_long":106.640411,"line":3,"time":4,"station_name":"Cisauk","distance":1784,"i_lat":-6.32484,"transit":false,"station_id":"CSK","is_transit":false},{"is_transit":false,"station_name":"Cicayur","transit":false,"distance":2519,"i_long":106.617853,"i_lat":-6.329547,"line":3,"station_id":"CC","time":4},{"i_lat":-6.3441410000000005,"time":8,"line":6,"station_id":"PRP","i_long":106.568863,"distance":5968,"transit":false,"station_name":"Parung Panjang","is_transit":false},{"distance":7025,"transit":false,"time":9,"station_id":"CJT","is_transit":false,"line":3,"i_long":106.508482,"i_lat":-6.354349,"station_name":"Cilejit"},{"line":0,"distance":2675,"station_name":"Daru","station_id":"DAR","transit":false,"time":6,"i_lat":-6.338021,"i_long":106.491338,"is_transit":false},{"distance":3902,"station_id":"TEJ","time":5,"is_transit":false,"station_name":"Tenjo","i_long":106.460812,"transit":false,"line":6,"i_lat":-6.327251},{"i_long":106.425991,"transit":false,"station_id":"TGS","time":5,"station_name":"Tigaraksa","line":6,"is_transit":false,"distance":2974,"i_lat":-6.328533},{"is_transit":false,"station_id":"CKY","distance":2651,"station_name":"Cikoya","transit":false,"i_long":106.411216,"line":3,"time":3,"i_lat":-6.33561},{"distance":1853,"i_lat":-6.332307,"i_long":106.394373,"line":6,"transit":false,"time":4,"station_name":"Maja","station_id":"MJ","is_transit":false},{"line":3,"time":10,"station_name":"Citeras","distance":7293,"i_long":106.332092,"is_transit":false,"station_id":"CTR","transit":false,"i_lat":-6.334892},{"transit":false,"station_id":"RK","distance":9847,"is_transit":false,"time":13,"station_name":"Rangkasbitung","i_lat":-6.352675,"i_long":106.250396,"line":3}],[{"i_lat":-6.162758,"is_transit":false,"transit":false,"station_name":"Rawa Buaya","station_id":"RW","distance":0,"time":0,"i_long":106.723064,"line":5},{"i_lat":-6.159876,"distance":1152,"is_transit":false,"station_name":"Bojongindah","station_id":"BOI","i_long":106.737035,"line":5,"transit":false,"time":4},{"distance":2334,"station_id":"TKO","line":5,"station_name":"Taman Kota","transit":false,"is_transit":false,"time":2,"i_lat":-6.1587309999999995,"i_long":106.756522},{"is_transit":false,"i_lat":-6.161433,"station_id":"PSG","distance":1614,"time":2,"station_name":"Pesing","line":5,"i_long":106.771379,"transit":false},{"line":5,"station_name":"Grogol","time":2,"distance":2036,"i_long":106.788277,"transit":false,"is_transit":false,"station_id":"GGL","i_lat":-6.162021},{"line":1,"transit":true,"i_lat":-6.155215,"station_id":"DU","distance":1700,"i_long":106.800832,"time":3,"station_name":"Duri","is_transit":true},{"i_long":106.79867,"time":4,"i_lat":-6.144674,"line":1,"distance":1230,"station_name":"Angke","is_transit":false,"transit":false,"station_id":"AK"},{"transit":true,"station_id":"KPB","time":9,"station_name":"Kampung Bandan","i_lat":-6.132549,"distance":4102,"i_long":106.826365,"line":4,"is_transit":true},{"time":3,"line":11,"is_transit":false,"transit":false,"distance":1444,"station_id":"RJW","i_lat":-6.14505,"i_long":106.836569,"station_name":"Rajawali"},{"station_name":"Kemayoran","is_transit":false,"time":5,"line":11,"transit":false,"i_lat":-6.161728,"station_id":"KMO","distance":1901,"i_long":106.839204},{"i_long":106.84368,"station_name":"Pasar Senen","i_lat":-6.174784,"station_id":"PSE","transit":false,"time":4,"distance":1436,"is_transit":false,"line":11},{"i_long":106.850107,"time":8,"station_name":"Gang Sentiong","i_lat":-6.185975,"line":11,"transit":false,"distance":1567,"station_id":"GST","is_transit":false},{"i_long":106.855437,"transit":false,"time":1,"line":11,"station_id":"KMT","station_name":"Kramat","distance":973,"is_transit":false,"i_lat":-6.193792},{"i_lat":-6.209188,"i_long":106.861737,"station_name":"Pondok Jati","line":11,"distance":1829,"transit":false,"station_id":"POK","time":2,"is_transit":false},{"transit":true,"i_long":106.86807400000001,"i_lat":-6.215091,"is_transit":true,"station_name":"Jatinegara","line":1,"station_id":"JNG","distance":1236,"time":9},{"transit":false,"distance":1377,"is_transit":false,"i_lat":-6.212485,"time":2,"station_id":"MTR","line":1,"i_long":106.858896,"station_name":"Matraman"},{"transit":false,"time":2,"i_lat":-6.209883,"distance":1275,"station_id":"MRI","i_long":106.84912,"line":2,"station_name":"Manggarai","is_transit":false},{"i_long":106.822649,"line":1,"is_transit":false,"time":4,"i_lat":-6.202263,"station_id":"SUD","distance":3186,"transit":false,"station_name":"Sudirman"},{"is_transit":false,"line":1,"transit":false,"time":1,"distance":280,"i_long":106.819881,"station_id":"SUDB","station_name":"Sudirman Baru","i_lat":-6.201433},{"station_id":"KAT","time":1,"i_lat":-6.20132,"line":1,"is_transit":false,"transit":false,"i_long":106.816351,"distance":471,"station_name":"Karet"},{"station_id":"THB","time":5,"station_name":"Tanah Abang","distance":2029,"i_long":106.811091,"line":1,"is_transit":true,"transit":true,"i_lat":-6.185545},{"time":6,"station_id":"PLM","i_long":106.79689,"station_name":"Palmerah","i_lat":-6.207404,"distance":3191,"is_transit":false,"transit":false,"line":6},{"line":6,"i_long":106.780334,"distance":3737,"i_lat":-6.237242,"is_transit":false,"time":7,"station_name":"Kebayoran","station_id":"KBY","transit":false},{"transit":false,"time":8,"distance":6218,"station_name":"Pondokranji","i_lat":-6.276362,"i_long":106.74273,"is_transit":false,"line":6,"station_id":"PDJ"},{"station_id":"JMU","transit":false,"is_transit":false,"line":6,"distance":2179,"station_name":"Jurangmangu","i_lat":-6.288927,"time":3,"i_long":106.728916},{"transit":false,"time":4,"distance":1994,"i_lat":-6.296963,"station_id":"SDM","i_long":106.712277,"line":6,"is_transit":false,"station_name":"Sudimara"},{"time":6,"i_long":106.675475,"line":6,"transit":false,"station_id":"RU","distance":4566,"station_name":"Rawa Buntu","is_transit":false,"i_lat":-6.314823},{"time":4,"transit":false,"station_id":"SRP","station_name":"Serpong","i_lat":-6.319871,"line":6,"i_long":106.66566,"distance":2413,"is_transit":false},{"i_long":106.640411,"line":3,"transit":false,"station_id":"CSK","distance":1784,"time":4,"station_name":"Cisauk","is_transit":false,"i_lat":-6.32484},{"station_name":"Cicayur","is_transit":false,"transit":false,"distance":2519,"i_lat":-6.329547,"line":3,"station_id":"CC","time":4,"i_long":106.617853},{"station_name":"Parung Panjang","line":6,"transit":false,"time":8,"distance":5968,"i_lat":-6.3441410000000005,"i_long":106.568863,"station_id":"PRP","is_transit":false},{"station_name":"Cilejit","distance":7025,"time":9,"station_id":"CJT","i_lat":-6.354349,"transit":false,"is_transit":false,"line":3,"i_long":106.508482},{"station_id":"DAR","distance":2675,"is_transit":false,"i_lat":-6.338021,"i_long":106.491338,"line":0,"time":6,"transit":false,"station_name":"Daru"},{"i_long":106.460812,"line":6,"is_transit":false,"station_name":"Tenjo","i_lat":-6.327251,"station_id":"TEJ","time":5,"distance":3902,"transit":false},{"i_long":106.425991,"line":6,"transit":false,"station_name":"Tigaraksa","distance":2974,"time":5,"station_id":"TGS","is_transit":false,"i_lat":-6.328533},{"distance":2651,"transit":false,"station_name":"Cikoya","is_transit":false,"i_lat":-6.33561,"time":3,"station_id":"CKY","line":3,"i_long":106.411216},{"time":4,"line":6,"transit":false,"i_long":106.394373,"station_name":"Maja","distance":1853,"station_id":"MJ","is_transit":false,"i_lat":-6.332307},{"i_long":106.332092,"distance":7293,"time":10,"station_id":"CTR","transit":false,"is_transit":false,"line":3,"station_name":"Citeras","i_lat":-6.334892},{"transit":false,"is_transit":false,"station_id":"RK","distance":9847,"i_lat":-6.352675,"time":13,"i_long":106.250396,"station_name":"Rangkasbitung","line":3}]]}