{"data":[[{"i_lat":-6.162758,"station_name":"Rawa Buaya","station_id":"RW","time":0,"i_long":106.723064,"is_transit":false,"distance":0,"transit":false,"line":5},{"time":4,"i_lat":-6.159876,"transit":false,"is_transit":false,"station_id":"BOI","distance":1152,"station_name":"Bojongindah","i_long":106.737035,"line":5},{"distance":2334,"i_long":106.756522,"time":2,"i_lat":-6.1587309999999995,"station_id":"TKO","station_name":"Taman Kota","line":5,"is_transit":false,"transit":false},{"transit":false,"i_long":106.771379,"distance":1614,"line":5,"i_lat":-6.161433,"is_transit":false,"station_name":"Pesing","station_id":"PSG","time":2},{"time":2,"transit":false,"i_lat":-6.162021,"line":5,"station_name":"Grogol","is_transit":false,"station_id":"GGL","i_long":106.788277,"distance":2036},{"transit":true,"time":3,"i_long":106.800832,"distance":1700,"station_id":"DU","station_name":"Duri","line":1,"is_transit":true,"i_lat":-6.155215},{"station_id":"THB","transit":true,"i_long":106.811091,"distance":3632,"time":8,"is_transit":true,"line":1,"station_name":"Tanah Abang","i_lat":-6.185545},{"station_name":"Palmerah","distance":3191,"i_long":106.79689,"transit":false,"station_id":"PLM","time":6,"is_transit":false,"i_lat":-6.207404,"line":6},{"station_name":"Kebayoran","is_transit":false,"transit":false,"station_id":"KBY","i_long":106.780334,"time":7,"distance":3737,"i_lat":-6.237242,"line":6},{"i_lat":-6.276362,"transit":false,"distance":6218,"station_name":"Pondokranji","station_id":"PDJ","time":8,"is_transit":false,"i_long":106.74273,"line":6},{"i_long":106.728916,"time":3,"distance":2179,"station_id":"JMU","is_transit":false,"line":6,"transit":false,"station_name":"Jurangmangu","i_lat":-6.288927},{"i_lat":-6.296963,"line":6,"is_transit":false,"i_long":106.712277,"transit":false,"station_name":"Sudimara","time":4,"station_id":"SDM","distance":1994},{"i_lat":-6.314823,"line":6,"transit":false,"is_transit":false,"i_long":106.675475,"distance":4566,"time":6,"station_name":"Rawa Buntu","station_id":"RU"},{"station_id":"SRP","line":6,"transit":false,"i_long":106.66566,"station_name":"Serpong","i_lat":-6.319871,"is_transit":false,"distance":2413,"time":4},{"transit":false,"station_name":"Cisauk","distance":1784,"i_lat":-6.32484,"i_long":106.640411,"is_transit":false,"line":3,"time":4,"station_id":"CSK"},{"line":3,"distance":2519,"is_transit":false,"i_long":106.617853,"transit":false,"station_id":"CC","station_name":"Cicayur","i_lat":-6.329547,"time":4},{"i_lat":-6.3441410000000005,"line":6,"distance":5968,"station_id":"PRP","i_long":106.568863,"transit":false,"station_name":"Parung Panjang","is_transit":false,"time":8},{"is_transit":false,"station_name":"Cilejit","transit":false,"i_lat":-6.354349,"line":3,"i_long":106.508482,"station_id":"CJT","time":9,"distance":7025},{"distance":2675,"i_lat":-6.338021,"station_id":"DAR","transit":false,"is_transit":false,"time":6,"line":0,"station_name":"Daru","i_long":106.491338},{"station_name":"Tenjo","time":5,"i_long":106.460812,"is_transit":false,"transit":false,"distance":3902,"line":6,"station_id":"TEJ","i_lat":-6.327251},{"station_id":"TGS","station_name":"Tigaraksa","i_lat":-6.328533,"i_long":106.425991,"line":6,"transit":false,"is_transit":false,"distance":2974,"time":5},{"transit":false,"station_id":"CKY","time":3,"i_lat":-6.33561,"is_transit":false,"line":3,"i_long":106.411216,"distance":2651,"station_name":"Cikoya"},{"time":4,"i_lat":-6.332307,"line":6,"is_transit":false,"transit":false,"i_long":106.394373,"distance":1853,"station_name":"Maja","station_id":"MJ"},{"i_lat":-6.334892,"station_name":"Citeras","is_transit":false,"transit":false,"distance":7293,"line":3,"station_id":"CTR","time":10,"i_long":106.332092},{"i_long":106.250396,"station_id":"RK","line":3,"is_transit":false,"distance":9847,"time":13,"station_name":"Rangkasbitung","i_lat":-6.352675,"transit":false}],[{"time":0,"is_transit":false,"line":5,"distance":0,"station_name":"Rawa Buaya","i_lat":-6.162758,"station_id":"RW","transit":false,"i_long":106.723064},{"station_name":"Bojongindah","time":4,"i_lat":-6.159876,"distance":1152,"station_id":"BOI","is_transit":false,"transit":false,"line":5,"i_long":106.737035},{"time":2,"i_lat":-6.1587309999999995,"distance":2334,"i_long":106.756522,"transit":false,"station_name":"Taman Kota","is_transit":false,"station_id":"TKO","line":5},{"distance":1614,"is_transit":false,"station_name":"Pesing","i_long":106.771379,"time":2,"transit":false,"i_lat":-6.161433,"line":5,"station_id":"PSG"},{"transit":false,"distance":2036,"is_transit":false,"station_id":"GGL","i_long":106.788277,"station_name":"Grogol","i_lat":-6.162021,"time":2,"line":5},{"station_name":"Duri","time":3,"station_id":"DU","is_transit":true,"transit":true,"i_long":106.800832,"line":1,"i_lat":-6.155215,"distance":1700},{"transit":false,"i_lat":-6.144674,"time":4,"is_transit":false,"distance":1230,"i_long":106.79867,"station_id":"AK","station_name":"Angke","line":1},{"line":4,"i_long":106.826365,"is_transit":true,"station_id":"KPB","distance":4102,"station_name":"Kampung Bandan","time":9,"i_lat":-6.132549,"transit":true},{"line":2,"station_name":"Jakarta Kota","transit":true,"distance":1364,"station_id":"JAKK","time":3,"i_lat":-6.137569,"is_transit":true,"i_long":106.812439},{"i_long":106.820901,"distance":1264,"time":4,"is_transit":false,"transit":false,"station_id":"JAY","line":2,"station_name":"Jayakarta","i_lat":-6.141205},{"station_id":"MGB","time":2,"distance":1080,"is_transit":false,"i_long":106.82482,"station_name":"Manggabesar","transit":false,"i_lat":-6.149769,"line":2},{"transit":false,"station_id":"SW","i_lat":-6.160725,"i_long":106.827103,"station_name":"Sawah Besar","is_transit":false,"distance":906,"time":2,"line":2},{"is_transit":false,"transit":false,"i_lat":-6.166716,"station_name":"Juanda","station_id":"JUA","i_long":106.828284,"distance":1149,"time":2,"line":2},{"i_long":106.832183,"transit":false,"station_name":"Gondangdia","is_transit":false,"time":4,"line":2,"station_id":"GDD","distance":2015,"i_lat":-6.186295},{"station_id":"CKI","transit":false,"is_transit":false,"i_lat":-6.198556,"distance":1750,"time":3,"i_long":106.840169,"station_name":"Cikini","line":2},{"i_long":106.84912,"station_name":"Manggarai","i_lat":-6.209883,"transit":true,"station_id":"MRI","is_transit":true,"line":2,"time":4,"distance":1590},{"station_id":"SUD","line":1,"i_long":106.822649,"station_name":"Sudirman","time":4,"transit":false,"i_lat":-6.202263,"distance":3186,"is_transit":false},{"is_transit":false,"line":1,"station_id":"SUDB","station_name":"Sudirman Baru","transit":false,"time":1,"i_lat":-6.201433,"distance":280,"i_long":106.819881},{"line":1,"transit":false,"station_name":"Karet","is_transit":false,"station_id":"KAT","i_long":106.816351,"distance":471,"time":1,"i_lat":-6.20132},{"station_id":"THB","i_lat":-6.185545,"distance":2029,"is_transit":true,"transit":true,"i_long":106.811091,"station_name":"Tanah Abang","time":5,"line":1},{"i_lat":-6.207404,"time":6,"i_long":106.79689,"is_transit":false,"station_id":"PLM","station_name":"Palmerah","transit":false,"line":6,"distance":3191},{"is_transit":false,"transit":false,"station_name":"Kebayoran","distance":3737,"i_lat":-6.237242,"station_id":"KBY","i_long":106.780334,"time":7,"line":6},{"is_transit":false,"station_name":"Pondokranji","transit":false,"station_id":"PDJ","distance":6218,"time":8,"i_long":106.74273,"line":6,"i_lat":-6.276362},{"transit":false,"distance":2179,"station_name":"Jurangmangu","i_lat":-6.288927,"i_long":106.728916,"line":6,"station_id":"JMU","is_transit":false,"time":3},{"i_lat":-6.296963,"station_id":"SDM","distance":1994,"line":6,"is_transit":false,"station_name":"Sudimara","transit":false,"time":4,"i_long":106.712277},{"distance":4566,"station_name":"Rawa Buntu","line":6,"i_long":106.675475,"station_id":"RU","is_transit":false,"transit":false,"time":6,"i_lat":-6.314823},{"line":6,"time":4,"i_lat":-6.319871,"is_transit":false,"transit":false,"station_name":"Serpong","station_id":"SRP","i_long":106.66566,"distance":2413},{"is_transit":false,"station_id":"CSK","i_lat":-6.32484,"distance":1784,"station_name":"Cisauk","line":3,"transit":false,"i_long":106.640411,"time":4},{"station_name":"Cicayur","station_id":"CC","is_transit":false,"time":4,"distance":2519,"i_lat":-6.329547,"line":3,"transit":false,"i_long":106.617853},{"time":8,"transit":false,"distance":5968,"i_lat":-6.3441410000000005,"station_name":"Parung Panjang","is_transit":false,"line":6,"station_id":"PRP","i_long":106.568863},{"transit":false,"station_id":"CJT","time":9,"i_long":106.508482,"station_name":"Cilejit","i_lat":-6.354349,"line":3,"is_transit":false,"distance":7025},{"transit":false,"i_long":106.491338,"station_id":"DAR","i_lat":-6.338021,"is_transit":false,"line":0,"distance":2675,"station_name":"Daru","time":6},{"distance":3902,"line":6,"transit":false,"is_transit":false,"i_long":106.460812,"station_id":"TEJ","station_name":"Tenjo","time":5,"i_lat":-6.327251},{"station_id":"TGS","transit":false,"is_transit":false,"station_name":"Tigaraksa","i_lat":-6.328533,"i_long":106.425991,"time":5,"distance":2974,"line":6},{"is_transit":false,"i_long":106.411216,"line":3,"station_id":"CKY","distance":2651,"station_name":"Cikoya","i_lat":-6.33561,"transit":false,"time":3},{"station_name":"Maja","is_transit":false,"time":4,"i_long":106.394373,"transit":false,"line":6,"distance":1853,"station_id":"MJ","i_lat":-6.332307},{"station_id":"CTR","transit":false,"i_lat":-6.334892,"distance":7293,"station_name":"Citeras","i_long":106.332092,"time":10,"is_transit":false,"line":3},{"is_transit":false,"distance":9847,"station_id":"RK","i_lat":-6.352675,"station_name":"Rangkasbitung","time":13,"i_long":106.250396,"transit":false,"line":3}],[{"i_lat":-6.162758,"distance":0,"station_id":"RW","transit":false,"time":0,"i_long":106.723064,"line":5,"is_transit":false,"station_name":"Rawa Buaya"},{"distance":1152,"is_transit":false,"station_name":"Bojongindah","transit":false,"time":4,"line":5,"station_id":"BOI","i_long":106.737035,"i_lat":-6.159876},{"transit":false,"is_transit":false,"distance":2334,"i_lat":-6.1587309999999995,"station_id":"TKO","station_name":"Taman Kota","i_long":106.756522,"time":2,"line":5},{"distance":1614,"line":5,"station_name":"Pesing","i_lat":-6.161433,"time":2,"is_transit":false,"i_long":106.771379,"transit":false,"station_id":"PSG"},{"station_id":"GGL","distance":2036,"i_lat":-6.162021,"is_transit":false,"line":5,"time":2,"transit":false,"station_name":"Grogol","i_long":106.788277},{"line":1,"i_lat":-6.155215,"station_id":"DU","transit":true,"distance":1700,"is_transit":true,"station_name":"Duri","i_long":106.800832,"time":3},{"distance":1230,"station_id":"AK","station_name":"Angke","is_transit":false,"line":1,"transit":false,"i_lat":-6.144674,"time":4,"i_long":106.79867},{"i_lat":-6.132549,"transit":true,"station_name":"Kampung Bandan","i_long":106.826365,"station_id":"KPB","time":9,"line":4,"distance":4102,"is_transit":true},{"transit":false,"i_lat":-6.14505,"line":11,"station_id":"RJW","station_name":"Rajawali","i_long":106.836569,"is_transit":false,"time":3,"distance":1444},{"line":11,"distance":1901,"station_name":"Kemayoran","station_id":"KMO","transit":false,"i_lat":-6.161728,"i_long":106.839204,"time":5,"is_transit":false},{"station_name":"Pasar Senen","transit":false,"time":4,"is_transit":false,"line":11,"i_long":106.84368,"station_id":"PSE","i_lat":-6.174784,"distance":1436},{"line":11,"transit":false,"is_transit":false,"time":8,"station_id":"GST","distance":1567,"station_name":"Gang Sentiong","i_long":106.850107,"i_lat":-6.185975},{"i_lat":-6.193792,"station_id":"KMT","time":1,"i_long":106.855437,"distance":973,"transit":false,"is_transit":false,"line":11,"station_name":"Kramat"},{"station_name":"Pondok Jati","transit":false,"is_transit":false,"distance":1829,"time":2,"i_lat":-6.209188,"station_id":"POK","i_long":106.861737,"line":11},{"station_name":"Jatinegara","time":9,"transit":true,"i_long":106.86807400000001,"line":1,"station_id":"JNG","distance":1236,"i_lat":-6.215091,"is_transit":true},{"station_id":"MTR","is_transit":false,"time":2,"i_long":106.858896,"distance":1377,"transit":false,"line":1,"i_lat":-6.212485,"station_name":"Matraman"},{"time":2,"is_transit":false,"distance":1275,"station_id":"MRI","station_name":"Manggarai","i_lat":-6.209883,"i_long":106.84912,"line":2,"transit":false},{"distance":3186,"station_id":"SUD","i_lat":-6.202263,"time":4,"i_long":106.822649,"line":1,"station_name":"Sudirman","transit":false,"is_transit":false},{"station_id":"SUDB","station_name":"Sudirman Baru","transit":false,"i_lat":-6.201433,"distance":280,"line":1,"i_long":106.819881,"is_transit":false,"time":1},{"transit":false,"station_name":"Karet","i_long":106.816351,"distance":471,"line":1,"i_lat":-6.20132,"time":1,"is_transit":false,"station_id":"KAT"},{"distance":2029,"line":1,"is_transit":true,"station_id":"THB","station_name":"Tanah Abang","i_lat":-6.185545,"transit":true,"time":5,"i_long":106.811091},{"station_name":"Palmerah","i_lat":-6.207404,"time":6,"distance":3191,"line":6,"station_id":"PLM","transit":false,"i_long":106.79689,"is_transit":false},{"distance":3737,"station_name":"Kebayoran","i_lat":-6.237242,"transit":false,"line":6,"is_transit":false,"station_id":"KBY","i_long":106.780334,"time":7},{"station_id":"PDJ","station_name":"Pondokranji","transit":false,"i_long":106.74273,"is_transit":false,"distance":6218,"time":8,"i_lat":-6.276362,"line":6},{"distance":2179,"time":3,"line":6,"i_long":106.728916,"transit":false,"station_id":"JMU","is_transit":false,"station_name":"Jurangmangu","i_lat":-6.288927},{"distance":1994,"i_lat":-6.296963,"station_name":"Sudimara","line":6,"station_id":"SDM","transit":false,"is_transit":false,"time":4,"i_long":106.712277},{"i_long":106.675475,"transit":false,"distance":4566,"time":6,"i_lat":-6.314823,"line":6,"is_transit":false,"station_id":"RU","station_name":"Rawa Buntu"},{"line":6,"i_lat":-6.319871,"station_id":"SRP","station_name":"Serpong","time":4,"distance":2413,"i_long":106.66566,"is_transit":false,"transit":false},{"i_long":106.640411,"time":4,"transit":false,"line":3,"station_name":"Cisauk","i_lat":-6.32484,"is_transit":false,"distance":1784,"station_id":"CSK"},{"is_transit":false,"station_name":"Cicayur","transit":false,"i_lat":-6.329547,"time":4,"distance":2519,"line":3,"i_long":106.617853,"station_id":"CC"},{"i_lat":-6.3441410000000005,"line":6,"station_id":"PRP","transit":false,"is_transit":false,"station_name":"Parung Panjang","time":8,"i_long":106.568863,"distance":5968},{"transit":false,"is_transit":false,"time":9,"station_id":"CJT","distance":7025,"i_lat":-6.354349,"i_long":106.508482,"line":3,"station_name":"Cilejit"},{"i_lat":-6.338021,"i_long":106.491338,"line":0,"station_id":"DAR","station_name":"Daru","time":6,"transit":false,"is_transit":false,"distance":2675},{"is_transit":false,"station_id":"TEJ","distance":3902,"station_name":"Tenjo","time":5,"transit":false,"i_lat":-6.327251,"i_long":106.460812,"line":6},{"station_id":"TGS","i_lat":-6.328533,"i_long":106.425991,"time":5,"transit":false,"line":6,"distance":2974,"is_transit":false,"station_name":"Tigaraksa"},{"time":3,"i_long":106.411216,"distance":2651,"is_transit":false,"transit":false,"station_name":"Cikoya","line":3,"station_id":"CKY","i_lat":-6.33561},{"station_name":"Maja","line":6,"is_transit":false,"i_long":106.394373,"i_lat":-6.332307,"time":4,"distance":1853,"station_id":"MJ","transit":false},{"time":10,"i_lat":-6.334892,"is_transit":false,"transit":false,"distance":7293,"station_name":"Citeras","i_long":106.332092,"line":3,"station_id":"CTR"},{"is_transit":false,"station_id":"RK","i_lat":-6.352675,"i_long":106.250396,"distance":9847,"transit":false,"station_name":"Rangkasbitung","time":13,"line":3}]]}