{"data":[[{"i_lat":-6.162758,"station_id":"RW","line":5,"distance":0,"transit":false,"station_name":"Rawa Buaya","i_long":106.723064,"is_transit":false,"time":0},{"station_id":"BOI","is_transit":false,"station_name":"Bojongindah","i_lat":-6.159876,"i_long":106.737035,"distance":1152,"transit":false,"time":4,"line":0},{"station_id":"TKO","is_transit":false,"i_lat":-6.1587309999999995,"i_long":106.756522,"transit":false,"line":5,"station_name":"Taman Kota","time":2,"distance":2334},{"station_name":"Pesing","station_id":"PSG","distance":1614,"transit":false,"i_long":106.771379,"i_lat":-6.161433,"line":5,"time":2,"is_transit":false},{"distance":2036,"station_name":"Grogol","time":2,"transit":false,"station_id":"GGL","i_lat":-6.162021,"i_long":106.788277,"is_transit":false,"line":5},{"distance":1700,"transit":true,"line":1,"is_transit":true,"station_id":"DU","station_name":"Duri","time":3,"i_lat":-6.155215,"i_long":106.800832},{"station_name":"Tanah Abang","is_transit":true,"station_id":"THB","i_lat":-6.185545,"time":8,"i_long":106.811091,"line":1,"transit":true,"distance":3632},{"distance":3191,"is_transit":false,"station_id":"PLM","station_name":"Palmerah","i_long":106.79689,"line":6,"time":6,"transit":false,"i_lat":-6.207404},{"i_lat":-6.237242,"i_long":106.780334,"station_name":"Kebayoran","distance":3737,"station_id":"KBY","is_transit":false,"transit":false,"time":7,"line":6},{"time":8,"i_lat":-6.276362,"station_id":"PDJ","distance":6218,"transit":false,"station_name":"Pondokranji","i_long":106.74273,"line":6,"is_transit":false},{"station_name":"Jurangmangu","distance":2179,"is_transit":false,"line":6,"time":3,"i_lat":-6.288927,"i_long":106.728916,"station_id":"JMU","transit":false},{"i_long":106.712277,"transit":false,"station_id":"SDM","distance":1994,"line":6,"is_transit":false,"i_lat":-6.296963,"time":4,"station_name":"Sudimara"},{"line":6,"distance":4566,"is_transit":false,"station_name":"Rawa Buntu","i_lat":-6.314823,"i_long":106.675475,"transit":false,"station_id":"RU","time":6},{"station_name":"Serpong","i_long":106.66566,"line":6,"time":4,"is_transit":false,"station_id":"SRP","i_lat":-6.319871,"distance":2413,"transit":false},{"i_lat":-6.32484,"distance":1784,"station_name":"Cisauk","transit":false,"is_transit":false,"i_long":106.640411,"time":4,"station_id":"CSK","line":0},{"time":4,"is_transit":false,"station_id":"CC","line":0,"i_lat":-6.329547,"transit":false,"i_long":106.617853,"distance":2519,"station_name":"Cicayur"},{"transit":false,"station_name":"Parung Panjang","distance":5968,"is_transit":false,"i_long":106.568863,"line":6,"station_id":"PRP","time":8,"i_lat":-6.3441410000000005},{"station_id":"CJT","station_name":"Cilejit","is_transit":false,"i_lat":-6.354349,"line":0,"transit":false,"i_long":106.508482,"distance":7025,"time":9},{"station_id":"DAR","transit":false,"distance":2675,"time":6,"i_lat":-6.338021,"station_name":"Daru","i_long":106.491338,"line":0,"is_transit":false},{"line":6,"distance":3902,"station_name":"Tenjo","time":5,"i_long":106.460812,"station_id":"TEJ","is_transit":false,"transit":false,"i_lat":-6.327251},{"is_transit":false,"line":6,"i_long":106.425991,"time":5,"distance":2974,"transit":false,"station_id":"TGS","station_name":"Tigaraksa","i_lat":-6.328533},{"station_id":"CKY","i_lat":-6.33561,"line":0,"i_long":106.411216,"time":3,"station_name":"Cikoya","transit":false,"is_transit":false,"distance":2651},{"transit":false,"line":6,"is_transit":false,"time":4,"station_name":"Maja","i_lat":-6.332307,"distance":1853,"station_id":"MJ","i_long":106.394373},{"transit":false,"station_name":"Citeras","line":0,"station_id":"CTR","time":10,"is_transit":false,"i_lat":-6.334892,"distance":7293,"i_long":106.332092},{"station_name":"Rangkasbitung","distance":9847,"transit":false,"i_long":106.250396,"station_id":"RK","is_transit":true,"i_lat":-6.352675,"time":13,"line":0}],[{"line":5,"distance":0,"time":0,"is_transit":false,"station_id":"RW","transit":false,"i_lat":-6.162758,"i_long":106.723064,"station_name":"Rawa Buaya"},{"station_id":"BOI","transit":false,"i_lat":-6.159876,"line":0,"time":4,"distance":1152,"i_long":106.737035,"is_transit":false,"station_name":"Bojongindah"},{"transit":false,"is_transit":false,"line":5,"time":2,"i_long":106.756522,"station_id":"TKO","distance":2334,"i_lat":-6.1587309999999995,"station_name":"Taman Kota"},{"line":5,"i_long":106.771379,"i_lat":-6.161433,"station_id":"PSG","distance":1614,"station_name":"Pesing","is_transit":false,"time":2,"transit":false},{"distance":2036,"line":5,"i_lat":-6.162021,"station_id":"GGL","time":2,"is_transit":false,"transit":false,"station_name":"Grogol","i_long":106.788277},{"station_id":"DU","i_long":106.800832,"i_lat":-6.155215,"station_name":"Duri","distance":1700,"is_transit":true,"line":1,"transit":true,"time":3},{"transit":false,"i_lat":-6.144674,"i_long":106.79867,"distance":1230,"is_transit":false,"station_id":"AK","station_name":"Angke","time":4,"line":0},{"time":9,"is_transit":true,"distance":4102,"transit":false,"i_long":106.826365,"i_lat":-6.132549,"line":0,"station_id":"KPB","station_name":"Kampung Bandan"},{"i_lat":-6.137569,"distance":1364,"is_transit":true,"station_name":"Jakarta Kota","transit":true,"station_id":"JAKK","time":3,"i_long":106.812439,"line":0},{"transit":false,"is_transit":false,"i_lat":-6.141205,"i_long":106.820901,"station_name":"Jayakarta","time":4,"distance":1264,"station_id":"JAY","line":7},{"is_transit":false,"line":2,"transit":false,"i_lat":-6.149769,"station_name":"Manggabesar","distance":1080,"i_long":106.82482,"time":2,"station_id":"MGB"},{"line":2,"is_transit":false,"transit":false,"station_name":"Sawah Besar","time":2,"distance":906,"i_lat":-6.160725,"i_long":106.827103,"station_id":"SW"},{"time":2,"station_name":"Juanda","line":2,"i_long":106.828284,"distance":1149,"i_lat":-6.166716,"is_transit":false,"station_id":"JUA","transit":false},{"i_lat":-6.186295,"i_long":106.832183,"distance":2015,"transit":false,"time":4,"line":2,"is_transit":false,"station_name":"Gondangdia","station_id":"GDD"},{"is_transit":false,"line":0,"station_name":"Cikini","transit":false,"i_lat":-6.198556,"distance":1750,"station_id":"CKI","time":3,"i_long":106.840169},{"transit":true,"time":4,"distance":1590,"station_id":"MRI","station_name":"Manggarai","line":0,"is_transit":true,"i_lat":-6.209883,"i_long":106.84912},{"line":1,"station_name":"Sudirman","time":4,"distance":3186,"station_id":"SUD","i_lat":-6.202263,"i_long":106.822649,"transit":false,"is_transit":false},{"time":1,"transit":false,"i_lat":-6.201433,"line":1,"station_id":"SUDB","i_long":106.819881,"station_name":"Sudirman Baru","distance":280,"is_transit":false},{"station_name":"Karet","distance":471,"transit":false,"time":1,"i_long":106.816351,"i_lat":-6.20132,"line":1,"station_id":"KAT","is_transit":false},{"station_name":"Tanah Abang","is_transit":true,"distance":2029,"i_long":106.811091,"transit":true,"line":1,"time":5,"station_id":"THB","i_lat":-6.185545},{"line":6,"distance":3191,"i_lat":-6.207404,"station_id":"PLM","i_long":106.79689,"is_transit":false,"station_name":"Palmerah","time":6,"transit":false},{"time":7,"i_lat":-6.237242,"i_long":106.780334,"distance":3737,"station_name":"Kebayoran","is_transit":false,"transit":false,"line":6,"station_id":"KBY"},{"transit":false,"i_lat":-6.276362,"line":6,"station_id":"PDJ","i_long":106.74273,"station_name":"Pondokranji","time":8,"distance":6218,"is_transit":false},{"transit":false,"line":6,"distance":2179,"station_name":"Jurangmangu","is_transit":false,"station_id":"JMU","i_long":106.728916,"i_lat":-6.288927,"time":3},{"station_id":"SDM","line":6,"station_name":"Sudimara","is_transit":false,"distance":1994,"time":4,"transit":false,"i_lat":-6.296963,"i_long":106.712277},{"line":6,"is_transit":false,"station_name":"Rawa Buntu","transit":false,"distance":4566,"station_id":"RU","time":6,"i_lat":-6.314823,"i_long":106.675475},{"distance":2413,"is_transit":false,"i_lat":-6.319871,"i_long":106.66566,"station_id":"SRP","station_name":"Serpong","time":4,"transit":false,"line":6},{"transit":false,"i_lat":-6.32484,"station_name":"Cisauk","time":4,"station_id":"CSK","i_long":106.640411,"line":0,"is_transit":false,"distance":1784},{"i_long":106.617853,"is_transit":false,"time":4,"station_name":"Cicayur","distance":2519,"i_lat":-6.329547,"line":0,"transit":false,"station_id":"CC"},{"distance":5968,"is_transit":false,"i_lat":-6.3441410000000005,"transit":false,"i_long":106.568863,"time":8,"station_name":"Parung Panjang","line":6,"station_id":"PRP"},{"station_id":"CJT","is_transit":false,"station_name":"Cilejit","time":9,"i_long":106.508482,"line":0,"transit":false,"distance":7025,"i_lat":-6.354349},{"is_transit":false,"station_id":"DAR","i_lat":-6.338021,"time":6,"line":0,"distance":2675,"station_name":"Daru","i_long":106.491338,"transit":false},{"distance":3902,"transit":false,"line":6,"time":5,"i_lat":-6.327251,"i_long":106.460812,"station_name":"Tenjo","is_transit":false,"station_id":"TEJ"},{"i_lat":-6.328533,"distance":2974,"station_id":"TGS","time":5,"i_long":106.425991,"station_name":"Tigaraksa","transit":false,"line":6,"is_transit":false},{"station_name":"Cikoya","time":3,"i_long":106.411216,"station_id":"CKY","transit":false,"line":0,"is_transit":false,"i_lat":-6.33561,"distance":2651},{"line":6,"station_name":"Maja","i_long":106.394373,"distance":1853,"is_transit":false,"station_id":"MJ","time":4,"i_lat":-6.332307,"transit":false},{"i_lat":-6.334892,"distance":7293,"station_name":"Citeras","station_id":"CTR","i_long":106.332092,"line":0,"is_transit":false,"transit":false,"time":10},{"transit":false,"station_name":"Rangkasbitung","is_transit":true,"i_lat":-6.352675,"station_id":"RK","distance":9847,"line":0,"i_long":106.250396,"time":13}],[{"time":0,"i_lat":-6.162758,"line":5,"transit":false,"is_transit":false,"distance":0,"station_name":"Rawa Buaya","i_long":106.723064,"station_id":"RW"},{"time":4,"is_transit":false,"i_long":106.737035,"station_id":"BOI","station_name":"Bojongindah","transit":false,"line":0,"distance":1152,"i_lat":-6.159876},{"i_long":106.756522,"line":5,"is_transit":false,"station_id":"TKO","station_name":"Taman Kota","distance":2334,"transit":false,"time":2,"i_lat":-6.1587309999999995},{"station_id":"PSG","distance":1614,"station_name":"Pesing","time":2,"i_long":106.771379,"line":5,"i_lat":-6.161433,"is_transit":false,"transit":false},{"i_long":106.788277,"distance":2036,"transit":false,"is_transit":false,"time":2,"station_id":"GGL","line":5,"i_lat":-6.162021,"station_name":"Grogol"},{"station_name":"Duri","transit":true,"line":1,"time":3,"i_long":106.800832,"distance":1700,"station_id":"DU","i_lat":-6.155215,"is_transit":true},{"line":0,"station_name":"Angke","i_lat":-6.144674,"distance":1230,"station_id":"AK","i_long":106.79867,"is_transit":false,"transit":false,"time":4},{"i_long":106.826365,"station_name":"Kampung Bandan","transit":true,"time":9,"station_id":"KPB","line":0,"is_transit":true,"i_lat":-6.132549,"distance":4102},{"i_long":106.836569,"station_id":"RJW","i_lat":-6.14505,"distance":1444,"station_name":"Rajawali","transit":false,"line":11,"time":3,"is_transit":false},{"i_lat":-6.161728,"i_long":106.839204,"station_name":"Kemayoran","station_id":"KMO","transit":false,"line":11,"is_transit":false,"time":5,"distance":1901},{"i_long":106.84368,"station_name":"Pasar Senen","station_id":"PSE","transit":false,"distance":1436,"i_lat":-6.174784,"line":11,"is_transit":false,"time":4},{"i_lat":-6.185975,"distance":1567,"i_long":106.850107,"line":11,"station_id":"GST","time":8,"is_transit":false,"station_name":"Gang Sentiong","transit":false},{"distance":973,"is_transit":false,"station_id":"KMT","transit":false,"i_lat":-6.193792,"line":11,"station_name":"Kramat","time":1,"i_long":106.855437},{"is_transit":false,"station_id":"POK","distance":1829,"transit":false,"i_lat":-6.209188,"i_long":106.861737,"station_name":"Pondok Jati","time":2,"line":11},{"station_name":"Jatinegara","i_lat":-6.215091,"is_transit":true,"time":9,"distance":1236,"station_id":"JNG","i_long":106.86807400000001,"line":0,"transit":true},{"i_long":106.858896,"transit":false,"line":1,"is_transit":false,"station_id":"MTR","station_name":"Matraman","time":2,"i_lat":-6.212485,"distance":1377},{"is_transit":true,"station_id":"MRI","station_name":"Manggarai","i_long":106.84912,"line":0,"time":2,"i_lat":-6.209883,"transit":false,"distance":1275},{"i_long":106.822649,"transit":false,"distance":3186,"station_id":"SUD","line":1,"is_transit":false,"time":4,"i_lat":-6.202263,"station_name":"Sudirman"},{"transit":false,"i_lat":-6.201433,"station_name":"Sudirman Baru","station_id":"SUDB","is_transit":false,"time":1,"i_long":106.819881,"distance":280,"line":1},{"distance":471,"is_transit":false,"station_id":"KAT","i_long":106.816351,"i_lat":-6.20132,"transit":false,"time":1,"station_name":"Karet","line":1},{"is_transit":true,"transit":true,"time":5,"station_name":"Tanah Abang","i_lat":-6.185545,"i_long":106.811091,"distance":2029,"line":1,"station_id":"THB"},{"is_transit":false,"i_long":106.79689,"distance":3191,"transit":false,"time":6,"station_id":"PLM","station_name":"Palmerah","line":6,"i_lat":-6.207404},{"i_lat":-6.237242,"is_transit":false,"station_id":"KBY","station_name":"Kebayoran","distance":3737,"line":6,"transit":false,"i_long":106.780334,"time":7},{"is_transit":false,"time":8,"i_lat":-6.276362,"transit":false,"i_long":106.74273,"line":6,"distance":6218,"station_name":"Pondokranji","station_id":"PDJ"},{"line":6,"i_lat":-6.288927,"is_transit":false,"transit":false,"i_long":106.728916,"distance":2179,"station_id":"JMU","time":3,"station_name":"Jurangmangu"},{"is_transit":false,"i_lat":-6.296963,"transit":false,"i_long":106.712277,"station_id":"SDM","distance":1994,"line":6,"station_name":"Sudimara","time":4},{"line":6,"distance":4566,"station_name":"Rawa Buntu","station_id":"RU","transit":false,"time":6,"i_long":106.675475,"is_transit":false,"i_lat":-6.314823},{"station_name":"Serpong","transit":false,"i_lat":-6.319871,"time":4,"i_long":106.66566,"line":6,"distance":2413,"station_id":"SRP","is_transit":false},{"distance":1784,"i_long":106.640411,"station_id":"CSK","transit":false,"i_lat":-6.32484,"line":0,"station_name":"Cisauk","time":4,"is_transit":false},{"is_transit":false,"station_id":"CC","station_name":"Cicayur","transit":false,"time":4,"distance":2519,"i_lat":-6.329547,"i_long":106.617853,"line":0},{"line":6,"time":8,"i_lat":-6.3441410000000005,"station_name":"Parung Panjang","is_transit":false,"station_id":"PRP","i_long":106.568863,"distance":5968,"transit":false},{"station_name":"Cilejit","station_id":"CJT","distance":7025,"transit":false,"time":9,"i_long":106.508482,"i_lat":-6.354349,"line":0,"is_transit":false},{"time":6,"line":0,"is_transit":false,"station_name":"Daru","transit":false,"station_id":"DAR","i_lat":-6.338021,"i_long":106.491338,"distance":2675},{"station_name":"Tenjo","transit":false,"time":5,"i_long":106.460812,"line":6,"i_lat":-6.327251,"distance":3902,"is_transit":false,"station_id":"TEJ"},{"i_lat":-6.328533,"i_long":106.425991,"line":6,"station_id":"TGS","transit":false,"time":5,"is_transit":false,"distance":2974,"station_name":"Tigaraksa"},{"station_id":"CKY","transit":false,"time":3,"distance":2651,"line":0,"is_transit":false,"station_name":"Cikoya","i_lat":-6.33561,"i_long":106.411216},{"is_transit":false,"station_id":"MJ","transit":false,"station_name":"Maja","i_lat":-6.332307,"time":4,"i_long":106.394373,"line":6,"distance":1853},{"time":10,"is_transit":false,"i_lat":-6.334892,"distance":7293,"station_name":"Citeras","transit":false,"line":0,"station_id":"CTR","i_long":106.332092},{"transit":false,"i_lat":-6.352675,"i_long":106.250396,"is_transit":true,"station_name":"Rangkasbitung","time":13,"station_id":"RK","distance":9847,"line":0}]]}