{"data":[[{"transit":false,"i_lat":-6.162758,"line":5,"distance":0,"station_id":"RW","time":0,"i_long":106.723064,"station_name":"Rawa Buaya","is_transit":false},{"transit":false,"line":5,"i_long":106.737035,"i_lat":-6.159876,"time":4,"station_name":"Bojongindah","distance":1152,"is_transit":false,"station_id":"BOI"},{"station_id":"TKO","time":2,"line":5,"station_name":"Taman Kota","transit":false,"i_long":106.756522,"is_transit":false,"distance":2334,"i_lat":-6.1587309999999995},{"is_transit":false,"time":2,"transit":false,"station_id":"PSG","i_lat":-6.161433,"distance":1614,"station_name":"Pesing","i_long":106.771379,"line":5},{"distance":2036,"i_lat":-6.162021,"station_name":"Grogol","line":5,"transit":false,"is_transit":false,"time":2,"station_id":"GGL","i_long":106.788277},{"station_name":"Duri","transit":true,"line":1,"i_long":106.800832,"time":3,"distance":1700,"station_id":"DU","i_lat":-6.155215,"is_transit":true},{"is_transit":true,"transit":true,"line":1,"i_long":106.811091,"station_id":"THB","station_name":"Tanah Abang","time":8,"distance":3632,"i_lat":-6.185545},{"station_name":"Palmerah","i_long":106.79689,"transit":false,"is_transit":false,"time":6,"i_lat":-6.207404,"line":6,"distance":3191,"station_id":"PLM"},{"station_name":"Kebayoran","station_id":"KBY","i_long":106.780334,"distance":3737,"line":6,"is_transit":false,"transit":false,"i_lat":-6.237242,"time":7},{"is_transit":false,"time":8,"distance":6218,"i_long":106.74273,"i_lat":-6.276362,"transit":false,"station_name":"Pondokranji","station_id":"PDJ","line":6},{"transit":false,"station_name":"Jurangmangu","i_lat":-6.288927,"i_long":106.728916,"time":3,"line":6,"station_id":"JMU","is_transit":false,"distance":2179},{"i_long":106.712277,"i_lat":-6.296963,"distance":1994,"station_name":"Sudimara","station_id":"SDM","is_transit":false,"line":6,"time":4,"transit":false},{"i_lat":-6.314823,"line":6,"distance":4566,"station_name":"Rawa Buntu","station_id":"RU","is_transit":false,"transit":false,"i_long":106.675475,"time":6},{"station_name":"Serpong","i_long":106.66566,"line":6,"is_transit":false,"time":4,"i_lat":-6.319871,"transit":false,"station_id":"SRP","distance":2413},{"distance":1784,"line":3,"is_transit":false,"station_id":"CSK","i_long":106.640411,"transit":false,"time":4,"station_name":"Cisauk","i_lat":-6.32484},{"station_id":"CC","i_lat":-6.329547,"distance":2519,"line":3,"time":4,"station_name":"Cicayur","transit":false,"is_transit":false,"i_long":106.617853},{"i_lat":-6.3441410000000005,"i_long":106.568863,"transit":false,"station_id":"PRP","is_transit":false,"time":8,"distance":5968,"line":6,"station_name":"Parung Panjang"},{"time":9,"is_transit":false,"i_long":106.508482,"line":3,"transit":false,"distance":7025,"station_name":"Cilejit","station_id":"CJT","i_lat":-6.354349},{"station_id":"DAR","line":0,"is_transit":false,"station_name":"Daru","i_long":106.491338,"transit":false,"time":6,"i_lat":-6.338021,"distance":2675},{"station_name":"Tenjo","transit":false,"distance":3902,"i_lat":-6.327251,"time":5,"station_id":"TEJ","is_transit":false,"line":6,"i_long":106.460812},{"station_id":"TGS","distance":2974,"i_lat":-6.328533,"i_long":106.425991,"transit":false,"station_name":"Tigaraksa","is_transit":false,"time":5,"line":6},{"is_transit":false,"station_id":"CKY","i_lat":-6.33561,"i_long":106.411216,"line":3,"transit":false,"station_name":"Cikoya","distance":2651,"time":3},{"i_lat":-6.332307,"station_id":"MJ","distance":1853,"station_name":"Maja","time":4,"i_long":106.394373,"line":6,"is_transit":false,"transit":false},{"station_id":"CTR","i_lat":-6.334892,"is_transit":false,"transit":false,"line":3,"i_long":106.332092,"station_name":"Citeras","time":10,"distance":7293},{"distance":9847,"is_transit":false,"station_name":"Rangkasbitung","time":13,"line":3,"station_id":"RK","i_lat":-6.352675,"transit":false,"i_long":106.250396}],[{"time":0,"i_long":106.723064,"station_id":"RW","transit":false,"station_name":"Rawa Buaya","i_lat":-6.162758,"line":5,"is_transit":false,"distance":0},{"station_name":"Bojongindah","is_transit":false,"station_id":"BOI","time":4,"i_lat":-6.159876,"transit":false,"distance":1152,"i_long":106.737035,"line":5},{"transit":false,"i_lat":-6.1587309999999995,"distance":2334,"i_long":106.756522,"time":2,"station_name":"Taman Kota","station_id":"TKO","is_transit":false,"line":5},{"i_long":106.771379,"time":2,"line":5,"is_transit":false,"station_name":"Pesing","transit":false,"distance":1614,"i_lat":-6.161433,"station_id":"PSG"},{"is_transit":false,"i_lat":-6.162021,"transit":false,"distance":2036,"station_id":"GGL","station_name":"Grogol","line":5,"time":2,"i_long":106.788277},{"line":1,"time":3,"distance":1700,"transit":true,"i_lat":-6.155215,"station_name":"Duri","station_id":"DU","is_transit":true,"i_long":106.800832},{"distance":1230,"station_name":"Angke","is_transit":false,"line":1,"time":4,"station_id":"AK","i_lat":-6.144674,"transit":false,"i_long":106.79867},{"i_long":106.826365,"time":9,"distance":4102,"i_lat":-6.132549,"transit":true,"station_name":"Kampung Bandan","is_transit":true,"station_id":"KPB","line":4},{"station_id":"JAKK","is_transit":true,"i_lat":-6.137569,"transit":true,"station_name":"Jakarta Kota","distance":1364,"i_long":106.812439,"line":2,"time":3},{"station_id":"JAY","i_long":106.820901,"time":4,"line":2,"station_name":"Jayakarta","transit":false,"distance":1264,"is_transit":false,"i_lat":-6.141205},{"station_name":"Manggabesar","is_transit":false,"time":2,"i_long":106.82482,"i_lat":-6.149769,"line":2,"station_id":"MGB","transit":false,"distance":1080},{"station_name":"Sawah Besar","transit":false,"distance":906,"time":2,"is_transit":false,"i_long":106.827103,"station_id":"SW","i_lat":-6.160725,"line":2},{"line":2,"time":2,"station_name":"Juanda","i_long":106.828284,"is_transit":false,"station_id":"JUA","distance":1149,"i_lat":-6.166716,"transit":false},{"line":2,"transit":false,"station_id":"GDD","time":4,"i_long":106.832183,"station_name":"Gondangdia","i_lat":-6.186295,"is_transit":false,"distance":2015},{"time":3,"distance":1750,"station_id":"CKI","station_name":"Cikini","line":2,"is_transit":false,"i_lat":-6.198556,"i_long":106.840169,"transit":false},{"transit":true,"station_id":"MRI","station_name":"Manggarai","distance":1590,"line":2,"is_transit":true,"i_lat":-6.209883,"i_long":106.84912,"time":4},{"station_id":"SUD","line":1,"i_long":106.822649,"station_name":"Sudirman","transit":false,"time":4,"distance":3186,"is_transit":false,"i_lat":-6.202263},{"station_name":"Sudirman Baru","distance":280,"is_transit":false,"station_id":"SUDB","i_long":106.819881,"i_lat":-6.201433,"time":1,"transit":false,"line":1},{"is_transit":false,"station_id":"KAT","i_lat":-6.20132,"distance":471,"i_long":106.816351,"station_name":"Karet","time":1,"transit":false,"line":1},{"line":1,"i_long":106.811091,"distance":2029,"transit":true,"is_transit":true,"time":5,"station_id":"THB","station_name":"Tanah Abang","i_lat":-6.185545},{"time":6,"station_name":"Palmerah","distance":3191,"is_transit":false,"i_lat":-6.207404,"i_long":106.79689,"line":6,"transit":false,"station_id":"PLM"},{"station_id":"KBY","station_name":"Kebayoran","time":7,"is_transit":false,"distance":3737,"i_lat":-6.237242,"i_long":106.780334,"transit":false,"line":6},{"transit":false,"time":8,"station_id":"PDJ","line":6,"station_name":"Pondokranji","is_transit":false,"i_lat":-6.276362,"i_long":106.74273,"distance":6218},{"distance":2179,"i_long":106.728916,"is_transit":false,"time":3,"transit":false,"station_name":"Jurangmangu","i_lat":-6.288927,"station_id":"JMU","line":6},{"distance":1994,"i_lat":-6.296963,"line":6,"station_id":"SDM","station_name":"Sudimara","transit":false,"i_long":106.712277,"time":4,"is_transit":false},{"transit":false,"is_transit":false,"time":6,"station_name":"Rawa Buntu","distance":4566,"line":6,"station_id":"RU","i_lat":-6.314823,"i_long":106.675475},{"is_transit":false,"transit":false,"i_lat":-6.319871,"station_name":"Serpong","distance":2413,"time":4,"i_long":106.66566,"station_id":"SRP","line":6},{"is_transit":false,"i_lat":-6.32484,"transit":false,"station_id":"CSK","distance":1784,"station_name":"Cisauk","time":4,"i_long":106.640411,"line":3},{"i_long":106.617853,"i_lat":-6.329547,"is_transit":false,"time":4,"distance":2519,"station_name":"Cicayur","line":3,"transit":false,"station_id":"CC"},{"station_id":"PRP","line":6,"is_transit":false,"transit":false,"i_long":106.568863,"time":8,"distance":5968,"i_lat":-6.3441410000000005,"station_name":"Parung Panjang"},{"time":9,"distance":7025,"station_id":"CJT","station_name":"Cilejit","i_long":106.508482,"line":3,"transit":false,"i_lat":-6.354349,"is_transit":false},{"station_name":"Daru","i_lat":-6.338021,"transit":false,"line":0,"station_id":"DAR","is_transit":false,"distance":2675,"i_long":106.491338,"time":6},{"i_long":106.460812,"transit":false,"is_transit":false,"distance":3902,"line":6,"i_lat":-6.327251,"station_name":"Tenjo","time":5,"station_id":"TEJ"},{"transit":false,"station_id":"TGS","i_lat":-6.328533,"is_transit":false,"distance":2974,"time":5,"line":6,"i_long":106.425991,"station_name":"Tigaraksa"},{"is_transit":false,"distance":2651,"station_name":"Cikoya","line":3,"i_lat":-6.33561,"time":3,"i_long":106.411216,"transit":false,"station_id":"CKY"},{"time":4,"is_transit":false,"i_lat":-6.332307,"line":6,"station_name":"Maja","station_id":"MJ","distance":1853,"i_long":106.394373,"transit":false},{"station_name":"Citeras","time":10,"i_long":106.332092,"is_transit":false,"station_id":"CTR","line":3,"transit":false,"distance":7293,"i_lat":-6.334892},{"time":13,"transit":false,"is_transit":false,"station_id":"RK","i_long":106.250396,"distance":9847,"line":3,"i_lat":-6.352675,"station_name":"Rangkasbitung"}],[{"station_name":"Rawa Buaya","time":0,"is_transit":false,"i_lat":-6.162758,"transit":false,"line":5,"station_id":"RW","distance":0,"i_long":106.723064},{"station_name":"Bojongindah","time":4,"i_lat":-6.159876,"is_transit":false,"distance":1152,"i_long":106.737035,"station_id":"BOI","transit":false,"line":5},{"station_name":"Taman Kota","is_transit":false,"line":5,"time":2,"transit":false,"distance":2334,"i_lat":-6.1587309999999995,"i_long":106.756522,"station_id":"TKO"},{"transit":false,"distance":1614,"line":5,"station_name":"Pesing","i_lat":-6.161433,"is_transit":false,"i_long":106.771379,"time":2,"station_id":"PSG"},{"station_name":"Grogol","transit":false,"i_lat":-6.162021,"i_long":106.788277,"line":5,"station_id":"GGL","is_transit":false,"distance":2036,"time":2},{"time":3,"distance":1700,"i_lat":-6.155215,"is_transit":true,"transit":true,"station_name":"Duri","line":1,"station_id":"DU","i_long":106.800832},{"transit":false,"line":1,"station_name":"Angke","station_id":"AK","is_transit":false,"time":4,"distance":1230,"i_long":106.79867,"i_lat":-6.144674},{"is_transit":true,"station_name":"Kampung Bandan","time":9,"i_lat":-6.132549,"line":4,"i_long":106.826365,"station_id":"KPB","transit":true,"distance":4102},{"station_id":"RJW","station_name":"Rajawali","transit":false,"i_long":106.836569,"time":3,"i_lat":-6.14505,"is_transit":false,"distance":1444,"line":11},{"station_id":"KMO","i_lat":-6.161728,"i_long":106.839204,"transit":false,"line":11,"station_name":"Kemayoran","time":5,"is_transit":false,"distance":1901},{"station_id":"PSE","is_transit":false,"line":11,"time":4,"i_lat":-6.174784,"station_name":"Pasar Senen","transit":false,"distance":1436,"i_long":106.84368},{"station_id":"GST","is_transit":false,"i_lat":-6.185975,"transit":false,"line":11,"station_name":"Gang Sentiong","i_long":106.850107,"distance":1567,"time":8},{"transit":false,"is_transit":false,"line":11,"time":1,"i_long":106.855437,"i_lat":-6.193792,"distance":973,"station_id":"KMT","station_name":"Kramat"},{"station_id":"POK","line":11,"transit":false,"station_name":"Pondok Jati","is_transit":false,"i_lat":-6.209188,"time":2,"distance":1829,"i_long":106.861737},{"is_transit":true,"time":9,"i_lat":-6.215091,"station_id":"JNG","transit":true,"distance":1236,"i_long":106.86807400000001,"line":1,"station_name":"Jatinegara"},{"is_transit":false,"i_lat":-6.212485,"i_long":106.858896,"station_name":"Matraman","time":2,"line":1,"transit":false,"distance":1377,"station_id":"MTR"},{"time":2,"is_transit":false,"distance":1275,"i_lat":-6.209883,"station_id":"MRI","transit":false,"i_long":106.84912,"line":2,"station_name":"Manggarai"},{"station_name":"Sudirman","i_long":106.822649,"station_id":"SUD","transit":false,"is_transit":false,"time":4,"distance":3186,"i_lat":-6.202263,"line":1},{"distance":280,"station_name":"Sudirman Baru","i_lat":-6.201433,"transit":false,"line":1,"time":1,"is_transit":false,"station_id":"SUDB","i_long":106.819881},{"line":1,"transit":false,"i_long":106.816351,"i_lat":-6.20132,"is_transit":false,"station_name":"Karet","station_id":"KAT","distance":471,"time":1},{"i_long":106.811091,"distance":2029,"line":1,"transit":true,"is_transit":true,"station_id":"THB","time":5,"i_lat":-6.185545,"station_name":"Tanah Abang"},{"station_name":"Palmerah","is_transit":false,"transit":false,"distance":3191,"i_lat":-6.207404,"line":6,"station_id":"PLM","time":6,"i_long":106.79689},{"i_long":106.780334,"station_name":"Kebayoran","line":6,"station_id":"KBY","is_transit":false,"transit":false,"time":7,"distance":3737,"i_lat":-6.237242},{"station_name":"Pondokranji","i_long":106.74273,"is_transit":false,"line":6,"transit":false,"distance":6218,"time":8,"station_id":"PDJ","i_lat":-6.276362},{"i_lat":-6.288927,"i_long":106.728916,"line":6,"transit":false,"station_name":"Jurangmangu","distance":2179,"is_transit":false,"time":3,"station_id":"JMU"},{"is_transit":false,"time":4,"distance":1994,"station_id":"SDM","i_lat":-6.296963,"transit":false,"i_long":106.712277,"station_name":"Sudimara","line":6},{"line":6,"station_name":"Rawa Buntu","distance":4566,"time":6,"transit":false,"is_transit":false,"i_lat":-6.314823,"station_id":"RU","i_long":106.675475},{"line":6,"is_transit":false,"distance":2413,"time":4,"i_lat":-6.319871,"transit":false,"i_long":106.66566,"station_name":"Serpong","station_id":"SRP"},{"station_id":"CSK","line":3,"time":4,"i_lat":-6.32484,"is_transit":false,"station_name":"Cisauk","distance":1784,"i_long":106.640411,"transit":false},{"i_long":106.617853,"station_id":"CC","line":3,"is_transit":false,"distance":2519,"station_name":"Cicayur","time":4,"i_lat":-6.329547,"transit":false},{"distance":5968,"i_long":106.568863,"is_transit":false,"time":8,"station_name":"Parung Panjang","line":6,"station_id":"PRP","transit":false,"i_lat":-6.3441410000000005},{"station_id":"CJT","i_lat":-6.354349,"is_transit":false,"transit":false,"distance":7025,"i_long":106.508482,"time":9,"line":3,"station_name":"Cilejit"},{"station_name":"Daru","i_lat":-6.338021,"i_long":106.491338,"distance":2675,"transit":false,"is_transit":false,"line":0,"station_id":"DAR","time":6},{"line":6,"i_lat":-6.327251,"transit":false,"time":5,"station_id":"TEJ","distance":3902,"is_transit":false,"i_long":106.460812,"station_name":"Tenjo"},{"transit":false,"distance":2974,"i_long":106.425991,"station_name":"Tigaraksa","station_id":"TGS","time":5,"is_transit":false,"i_lat":-6.328533,"line":6},{"i_long":106.411216,"is_transit":false,"time":3,"distance":2651,"line":3,"station_id":"CKY","i_lat":-6.33561,"transit":false,"station_name":"Cikoya"},{"line":6,"station_name":"Maja","i_long":106.394373,"station_id":"MJ","transit":false,"is_transit":false,"time":4,"distance":1853,"i_lat":-6.332307},{"i_lat":-6.334892,"station_name":"Citeras","distance":7293,"i_long":106.332092,"line":3,"is_transit":false,"station_id":"CTR","transit":false,"time":10},{"station_name":"Rangkasbitung","is_transit":false,"i_long":106.250396,"transit":false,"distance":9847,"line":3,"station_id":"RK","time":13,"i_lat":-6.352675}]]}