{"data":[[{"i_lat":-6.162758,"time":0,"is_transit":false,"i_long":106.723064,"distance":0,"station_id":"RW","line":5,"transit":false,"station_name":"Rawa Buaya"},{"distance":1152,"line":5,"transit":false,"is_transit":false,"time":4,"i_long":106.737035,"i_lat":-6.159876,"station_name":"Bojongindah","station_id":"BOI"},{"distance":2334,"time":2,"i_long":106.756522,"line":5,"station_id":"TKO","transit":false,"station_name":"Taman Kota","i_lat":-6.1587309999999995,"is_transit":false},{"is_transit":false,"distance":1614,"i_long":106.771379,"time":2,"station_id":"PSG","line":5,"i_lat":-6.161433,"station_name":"Pesing","transit":false},{"station_name":"Grogol","distance":2036,"station_id":"GGL","line":5,"transit":false,"time":2,"i_lat":-6.162021,"i_long":106.788277,"is_transit":false},{"station_id":"DU","is_transit":true,"station_name":"Duri","i_long":106.800832,"distance":1700,"time":3,"transit":true,"i_lat":-6.155215,"line":1},{"station_id":"THB","station_name":"Tanah Abang","i_lat":-6.185545,"transit":true,"is_transit":true,"time":8,"distance":3632,"i_long":106.811091,"line":1},{"distance":3191,"i_lat":-6.207404,"is_transit":false,"transit":false,"time":6,"station_name":"Palmerah","station_id":"PLM","i_long":106.79689,"line":6},{"line":6,"transit":false,"time":7,"i_lat":-6.237242,"is_transit":false,"distance":3737,"i_long":106.780334,"station_name":"Kebayoran","station_id":"KBY"},{"distance":6218,"station_id":"PDJ","i_lat":-6.276362,"i_long":106.74273,"is_transit":false,"line":6,"transit":false,"station_name":"Pondokranji","time":8},{"station_id":"JMU","i_long":106.728916,"distance":2179,"station_name":"Jurangmangu","i_lat":-6.288927,"time":3,"line":6,"transit":false,"is_transit":false},{"i_long":106.712277,"time":4,"line":6,"transit":false,"station_id":"SDM","is_transit":false,"distance":1994,"station_name":"Sudimara","i_lat":-6.296963},{"is_transit":false,"transit":false,"station_id":"RU","time":6,"i_long":106.675475,"station_name":"Rawa Buntu","line":6,"i_lat":-6.314823,"distance":4566},{"i_lat":-6.319871,"transit":false,"i_long":106.66566,"distance":2413,"station_name":"Serpong","is_transit":false,"time":4,"line":6,"station_id":"SRP"}],[{"time":0,"distance":0,"station_id":"RW","is_transit":false,"i_lat":-6.162758,"i_long":106.723064,"line":5,"transit":false,"station_name":"Rawa Buaya"},{"transit":false,"is_transit":false,"distance":1152,"line":5,"time":4,"station_name":"Bojongindah","i_lat":-6.159876,"i_long":106.737035,"station_id":"BOI"},{"line":5,"station_id":"TKO","time":2,"distance":2334,"transit":false,"i_lat":-6.1587309999999995,"station_name":"Taman Kota","is_transit":false,"i_long":106.756522},{"i_lat":-6.161433,"is_transit":false,"distance":1614,"transit":false,"station_name":"Pesing","i_long":106.771379,"station_id":"PSG","time":2,"line":5},{"transit":false,"is_transit":false,"line":5,"station_name":"Grogol","i_lat":-6.162021,"i_long":106.788277,"time":2,"station_id":"GGL","distance":2036},{"time":3,"transit":true,"distance":1700,"i_lat":-6.155215,"station_id":"DU","line":1,"i_long":106.800832,"station_name":"Duri","is_transit":true},{"transit":false,"station_name":"Angke","station_id":"AK","time":4,"distance":1230,"i_lat":-6.144674,"is_transit":false,"line":1,"i_long":106.79867},{"line":4,"i_lat":-6.132549,"is_transit":true,"distance":4102,"transit":true,"i_long":106.826365,"station_name":"Kampung Bandan","station_id":"KPB","time":9},{"line":2,"station_name":"Jakarta Kota","i_lat":-6.137569,"i_long":106.812439,"distance":1364,"station_id":"JAKK","transit":true,"is_transit":true,"time":3},{"is_transit":false,"distance":1264,"line":2,"i_lat":-6.141205,"station_name":"Jayakarta","time":4,"i_long":106.820901,"transit":false,"station_id":"JAY"},{"i_lat":-6.149769,"transit":false,"time":2,"is_transit":false,"station_name":"Manggabesar","i_long":106.82482,"station_id":"MGB","line":2,"distance":1080},{"is_transit":false,"i_long":106.827103,"time":2,"i_lat":-6.160725,"station_name":"Sawah Besar","distance":906,"line":2,"station_id":"SW","transit":false},{"i_lat":-6.166716,"station_id":"JUA","is_transit":false,"station_name":"Juanda","i_long":106.828284,"distance":1149,"transit":false,"time":2,"line":2},{"line":2,"station_name":"Gondangdia","time":4,"i_lat":-6.186295,"is_transit":false,"distance":2015,"station_id":"GDD","i_long":106.832183,"transit":false},{"line":2,"distance":1750,"i_lat":-6.198556,"station_id":"CKI","i_long":106.840169,"station_name":"Cikini","is_transit":false,"time":3,"transit":false},{"transit":true,"time":4,"distance":1590,"i_long":106.84912,"line":2,"station_id":"MRI","is_transit":true,"i_lat":-6.209883,"station_name":"Manggarai"},{"time":4,"is_transit":false,"transit":false,"station_name":"Sudirman","station_id":"SUD","distance":3186,"i_lat":-6.202263,"i_long":106.822649,"line":1},{"station_name":"Sudirman Baru","line":1,"distance":280,"i_long":106.819881,"is_transit":false,"transit":false,"station_id":"SUDB","i_lat":-6.201433,"time":1},{"transit":false,"station_name":"Karet","is_transit":false,"station_id":"KAT","i_long":106.816351,"distance":471,"time":1,"line":1,"i_lat":-6.20132},{"time":5,"is_transit":true,"distance":2029,"station_name":"Tanah Abang","station_id":"THB","i_long":106.811091,"line":1,"i_lat":-6.185545,"transit":true},{"station_name":"Palmerah","station_id":"PLM","is_transit":false,"distance":3191,"i_long":106.79689,"line":6,"time":6,"transit":false,"i_lat":-6.207404},{"transit":false,"station_name":"Kebayoran","time":7,"i_long":106.780334,"i_lat":-6.237242,"station_id":"KBY","is_transit":false,"distance":3737,"line":6},{"is_transit":false,"time":8,"distance":6218,"line":6,"station_name":"Pondokranji","transit":false,"station_id":"PDJ","i_lat":-6.276362,"i_long":106.74273},{"i_long":106.728916,"transit":false,"station_id":"JMU","is_transit":false,"station_name":"Jurangmangu","line":6,"distance":2179,"i_lat":-6.288927,"time":3},{"line":6,"time":4,"distance":1994,"is_transit":false,"station_id":"SDM","i_lat":-6.296963,"station_name":"Sudimara","i_long":106.712277,"transit":false},{"time":6,"line":6,"distance":4566,"station_name":"Rawa Buntu","transit":false,"i_lat":-6.314823,"station_id":"RU","is_transit":false,"i_long":106.675475},{"line":6,"station_id":"SRP","transit":false,"is_transit":false,"i_long":106.66566,"i_lat":-6.319871,"distance":2413,"station_name":"Serpong","time":4}],[{"i_lat":-6.162758,"is_transit":false,"time":0,"distance":0,"i_long":106.723064,"station_name":"Rawa Buaya","line":5,"transit":false,"station_id":"RW"},{"i_lat":-6.159876,"transit":false,"time":4,"is_transit":false,"station_name":"Bojongindah","station_id":"BOI","line":5,"distance":1152,"i_long":106.737035},{"distance":2334,"time":2,"i_long":106.756522,"i_lat":-6.1587309999999995,"station_id":"TKO","station_name":"Taman Kota","transit":false,"line":5,"is_transit":false},{"i_lat":-6.161433,"line":5,"transit":false,"is_transit":false,"station_id":"PSG","station_name":"Pesing","distance":1614,"i_long":106.771379,"time":2},{"transit":false,"is_transit":false,"time":2,"i_lat":-6.162021,"distance":2036,"i_long":106.788277,"line":5,"station_id":"GGL","station_name":"Grogol"},{"distance":1700,"i_lat":-6.155215,"time":3,"i_long":106.800832,"line":1,"station_id":"DU","transit":true,"is_transit":true,"station_name":"Duri"},{"i_long":106.79867,"station_id":"AK","distance":1230,"i_lat":-6.144674,"line":1,"time":4,"is_transit":false,"station_name":"Angke","transit":false},{"distance":4102,"station_name":"Kampung Bandan","i_long":106.826365,"is_transit":true,"station_id":"KPB","line":4,"i_lat":-6.132549,"transit":true,"time":9},{"i_lat":-6.14505,"station_name":"Rajawali","line":11,"time":3,"station_id":"RJW","distance":1444,"i_long":106.836569,"transit":false,"is_transit":false},{"station_id":"KMO","is_transit":false,"time":5,"i_lat":-6.161728,"transit":false,"station_name":"Kemayoran","distance":1901,"i_long":106.839204,"line":11},{"station_id":"PSE","transit":false,"i_lat":-6.174784,"station_name":"Pasar Senen","is_transit":false,"i_long":106.84368,"line":11,"time":4,"distance":1436},{"time":8,"line":11,"is_transit":false,"station_id":"GST","distance":1567,"station_name":"Gang Sentiong","transit":false,"i_lat":-6.185975,"i_long":106.850107},{"distance":973,"i_long":106.855437,"transit":false,"station_name":"Kramat","is_transit":false,"time":1,"i_lat":-6.193792,"line":11,"station_id":"KMT"},{"line":11,"is_transit":false,"transit":false,"station_id":"POK","i_long":106.861737,"distance":1829,"station_name":"Pondok Jati","time":2,"i_lat":-6.209188},{"station_id":"JNG","i_lat":-6.215091,"is_transit":true,"transit":true,"station_name":"Jatinegara","line":1,"time":9,"distance":1236,"i_long":106.86807400000001},{"station_id":"MTR","transit":false,"station_name":"Matraman","i_lat":-6.212485,"is_transit":false,"time":2,"i_long":106.858896,"line":1,"distance":1377},{"is_transit":false,"line":2,"station_id":"MRI","station_name":"Manggarai","time":2,"transit":false,"distance":1275,"i_long":106.84912,"i_lat":-6.209883},{"line":1,"distance":3186,"station_id":"SUD","i_lat":-6.202263,"time":4,"station_name":"Sudirman","transit":false,"is_transit":false,"i_long":106.822649},{"station_name":"Sudirman Baru","is_transit":false,"station_id":"SUDB","distance":280,"time":1,"i_long":106.819881,"i_lat":-6.201433,"transit":false,"line":1},{"transit":false,"i_lat":-6.20132,"station_id":"KAT","is_transit":false,"distance":471,"line":1,"station_name":"Karet","i_long":106.816351,"time":1},{"time":5,"distance":2029,"is_transit":true,"i_lat":-6.185545,"transit":true,"line":1,"station_id":"THB","station_name":"Tanah Abang","i_long":106.811091},{"i_long":106.79689,"is_transit":false,"i_lat":-6.207404,"distance":3191,"transit":false,"line":6,"time":6,"station_name":"Palmerah","station_id":"PLM"},{"transit":false,"station_name":"Kebayoran","station_id":"KBY","time":7,"i_lat":-6.237242,"i_long":106.780334,"line":6,"distance":3737,"is_transit":false},{"i_long":106.74273,"transit":false,"line":6,"station_name":"Pondokranji","time":8,"i_lat":-6.276362,"station_id":"PDJ","distance":6218,"is_transit":false},{"distance":2179,"station_name":"Jurangmangu","line":6,"station_id":"JMU","transit":false,"i_lat":-6.288927,"time":3,"is_transit":false,"i_long":106.728916},{"time":4,"is_transit":false,"i_lat":-6.296963,"transit":false,"station_id":"SDM","line":6,"station_name":"Sudimara","distance":1994,"i_long":106.712277},{"i_long":106.675475,"is_transit":false,"line":6,"time":6,"station_name":"Rawa Buntu","transit":false,"station_id":"RU","i_lat":-6.314823,"distance":4566},{"i_long":106.66566,"distance":2413,"is_transit":false,"station_name":"Serpong","station_id":"SRP","time":4,"i_lat":-6.319871,"line":6,"transit":false}]]}