{"data":[[{"station_id":"RW","transit":false,"is_transit":false,"i_long":106.723064,"line":5,"i_lat":-6.162758,"time":0,"distance":0,"station_name":"Rawa Buaya"},{"i_long":106.737035,"is_transit":false,"transit":false,"station_name":"Bojongindah","line":5,"distance":1152,"station_id":"BOI","time":4,"i_lat":-6.159876},{"station_name":"Taman Kota","line":5,"transit":false,"is_transit":false,"i_long":106.756522,"time":2,"distance":2334,"station_id":"TKO","i_lat":-6.1587309999999995},{"is_transit":false,"station_name":"Pesing","line":5,"i_lat":-6.161433,"time":2,"distance":1614,"transit":false,"i_long":106.771379,"station_id":"PSG"},{"station_id":"GGL","time":2,"distance":2036,"is_transit":false,"transit":false,"i_lat":-6.162021,"i_long":106.788277,"station_name":"Grogol","line":5},{"station_id":"DU","i_long":106.800832,"station_name":"Duri","transit":true,"i_lat":-6.155215,"distance":1700,"is_transit":true,"time":3,"line":1},{"is_transit":true,"station_name":"Tanah Abang","i_lat":-6.185545,"station_id":"THB","distance":3632,"transit":true,"i_long":106.811091,"time":8,"line":1},{"time":6,"station_name":"Palmerah","distance":3191,"i_long":106.79689,"is_transit":false,"station_id":"PLM","line":6,"transit":false,"i_lat":-6.207404},{"time":7,"station_id":"KBY","i_lat":-6.237242,"line":6,"distance":3737,"is_transit":false,"station_name":"Kebayoran","transit":false,"i_long":106.780334},{"distance":6218,"i_lat":-6.276362,"transit":false,"station_name":"Pondokranji","i_long":106.74273,"station_id":"PDJ","line":6,"time":8,"is_transit":false},{"i_long":106.728916,"time":3,"distance":2179,"station_id":"JMU","station_name":"Jurangmangu","line":6,"transit":false,"i_lat":-6.288927,"is_transit":false},{"i_long":106.712277,"distance":1994,"i_lat":-6.296963,"transit":false,"station_name":"Sudimara","line":6,"time":4,"is_transit":false,"station_id":"SDM"},{"is_transit":false,"i_lat":-6.314823,"station_id":"RU","transit":false,"line":6,"i_long":106.675475,"time":6,"distance":4566,"station_name":"Rawa Buntu"},{"transit":false,"distance":2413,"station_name":"Serpong","line":6,"station_id":"SRP","i_long":106.66566,"time":4,"i_lat":-6.319871,"is_transit":false}],[{"transit":false,"station_name":"Rawa Buaya","time":0,"is_transit":false,"i_lat":-6.162758,"i_long":106.723064,"line":5,"station_id":"RW","distance":0},{"distance":1152,"station_name":"Bojongindah","transit":false,"i_lat":-6.159876,"i_long":106.737035,"time":4,"is_transit":false,"line":5,"station_id":"BOI"},{"line":5,"transit":false,"distance":2334,"station_id":"TKO","is_transit":false,"station_name":"Taman Kota","time":2,"i_long":106.756522,"i_lat":-6.1587309999999995},{"is_transit":false,"transit":false,"time":2,"i_lat":-6.161433,"i_long":106.771379,"station_name":"Pesing","distance":1614,"line":5,"station_id":"PSG"},{"i_lat":-6.162021,"is_transit":false,"i_long":106.788277,"time":2,"station_id":"GGL","transit":false,"distance":2036,"station_name":"Grogol","line":5},{"i_lat":-6.155215,"is_transit":true,"transit":true,"station_id":"DU","station_name":"Duri","time":3,"distance":1700,"i_long":106.800832,"line":1},{"i_long":106.79867,"line":1,"is_transit":false,"station_id":"AK","time":4,"transit":false,"distance":1230,"station_name":"Angke","i_lat":-6.144674},{"is_transit":true,"line":4,"i_long":106.826365,"time":9,"station_id":"KPB","station_name":"Kampung Bandan","i_lat":-6.132549,"distance":4102,"transit":true},{"time":3,"i_long":106.812439,"line":2,"distance":1364,"i_lat":-6.137569,"transit":true,"station_name":"Jakarta Kota","station_id":"JAKK","is_transit":true},{"transit":false,"station_name":"Jayakarta","i_lat":-6.141205,"is_transit":false,"line":2,"distance":1264,"time":4,"i_long":106.820901,"station_id":"JAY"},{"station_id":"MGB","i_long":106.82482,"is_transit":false,"line":2,"time":2,"transit":false,"distance":1080,"i_lat":-6.149769,"station_name":"Manggabesar"},{"is_transit":false,"i_long":106.827103,"time":2,"transit":false,"station_name":"Sawah Besar","line":2,"station_id":"SW","i_lat":-6.160725,"distance":906},{"i_long":106.828284,"transit":false,"station_id":"JUA","distance":1149,"time":2,"station_name":"Juanda","i_lat":-6.166716,"is_transit":false,"line":2},{"i_long":106.832183,"time":4,"station_id":"GDD","is_transit":false,"transit":false,"station_name":"Gondangdia","distance":2015,"i_lat":-6.186295,"line":2},{"is_transit":false,"i_lat":-6.198556,"time":3,"station_id":"CKI","i_long":106.840169,"distance":1750,"line":2,"transit":false,"station_name":"Cikini"},{"time":4,"station_name":"Manggarai","distance":1590,"i_lat":-6.209883,"transit":true,"is_transit":true,"station_id":"MRI","i_long":106.84912,"line":2},{"station_name":"Sudirman","time":4,"station_id":"SUD","is_transit":false,"transit":false,"i_lat":-6.202263,"i_long":106.822649,"line":1,"distance":3186},{"distance":280,"i_long":106.819881,"transit":false,"is_transit":false,"time":1,"station_id":"SUDB","i_lat":-6.201433,"line":1,"station_name":"Sudirman Baru"},{"transit":false,"distance":471,"is_transit":false,"time":1,"i_lat":-6.20132,"station_name":"Karet","i_long":106.816351,"station_id":"KAT","line":1},{"transit":true,"i_lat":-6.185545,"station_name":"Tanah Abang","line":1,"distance":2029,"time":5,"station_id":"THB","is_transit":true,"i_long":106.811091},{"line":6,"i_lat":-6.207404,"distance":3191,"station_id":"PLM","time":6,"transit":false,"is_transit":false,"station_name":"Palmerah","i_long":106.79689},{"station_id":"KBY","i_lat":-6.237242,"time":7,"station_name":"Kebayoran","i_long":106.780334,"distance":3737,"line":6,"transit":false,"is_transit":false},{"station_name":"Pondokranji","station_id":"PDJ","i_lat":-6.276362,"i_long":106.74273,"distance":6218,"transit":false,"line":6,"is_transit":false,"time":8},{"station_id":"JMU","station_name":"Jurangmangu","i_lat":-6.288927,"transit":false,"i_long":106.728916,"time":3,"is_transit":false,"distance":2179,"line":6},{"station_name":"Sudimara","is_transit":false,"time":4,"transit":false,"station_id":"SDM","i_lat":-6.296963,"line":6,"i_long":106.712277,"distance":1994},{"is_transit":false,"line":6,"distance":4566,"time":6,"i_lat":-6.314823,"station_id":"RU","transit":false,"i_long":106.675475,"station_name":"Rawa Buntu"},{"is_transit":false,"i_long":106.66566,"station_id":"SRP","transit":false,"i_lat":-6.319871,"line":6,"distance":2413,"station_name":"Serpong","time":4}],[{"station_id":"RW","i_lat":-6.162758,"station_name":"Rawa Buaya","time":0,"distance":0,"is_transit":false,"i_long":106.723064,"line":5,"transit":false},{"time":4,"distance":1152,"is_transit":false,"transit":false,"station_id":"BOI","station_name":"Bojongindah","i_long":106.737035,"line":5,"i_lat":-6.159876},{"is_transit":false,"time":2,"station_id":"TKO","station_name":"Taman Kota","i_lat":-6.1587309999999995,"i_long":106.756522,"distance":2334,"line":5,"transit":false},{"transit":false,"station_id":"PSG","is_transit":false,"i_long":106.771379,"station_name":"Pesing","time":2,"distance":1614,"i_lat":-6.161433,"line":5},{"i_long":106.788277,"transit":false,"station_name":"Grogol","is_transit":false,"time":2,"station_id":"GGL","i_lat":-6.162021,"distance":2036,"line":5},{"is_transit":true,"time":3,"transit":true,"station_name":"Duri","distance":1700,"line":1,"station_id":"DU","i_lat":-6.155215,"i_long":106.800832},{"transit":false,"is_transit":false,"i_lat":-6.144674,"station_id":"AK","distance":1230,"time":4,"line":1,"station_name":"Angke","i_long":106.79867},{"station_name":"Kampung Bandan","station_id":"KPB","i_lat":-6.132549,"line":4,"time":9,"i_long":106.826365,"distance":4102,"transit":true,"is_transit":true},{"line":11,"i_long":106.836569,"time":3,"transit":false,"i_lat":-6.14505,"station_name":"Rajawali","is_transit":false,"station_id":"RJW","distance":1444},{"is_transit":false,"i_lat":-6.161728,"time":5,"distance":1901,"station_name":"Kemayoran","transit":false,"line":11,"i_long":106.839204,"station_id":"KMO"},{"distance":1436,"transit":false,"is_transit":false,"i_lat":-6.174784,"time":4,"i_long":106.84368,"station_name":"Pasar Senen","station_id":"PSE","line":11},{"station_name":"Gang Sentiong","distance":1567,"is_transit":false,"time":8,"transit":false,"i_lat":-6.185975,"line":11,"station_id":"GST","i_long":106.850107},{"distance":973,"transit":false,"station_id":"KMT","time":1,"is_transit":false,"station_name":"Kramat","i_lat":-6.193792,"line":11,"i_long":106.855437},{"station_id":"POK","i_lat":-6.209188,"station_name":"Pondok Jati","transit":false,"time":2,"i_long":106.861737,"distance":1829,"is_transit":false,"line":11},{"i_long":106.86807400000001,"station_id":"JNG","distance":1236,"time":9,"i_lat":-6.215091,"line":1,"transit":true,"is_transit":true,"station_name":"Jatinegara"},{"station_id":"MTR","transit":false,"is_transit":false,"line":1,"station_name":"Matraman","i_lat":-6.212485,"time":2,"distance":1377,"i_long":106.858896},{"transit":false,"i_long":106.84912,"is_transit":false,"station_name":"Manggarai","distance":1275,"time":2,"i_lat":-6.209883,"station_id":"MRI","line":2},{"i_lat":-6.202263,"is_transit":false,"station_id":"SUD","time":4,"line":1,"transit":false,"station_name":"Sudirman","i_long":106.822649,"distance":3186},{"station_name":"Sudirman Baru","i_long":106.819881,"time":1,"station_id":"SUDB","is_transit":false,"i_lat":-6.201433,"line":1,"transit":false,"distance":280},{"distance":471,"line":1,"i_lat":-6.20132,"station_id":"KAT","is_transit":false,"station_name":"Karet","time":1,"i_long":106.816351,"transit":false},{"transit":true,"time":5,"line":1,"i_long":106.811091,"is_transit":true,"i_lat":-6.185545,"distance":2029,"station_name":"Tanah Abang","station_id":"THB"},{"station_name":"Palmerah","i_long":106.79689,"transit":false,"i_lat":-6.207404,"time":6,"distance":3191,"is_transit":false,"station_id":"PLM","line":6},{"station_name":"Kebayoran","transit":false,"is_transit":false,"i_long":106.780334,"i_lat":-6.237242,"station_id":"KBY","distance":3737,"time":7,"line":6},{"is_transit":false,"transit":false,"time":8,"station_name":"Pondokranji","station_id":"PDJ","i_long":106.74273,"line":6,"distance":6218,"i_lat":-6.276362},{"station_name":"Jurangmangu","distance":2179,"time":3,"is_transit":false,"i_lat":-6.288927,"line":6,"i_long":106.728916,"transit":false,"station_id":"JMU"},{"i_long":106.712277,"time":4,"line":6,"station_name":"Sudimara","i_lat":-6.296963,"transit":false,"distance":1994,"station_id":"SDM","is_transit":false},{"station_name":"Rawa Buntu","distance":4566,"transit":false,"time":6,"station_id":"RU","i_lat":-6.314823,"is_transit":false,"i_long":106.675475,"line":6},{"i_long":106.66566,"is_transit":false,"i_lat":-6.319871,"transit":false,"distance":2413,"time":4,"station_id":"SRP","line":6,"station_name":"Serpong"}]]}