{"data":[[{"transit":false,"line":5,"is_transit":false,"station_id":"RW","time":0,"distance":0,"i_long":106.723064,"i_lat":-6.162758,"station_name":"Rawa Buaya"},{"station_id":"BOI","i_long":106.737035,"transit":false,"time":4,"station_name":"Bojongindah","is_transit":false,"i_lat":-6.159876,"distance":1152,"line":5},{"i_long":106.756522,"distance":2334,"line":5,"transit":false,"time":2,"is_transit":false,"station_name":"Taman Kota","station_id":"TKO","i_lat":-6.1587309999999995},{"i_lat":-6.161433,"line":5,"i_long":106.771379,"station_name":"Pesing","time":2,"station_id":"PSG","is_transit":false,"transit":false,"distance":1614},{"distance":2036,"line":5,"is_transit":false,"station_id":"GGL","station_name":"Grogol","time":2,"i_lat":-6.162021,"transit":false,"i_long":106.788277},{"distance":1700,"station_name":"Duri","i_lat":-6.155215,"station_id":"DU","is_transit":true,"time":3,"i_long":106.800832,"line":1,"transit":true},{"i_lat":-6.185545,"station_id":"THB","is_transit":true,"transit":true,"station_name":"Tanah Abang","time":8,"i_long":106.811091,"line":1,"distance":3632},{"is_transit":false,"line":6,"i_long":106.79689,"i_lat":-6.207404,"distance":3191,"transit":false,"time":6,"station_name":"Palmerah","station_id":"PLM"},{"distance":3737,"i_lat":-6.237242,"i_long":106.780334,"line":6,"is_transit":false,"transit":false,"time":7,"station_id":"KBY","station_name":"Kebayoran"},{"is_transit":false,"transit":false,"i_lat":-6.276362,"line":6,"time":8,"distance":6218,"station_name":"Pondokranji","station_id":"PDJ","i_long":106.74273},{"transit":false,"station_name":"Jurangmangu","i_lat":-6.288927,"line":6,"is_transit":false,"time":3,"i_long":106.728916,"distance":2179,"station_id":"JMU"},{"i_long":106.712277,"line":6,"is_transit":false,"distance":1994,"station_id":"SDM","station_name":"Sudimara","transit":false,"time":4,"i_lat":-6.296963}],[{"i_long":106.723064,"line":5,"station_id":"RW","station_name":"Rawa Buaya","transit":false,"is_transit":false,"time":0,"i_lat":-6.162758,"distance":0},{"transit":false,"time":4,"i_lat":-6.159876,"line":5,"distance":1152,"station_name":"Bojongindah","station_id":"BOI","is_transit":false,"i_long":106.737035},{"is_transit":false,"line":5,"distance":2334,"station_id":"TKO","i_lat":-6.1587309999999995,"i_long":106.756522,"time":2,"station_name":"Taman Kota","transit":false},{"line":5,"distance":1614,"transit":false,"time":2,"station_name":"Pesing","i_lat":-6.161433,"i_long":106.771379,"station_id":"PSG","is_transit":false},{"time":2,"line":5,"distance":2036,"is_transit":false,"station_name":"Grogol","transit":false,"i_long":106.788277,"i_lat":-6.162021,"station_id":"GGL"},{"station_name":"Duri","i_lat":-6.155215,"i_long":106.800832,"station_id":"DU","is_transit":true,"transit":true,"time":3,"distance":1700,"line":1},{"station_id":"AK","transit":false,"i_long":106.79867,"line":1,"time":4,"station_name":"Angke","distance":1230,"is_transit":false,"i_lat":-6.144674},{"is_transit":true,"line":4,"station_id":"KPB","time":9,"distance":4102,"i_long":106.826365,"transit":true,"station_name":"Kampung Bandan","i_lat":-6.132549},{"station_id":"JAKK","line":2,"station_name":"Jakarta Kota","transit":true,"distance":1364,"i_lat":-6.137569,"i_long":106.812439,"is_transit":true,"time":3},{"line":2,"i_long":106.820901,"station_name":"Jayakarta","transit":false,"distance":1264,"station_id":"JAY","time":4,"i_lat":-6.141205,"is_transit":false},{"time":2,"station_name":"Manggabesar","station_id":"MGB","line":2,"is_transit":false,"i_lat":-6.149769,"i_long":106.82482,"distance":1080,"transit":false},{"is_transit":false,"i_lat":-6.160725,"transit":false,"station_id":"SW","i_long":106.827103,"station_name":"Sawah Besar","time":2,"distance":906,"line":2},{"transit":false,"i_long":106.828284,"time":2,"line":2,"station_id":"JUA","is_transit":false,"distance":1149,"station_name":"Juanda","i_lat":-6.166716},{"is_transit":false,"station_name":"Gondangdia","i_long":106.832183,"station_id":"GDD","line":2,"distance":2015,"transit":false,"time":4,"i_lat":-6.186295},{"station_id":"CKI","is_transit":false,"line":2,"i_long":106.840169,"station_name":"Cikini","i_lat":-6.198556,"time":3,"transit":false,"distance":1750},{"i_long":106.84912,"station_id":"MRI","time":4,"distance":1590,"is_transit":true,"line":2,"i_lat":-6.209883,"transit":true,"station_name":"Manggarai"},{"distance":3186,"line":1,"i_lat":-6.202263,"is_transit":false,"transit":false,"time":4,"station_name":"Sudirman","station_id":"SUD","i_long":106.822649},{"i_lat":-6.201433,"station_id":"SUDB","is_transit":false,"station_name":"Sudirman Baru","line":1,"transit":false,"time":1,"distance":280,"i_long":106.819881},{"is_transit":false,"i_long":106.816351,"station_id":"KAT","transit":false,"line":1,"station_name":"Karet","distance":471,"time":1,"i_lat":-6.20132},{"station_id":"THB","distance":2029,"transit":true,"station_name":"Tanah Abang","is_transit":true,"time":5,"i_lat":-6.185545,"i_long":106.811091,"line":1},{"station_name":"Palmerah","station_id":"PLM","i_lat":-6.207404,"distance":3191,"transit":false,"is_transit":false,"i_long":106.79689,"line":6,"time":6},{"i_long":106.780334,"is_transit":false,"line":6,"time":7,"transit":false,"station_id":"KBY","distance":3737,"i_lat":-6.237242,"station_name":"Kebayoran"},{"line":6,"is_transit":false,"station_id":"PDJ","distance":6218,"station_name":"Pondokranji","i_long":106.74273,"time":8,"i_lat":-6.276362,"transit":false},{"is_transit":false,"line":6,"time":3,"transit":false,"i_lat":-6.288927,"station_id":"JMU","i_long":106.728916,"station_name":"Jurangmangu","distance":2179},{"i_long":106.712277,"station_id":"SDM","transit":false,"distance":1994,"line":6,"time":4,"is_transit":false,"i_lat":-6.296963,"station_name":"Sudimara"}],[{"transit":false,"i_long":106.723064,"station_id":"RW","is_transit":false,"i_lat":-6.162758,"line":5,"station_name":"Rawa Buaya","distance":0,"time":0},{"i_lat":-6.159876,"transit":false,"i_long":106.737035,"is_transit":false,"line":5,"time":4,"station_name":"Bojongindah","station_id":"BOI","distance":1152},{"is_transit":false,"station_id":"TKO","line":5,"i_long":106.756522,"station_name":"Taman Kota","transit":false,"distance":2334,"time":2,"i_lat":-6.1587309999999995},{"station_name":"Pesing","station_id":"PSG","distance":1614,"i_lat":-6.161433,"time":2,"i_long":106.771379,"is_transit":false,"line":5,"transit":false},{"distance":2036,"transit":false,"station_id":"GGL","i_lat":-6.162021,"line":5,"is_transit":false,"station_name":"Grogol","i_long":106.788277,"time":2},{"i_lat":-6.155215,"transit":true,"time":3,"station_name":"Duri","station_id":"DU","distance":1700,"i_long":106.800832,"line":1,"is_transit":true},{"is_transit":false,"distance":1230,"time":4,"i_long":106.79867,"station_id":"AK","line":1,"transit":false,"i_lat":-6.144674,"station_name":"Angke"},{"line":4,"transit":true,"is_transit":true,"station_id":"KPB","i_lat":-6.132549,"i_long":106.826365,"time":9,"distance":4102,"station_name":"Kampung Bandan"},{"time":3,"line":11,"station_id":"RJW","transit":false,"is_transit":false,"distance":1444,"i_long":106.836569,"station_name":"Rajawali","i_lat":-6.14505},{"i_long":106.839204,"line":11,"i_lat":-6.161728,"station_name":"Kemayoran","is_transit":false,"distance":1901,"station_id":"KMO","transit":false,"time":5},{"transit":false,"is_transit":false,"i_long":106.84368,"station_id":"PSE","i_lat":-6.174784,"time":4,"station_name":"Pasar Senen","line":11,"distance":1436},{"station_id":"GST","transit":false,"time":8,"i_long":106.850107,"i_lat":-6.185975,"distance":1567,"line":11,"is_transit":false,"station_name":"Gang Sentiong"},{"station_name":"Kramat","station_id":"KMT","transit":false,"time":1,"i_lat":-6.193792,"line":11,"i_long":106.855437,"is_transit":false,"distance":973},{"time":2,"distance":1829,"i_long":106.861737,"station_id":"POK","i_lat":-6.209188,"line":11,"transit":false,"station_name":"Pondok Jati","is_transit":false},{"transit":true,"distance":1236,"i_lat":-6.215091,"i_long":106.86807400000001,"station_name":"Jatinegara","station_id":"JNG","is_transit":true,"line":1,"time":9},{"line":1,"time":2,"i_long":106.858896,"station_id":"MTR","transit":false,"station_name":"Matraman","is_transit":false,"distance":1377,"i_lat":-6.212485},{"line":2,"station_id":"MRI","is_transit":false,"transit":false,"distance":1275,"i_long":106.84912,"station_name":"Manggarai","time":2,"i_lat":-6.209883},{"station_id":"SUD","is_transit":false,"station_name":"Sudirman","line":1,"time":4,"transit":false,"distance":3186,"i_lat":-6.202263,"i_long":106.822649},{"transit":false,"time":1,"station_name":"Sudirman Baru","station_id":"SUDB","i_long":106.819881,"line":1,"distance":280,"i_lat":-6.201433,"is_transit":false},{"line":1,"time":1,"i_long":106.816351,"station_name":"Karet","station_id":"KAT","i_lat":-6.20132,"transit":false,"is_transit":false,"distance":471},{"is_transit":true,"station_id":"THB","distance":2029,"transit":true,"time":5,"i_lat":-6.185545,"line":1,"station_name":"Tanah Abang","i_long":106.811091},{"transit":false,"i_lat":-6.207404,"station_id":"PLM","line":6,"time":6,"distance":3191,"station_name":"Palmerah","i_long":106.79689,"is_transit":false},{"station_name":"Kebayoran","i_lat":-6.237242,"is_transit":false,"distance":3737,"transit":false,"station_id":"KBY","time":7,"i_long":106.780334,"line":6},{"time":8,"transit":false,"i_lat":-6.276362,"station_name":"Pondokranji","i_long":106.74273,"line":6,"is_transit":false,"distance":6218,"station_id":"PDJ"},{"is_transit":false,"i_lat":-6.288927,"transit":false,"time":3,"i_long":106.728916,"station_id":"JMU","station_name":"Jurangmangu","distance":2179,"line":6},{"station_id":"SDM","i_lat":-6.296963,"station_name":"Sudimara","is_transit":false,"transit":false,"distance":1994,"line":6,"time":4,"i_long":106.712277}]]}