{"data":[[{"is_transit":false,"station_id":"RW","transit":false,"i_lat":-6.162758,"i_long":106.723064,"distance":0,"station_name":"Rawa Buaya","time":0,"line":5},{"station_name":"Bojongindah","i_long":106.737035,"station_id":"BOI","distance":1152,"line":0,"time":4,"i_lat":-6.159876,"is_transit":false,"transit":false},{"is_transit":false,"i_lat":-6.1587309999999995,"transit":false,"time":2,"line":5,"station_id":"TKO","station_name":"Taman Kota","distance":2334,"i_long":106.756522},{"i_lat":-6.161433,"is_transit":false,"distance":1614,"transit":false,"time":2,"i_long":106.771379,"line":5,"station_id":"PSG","station_name":"Pesing"},{"is_transit":false,"i_long":106.788277,"line":5,"station_id":"GGL","i_lat":-6.162021,"station_name":"Grogol","time":2,"distance":2036,"transit":false},{"station_id":"DU","i_lat":-6.155215,"i_long":106.800832,"line":1,"distance":1700,"time":3,"transit":true,"station_name":"Duri","is_transit":true},{"station_name":"Angke","distance":1230,"time":4,"i_lat":-6.144674,"line":0,"transit":false,"is_transit":false,"station_id":"AK","i_long":106.79867},{"i_long":106.826365,"is_transit":true,"station_name":"Kampung Bandan","i_lat":-6.132549,"time":9,"transit":false,"line":0,"distance":4102,"station_id":"KPB"},{"distance":1364,"i_lat":-6.137569,"transit":true,"time":3,"station_name":"Jakarta Kota","i_long":106.812439,"line":0,"station_id":"JAKK","is_transit":true},{"is_transit":false,"station_name":"Jayakarta","station_id":"JAY","time":4,"line":7,"i_lat":-6.141205,"transit":false,"i_long":106.820901,"distance":1264},{"distance":1080,"transit":false,"station_id":"MGB","is_transit":false,"station_name":"Manggabesar","i_lat":-6.149769,"time":2,"i_long":106.82482,"line":2},{"transit":false,"i_lat":-6.160725,"i_long":106.827103,"time":2,"line":2,"distance":906,"station_id":"SW","is_transit":false,"station_name":"Sawah Besar"}],[{"i_lat":-6.162758,"station_id":"RW","i_long":106.723064,"line":5,"transit":false,"time":0,"distance":0,"station_name":"Rawa Buaya","is_transit":false},{"station_id":"BOI","i_long":106.737035,"line":0,"station_name":"Bojongindah","transit":false,"time":4,"is_transit":false,"distance":1152,"i_lat":-6.159876},{"i_long":106.756522,"is_transit":false,"station_name":"Taman Kota","station_id":"TKO","distance":2334,"transit":false,"time":2,"i_lat":-6.1587309999999995,"line":5},{"time":2,"i_lat":-6.161433,"station_id":"PSG","distance":1614,"i_long":106.771379,"is_transit":false,"transit":false,"line":5,"station_name":"Pesing"},{"is_transit":false,"time":2,"distance":2036,"station_id":"GGL","i_long":106.788277,"line":5,"transit":false,"station_name":"Grogol","i_lat":-6.162021},{"time":3,"station_id":"DU","i_long":106.800832,"station_name":"Duri","i_lat":-6.155215,"is_transit":true,"line":1,"transit":true,"distance":1700},{"line":1,"is_transit":true,"transit":false,"station_name":"Tanah Abang","time":8,"i_lat":-6.185545,"i_long":106.811091,"station_id":"THB","distance":3632},{"time":5,"is_transit":false,"i_lat":-6.20132,"transit":false,"station_name":"Karet","i_long":106.816351,"distance":2029,"line":1,"station_id":"KAT"},{"i_long":106.819881,"station_name":"Sudirman Baru","distance":471,"station_id":"SUDB","time":1,"i_lat":-6.201433,"line":1,"is_transit":false,"transit":false},{"distance":280,"transit":false,"time":1,"i_long":106.822649,"is_transit":false,"line":1,"i_lat":-6.202263,"station_id":"SUD","station_name":"Sudirman"},{"station_id":"MRI","transit":true,"time":4,"i_lat":-6.209883,"i_long":106.84912,"station_name":"Manggarai","is_transit":true,"distance":3186,"line":0},{"i_lat":-6.198556,"line":0,"i_long":106.840169,"station_name":"Cikini","transit":false,"is_transit":false,"station_id":"CKI","distance":1590,"time":4},{"i_long":106.832183,"station_id":"GDD","i_lat":-6.186295,"is_transit":false,"station_name":"Gondangdia","time":3,"distance":1750,"line":2,"transit":false},{"distance":2015,"is_transit":false,"station_id":"JUA","line":2,"time":4,"station_name":"Juanda","i_lat":-6.166716,"i_long":106.828284,"transit":false},{"is_transit":false,"time":2,"transit":false,"distance":1149,"i_lat":-6.160725,"line":2,"i_long":106.827103,"station_id":"SW","station_name":"Sawah Besar"}],[{"distance":0,"station_name":"Rawa Buaya","is_transit":false,"transit":false,"time":0,"i_lat":-6.162758,"line":5,"station_id":"RW","i_long":106.723064},{"transit":false,"time":4,"station_name":"Bojongindah","i_lat":-6.159876,"distance":1152,"i_long":106.737035,"line":0,"station_id":"BOI","is_transit":false},{"i_long":106.756522,"is_transit":false,"i_lat":-6.1587309999999995,"line":5,"transit":false,"time":2,"distance":2334,"station_name":"Taman Kota","station_id":"TKO"},{"station_id":"PSG","is_transit":false,"i_lat":-6.161433,"i_long":106.771379,"time":2,"line":5,"distance":1614,"station_name":"Pesing","transit":false},{"i_lat":-6.162021,"time":2,"station_name":"Grogol","transit":false,"i_long":106.788277,"line":5,"distance":2036,"is_transit":false,"station_id":"GGL"},{"station_id":"DU","distance":1700,"station_name":"Duri","transit":true,"i_long":106.800832,"time":3,"line":1,"i_lat":-6.155215,"is_transit":true},{"distance":1230,"station_id":"AK","time":4,"station_name":"Angke","transit":false,"i_long":106.79867,"i_lat":-6.144674,"line":0,"is_transit":false},{"station_name":"Kampung Bandan","transit":true,"station_id":"KPB","distance":4102,"line":0,"i_lat":-6.132549,"time":9,"i_long":106.826365,"is_transit":true},{"time":3,"is_transit":false,"station_id":"RJW","i_long":106.836569,"distance":1444,"line":11,"i_lat":-6.14505,"transit":false,"station_name":"Rajawali"},{"station_name":"Kemayoran","is_transit":false,"transit":false,"i_lat":-6.161728,"distance":1901,"time":5,"station_id":"KMO","i_long":106.839204,"line":11},{"transit":false,"i_long":106.84368,"i_lat":-6.174784,"station_id":"PSE","time":4,"line":11,"distance":1436,"station_name":"Pasar Senen","is_transit":false},{"station_name":"Gang Sentiong","transit":false,"i_long":106.850107,"i_lat":-6.185975,"line":11,"distance":1567,"is_transit":false,"station_id":"GST","time":8},{"station_name":"Kramat","i_lat":-6.193792,"transit":false,"i_long":106.855437,"line":11,"is_transit":false,"time":1,"distance":973,"station_id":"KMT"},{"i_long":106.861737,"is_transit":false,"station_id":"POK","i_lat":-6.209188,"station_name":"Pondok Jati","line":11,"distance":1829,"time":2,"transit":false},{"station_name":"Jatinegara","i_lat":-6.215091,"i_long":106.86807400000001,"station_id":"JNG","line":0,"is_transit":true,"transit":true,"time":9,"distance":1236},{"line":1,"time":2,"station_name":"Matraman","station_id":"MTR","i_lat":-6.212485,"transit":false,"i_long":106.858896,"distance":1377,"is_transit":false},{"time":2,"transit":true,"station_name":"Manggarai","is_transit":true,"line":0,"i_long":106.84912,"distance":1275,"station_id":"MRI","i_lat":-6.209883},{"time":4,"station_name":"Cikini","transit":false,"i_long":106.840169,"station_id":"CKI","distance":1590,"is_transit":false,"i_lat":-6.198556,"line":0},{"station_id":"GDD","is_transit":false,"distance":1750,"station_name":"Gondangdia","i_lat":-6.186295,"i_long":106.832183,"transit":false,"time":3,"line":2},{"i_long":106.828284,"station_id":"JUA","i_lat":-6.166716,"station_name":"Juanda","is_transit":false,"time":4,"line":2,"distance":2015,"transit":false},{"i_lat":-6.160725,"station_name":"Sawah Besar","station_id":"SW","i_long":106.827103,"line":2,"time":2,"distance":1149,"is_transit":false,"transit":false}],[{"i_long":106.723064,"distance":0,"i_lat":-6.162758,"is_transit":false,"time":0,"station_id":"RW","line":5,"transit":false,"station_name":"Rawa Buaya"},{"distance":1152,"line":0,"i_lat":-6.159876,"i_long":106.737035,"transit":false,"station_name":"Bojongindah","time":4,"is_transit":false,"station_id":"BOI"},{"line":5,"station_name":"Taman Kota","is_transit":false,"i_lat":-6.1587309999999995,"i_long":106.756522,"station_id":"TKO","transit":false,"time":2,"distance":2334},{"station_name":"Pesing","distance":1614,"i_lat":-6.161433,"station_id":"PSG","i_long":106.771379,"is_transit":false,"transit":false,"time":2,"line":5},{"time":2,"station_name":"Grogol","transit":false,"station_id":"GGL","i_lat":-6.162021,"i_long":106.788277,"line":5,"is_transit":false,"distance":2036},{"is_transit":true,"transit":true,"station_id":"DU","distance":1700,"line":1,"station_name":"Duri","i_long":106.800832,"i_lat":-6.155215,"time":3},{"is_transit":true,"transit":false,"i_long":106.811091,"station_name":"Tanah Abang","station_id":"THB","time":8,"distance":3632,"i_lat":-6.185545,"line":1},{"distance":2029,"is_transit":false,"time":5,"station_name":"Karet","station_id":"KAT","i_long":106.816351,"line":1,"transit":false,"i_lat":-6.20132},{"is_transit":false,"i_lat":-6.201433,"i_long":106.819881,"transit":false,"line":1,"distance":471,"station_name":"Sudirman Baru","station_id":"SUDB","time":1},{"station_name":"Sudirman","i_long":106.822649,"is_transit":false,"station_id":"SUD","i_lat":-6.202263,"line":1,"time":1,"distance":280,"transit":false},{"distance":3186,"time":4,"i_long":106.84912,"station_id":"MRI","station_name":"Manggarai","transit":false,"i_lat":-6.209883,"line":0,"is_transit":true},{"station_id":"MTR","station_name":"Matraman","i_long":106.858896,"line":1,"is_transit":false,"transit":false,"time":2,"i_lat":-6.212485,"distance":1275},{"line":0,"i_long":106.86807400000001,"i_lat":-6.215091,"is_transit":true,"station_name":"Jatinegara","transit":true,"station_id":"JNG","distance":1377,"time":8},{"i_lat":-6.209188,"station_id":"POK","distance":1236,"line":11,"is_transit":false,"transit":false,"time":2,"i_long":106.861737,"station_name":"Pondok Jati"},{"station_id":"KMT","i_lat":-6.193792,"time":2,"distance":1829,"i_long":106.855437,"line":11,"is_transit":false,"station_name":"Kramat","transit":false},{"station_id":"GST","transit":false,"i_long":106.850107,"station_name":"Gang Sentiong","time":1,"is_transit":false,"line":11,"distance":973,"i_lat":-6.185975},{"time":8,"line":11,"transit":false,"station_id":"PSE","distance":1567,"station_name":"Pasar Senen","i_long":106.84368,"is_transit":false,"i_lat":-6.174784},{"i_lat":-6.161728,"station_id":"KMO","distance":1436,"transit":false,"is_transit":false,"line":11,"time":4,"station_name":"Kemayoran","i_long":106.839204},{"i_lat":-6.14505,"distance":1901,"station_id":"RJW","time":5,"is_transit":false,"transit":false,"i_long":106.836569,"line":11,"station_name":"Rajawali"},{"time":3,"is_transit":true,"station_name":"Kampung Bandan","line":0,"i_long":106.826365,"i_lat":-6.132549,"distance":1444,"station_id":"KPB","transit":true},{"line":0,"i_lat":-6.137569,"distance":1364,"is_transit":true,"station_id":"JAKK","station_name":"Jakarta Kota","i_long":106.812439,"transit":true,"time":3},{"transit":false,"distance":1264,"i_long":106.820901,"i_lat":-6.141205,"station_name":"Jayakarta","is_transit":false,"line":7,"station_id":"JAY","time":4},{"i_lat":-6.149769,"is_transit":false,"time":2,"i_long":106.82482,"transit":false,"line":2,"station_id":"MGB","station_name":"Manggabesar","distance":1080},{"is_transit":false,"transit":false,"i_long":106.827103,"line":2,"distance":906,"station_id":"SW","station_name":"Sawah Besar","time":2,"i_lat":-6.160725}]]}