{"data":[[{"time":0,"line":5,"i_lat":-6.162758,"station_id":"RW","transit":false,"distance":0,"is_transit":false,"i_long":106.723064,"station_name":"Rawa Buaya"},{"transit":false,"distance":1152,"i_long":106.737035,"i_lat":-6.159876,"station_id":"BOI","line":5,"is_transit":false,"time":4,"station_name":"Bojongindah"},{"is_transit":false,"i_long":106.756522,"line":5,"i_lat":-6.1587309999999995,"transit":false,"station_name":"Taman Kota","station_id":"TKO","distance":2334,"time":2},{"transit":false,"station_name":"Pesing","is_transit":false,"i_long":106.771379,"line":5,"distance":1614,"i_lat":-6.161433,"station_id":"PSG","time":2},{"transit":false,"station_name":"Grogol","i_lat":-6.162021,"distance":2036,"time":2,"line":5,"station_id":"GRG","is_transit":false,"i_long":106.788277},{"is_transit":true,"time":3,"station_id":"DU","i_long":106.800832,"transit":true,"line":1,"distance":1700,"station_name":"Duri","i_lat":-6.155215},{"transit":true,"i_long":106.811091,"line":1,"station_id":"THB","time":8,"distance":3632,"station_name":"Tanah Abang","is_transit":true,"i_lat":-6.185545},{"station_name":"Palmerah","i_long":106.79689,"time":6,"distance":3191,"i_lat":-6.207404,"station_id":"PLM","line":6,"is_transit":false,"transit":false},{"i_lat":-6.237242,"station_name":"Kebayoran","time":7,"transit":false,"station_id":"KBY","distance":3737,"line":6,"i_long":106.780334,"is_transit":false},{"station_name":"Pondokranji","is_transit":false,"i_long":106.74273,"distance":6218,"i_lat":-6.276362,"transit":false,"line":6,"station_id":"PDJ","time":8},{"i_lat":-6.288927,"station_id":"JMU","transit":false,"station_name":"Jurangmangu","line":6,"is_transit":false,"i_long":106.728916,"time":3,"distance":2179},{"i_long":106.712277,"line":6,"station_id":"SDM","time":4,"transit":false,"station_name":"Sudimara","is_transit":false,"i_lat":-6.296963,"distance":1994},{"is_transit":false,"i_long":106.675475,"time":6,"transit":false,"i_lat":-6.314823,"line":6,"station_name":"Rawa Buntu","station_id":"RU","distance":4566},{"line":6,"distance":2413,"time":4,"i_lat":-6.319871,"transit":false,"is_transit":false,"station_id":"SRP","station_name":"Serpong","i_long":106.66566}],[{"i_long":106.723064,"distance":0,"station_name":"Rawa Buaya","i_lat":-6.162758,"line":5,"is_transit":false,"time":0,"transit":false,"station_id":"RW"},{"line":5,"transit":false,"station_name":"Bojongindah","i_lat":-6.159876,"time":4,"is_transit":false,"station_id":"BOI","distance":1152,"i_long":106.737035},{"distance":2334,"is_transit":false,"station_id":"TKO","i_long":106.756522,"line":5,"transit":false,"time":2,"station_name":"Taman Kota","i_lat":-6.1587309999999995},{"is_transit":false,"transit":false,"station_id":"PSG","distance":1614,"i_lat":-6.161433,"i_long":106.771379,"station_name":"Pesing","time":2,"line":5},{"time":2,"distance":2036,"station_id":"GRG","i_long":106.788277,"i_lat":-6.162021,"station_name":"Grogol","line":5,"transit":false,"is_transit":false},{"i_long":106.800832,"distance":1700,"i_lat":-6.155215,"is_transit":true,"line":1,"station_name":"Duri","time":3,"station_id":"DU","transit":true},{"line":1,"time":4,"is_transit":false,"station_name":"Angke","i_lat":-6.144674,"station_id":"AK","i_long":106.79867,"distance":1230,"transit":false},{"i_long":106.826365,"station_id":"KPB","time":9,"distance":4102,"transit":true,"i_lat":-6.132549,"station_name":"Kampung Bandan","line":4,"is_transit":true},{"transit":true,"station_name":"Jakarta Kota","is_transit":true,"i_long":106.812439,"time":3,"distance":1364,"station_id":"JAKK","i_lat":-6.137569,"line":2},{"is_transit":false,"i_long":106.820901,"line":2,"transit":false,"time":4,"station_name":"Jayakarta","i_lat":-6.141205,"distance":1264,"station_id":"JAY"},{"i_lat":-6.149769,"transit":false,"is_transit":false,"station_name":"Manggabesar","distance":1080,"time":2,"i_long":106.82482,"station_id":"MGB","line":2},{"station_name":"Sawah Besar","i_long":106.827103,"is_transit":false,"transit":false,"distance":906,"i_lat":-6.160725,"time":2,"line":2,"station_id":"SW"},{"is_transit":false,"i_lat":-6.166716,"distance":1149,"line":2,"station_name":"Juanda","station_id":"JUA","i_long":106.828284,"transit":false,"time":2},{"transit":false,"line":2,"station_name":"Gondangdia","distance":2015,"i_long":106.832183,"time":4,"is_transit":false,"i_lat":-6.186295,"station_id":"GDD"},{"station_id":"CKI","time":3,"distance":1750,"i_lat":-6.198556,"i_long":106.840169,"is_transit":false,"line":2,"station_name":"Cikini","transit":false},{"is_transit":true,"i_lat":-6.209883,"i_long":106.84912,"time":4,"station_id":"MRI","distance":1590,"line":2,"station_name":"Manggarai","transit":true},{"transit":false,"distance":3186,"station_name":"Sudirman","is_transit":false,"i_long":106.822649,"station_id":"SUD","i_lat":-6.202263,"time":4,"line":1},{"line":1,"distance":280,"i_long":106.819881,"station_name":"Sudirman Baru","station_id":"SUDB","transit":false,"is_transit":false,"time":1,"i_lat":-6.201433},{"transit":false,"i_lat":-6.20132,"line":1,"i_long":106.816351,"time":1,"distance":471,"station_name":"Karet","is_transit":false,"station_id":"KAT"},{"i_lat":-6.185545,"distance":2029,"station_name":"Tanah Abang","transit":true,"i_long":106.811091,"line":1,"station_id":"THB","is_transit":true,"time":5},{"i_lat":-6.207404,"i_long":106.79689,"distance":3191,"transit":false,"station_name":"Palmerah","time":6,"is_transit":false,"line":6,"station_id":"PLM"},{"i_lat":-6.237242,"transit":false,"time":7,"line":6,"is_transit":false,"i_long":106.780334,"station_id":"KBY","distance":3737,"station_name":"Kebayoran"},{"station_name":"Pondokranji","distance":6218,"i_lat":-6.276362,"transit":false,"i_long":106.74273,"time":8,"line":6,"is_transit":false,"station_id":"PDJ"},{"line":6,"distance":2179,"time":3,"is_transit":false,"i_lat":-6.288927,"station_id":"JMU","transit":false,"station_name":"Jurangmangu","i_long":106.728916},{"i_long":106.712277,"distance":1994,"i_lat":-6.296963,"transit":false,"station_id":"SDM","is_transit":false,"line":6,"station_name":"Sudimara","time":4},{"transit":false,"station_id":"RU","time":6,"is_transit":false,"distance":4566,"i_lat":-6.314823,"station_name":"Rawa Buntu","i_long":106.675475,"line":6},{"i_long":106.66566,"station_name":"Serpong","time":4,"line":6,"station_id":"SRP","i_lat":-6.319871,"is_transit":false,"transit":false,"distance":2413}],[{"time":0,"i_lat":-6.162758,"i_long":106.723064,"is_transit":false,"line":5,"transit":false,"distance":0,"station_name":"Rawa Buaya","station_id":"RW"},{"station_id":"BOI","is_transit":false,"time":4,"i_lat":-6.159876,"i_long":106.737035,"line":5,"transit":false,"distance":1152,"station_name":"Bojongindah"},{"is_transit":false,"line":5,"station_id":"TKO","transit":false,"i_long":106.756522,"time":2,"i_lat":-6.1587309999999995,"distance":2334,"station_name":"Taman Kota"},{"is_transit":false,"line":5,"transit":false,"station_id":"PSG","i_lat":-6.161433,"station_name":"Pesing","distance":1614,"time":2,"i_long":106.771379},{"station_id":"GRG","i_lat":-6.162021,"time":2,"transit":false,"i_long":106.788277,"line":5,"is_transit":false,"station_name":"Grogol","distance":2036},{"station_name":"Duri","distance":1700,"i_lat":-6.155215,"i_long":106.800832,"is_transit":true,"line":1,"time":3,"transit":true,"station_id":"DU"},{"is_transit":false,"transit":false,"station_id":"AK","distance":1230,"station_name":"Angke","time":4,"i_lat":-6.144674,"line":1,"i_long":106.79867},{"is_transit":true,"station_id":"KPB","time":9,"transit":true,"i_long":106.826365,"i_lat":-6.132549,"distance":4102,"line":4,"station_name":"Kampung Bandan"},{"i_long":106.836569,"distance":1444,"station_id":"RJW","line":11,"station_name":"Rajawali","time":3,"is_transit":false,"transit":false,"i_lat":-6.14505},{"i_lat":-6.161728,"transit":false,"distance":1901,"station_id":"KMO","i_long":106.839204,"time":5,"is_transit":false,"station_name":"Kemayoran","line":11},{"distance":1436,"station_id":"PSE","time":4,"transit":false,"i_long":106.84368,"line":11,"station_name":"Pasar Senen","is_transit":false,"i_lat":-6.174784},{"time":8,"transit":false,"line":11,"distance":1567,"station_name":"Gang Sentiong","is_transit":false,"i_long":106.850107,"i_lat":-6.185975,"station_id":"GST"},{"time":1,"distance":973,"station_name":"Kramat","i_lat":-6.193792,"line":11,"i_long":106.855437,"is_transit":false,"station_id":"KMT","transit":false},{"distance":1829,"transit":false,"i_long":106.861737,"is_transit":false,"i_lat":-6.209188,"station_id":"POK","line":11,"station_name":"Pondok Jati","time":2},{"station_id":"JNG","i_lat":-6.215091,"transit":true,"i_long":106.86807400000001,"line":1,"station_name":"Jatinegara","time":9,"is_transit":true,"distance":1236},{"i_lat":-6.212485,"distance":1377,"i_long":106.858896,"transit":false,"station_id":"MTR","line":1,"station_name":"Matraman","is_transit":false,"time":2},{"station_name":"Manggarai","time":2,"transit":false,"station_id":"MRI","i_lat":-6.209883,"line":2,"is_transit":false,"distance":1275,"i_long":106.84912},{"i_long":106.822649,"line":1,"station_id":"SUD","is_transit":false,"distance":3186,"transit":false,"time":4,"station_name":"Sudirman","i_lat":-6.202263},{"station_name":"Sudirman Baru","is_transit":false,"i_long":106.819881,"transit":false,"time":1,"i_lat":-6.201433,"line":1,"distance":280,"station_id":"SUDB"},{"i_long":106.816351,"distance":471,"station_id":"KAT","transit":false,"is_transit":false,"station_name":"Karet","line":1,"i_lat":-6.20132,"time":1},{"i_lat":-6.185545,"station_id":"THB","is_transit":true,"transit":true,"station_name":"Tanah Abang","distance":2029,"i_long":106.811091,"line":1,"time":5},{"time":6,"i_long":106.79689,"transit":false,"station_id":"PLM","i_lat":-6.207404,"line":6,"station_name":"Palmerah","is_transit":false,"distance":3191},{"time":7,"i_long":106.780334,"transit":false,"line":6,"i_lat":-6.237242,"distance":3737,"is_transit":false,"station_name":"Kebayoran","station_id":"KBY"},{"line":6,"time":8,"distance":6218,"station_name":"Pondokranji","transit":false,"station_id":"PDJ","is_transit":false,"i_lat":-6.276362,"i_long":106.74273},{"is_transit":false,"station_name":"Jurangmangu","distance":2179,"station_id":"JMU","time":3,"i_long":106.728916,"transit":false,"line":6,"i_lat":-6.288927},{"distance":1994,"is_transit":false,"line":6,"i_lat":-6.296963,"i_long":106.712277,"transit":false,"station_id":"SDM","station_name":"Sudimara","time":4},{"transit":false,"is_transit":false,"station_name":"Rawa Buntu","time":6,"i_lat":-6.314823,"i_long":106.675475,"distance":4566,"station_id":"RU","line":6},{"i_long":106.66566,"line":6,"is_transit":false,"time":4,"i_lat":-6.319871,"transit":false,"distance":2413,"station_id":"SRP","station_name":"Serpong"}]]}