{"data":[[{"distance":0,"station_name":"Rawa Buaya","time":0,"i_lat":-6.162758,"i_long":106.723064,"transit":false,"station_id":"RW","line":5,"is_transit":false},{"line":5,"station_name":"Bojongindah","is_transit":false,"i_long":106.737035,"station_id":"BOI","i_lat":-6.159876,"time":4,"transit":false,"distance":1152},{"station_id":"TKO","distance":2334,"is_transit":false,"time":2,"i_lat":-6.1587309999999995,"i_long":106.756522,"line":5,"transit":false,"station_name":"Taman Kota"},{"transit":false,"station_id":"PSG","time":2,"is_transit":false,"i_lat":-6.161433,"station_name":"Pesing","distance":1614,"line":5,"i_long":106.771379},{"station_id":"GGL","distance":2036,"station_name":"Grogol","is_transit":false,"line":5,"i_lat":-6.162021,"time":2,"i_long":106.788277,"transit":false},{"distance":1700,"station_id":"DU","is_transit":true,"i_long":106.800832,"i_lat":-6.155215,"time":3,"line":1,"transit":true,"station_name":"Duri"},{"line":1,"i_long":106.79867,"station_name":"Angke","station_id":"AK","time":4,"distance":1230,"is_transit":false,"i_lat":-6.144674,"transit":false},{"station_name":"Kampung Bandan","is_transit":true,"i_long":106.826365,"transit":true,"station_id":"KPB","line":4,"time":9,"i_lat":-6.132549,"distance":4102},{"i_lat":-6.137569,"station_id":"JAKK","line":2,"transit":true,"station_name":"Jakarta Kota","is_transit":true,"i_long":106.812439,"time":3,"distance":1364},{"is_transit":false,"line":2,"time":4,"transit":false,"station_name":"Jayakarta","station_id":"JAY","i_long":106.820901,"distance":1264,"i_lat":-6.141205},{"station_id":"MGB","i_long":106.82482,"line":2,"station_name":"Manggabesar","i_lat":-6.149769,"time":2,"distance":1080,"transit":false,"is_transit":false},{"is_transit":false,"transit":false,"time":2,"station_id":"SW","distance":906,"i_lat":-6.160725,"i_long":106.827103,"station_name":"Sawah Besar","line":2}],[{"i_long":106.723064,"transit":false,"time":0,"station_name":"Rawa Buaya","i_lat":-6.162758,"distance":0,"is_transit":false,"line":5,"station_id":"RW"},{"station_id":"BOI","i_long":106.737035,"transit":false,"i_lat":-6.159876,"time":4,"station_name":"Bojongindah","is_transit":false,"line":5,"distance":1152},{"station_name":"Taman Kota","station_id":"TKO","distance":2334,"i_lat":-6.1587309999999995,"i_long":106.756522,"transit":false,"is_transit":false,"time":2,"line":5},{"line":5,"transit":false,"i_long":106.771379,"i_lat":-6.161433,"station_id":"PSG","station_name":"Pesing","is_transit":false,"time":2,"distance":1614},{"station_name":"Grogol","time":2,"station_id":"GGL","is_transit":false,"i_long":106.788277,"line":5,"transit":false,"distance":2036,"i_lat":-6.162021},{"i_lat":-6.155215,"time":3,"distance":1700,"is_transit":true,"station_name":"Duri","line":1,"station_id":"DU","i_long":106.800832,"transit":true},{"i_lat":-6.185545,"transit":false,"distance":3632,"station_id":"THB","station_name":"Tanah Abang","line":1,"is_transit":false,"time":8,"i_long":106.811091},{"station_name":"Karet","is_transit":false,"distance":2029,"i_lat":-6.20132,"time":5,"station_id":"KAT","transit":false,"i_long":106.816351,"line":1},{"line":1,"i_lat":-6.201433,"station_id":"SUDB","is_transit":false,"transit":false,"time":1,"station_name":"Sudirman Baru","distance":471,"i_long":106.819881},{"transit":false,"i_long":106.822649,"is_transit":false,"station_name":"Sudirman","line":1,"i_lat":-6.202263,"station_id":"SUD","time":1,"distance":280},{"time":4,"distance":3186,"is_transit":true,"i_long":106.84912,"line":2,"station_name":"Manggarai","station_id":"MRI","transit":true,"i_lat":-6.209883},{"distance":1590,"time":4,"i_lat":-6.198556,"transit":false,"line":2,"station_name":"Cikini","i_long":106.840169,"is_transit":false,"station_id":"CKI"},{"distance":1750,"i_long":106.832183,"time":3,"station_id":"GDD","i_lat":-6.186295,"station_name":"Gondangdia","transit":false,"is_transit":false,"line":2},{"time":4,"station_name":"Juanda","station_id":"JUA","i_lat":-6.166716,"distance":2015,"line":2,"is_transit":false,"i_long":106.828284,"transit":false},{"time":2,"line":2,"is_transit":false,"i_lat":-6.160725,"distance":1149,"i_long":106.827103,"transit":false,"station_id":"SW","station_name":"Sawah Besar"}],[{"i_long":106.723064,"line":5,"time":0,"i_lat":-6.162758,"station_name":"Rawa Buaya","distance":0,"station_id":"RW","is_transit":false,"transit":false},{"i_lat":-6.159876,"line":5,"time":4,"station_name":"Bojongindah","transit":false,"distance":1152,"i_long":106.737035,"station_id":"BOI","is_transit":false},{"time":2,"i_long":106.756522,"station_name":"Taman Kota","distance":2334,"transit":false,"line":5,"is_transit":false,"station_id":"TKO","i_lat":-6.1587309999999995},{"station_name":"Pesing","i_long":106.771379,"station_id":"PSG","is_transit":false,"distance":1614,"time":2,"transit":false,"i_lat":-6.161433,"line":5},{"i_lat":-6.162021,"is_transit":false,"station_id":"GGL","station_name":"Grogol","distance":2036,"transit":false,"time":2,"i_long":106.788277,"line":5},{"station_id":"DU","station_name":"Duri","time":3,"i_long":106.800832,"distance":1700,"i_lat":-6.155215,"transit":true,"is_transit":true,"line":1},{"transit":false,"station_id":"AK","i_lat":-6.144674,"time":4,"is_transit":false,"i_long":106.79867,"station_name":"Angke","line":1,"distance":1230},{"station_name":"Kampung Bandan","distance":4102,"transit":true,"station_id":"KPB","is_transit":true,"i_long":106.826365,"line":4,"i_lat":-6.132549,"time":9},{"is_transit":false,"station_name":"Rajawali","distance":1444,"time":3,"line":11,"i_lat":-6.14505,"transit":false,"i_long":106.836569,"station_id":"RJW"},{"station_name":"Kemayoran","time":5,"distance":1901,"transit":false,"i_long":106.839204,"is_transit":false,"i_lat":-6.161728,"line":11,"station_id":"KMO"},{"i_long":106.84368,"station_name":"Pasar Senen","distance":1436,"time":4,"station_id":"PSE","i_lat":-6.174784,"transit":false,"line":11,"is_transit":false},{"i_lat":-6.185975,"i_long":106.850107,"time":8,"line":11,"station_name":"Gang Sentiong","transit":false,"station_id":"GST","distance":1567,"is_transit":false},{"time":1,"distance":973,"i_lat":-6.193792,"i_long":106.855437,"line":11,"station_id":"KMT","transit":false,"station_name":"Kramat","is_transit":false},{"distance":1829,"i_lat":-6.209188,"i_long":106.861737,"line":11,"station_name":"Pondok Jati","station_id":"POK","is_transit":false,"transit":false,"time":2},{"i_lat":-6.215091,"transit":true,"distance":1236,"i_long":106.86807400000001,"is_transit":true,"station_id":"JNG","station_name":"Jatinegara","time":9,"line":1},{"transit":false,"is_transit":false,"distance":1377,"station_name":"Matraman","i_lat":-6.212485,"i_long":106.858896,"line":1,"time":2,"station_id":"MTR"},{"line":2,"station_id":"MRI","distance":1275,"station_name":"Manggarai","i_lat":-6.209883,"time":2,"transit":true,"is_transit":true,"i_long":106.84912},{"distance":1590,"i_lat":-6.198556,"station_id":"CKI","line":2,"transit":false,"is_transit":false,"i_long":106.840169,"station_name":"Cikini","time":4},{"time":3,"distance":1750,"i_long":106.832183,"transit":false,"station_name":"Gondangdia","i_lat":-6.186295,"line":2,"station_id":"GDD","is_transit":false},{"station_id":"JUA","distance":2015,"i_lat":-6.166716,"transit":false,"time":4,"line":2,"station_name":"Juanda","is_transit":false,"i_long":106.828284},{"station_name":"Sawah Besar","time":2,"i_long":106.827103,"line":2,"station_id":"SW","is_transit":false,"i_lat":-6.160725,"transit":false,"distance":1149}],[{"station_name":"Rawa Buaya","station_id":"RW","time":0,"transit":false,"is_transit":false,"distance":0,"i_long":106.723064,"i_lat":-6.162758,"line":5},{"transit":false,"station_name":"Bojongindah","time":4,"i_long":106.737035,"line":5,"station_id":"BOI","distance":1152,"i_lat":-6.159876,"is_transit":false},{"station_id":"TKO","distance":2334,"transit":false,"i_lat":-6.1587309999999995,"station_name":"Taman Kota","i_long":106.756522,"time":2,"is_transit":false,"line":5},{"i_lat":-6.161433,"is_transit":false,"transit":false,"station_id":"PSG","time":2,"station_name":"Pesing","distance":1614,"i_long":106.771379,"line":5},{"i_long":106.788277,"line":5,"distance":2036,"is_transit":false,"transit":false,"station_name":"Grogol","time":2,"i_lat":-6.162021,"station_id":"GGL"},{"station_name":"Duri","station_id":"DU","distance":1700,"is_transit":true,"transit":true,"time":3,"line":1,"i_lat":-6.155215,"i_long":106.800832},{"transit":false,"distance":3632,"i_lat":-6.185545,"line":1,"station_name":"Tanah Abang","station_id":"THB","time":8,"i_long":106.811091,"is_transit":false},{"station_name":"Karet","time":5,"transit":false,"line":1,"i_long":106.816351,"distance":2029,"station_id":"KAT","i_lat":-6.20132,"is_transit":false},{"station_id":"SUDB","station_name":"Sudirman Baru","distance":471,"i_long":106.819881,"transit":false,"time":1,"is_transit":false,"line":1,"i_lat":-6.201433},{"transit":false,"i_long":106.822649,"line":1,"station_id":"SUD","i_lat":-6.202263,"distance":280,"is_transit":false,"station_name":"Sudirman","time":1},{"line":2,"station_id":"MRI","is_transit":false,"station_name":"Manggarai","i_lat":-6.209883,"time":4,"transit":false,"distance":3186,"i_long":106.84912},{"time":2,"transit":false,"i_long":106.858896,"is_transit":false,"line":1,"station_name":"Matraman","distance":1275,"i_lat":-6.212485,"station_id":"MTR"},{"transit":true,"station_name":"Jatinegara","station_id":"JNG","time":8,"is_transit":true,"i_lat":-6.215091,"i_long":106.86807400000001,"distance":1377,"line":1},{"i_long":106.861737,"i_lat":-6.209188,"is_transit":false,"transit":false,"distance":1236,"station_name":"Pondok Jati","time":2,"station_id":"POK","line":11},{"station_id":"KMT","i_long":106.855437,"is_transit":false,"i_lat":-6.193792,"line":11,"transit":false,"time":2,"distance":1829,"station_name":"Kramat"},{"is_transit":false,"line":11,"time":1,"station_name":"Gang Sentiong","distance":973,"transit":false,"station_id":"GST","i_lat":-6.185975,"i_long":106.850107},{"is_transit":false,"station_id":"PSE","transit":false,"time":8,"station_name":"Pasar Senen","i_long":106.84368,"i_lat":-6.174784,"distance":1567,"line":11},{"is_transit":false,"transit":false,"station_name":"Kemayoran","distance":1436,"i_lat":-6.161728,"i_long":106.839204,"time":4,"line":11,"station_id":"KMO"},{"line":11,"time":5,"i_long":106.836569,"transit":false,"distance":1901,"station_name":"Rajawali","is_transit":false,"station_id":"RJW","i_lat":-6.14505},{"station_id":"KPB","line":4,"station_name":"Kampung Bandan","is_transit":true,"time":3,"distance":1444,"i_long":106.826365,"i_lat":-6.132549,"transit":true},{"transit":true,"station_name":"Jakarta Kota","time":3,"is_transit":true,"distance":1364,"line":2,"i_lat":-6.137569,"station_id":"JAKK","i_long":106.812439},{"i_lat":-6.141205,"i_long":106.820901,"station_name":"Jayakarta","line":2,"distance":1264,"is_transit":false,"transit":false,"time":4,"station_id":"JAY"},{"distance":1080,"i_long":106.82482,"station_name":"Manggabesar","station_id":"MGB","is_transit":false,"transit":false,"i_lat":-6.149769,"time":2,"line":2},{"station_id":"SW","transit":false,"distance":906,"station_name":"Sawah Besar","time":2,"i_lat":-6.160725,"i_long":106.827103,"is_transit":false,"line":2}]]}