{"data":[[{"i_lat":-6.162758,"i_long":106.723064,"line":5,"transit":false,"is_transit":false,"station_id":"RW","time":0,"distance":0,"station_name":"Rawa Buaya"},{"station_name":"Bojongindah","time":4,"is_transit":false,"i_lat":-6.159876,"station_id":"BOI","distance":1152,"i_long":106.737035,"line":5,"transit":false},{"distance":2334,"i_lat":-6.1587309999999995,"line":5,"station_name":"Taman Kota","time":2,"station_id":"TKO","transit":false,"is_transit":false,"i_long":106.756522},{"i_lat":-6.161433,"station_id":"PSG","time":2,"line":5,"distance":1614,"station_name":"Pesing","is_transit":false,"i_long":106.771379,"transit":false},{"station_name":"Grogol","line":5,"station_id":"GRG","is_transit":false,"distance":2036,"i_lat":-6.162021,"i_long":106.788277,"time":2,"transit":false},{"i_long":106.800832,"distance":1700,"line":1,"time":3,"station_id":"DU","i_lat":-6.155215,"station_name":"Duri","is_transit":true,"transit":true},{"station_name":"Tanah Abang","distance":3632,"line":1,"time":8,"is_transit":true,"transit":true,"i_lat":-6.185545,"station_id":"THB","i_long":106.811091},{"line":6,"time":6,"is_transit":false,"transit":false,"i_lat":-6.207404,"station_id":"PLM","station_name":"Palmerah","i_long":106.79689,"distance":3191},{"i_long":106.780334,"line":6,"transit":false,"distance":3737,"time":7,"station_name":"Kebayoran","station_id":"KBY","is_transit":false,"i_lat":-6.237242},{"distance":6218,"station_name":"Pondokranji","i_lat":-6.276362,"transit":false,"station_id":"PDJ","i_long":106.74273,"is_transit":false,"line":6,"time":8},{"i_long":106.728916,"distance":2179,"line":6,"time":3,"i_lat":-6.288927,"transit":false,"station_name":"Jurangmangu","station_id":"JMU","is_transit":false},{"i_long":106.712277,"is_transit":false,"time":4,"line":6,"transit":false,"station_id":"SDM","distance":1994,"i_lat":-6.296963,"station_name":"Sudimara"}],[{"line":5,"distance":0,"i_long":106.723064,"transit":false,"i_lat":-6.162758,"station_id":"RW","station_name":"Rawa Buaya","is_transit":false,"time":0},{"i_long":106.737035,"station_name":"Bojongindah","time":4,"line":5,"is_transit":false,"transit":false,"i_lat":-6.159876,"station_id":"BOI","distance":1152},{"transit":false,"is_transit":false,"station_id":"TKO","time":2,"line":5,"station_name":"Taman Kota","distance":2334,"i_lat":-6.1587309999999995,"i_long":106.756522},{"line":5,"station_name":"Pesing","is_transit":false,"i_long":106.771379,"station_id":"PSG","distance":1614,"i_lat":-6.161433,"transit":false,"time":2},{"line":5,"station_name":"Grogol","time":2,"transit":false,"is_transit":false,"i_long":106.788277,"i_lat":-6.162021,"distance":2036,"station_id":"GRG"},{"station_name":"Duri","transit":true,"i_long":106.800832,"line":1,"distance":1700,"station_id":"DU","is_transit":true,"time":3,"i_lat":-6.155215},{"transit":false,"i_lat":-6.144674,"is_transit":false,"station_name":"Angke","distance":1230,"i_long":106.79867,"line":1,"station_id":"AK","time":4},{"i_lat":-6.132549,"time":9,"transit":true,"station_name":"Kampung Bandan","distance":4102,"i_long":106.826365,"station_id":"KPB","is_transit":true,"line":4},{"line":2,"time":3,"transit":true,"station_id":"JAKK","station_name":"Jakarta Kota","distance":1364,"i_long":106.812439,"is_transit":true,"i_lat":-6.137569},{"station_name":"Jayakarta","distance":1264,"i_lat":-6.141205,"transit":false,"is_transit":false,"time":4,"i_long":106.820901,"line":2,"station_id":"JAY"},{"i_long":106.82482,"line":2,"transit":false,"station_id":"MGB","distance":1080,"time":2,"station_name":"Manggabesar","is_transit":false,"i_lat":-6.149769},{"is_transit":false,"transit":false,"station_name":"Sawah Besar","distance":906,"time":2,"i_lat":-6.160725,"station_id":"SW","line":2,"i_long":106.827103},{"transit":false,"time":2,"i_lat":-6.166716,"i_long":106.828284,"is_transit":false,"line":2,"station_id":"JUA","station_name":"Juanda","distance":1149},{"is_transit":false,"station_id":"GDD","i_lat":-6.186295,"transit":false,"station_name":"Gondangdia","time":4,"distance":2015,"i_long":106.832183,"line":2},{"is_transit":false,"distance":1750,"transit":false,"station_name":"Cikini","time":3,"i_lat":-6.198556,"i_long":106.840169,"line":2,"station_id":"CKI"},{"i_lat":-6.209883,"station_name":"Manggarai","time":4,"station_id":"MRI","is_transit":true,"distance":1590,"i_long":106.84912,"line":2,"transit":true},{"i_long":106.822649,"is_transit":false,"i_lat":-6.202263,"line":1,"distance":3186,"station_name":"Sudirman","transit":false,"station_id":"SUD","time":4},{"time":1,"station_name":"Sudirman Baru","station_id":"SUDB","distance":280,"i_lat":-6.201433,"is_transit":false,"i_long":106.819881,"line":1,"transit":false},{"is_transit":false,"station_id":"KAT","transit":false,"distance":471,"i_lat":-6.20132,"line":1,"station_name":"Karet","time":1,"i_long":106.816351},{"is_transit":true,"i_lat":-6.185545,"line":1,"station_id":"THB","transit":true,"time":5,"station_name":"Tanah Abang","i_long":106.811091,"distance":2029},{"is_transit":false,"i_long":106.79689,"transit":false,"time":6,"i_lat":-6.207404,"line":6,"station_id":"PLM","distance":3191,"station_name":"Palmerah"},{"time":7,"i_lat":-6.237242,"station_id":"KBY","transit":false,"station_name":"Kebayoran","line":6,"is_transit":false,"distance":3737,"i_long":106.780334},{"i_long":106.74273,"distance":6218,"line":6,"station_name":"Pondokranji","i_lat":-6.276362,"station_id":"PDJ","is_transit":false,"transit":false,"time":8},{"station_id":"JMU","distance":2179,"transit":false,"station_name":"Jurangmangu","is_transit":false,"line":6,"time":3,"i_lat":-6.288927,"i_long":106.728916},{"station_id":"SDM","transit":false,"i_lat":-6.296963,"time":4,"is_transit":false,"i_long":106.712277,"station_name":"Sudimara","distance":1994,"line":6}],[{"i_long":106.723064,"station_id":"RW","line":5,"is_transit":false,"i_lat":-6.162758,"transit":false,"station_name":"Rawa Buaya","distance":0,"time":0},{"time":4,"is_transit":false,"i_lat":-6.159876,"transit":false,"distance":1152,"station_id":"BOI","line":5,"station_name":"Bojongindah","i_long":106.737035},{"i_lat":-6.1587309999999995,"station_name":"Taman Kota","distance":2334,"station_id":"TKO","transit":false,"line":5,"is_transit":false,"time":2,"i_long":106.756522},{"station_id":"PSG","transit":false,"time":2,"is_transit":false,"station_name":"Pesing","i_lat":-6.161433,"i_long":106.771379,"distance":1614,"line":5},{"time":2,"station_name":"Grogol","i_lat":-6.162021,"station_id":"GRG","is_transit":false,"distance":2036,"transit":false,"i_long":106.788277,"line":5},{"i_lat":-6.155215,"line":1,"time":3,"i_long":106.800832,"distance":1700,"station_id":"DU","is_transit":true,"station_name":"Duri","transit":true},{"station_id":"AK","is_transit":false,"i_lat":-6.144674,"transit":false,"station_name":"Angke","time":4,"line":1,"distance":1230,"i_long":106.79867},{"transit":true,"distance":4102,"station_name":"Kampung Bandan","i_lat":-6.132549,"i_long":106.826365,"is_transit":true,"station_id":"KPB","line":4,"time":9},{"station_name":"Rajawali","time":3,"i_long":106.836569,"is_transit":false,"distance":1444,"i_lat":-6.14505,"line":11,"station_id":"RJW","transit":false},{"time":5,"line":11,"i_lat":-6.161728,"station_id":"KMO","transit":false,"is_transit":false,"station_name":"Kemayoran","distance":1901,"i_long":106.839204},{"i_long":106.84368,"time":4,"line":11,"i_lat":-6.174784,"station_name":"Pasar Senen","distance":1436,"station_id":"PSE","is_transit":false,"transit":false},{"i_lat":-6.185975,"line":11,"station_id":"GST","station_name":"Gang Sentiong","i_long":106.850107,"time":8,"distance":1567,"is_transit":false,"transit":false},{"i_lat":-6.193792,"distance":973,"i_long":106.855437,"station_name":"Kramat","is_transit":false,"transit":false,"station_id":"KMT","line":11,"time":1},{"station_id":"POK","is_transit":false,"transit":false,"distance":1829,"station_name":"Pondok Jati","i_lat":-6.209188,"line":11,"time":2,"i_long":106.861737},{"station_name":"Jatinegara","i_lat":-6.215091,"is_transit":true,"transit":true,"distance":1236,"station_id":"JNG","i_long":106.86807400000001,"line":1,"time":9},{"transit":false,"is_transit":false,"time":2,"station_name":"Matraman","i_lat":-6.212485,"line":1,"distance":1377,"i_long":106.858896,"station_id":"MTR"},{"i_lat":-6.209883,"line":2,"transit":false,"distance":1275,"station_id":"MRI","time":2,"i_long":106.84912,"is_transit":false,"station_name":"Manggarai"},{"line":1,"transit":false,"distance":3186,"is_transit":false,"time":4,"station_name":"Sudirman","station_id":"SUD","i_lat":-6.202263,"i_long":106.822649},{"station_name":"Sudirman Baru","station_id":"SUDB","time":1,"is_transit":false,"i_lat":-6.201433,"line":1,"transit":false,"i_long":106.819881,"distance":280},{"station_id":"KAT","transit":false,"i_long":106.816351,"station_name":"Karet","i_lat":-6.20132,"time":1,"line":1,"distance":471,"is_transit":false},{"i_lat":-6.185545,"line":1,"time":5,"distance":2029,"i_long":106.811091,"transit":true,"station_id":"THB","station_name":"Tanah Abang","is_transit":true},{"is_transit":false,"station_name":"Palmerah","distance":3191,"i_lat":-6.207404,"station_id":"PLM","i_long":106.79689,"time":6,"line":6,"transit":false},{"is_transit":false,"time":7,"distance":3737,"i_long":106.780334,"transit":false,"i_lat":-6.237242,"station_name":"Kebayoran","station_id":"KBY","line":6},{"distance":6218,"station_name":"Pondokranji","station_id":"PDJ","time":8,"i_lat":-6.276362,"is_transit":false,"i_long":106.74273,"line":6,"transit":false},{"time":3,"station_name":"Jurangmangu","is_transit":false,"station_id":"JMU","distance":2179,"i_lat":-6.288927,"transit":false,"line":6,"i_long":106.728916},{"line":6,"i_long":106.712277,"distance":1994,"is_transit":false,"time":4,"transit":false,"station_name":"Sudimara","i_lat":-6.296963,"station_id":"SDM"}]]}