{"data":[[{"i_lat":-6.162758,"i_long":106.723064,"time":0,"transit":false,"station_id":"RW","distance":0,"is_transit":false,"line":5,"station_name":"Rawa Buaya"},{"i_long":106.737035,"transit":false,"station_name":"Bojongindah","time":4,"station_id":"BOI","is_transit":false,"line":0,"i_lat":-6.159876,"distance":1152},{"station_id":"TKO","i_long":106.756522,"distance":2334,"line":5,"station_name":"Taman Kota","is_transit":false,"transit":false,"time":2,"i_lat":-6.1587309999999995},{"station_name":"Pesing","is_transit":false,"line":5,"distance":1614,"station_id":"PSG","time":2,"i_long":106.771379,"i_lat":-6.161433,"transit":false},{"time":2,"is_transit":false,"i_long":106.788277,"i_lat":-6.162021,"station_id":"GGL","line":5,"station_name":"Grogol","transit":false,"distance":2036},{"line":1,"distance":1700,"is_transit":true,"station_name":"Duri","transit":true,"station_id":"DU","time":3,"i_lat":-6.155215,"i_long":106.800832},{"i_long":106.811091,"time":8,"is_transit":true,"station_id":"THB","transit":true,"i_lat":-6.185545,"line":1,"distance":3632,"station_name":"Tanah Abang"},{"station_id":"PLM","station_name":"Palmerah","distance":3191,"i_lat":-6.207404,"line":6,"transit":false,"i_long":106.79689,"time":6,"is_transit":false},{"time":7,"station_name":"Kebayoran","i_lat":-6.237242,"distance":3737,"transit":false,"line":6,"i_long":106.780334,"station_id":"KBY","is_transit":false},{"i_long":106.74273,"time":8,"i_lat":-6.276362,"is_transit":false,"line":6,"distance":6218,"transit":false,"station_id":"PDJ","station_name":"Pondokranji"},{"i_lat":-6.288927,"i_long":106.728916,"time":3,"is_transit":false,"line":6,"transit":false,"station_id":"JMU","distance":2179,"station_name":"Jurangmangu"},{"line":6,"i_long":106.712277,"station_id":"SDM","transit":false,"distance":1994,"i_lat":-6.296963,"time":4,"is_transit":false,"station_name":"Sudimara"},{"station_name":"Rawa Buntu","line":6,"distance":4566,"station_id":"RU","time":6,"i_lat":-6.314823,"i_long":106.675475,"transit":false,"is_transit":false},{"distance":2413,"i_lat":-6.319871,"time":4,"station_id":"SRP","line":6,"transit":false,"is_transit":false,"station_name":"Serpong","i_long":106.66566}],[{"distance":0,"time":0,"i_long":106.723064,"station_name":"Rawa Buaya","line":5,"i_lat":-6.162758,"station_id":"RW","transit":false,"is_transit":false},{"station_name":"Bojongindah","i_lat":-6.159876,"is_transit":false,"transit":false,"distance":1152,"station_id":"BOI","i_long":106.737035,"time":4,"line":0},{"i_long":106.756522,"i_lat":-6.1587309999999995,"is_transit":false,"distance":2334,"station_name":"Taman Kota","transit":false,"line":5,"time":2,"station_id":"TKO"},{"i_long":106.771379,"line":5,"station_name":"Pesing","is_transit":false,"distance":1614,"station_id":"PSG","time":2,"transit":false,"i_lat":-6.161433},{"is_transit":false,"line":5,"i_long":106.788277,"i_lat":-6.162021,"station_id":"GGL","transit":false,"distance":2036,"time":2,"station_name":"Grogol"},{"i_long":106.800832,"time":3,"is_transit":true,"station_id":"DU","line":1,"distance":1700,"transit":true,"station_name":"Duri","i_lat":-6.155215},{"transit":false,"distance":1230,"station_id":"AK","i_lat":-6.144674,"station_name":"Angke","i_long":106.79867,"time":4,"line":0,"is_transit":false},{"distance":4102,"time":9,"line":0,"station_name":"Kampung Bandan","i_long":106.826365,"transit":false,"i_lat":-6.132549,"station_id":"KPB","is_transit":true},{"transit":true,"time":3,"line":0,"i_lat":-6.137569,"is_transit":true,"distance":1364,"i_long":106.812439,"station_id":"JAKK","station_name":"Jakarta Kota"},{"station_name":"Jayakarta","i_lat":-6.141205,"line":7,"is_transit":false,"distance":1264,"i_long":106.820901,"station_id":"JAY","transit":false,"time":4},{"is_transit":false,"station_name":"Manggabesar","time":2,"station_id":"MGB","line":2,"i_lat":-6.149769,"transit":false,"distance":1080,"i_long":106.82482},{"station_id":"SW","time":2,"line":2,"i_long":106.827103,"distance":906,"is_transit":false,"station_name":"Sawah Besar","transit":false,"i_lat":-6.160725},{"time":2,"station_name":"Juanda","i_long":106.828284,"station_id":"JUA","is_transit":false,"transit":false,"line":2,"distance":1149,"i_lat":-6.166716},{"i_long":106.832183,"line":2,"station_id":"GDD","distance":2015,"is_transit":false,"i_lat":-6.186295,"station_name":"Gondangdia","transit":false,"time":4},{"transit":false,"line":0,"station_name":"Cikini","i_lat":-6.198556,"station_id":"CKI","i_long":106.840169,"is_transit":false,"time":3,"distance":1750},{"line":0,"station_id":"MRI","time":4,"distance":1590,"transit":true,"i_lat":-6.209883,"is_transit":true,"i_long":106.84912,"station_name":"Manggarai"},{"is_transit":false,"station_name":"Sudirman","i_long":106.822649,"station_id":"SUD","time":4,"line":1,"transit":false,"distance":3186,"i_lat":-6.202263},{"station_name":"Sudirman Baru","distance":280,"line":1,"is_transit":false,"time":1,"i_long":106.819881,"transit":false,"station_id":"SUDB","i_lat":-6.201433},{"station_id":"KAT","time":1,"is_transit":false,"i_long":106.816351,"station_name":"Karet","transit":false,"i_lat":-6.20132,"line":1,"distance":471},{"station_name":"Tanah Abang","i_lat":-6.185545,"time":5,"distance":2029,"i_long":106.811091,"line":1,"is_transit":true,"station_id":"THB","transit":true},{"i_lat":-6.207404,"is_transit":false,"i_long":106.79689,"distance":3191,"time":6,"station_id":"PLM","line":6,"transit":false,"station_name":"Palmerah"},{"is_transit":false,"station_id":"KBY","distance":3737,"time":7,"line":6,"transit":false,"i_long":106.780334,"i_lat":-6.237242,"station_name":"Kebayoran"},{"i_long":106.74273,"station_id":"PDJ","line":6,"station_name":"Pondokranji","distance":6218,"is_transit":false,"transit":false,"i_lat":-6.276362,"time":8},{"i_lat":-6.288927,"is_transit":false,"i_long":106.728916,"distance":2179,"transit":false,"time":3,"line":6,"station_name":"Jurangmangu","station_id":"JMU"},{"i_long":106.712277,"station_id":"SDM","station_name":"Sudimara","distance":1994,"is_transit":false,"i_lat":-6.296963,"transit":false,"time":4,"line":6},{"i_long":106.675475,"distance":4566,"i_lat":-6.314823,"is_transit":false,"station_name":"Rawa Buntu","line":6,"station_id":"RU","time":6,"transit":false},{"is_transit":false,"station_name":"Serpong","transit":false,"time":4,"distance":2413,"i_lat":-6.319871,"i_long":106.66566,"station_id":"SRP","line":6}],[{"transit":false,"distance":0,"station_id":"RW","i_lat":-6.162758,"line":5,"is_transit":false,"station_name":"Rawa Buaya","time":0,"i_long":106.723064},{"is_transit":false,"transit":false,"i_lat":-6.159876,"i_long":106.737035,"station_name":"Bojongindah","line":0,"distance":1152,"station_id":"BOI","time":4},{"i_lat":-6.1587309999999995,"i_long":106.756522,"distance":2334,"station_name":"Taman Kota","line":5,"time":2,"station_id":"TKO","transit":false,"is_transit":false},{"distance":1614,"time":2,"station_name":"Pesing","i_lat":-6.161433,"station_id":"PSG","line":5,"is_transit":false,"transit":false,"i_long":106.771379},{"distance":2036,"station_id":"GGL","transit":false,"time":2,"i_lat":-6.162021,"line":5,"station_name":"Grogol","is_transit":false,"i_long":106.788277},{"station_id":"DU","transit":true,"line":1,"distance":1700,"i_long":106.800832,"i_lat":-6.155215,"station_name":"Duri","is_transit":true,"time":3},{"station_name":"Angke","transit":false,"time":4,"line":0,"distance":1230,"i_long":106.79867,"i_lat":-6.144674,"station_id":"AK","is_transit":false},{"transit":true,"time":9,"i_long":106.826365,"distance":4102,"line":0,"i_lat":-6.132549,"is_transit":true,"station_name":"Kampung Bandan","station_id":"KPB"},{"line":11,"is_transit":false,"station_name":"Rajawali","transit":false,"station_id":"RJW","i_lat":-6.14505,"i_long":106.836569,"time":3,"distance":1444},{"time":5,"station_name":"Kemayoran","is_transit":false,"station_id":"KMO","transit":false,"i_lat":-6.161728,"i_long":106.839204,"line":11,"distance":1901},{"line":11,"station_name":"Pasar Senen","is_transit":false,"time":4,"i_lat":-6.174784,"station_id":"PSE","transit":false,"distance":1436,"i_long":106.84368},{"distance":1567,"time":8,"line":11,"i_lat":-6.185975,"is_transit":false,"station_id":"GST","i_long":106.850107,"station_name":"Gang Sentiong","transit":false},{"time":1,"distance":973,"i_lat":-6.193792,"transit":false,"is_transit":false,"station_id":"KMT","i_long":106.855437,"line":11,"station_name":"Kramat"},{"i_lat":-6.209188,"i_long":106.861737,"station_id":"POK","line":11,"time":2,"is_transit":false,"station_name":"Pondok Jati","transit":false,"distance":1829},{"line":0,"distance":1236,"is_transit":true,"station_name":"Jatinegara","transit":true,"station_id":"JNG","time":9,"i_lat":-6.215091,"i_long":106.86807400000001},{"station_name":"Matraman","is_transit":false,"i_long":106.858896,"distance":1377,"transit":false,"time":2,"station_id":"MTR","i_lat":-6.212485,"line":1},{"transit":false,"station_id":"MRI","time":2,"i_long":106.84912,"line":0,"is_transit":true,"distance":1275,"i_lat":-6.209883,"station_name":"Manggarai"},{"i_lat":-6.202263,"is_transit":false,"station_id":"SUD","distance":3186,"station_name":"Sudirman","transit":false,"time":4,"i_long":106.822649,"line":1},{"station_id":"SUDB","line":1,"is_transit":false,"i_long":106.819881,"distance":280,"transit":false,"station_name":"Sudirman Baru","i_lat":-6.201433,"time":1},{"transit":false,"is_transit":false,"time":1,"i_lat":-6.20132,"i_long":106.816351,"line":1,"station_id":"KAT","distance":471,"station_name":"Karet"},{"distance":2029,"time":5,"line":1,"transit":true,"station_id":"THB","i_long":106.811091,"station_name":"Tanah Abang","i_lat":-6.185545,"is_transit":true},{"distance":3191,"transit":false,"is_transit":false,"time":6,"i_lat":-6.207404,"station_name":"Palmerah","i_long":106.79689,"line":6,"station_id":"PLM"},{"station_id":"KBY","i_long":106.780334,"distance":3737,"is_transit":false,"station_name":"Kebayoran","i_lat":-6.237242,"line":6,"transit":false,"time":7},{"distance":6218,"station_id":"PDJ","transit":false,"station_name":"Pondokranji","time":8,"is_transit":false,"i_lat":-6.276362,"i_long":106.74273,"line":6},{"line":6,"is_transit":false,"transit":false,"time":3,"i_lat":-6.288927,"i_long":106.728916,"distance":2179,"station_id":"JMU","station_name":"Jurangmangu"},{"i_long":106.712277,"time":4,"i_lat":-6.296963,"distance":1994,"station_id":"SDM","is_transit":false,"station_name":"Sudimara","line":6,"transit":false},{"station_id":"RU","i_long":106.675475,"time":6,"distance":4566,"is_transit":false,"i_lat":-6.314823,"line":6,"transit":false,"station_name":"Rawa Buntu"},{"station_id":"SRP","line":6,"time":4,"distance":2413,"i_lat":-6.319871,"is_transit":false,"transit":false,"i_long":106.66566,"station_name":"Serpong"}]]}