{"data":[[{"distance":0,"is_transit":false,"i_lat":-6.162758,"line":5,"i_long":106.723064,"station_id":"RW","station_name":"Rawa Buaya","transit":false,"time":0},{"distance":1152,"station_id":"BOI","i_lat":-6.159876,"transit":false,"station_name":"Bojongindah","time":4,"line":0,"i_long":106.737035,"is_transit":false},{"station_name":"Taman Kota","transit":false,"time":2,"station_id":"TKO","distance":2334,"is_transit":false,"i_lat":-6.1587309999999995,"i_long":106.756522,"line":5},{"is_transit":false,"station_id":"PSG","time":2,"station_name":"Pesing","i_lat":-6.161433,"i_long":106.771379,"distance":1614,"transit":false,"line":5},{"time":2,"i_long":106.788277,"station_id":"GGL","distance":2036,"i_lat":-6.162021,"station_name":"Grogol","is_transit":false,"transit":false,"line":5},{"transit":true,"time":3,"station_name":"Duri","station_id":"DU","line":1,"i_lat":-6.155215,"i_long":106.800832,"distance":1700,"is_transit":true},{"is_transit":true,"line":1,"distance":3632,"i_lat":-6.185545,"i_long":106.811091,"station_name":"Tanah Abang","transit":true,"station_id":"THB","time":8},{"distance":3191,"station_name":"Palmerah","line":6,"station_id":"PLM","i_lat":-6.207404,"transit":false,"is_transit":false,"time":6,"i_long":106.79689},{"station_name":"Kebayoran","transit":false,"i_lat":-6.237242,"line":6,"time":7,"is_transit":false,"i_long":106.780334,"distance":3737,"station_id":"KBY"},{"station_id":"PDJ","time":8,"i_lat":-6.276362,"distance":6218,"station_name":"Pondokranji","is_transit":false,"i_long":106.74273,"line":6,"transit":false},{"is_transit":false,"i_lat":-6.288927,"station_id":"JMU","transit":false,"i_long":106.728916,"station_name":"Jurangmangu","line":6,"time":3,"distance":2179},{"station_name":"Sudimara","time":4,"i_lat":-6.296963,"line":6,"station_id":"SDM","transit":false,"i_long":106.712277,"is_transit":false,"distance":1994}],[{"transit":false,"i_lat":-6.162758,"is_transit":false,"distance":0,"station_name":"Rawa Buaya","station_id":"RW","i_long":106.723064,"line":5,"time":0},{"transit":false,"distance":1152,"i_lat":-6.159876,"i_long":106.737035,"line":0,"station_name":"Bojongindah","is_transit":false,"station_id":"BOI","time":4},{"time":2,"station_name":"Taman Kota","station_id":"TKO","i_long":106.756522,"line":5,"transit":false,"is_transit":false,"i_lat":-6.1587309999999995,"distance":2334},{"distance":1614,"line":5,"is_transit":false,"i_lat":-6.161433,"transit":false,"i_long":106.771379,"time":2,"station_id":"PSG","station_name":"Pesing"},{"transit":false,"i_lat":-6.162021,"i_long":106.788277,"line":5,"station_name":"Grogol","time":2,"is_transit":false,"distance":2036,"station_id":"GGL"},{"time":3,"line":1,"station_name":"Duri","distance":1700,"is_transit":true,"i_lat":-6.155215,"station_id":"DU","transit":true,"i_long":106.800832},{"distance":1230,"time":4,"station_id":"AK","station_name":"Angke","transit":false,"i_lat":-6.144674,"line":0,"is_transit":false,"i_long":106.79867},{"distance":4102,"station_name":"Kampung Bandan","is_transit":true,"station_id":"KPB","transit":false,"i_long":106.826365,"time":9,"i_lat":-6.132549,"line":0},{"station_name":"Jakarta Kota","transit":true,"distance":1364,"i_long":106.812439,"is_transit":true,"time":3,"line":0,"station_id":"JAKK","i_lat":-6.137569},{"i_long":106.820901,"line":7,"distance":1264,"i_lat":-6.141205,"transit":false,"time":4,"is_transit":false,"station_name":"Jayakarta","station_id":"JAY"},{"line":2,"time":2,"distance":1080,"station_name":"Manggabesar","i_lat":-6.149769,"i_long":106.82482,"station_id":"MGB","is_transit":false,"transit":false},{"time":2,"line":2,"transit":false,"i_lat":-6.160725,"i_long":106.827103,"station_id":"SW","is_transit":false,"distance":906,"station_name":"Sawah Besar"},{"time":2,"i_long":106.828284,"transit":false,"i_lat":-6.166716,"line":2,"is_transit":false,"station_name":"Juanda","station_id":"JUA","distance":1149},{"station_name":"Gondangdia","station_id":"GDD","distance":2015,"is_transit":false,"i_long":106.832183,"line":2,"i_lat":-6.186295,"transit":false,"time":4},{"station_name":"Cikini","is_transit":false,"line":0,"transit":false,"i_lat":-6.198556,"i_long":106.840169,"time":3,"station_id":"CKI","distance":1750},{"station_name":"Manggarai","is_transit":true,"distance":1590,"i_long":106.84912,"station_id":"MRI","time":4,"i_lat":-6.209883,"line":0,"transit":true},{"is_transit":false,"station_id":"SUD","time":4,"transit":false,"i_long":106.822649,"distance":3186,"station_name":"Sudirman","i_lat":-6.202263,"line":1},{"distance":280,"station_name":"Sudirman Baru","transit":false,"station_id":"SUDB","time":1,"i_lat":-6.201433,"line":1,"is_transit":false,"i_long":106.819881},{"i_long":106.816351,"transit":false,"line":1,"is_transit":false,"station_id":"KAT","station_name":"Karet","i_lat":-6.20132,"time":1,"distance":471},{"time":5,"station_name":"Tanah Abang","i_lat":-6.185545,"station_id":"THB","distance":2029,"i_long":106.811091,"transit":true,"line":1,"is_transit":true},{"i_lat":-6.207404,"station_id":"PLM","i_long":106.79689,"time":6,"is_transit":false,"transit":false,"line":6,"distance":3191,"station_name":"Palmerah"},{"station_id":"KBY","time":7,"i_lat":-6.237242,"line":6,"i_long":106.780334,"station_name":"Kebayoran","distance":3737,"transit":false,"is_transit":false},{"time":8,"transit":false,"is_transit":false,"distance":6218,"station_id":"PDJ","i_lat":-6.276362,"i_long":106.74273,"station_name":"Pondokranji","line":6},{"distance":2179,"time":3,"station_name":"Jurangmangu","station_id":"JMU","is_transit":false,"line":6,"i_long":106.728916,"transit":false,"i_lat":-6.288927},{"transit":false,"time":4,"i_long":106.712277,"i_lat":-6.296963,"is_transit":false,"line":6,"station_id":"SDM","distance":1994,"station_name":"Sudimara"}],[{"i_lat":-6.162758,"line":5,"transit":false,"distance":0,"time":0,"i_long":106.723064,"station_name":"Rawa Buaya","is_transit":false,"station_id":"RW"},{"i_long":106.737035,"distance":1152,"transit":false,"i_lat":-6.159876,"line":0,"time":4,"station_name":"Bojongindah","station_id":"BOI","is_transit":false},{"transit":false,"time":2,"station_id":"TKO","line":5,"i_lat":-6.1587309999999995,"distance":2334,"i_long":106.756522,"station_name":"Taman Kota","is_transit":false},{"is_transit":false,"line":5,"i_long":106.771379,"time":2,"i_lat":-6.161433,"station_id":"PSG","transit":false,"station_name":"Pesing","distance":1614},{"distance":2036,"is_transit":false,"transit":false,"i_long":106.788277,"time":2,"station_id":"GGL","station_name":"Grogol","i_lat":-6.162021,"line":5},{"station_name":"Duri","is_transit":true,"time":3,"distance":1700,"i_lat":-6.155215,"line":1,"i_long":106.800832,"transit":true,"station_id":"DU"},{"distance":1230,"i_lat":-6.144674,"station_name":"Angke","transit":false,"line":0,"is_transit":false,"station_id":"AK","i_long":106.79867,"time":4},{"i_lat":-6.132549,"station_id":"KPB","line":0,"station_name":"Kampung Bandan","i_long":106.826365,"is_transit":true,"time":9,"distance":4102,"transit":true},{"station_name":"Rajawali","i_lat":-6.14505,"i_long":106.836569,"line":11,"station_id":"RJW","distance":1444,"is_transit":false,"time":3,"transit":false},{"transit":false,"station_name":"Kemayoran","distance":1901,"i_lat":-6.161728,"is_transit":false,"station_id":"KMO","line":11,"i_long":106.839204,"time":5},{"transit":false,"time":4,"is_transit":false,"i_long":106.84368,"line":11,"station_name":"Pasar Senen","i_lat":-6.174784,"distance":1436,"station_id":"PSE"},{"is_transit":false,"i_long":106.850107,"station_name":"Gang Sentiong","time":8,"distance":1567,"station_id":"GST","transit":false,"line":11,"i_lat":-6.185975},{"distance":973,"transit":false,"time":1,"i_long":106.855437,"station_name":"Kramat","station_id":"KMT","is_transit":false,"i_lat":-6.193792,"line":11},{"time":2,"station_id":"POK","i_long":106.861737,"line":11,"transit":false,"station_name":"Pondok Jati","is_transit":false,"i_lat":-6.209188,"distance":1829},{"time":9,"distance":1236,"transit":true,"i_lat":-6.215091,"i_long":106.86807400000001,"line":0,"station_name":"Jatinegara","station_id":"JNG","is_transit":true},{"station_id":"MTR","distance":1377,"is_transit":false,"station_name":"Matraman","transit":false,"i_lat":-6.212485,"i_long":106.858896,"time":2,"line":1},{"is_transit":true,"i_long":106.84912,"line":0,"time":2,"i_lat":-6.209883,"distance":1275,"station_name":"Manggarai","station_id":"MRI","transit":false},{"station_id":"SUD","distance":3186,"i_long":106.822649,"line":1,"transit":false,"station_name":"Sudirman","i_lat":-6.202263,"is_transit":false,"time":4},{"time":1,"i_long":106.819881,"distance":280,"transit":false,"line":1,"station_id":"SUDB","i_lat":-6.201433,"is_transit":false,"station_name":"Sudirman Baru"},{"i_lat":-6.20132,"distance":471,"time":1,"station_id":"KAT","station_name":"Karet","is_transit":false,"i_long":106.816351,"line":1,"transit":false},{"distance":2029,"time":5,"line":1,"i_long":106.811091,"is_transit":true,"transit":true,"station_id":"THB","station_name":"Tanah Abang","i_lat":-6.185545},{"i_lat":-6.207404,"station_name":"Palmerah","is_transit":false,"transit":false,"i_long":106.79689,"line":6,"time":6,"station_id":"PLM","distance":3191},{"time":7,"i_lat":-6.237242,"line":6,"station_name":"Kebayoran","station_id":"KBY","distance":3737,"is_transit":false,"transit":false,"i_long":106.780334},{"line":6,"station_id":"PDJ","transit":false,"time":8,"i_lat":-6.276362,"distance":6218,"station_name":"Pondokranji","i_long":106.74273,"is_transit":false},{"station_name":"Jurangmangu","transit":false,"distance":2179,"station_id":"JMU","time":3,"i_long":106.728916,"is_transit":false,"i_lat":-6.288927,"line":6},{"line":6,"i_long":106.712277,"time":4,"distance":1994,"transit":false,"station_id":"SDM","station_name":"Sudimara","is_transit":false,"i_lat":-6.296963}]]}