{"data":[[{"i_lat":-6.162758,"line":5,"time":0,"station_name":"Rawa Buaya","distance":0,"station_id":"RW","is_transit":false,"transit":false,"i_long":106.723064},{"is_transit":false,"distance":1152,"transit":false,"station_id":"BOI","time":4,"station_name":"Bojongindah","i_lat":-6.159876,"i_long":106.737035,"line":5},{"distance":2334,"is_transit":false,"station_name":"Taman Kota","transit":false,"station_id":"TKO","i_lat":-6.1587309999999995,"time":2,"i_long":106.756522,"line":5},{"line":5,"station_name":"Pesing","i_long":106.771379,"station_id":"PSG","distance":1614,"i_lat":-6.161433,"time":2,"transit":false,"is_transit":false},{"station_id":"GGL","station_name":"Grogol","i_lat":-6.162021,"i_long":106.788277,"time":2,"transit":false,"distance":2036,"is_transit":false,"line":5},{"time":3,"station_id":"DU","station_name":"Duri","i_long":106.800832,"line":1,"transit":true,"is_transit":true,"distance":1700,"i_lat":-6.155215},{"i_lat":-6.185545,"station_name":"Tanah Abang","transit":true,"line":1,"station_id":"THB","time":8,"is_transit":true,"distance":3632,"i_long":106.811091},{"station_id":"PLM","is_transit":false,"transit":false,"time":6,"distance":3191,"i_lat":-6.207404,"station_name":"Palmerah","i_long":106.79689,"line":6},{"line":6,"transit":false,"i_long":106.780334,"station_id":"KBY","time":7,"i_lat":-6.237242,"distance":3737,"station_name":"Kebayoran","is_transit":false},{"station_id":"PDJ","transit":false,"i_long":106.74273,"station_name":"Pondokranji","i_lat":-6.276362,"time":8,"line":6,"is_transit":false,"distance":6218},{"transit":false,"station_id":"JMU","i_lat":-6.288927,"line":6,"distance":2179,"station_name":"Jurangmangu","time":3,"is_transit":false,"i_long":106.728916},{"line":6,"distance":1994,"station_name":"Sudimara","time":4,"i_lat":-6.296963,"transit":false,"is_transit":false,"i_long":106.712277,"station_id":"SDM"}],[{"i_lat":-6.162758,"line":5,"station_id":"RW","distance":0,"transit":false,"is_transit":false,"time":0,"i_long":106.723064,"station_name":"Rawa Buaya"},{"transit":false,"station_id":"BOI","i_lat":-6.159876,"i_long":106.737035,"line":5,"station_name":"Bojongindah","distance":1152,"time":4,"is_transit":false},{"transit":false,"line":5,"distance":2334,"i_long":106.756522,"i_lat":-6.1587309999999995,"station_id":"TKO","time":2,"is_transit":false,"station_name":"Taman Kota"},{"is_transit":false,"time":2,"transit":false,"i_lat":-6.161433,"line":5,"i_long":106.771379,"station_id":"PSG","distance":1614,"station_name":"Pesing"},{"line":5,"time":2,"i_lat":-6.162021,"station_id":"GGL","station_name":"Grogol","distance":2036,"transit":false,"i_long":106.788277,"is_transit":false},{"line":1,"station_id":"DU","station_name":"Duri","is_transit":true,"time":3,"distance":1700,"transit":true,"i_long":106.800832,"i_lat":-6.155215},{"transit":false,"is_transit":false,"station_name":"Angke","i_long":106.79867,"time":4,"station_id":"AK","i_lat":-6.144674,"line":1,"distance":1230},{"transit":true,"i_long":106.826365,"station_id":"KPB","station_name":"Kampung Bandan","line":4,"i_lat":-6.132549,"time":9,"distance":4102,"is_transit":true},{"station_name":"Jakarta Kota","i_long":106.812439,"distance":1364,"is_transit":true,"station_id":"JAKK","transit":true,"time":3,"line":2,"i_lat":-6.137569},{"station_name":"Jayakarta","transit":false,"i_lat":-6.141205,"i_long":106.820901,"distance":1264,"is_transit":false,"line":2,"station_id":"JAY","time":4},{"time":2,"transit":false,"station_name":"Manggabesar","line":2,"distance":1080,"i_long":106.82482,"i_lat":-6.149769,"station_id":"MGB","is_transit":false},{"station_id":"SW","is_transit":false,"i_long":106.827103,"transit":false,"i_lat":-6.160725,"distance":906,"time":2,"line":2,"station_name":"Sawah Besar"},{"distance":1149,"i_lat":-6.166716,"time":2,"station_name":"Juanda","line":2,"station_id":"JUA","i_long":106.828284,"is_transit":false,"transit":false},{"is_transit":false,"transit":false,"i_lat":-6.186295,"i_long":106.832183,"distance":2015,"time":4,"station_id":"GDD","station_name":"Gondangdia","line":2},{"i_long":106.840169,"line":2,"station_id":"CKI","is_transit":false,"i_lat":-6.198556,"station_name":"Cikini","transit":false,"time":3,"distance":1750},{"station_id":"MRI","i_long":106.84912,"time":4,"distance":1590,"i_lat":-6.209883,"is_transit":true,"line":2,"transit":true,"station_name":"Manggarai"},{"i_lat":-6.202263,"line":1,"distance":3186,"transit":false,"station_id":"SUD","time":4,"is_transit":false,"i_long":106.822649,"station_name":"Sudirman"},{"time":1,"line":1,"distance":280,"i_long":106.819881,"is_transit":false,"i_lat":-6.201433,"station_id":"SUDB","station_name":"Sudirman Baru","transit":false},{"i_long":106.816351,"distance":471,"i_lat":-6.20132,"time":1,"station_name":"Karet","transit":false,"line":1,"is_transit":false,"station_id":"KAT"},{"time":5,"i_long":106.811091,"line":1,"distance":2029,"transit":true,"station_name":"Tanah Abang","i_lat":-6.185545,"station_id":"THB","is_transit":true},{"line":6,"distance":3191,"is_transit":false,"i_lat":-6.207404,"transit":false,"station_name":"Palmerah","time":6,"station_id":"PLM","i_long":106.79689},{"transit":false,"time":7,"distance":3737,"station_name":"Kebayoran","i_long":106.780334,"i_lat":-6.237242,"line":6,"is_transit":false,"station_id":"KBY"},{"transit":false,"station_id":"PDJ","distance":6218,"i_long":106.74273,"i_lat":-6.276362,"line":6,"time":8,"station_name":"Pondokranji","is_transit":false},{"time":3,"line":6,"i_lat":-6.288927,"distance":2179,"station_id":"JMU","transit":false,"is_transit":false,"i_long":106.728916,"station_name":"Jurangmangu"},{"station_id":"SDM","distance":1994,"line":6,"is_transit":false,"i_lat":-6.296963,"time":4,"transit":false,"i_long":106.712277,"station_name":"Sudimara"}],[{"time":0,"transit":false,"i_lat":-6.162758,"line":5,"i_long":106.723064,"station_name":"Rawa Buaya","distance":0,"station_id":"RW","is_transit":false},{"i_lat":-6.159876,"time":4,"line":5,"station_id":"BOI","i_long":106.737035,"transit":false,"station_name":"Bojongindah","is_transit":false,"distance":1152},{"i_lat":-6.1587309999999995,"station_id":"TKO","time":2,"station_name":"Taman Kota","is_transit":false,"i_long":106.756522,"line":5,"transit":false,"distance":2334},{"transit":false,"is_transit":false,"time":2,"i_lat":-6.161433,"i_long":106.771379,"line":5,"station_id":"PSG","station_name":"Pesing","distance":1614},{"transit":false,"is_transit":false,"distance":2036,"time":2,"station_id":"GGL","line":5,"i_lat":-6.162021,"i_long":106.788277,"station_name":"Grogol"},{"time":3,"station_id":"DU","i_long":106.800832,"line":1,"is_transit":true,"station_name":"Duri","transit":true,"distance":1700,"i_lat":-6.155215},{"distance":1230,"is_transit":false,"line":1,"transit":false,"station_id":"AK","station_name":"Angke","time":4,"i_long":106.79867,"i_lat":-6.144674},{"station_id":"KPB","transit":true,"station_name":"Kampung Bandan","line":4,"is_transit":true,"distance":4102,"time":9,"i_long":106.826365,"i_lat":-6.132549},{"time":3,"distance":1444,"station_id":"RJW","is_transit":false,"i_long":106.836569,"i_lat":-6.14505,"line":11,"station_name":"Rajawali","transit":false},{"station_name":"Kemayoran","line":11,"time":5,"station_id":"KMO","distance":1901,"i_lat":-6.161728,"i_long":106.839204,"transit":false,"is_transit":false},{"time":4,"i_lat":-6.174784,"station_id":"PSE","is_transit":false,"station_name":"Pasar Senen","distance":1436,"i_long":106.84368,"transit":false,"line":11},{"time":8,"is_transit":false,"i_lat":-6.185975,"station_id":"GST","distance":1567,"transit":false,"line":11,"i_long":106.850107,"station_name":"Gang Sentiong"},{"station_name":"Kramat","is_transit":false,"time":1,"station_id":"KMT","line":11,"i_lat":-6.193792,"i_long":106.855437,"transit":false,"distance":973},{"distance":1829,"is_transit":false,"station_name":"Pondok Jati","transit":false,"time":2,"station_id":"POK","i_lat":-6.209188,"i_long":106.861737,"line":11},{"transit":true,"station_id":"JNG","i_long":106.86807400000001,"is_transit":true,"line":1,"station_name":"Jatinegara","distance":1236,"time":9,"i_lat":-6.215091},{"transit":false,"is_transit":false,"station_name":"Matraman","distance":1377,"time":2,"i_lat":-6.212485,"line":1,"station_id":"MTR","i_long":106.858896},{"i_long":106.84912,"station_id":"MRI","is_transit":false,"time":2,"i_lat":-6.209883,"distance":1275,"station_name":"Manggarai","line":2,"transit":false},{"i_long":106.822649,"station_id":"SUD","station_name":"Sudirman","time":4,"transit":false,"is_transit":false,"line":1,"i_lat":-6.202263,"distance":3186},{"station_id":"SUDB","i_lat":-6.201433,"transit":false,"line":1,"is_transit":false,"time":1,"i_long":106.819881,"station_name":"Sudirman Baru","distance":280},{"transit":false,"i_lat":-6.20132,"i_long":106.816351,"line":1,"station_id":"KAT","distance":471,"time":1,"station_name":"Karet","is_transit":false},{"line":1,"station_id":"THB","station_name":"Tanah Abang","i_lat":-6.185545,"time":5,"distance":2029,"transit":true,"is_transit":true,"i_long":106.811091},{"station_id":"PLM","time":6,"i_long":106.79689,"is_transit":false,"i_lat":-6.207404,"line":6,"transit":false,"station_name":"Palmerah","distance":3191},{"is_transit":false,"line":6,"station_name":"Kebayoran","station_id":"KBY","time":7,"i_lat":-6.237242,"transit":false,"distance":3737,"i_long":106.780334},{"is_transit":false,"station_name":"Pondokranji","transit":false,"i_lat":-6.276362,"i_long":106.74273,"station_id":"PDJ","distance":6218,"time":8,"line":6},{"station_name":"Jurangmangu","i_long":106.728916,"line":6,"transit":false,"is_transit":false,"station_id":"JMU","time":3,"i_lat":-6.288927,"distance":2179},{"i_lat":-6.296963,"is_transit":false,"line":6,"station_id":"SDM","distance":1994,"time":4,"i_long":106.712277,"transit":false,"station_name":"Sudimara"}]]}