{"data":[[{"is_transit":false,"station_name":"Rawa Buaya","transit":false,"distance":0,"i_lat":-6.162758,"line":5,"time":0,"station_id":"RW","i_long":106.723064},{"station_id":"BOI","line":5,"is_transit":false,"transit":false,"station_name":"Bojongindah","time":4,"distance":1152,"i_long":106.737035,"i_lat":-6.159876},{"i_long":106.756522,"i_lat":-6.1587309999999995,"station_name":"Taman Kota","transit":false,"time":2,"station_id":"TKO","line":5,"is_transit":false,"distance":2334},{"i_lat":-6.161433,"transit":false,"is_transit":false,"station_name":"Pesing","distance":1614,"i_long":106.771379,"time":2,"station_id":"PSG","line":5},{"i_lat":-6.162021,"time":2,"station_name":"Grogol","i_long":106.788277,"is_transit":false,"transit":false,"station_id":"GGL","distance":2036,"line":5},{"station_name":"Duri","distance":1700,"i_lat":-6.155215,"is_transit":true,"time":3,"i_long":106.800832,"transit":true,"station_id":"DU","line":1},{"line":1,"station_name":"Angke","i_long":106.79867,"station_id":"AK","distance":1230,"transit":false,"is_transit":false,"time":4,"i_lat":-6.144674},{"station_id":"KPB","i_lat":-6.132549,"i_long":106.826365,"line":4,"transit":true,"station_name":"Kampung Bandan","time":9,"is_transit":true,"distance":4102},{"time":3,"is_transit":true,"station_id":"JAKK","transit":true,"i_lat":-6.137569,"i_long":106.812439,"station_name":"Jakarta Kota","distance":1364,"line":2},{"line":2,"i_long":106.820901,"i_lat":-6.141205,"station_id":"JAY","distance":1264,"station_name":"Jayakarta","is_transit":false,"transit":false,"time":4},{"distance":1080,"line":2,"i_lat":-6.149769,"i_long":106.82482,"transit":false,"station_id":"MGB","station_name":"Manggabesar","time":2,"is_transit":false},{"i_lat":-6.160725,"station_id":"SW","transit":false,"line":2,"station_name":"Sawah Besar","i_long":106.827103,"is_transit":false,"time":2,"distance":906}],[{"transit":false,"time":0,"i_lat":-6.162758,"distance":0,"line":5,"is_transit":false,"station_name":"Rawa Buaya","station_id":"RW","i_long":106.723064},{"i_lat":-6.159876,"line":5,"is_transit":false,"transit":false,"time":4,"i_long":106.737035,"station_name":"Bojongindah","distance":1152,"station_id":"BOI"},{"i_lat":-6.1587309999999995,"line":5,"station_id":"TKO","is_transit":false,"i_long":106.756522,"time":2,"station_name":"Taman Kota","distance":2334,"transit":false},{"distance":1614,"time":2,"i_lat":-6.161433,"line":5,"station_id":"PSG","transit":false,"station_name":"Pesing","i_long":106.771379,"is_transit":false},{"station_name":"Grogol","time":2,"is_transit":false,"line":5,"station_id":"GGL","transit":false,"i_long":106.788277,"distance":2036,"i_lat":-6.162021},{"i_long":106.800832,"distance":1700,"station_id":"DU","line":1,"transit":true,"time":3,"station_name":"Duri","i_lat":-6.155215,"is_transit":true},{"station_id":"THB","station_name":"Tanah Abang","time":8,"i_long":106.811091,"i_lat":-6.185545,"transit":false,"is_transit":false,"distance":3632,"line":1},{"i_long":106.816351,"line":1,"transit":false,"i_lat":-6.20132,"station_name":"Karet","time":5,"is_transit":false,"distance":2029,"station_id":"KAT"},{"i_lat":-6.201433,"distance":471,"station_name":"Sudirman Baru","is_transit":false,"i_long":106.819881,"line":1,"transit":false,"time":1,"station_id":"SUDB"},{"time":1,"station_name":"Sudirman","i_lat":-6.202263,"station_id":"SUD","i_long":106.822649,"is_transit":false,"transit":false,"distance":280,"line":1},{"distance":3186,"i_long":106.84912,"i_lat":-6.209883,"line":2,"station_id":"MRI","time":4,"station_name":"Manggarai","transit":true,"is_transit":true},{"distance":1590,"station_name":"Cikini","time":4,"transit":false,"i_lat":-6.198556,"station_id":"CKI","is_transit":false,"line":2,"i_long":106.840169},{"i_lat":-6.186295,"line":2,"transit":false,"station_id":"GDD","is_transit":false,"distance":1750,"station_name":"Gondangdia","time":3,"i_long":106.832183},{"is_transit":false,"distance":2015,"i_lat":-6.166716,"i_long":106.828284,"transit":false,"station_name":"Juanda","station_id":"JUA","line":2,"time":4},{"i_long":106.827103,"is_transit":false,"time":2,"i_lat":-6.160725,"line":2,"transit":false,"station_id":"SW","station_name":"Sawah Besar","distance":1149}],[{"station_id":"RW","time":0,"distance":0,"station_name":"Rawa Buaya","i_lat":-6.162758,"i_long":106.723064,"transit":false,"is_transit":false,"line":5},{"is_transit":false,"i_lat":-6.159876,"transit":false,"distance":1152,"line":5,"station_id":"BOI","time":4,"station_name":"Bojongindah","i_long":106.737035},{"time":2,"station_id":"TKO","distance":2334,"i_lat":-6.1587309999999995,"station_name":"Taman Kota","transit":false,"i_long":106.756522,"line":5,"is_transit":false},{"station_id":"PSG","distance":1614,"line":5,"transit":false,"station_name":"Pesing","i_lat":-6.161433,"is_transit":false,"time":2,"i_long":106.771379},{"transit":false,"is_transit":false,"distance":2036,"station_id":"GGL","line":5,"i_lat":-6.162021,"station_name":"Grogol","time":2,"i_long":106.788277},{"station_name":"Duri","is_transit":true,"station_id":"DU","distance":1700,"time":3,"i_lat":-6.155215,"i_long":106.800832,"transit":true,"line":1},{"transit":false,"time":4,"i_lat":-6.144674,"line":1,"i_long":106.79867,"is_transit":false,"station_id":"AK","distance":1230,"station_name":"Angke"},{"time":9,"i_long":106.826365,"station_id":"KPB","distance":4102,"i_lat":-6.132549,"is_transit":true,"transit":true,"station_name":"Kampung Bandan","line":4},{"i_lat":-6.14505,"distance":1444,"station_id":"RJW","station_name":"Rajawali","i_long":106.836569,"is_transit":false,"transit":false,"line":11,"time":3},{"distance":1901,"i_lat":-6.161728,"station_id":"KMO","i_long":106.839204,"transit":false,"station_name":"Kemayoran","is_transit":false,"time":5,"line":11},{"is_transit":false,"distance":1436,"i_lat":-6.174784,"i_long":106.84368,"station_id":"PSE","transit":false,"station_name":"Pasar Senen","time":4,"line":11},{"is_transit":false,"station_id":"GST","line":11,"transit":false,"i_lat":-6.185975,"distance":1567,"i_long":106.850107,"station_name":"Gang Sentiong","time":8},{"distance":973,"transit":false,"i_lat":-6.193792,"station_id":"KMT","i_long":106.855437,"line":11,"time":1,"station_name":"Kramat","is_transit":false},{"i_long":106.861737,"line":11,"transit":false,"is_transit":false,"distance":1829,"i_lat":-6.209188,"station_id":"POK","station_name":"Pondok Jati","time":2},{"station_id":"JNG","i_long":106.86807400000001,"station_name":"Jatinegara","transit":true,"distance":1236,"i_lat":-6.215091,"line":1,"is_transit":true,"time":9},{"transit":false,"station_id":"MTR","time":2,"is_transit":false,"i_lat":-6.212485,"distance":1377,"station_name":"Matraman","line":1,"i_long":106.858896},{"time":2,"line":2,"is_transit":true,"station_name":"Manggarai","distance":1275,"transit":true,"i_lat":-6.209883,"i_long":106.84912,"station_id":"MRI"},{"line":2,"i_lat":-6.198556,"station_id":"CKI","i_long":106.840169,"is_transit":false,"time":4,"distance":1590,"station_name":"Cikini","transit":false},{"is_transit":false,"i_lat":-6.186295,"i_long":106.832183,"line":2,"time":3,"distance":1750,"transit":false,"station_name":"Gondangdia","station_id":"GDD"},{"i_long":106.828284,"i_lat":-6.166716,"station_id":"JUA","is_transit":false,"distance":2015,"time":4,"station_name":"Juanda","transit":false,"line":2},{"is_transit":false,"i_lat":-6.160725,"station_id":"SW","line":2,"time":2,"transit":false,"i_long":106.827103,"station_name":"Sawah Besar","distance":1149}],[{"transit":false,"line":5,"station_name":"Rawa Buaya","is_transit":false,"distance":0,"station_id":"RW","time":0,"i_long":106.723064,"i_lat":-6.162758},{"i_long":106.737035,"station_name":"Bojongindah","line":5,"distance":1152,"time":4,"i_lat":-6.159876,"transit":false,"is_transit":false,"station_id":"BOI"},{"is_transit":false,"distance":2334,"i_lat":-6.1587309999999995,"i_long":106.756522,"station_name":"Taman Kota","station_id":"TKO","time":2,"line":5,"transit":false},{"is_transit":false,"distance":1614,"station_id":"PSG","i_lat":-6.161433,"line":5,"station_name":"Pesing","i_long":106.771379,"time":2,"transit":false},{"i_lat":-6.162021,"station_id":"GGL","station_name":"Grogol","i_long":106.788277,"time":2,"line":5,"transit":false,"is_transit":false,"distance":2036},{"time":3,"is_transit":true,"station_id":"DU","station_name":"Duri","line":1,"transit":true,"i_lat":-6.155215,"i_long":106.800832,"distance":1700},{"is_transit":false,"station_id":"THB","i_long":106.811091,"station_name":"Tanah Abang","time":8,"i_lat":-6.185545,"transit":false,"distance":3632,"line":1},{"is_transit":false,"station_id":"KAT","transit":false,"i_lat":-6.20132,"line":1,"time":5,"station_name":"Karet","i_long":106.816351,"distance":2029},{"station_name":"Sudirman Baru","i_lat":-6.201433,"transit":false,"i_long":106.819881,"distance":471,"is_transit":false,"time":1,"station_id":"SUDB","line":1},{"time":1,"station_id":"SUD","line":1,"i_long":106.822649,"distance":280,"i_lat":-6.202263,"is_transit":false,"station_name":"Sudirman","transit":false},{"station_name":"Manggarai","transit":false,"time":4,"i_long":106.84912,"line":2,"station_id":"MRI","distance":3186,"i_lat":-6.209883,"is_transit":false},{"time":2,"distance":1275,"i_long":106.858896,"i_lat":-6.212485,"line":1,"station_name":"Matraman","is_transit":false,"transit":false,"station_id":"MTR"},{"station_name":"Jatinegara","is_transit":true,"i_long":106.86807400000001,"station_id":"JNG","i_lat":-6.215091,"transit":true,"time":8,"distance":1377,"line":1},{"station_name":"Pondok Jati","i_lat":-6.209188,"line":11,"station_id":"POK","is_transit":false,"time":2,"transit":false,"distance":1236,"i_long":106.861737},{"distance":1829,"is_transit":false,"station_id":"KMT","station_name":"Kramat","i_lat":-6.193792,"transit":false,"time":2,"line":11,"i_long":106.855437},{"is_transit":false,"time":1,"station_id":"GST","station_name":"Gang Sentiong","line":11,"i_lat":-6.185975,"i_long":106.850107,"distance":973,"transit":false},{"line":11,"transit":false,"station_name":"Pasar Senen","is_transit":false,"station_id":"PSE","i_lat":-6.174784,"time":8,"i_long":106.84368,"distance":1567},{"transit":false,"is_transit":false,"station_name":"Kemayoran","time":4,"distance":1436,"station_id":"KMO","i_lat":-6.161728,"i_long":106.839204,"line":11},{"line":11,"is_transit":false,"transit":false,"station_name":"Rajawali","time":5,"distance":1901,"i_lat":-6.14505,"i_long":106.836569,"station_id":"RJW"},{"station_id":"KPB","i_lat":-6.132549,"is_transit":true,"line":4,"station_name":"Kampung Bandan","i_long":106.826365,"transit":true,"distance":1444,"time":3},{"i_lat":-6.137569,"station_id":"JAKK","line":2,"station_name":"Jakarta Kota","transit":true,"i_long":106.812439,"time":3,"is_transit":true,"distance":1364},{"station_id":"JAY","i_lat":-6.141205,"station_name":"Jayakarta","i_long":106.820901,"distance":1264,"line":2,"transit":false,"time":4,"is_transit":false},{"i_lat":-6.149769,"transit":false,"time":2,"distance":1080,"station_id":"MGB","is_transit":false,"i_long":106.82482,"line":2,"station_name":"Manggabesar"},{"transit":false,"i_lat":-6.160725,"line":2,"distance":906,"time":2,"is_transit":false,"station_id":"SW","station_name":"Sawah Besar","i_long":106.827103}]]}