{"data":[[{"i_lat":-6.162758,"i_long":106.723064,"station_name":"Rawa Buaya","time":0,"is_transit":false,"station_id":"RW","distance":0,"transit":false,"line":5},{"is_transit":false,"time":4,"i_long":106.737035,"station_id":"BOI","line":5,"transit":false,"distance":1152,"i_lat":-6.159876,"station_name":"Bojongindah"},{"station_id":"TKO","transit":false,"station_name":"Taman Kota","is_transit":false,"time":2,"line":5,"i_lat":-6.1587309999999995,"i_long":106.756522,"distance":2334},{"transit":false,"is_transit":false,"line":5,"time":2,"station_id":"PSG","i_lat":-6.161433,"station_name":"Pesing","distance":1614,"i_long":106.771379},{"transit":false,"i_lat":-6.162021,"i_long":106.788277,"line":5,"station_name":"Grogol","is_transit":false,"station_id":"GGL","time":2,"distance":2036},{"i_long":106.800832,"i_lat":-6.155215,"distance":1700,"is_transit":true,"line":1,"time":3,"station_name":"Duri","station_id":"DU","transit":true},{"i_long":106.79867,"distance":1230,"station_id":"AK","is_transit":false,"time":4,"i_lat":-6.144674,"station_name":"Angke","transit":false,"line":1},{"is_transit":true,"i_long":106.826365,"line":4,"time":9,"transit":true,"station_id":"KPB","station_name":"Kampung Bandan","distance":4102,"i_lat":-6.132549},{"station_name":"Jakarta Kota","is_transit":true,"distance":1364,"line":2,"i_long":106.812439,"station_id":"JAKK","time":3,"i_lat":-6.137569,"transit":true},{"i_long":106.820901,"station_name":"Jayakarta","is_transit":false,"i_lat":-6.141205,"station_id":"JAY","time":4,"transit":false,"line":2,"distance":1264},{"distance":1080,"line":2,"is_transit":false,"time":2,"transit":false,"station_name":"Manggabesar","i_long":106.82482,"i_lat":-6.149769,"station_id":"MGB"},{"line":2,"distance":906,"station_id":"SW","transit":false,"is_transit":false,"i_long":106.827103,"time":2,"i_lat":-6.160725,"station_name":"Sawah Besar"}],[{"station_id":"RW","distance":0,"line":5,"station_name":"Rawa Buaya","transit":false,"i_lat":-6.162758,"i_long":106.723064,"time":0,"is_transit":false},{"station_name":"Bojongindah","i_long":106.737035,"station_id":"BOI","i_lat":-6.159876,"is_transit":false,"time":4,"line":5,"distance":1152,"transit":false},{"station_id":"TKO","distance":2334,"line":5,"station_name":"Taman Kota","i_lat":-6.1587309999999995,"transit":false,"is_transit":false,"time":2,"i_long":106.756522},{"distance":1614,"line":5,"is_transit":false,"i_lat":-6.161433,"i_long":106.771379,"station_id":"PSG","station_name":"Pesing","time":2,"transit":false},{"line":5,"station_id":"GGL","is_transit":false,"station_name":"Grogol","transit":false,"time":2,"i_long":106.788277,"distance":2036,"i_lat":-6.162021},{"station_name":"Duri","i_long":106.800832,"line":1,"station_id":"DU","transit":true,"i_lat":-6.155215,"is_transit":true,"time":3,"distance":1700},{"is_transit":false,"i_long":106.811091,"distance":3632,"station_id":"THB","line":1,"time":8,"station_name":"Tanah Abang","transit":false,"i_lat":-6.185545},{"i_long":106.816351,"station_name":"Karet","transit":false,"is_transit":false,"i_lat":-6.20132,"distance":2029,"station_id":"KAT","time":5,"line":1},{"station_name":"Sudirman Baru","is_transit":false,"line":1,"distance":471,"i_lat":-6.201433,"station_id":"SUDB","transit":false,"time":1,"i_long":106.819881},{"station_name":"Sudirman","is_transit":false,"i_long":106.822649,"time":1,"transit":false,"line":1,"station_id":"SUD","i_lat":-6.202263,"distance":280},{"distance":3186,"transit":true,"is_transit":true,"i_lat":-6.209883,"time":4,"station_name":"Manggarai","station_id":"MRI","i_long":106.84912,"line":2},{"distance":1590,"time":4,"i_long":106.840169,"transit":false,"station_id":"CKI","i_lat":-6.198556,"line":2,"station_name":"Cikini","is_transit":false},{"transit":false,"station_id":"GDD","i_lat":-6.186295,"station_name":"Gondangdia","distance":1750,"line":2,"time":3,"i_long":106.832183,"is_transit":false},{"distance":2015,"station_id":"JUA","station_name":"Juanda","transit":false,"i_lat":-6.166716,"line":2,"time":4,"i_long":106.828284,"is_transit":false},{"i_long":106.827103,"station_id":"SW","distance":1149,"time":2,"i_lat":-6.160725,"transit":false,"line":2,"station_name":"Sawah Besar","is_transit":false}],[{"is_transit":false,"distance":0,"time":0,"line":5,"station_name":"Rawa Buaya","transit":false,"i_lat":-6.162758,"i_long":106.723064,"station_id":"RW"},{"station_id":"BOI","time":4,"i_lat":-6.159876,"i_long":106.737035,"line":5,"transit":false,"station_name":"Bojongindah","is_transit":false,"distance":1152},{"transit":false,"is_transit":false,"station_name":"Taman Kota","i_lat":-6.1587309999999995,"i_long":106.756522,"station_id":"TKO","line":5,"time":2,"distance":2334},{"i_long":106.771379,"transit":false,"station_id":"PSG","distance":1614,"time":2,"station_name":"Pesing","line":5,"is_transit":false,"i_lat":-6.161433},{"station_name":"Grogol","i_lat":-6.162021,"is_transit":false,"time":2,"transit":false,"distance":2036,"i_long":106.788277,"station_id":"GGL","line":5},{"distance":1700,"station_id":"DU","line":1,"station_name":"Duri","time":3,"is_transit":true,"i_lat":-6.155215,"transit":true,"i_long":106.800832},{"distance":1230,"i_long":106.79867,"station_name":"Angke","time":4,"transit":false,"i_lat":-6.144674,"line":1,"station_id":"AK","is_transit":false},{"station_id":"KPB","line":4,"time":9,"distance":4102,"transit":true,"i_long":106.826365,"is_transit":true,"station_name":"Kampung Bandan","i_lat":-6.132549},{"time":3,"line":11,"distance":1444,"station_id":"RJW","i_long":106.836569,"is_transit":false,"station_name":"Rajawali","i_lat":-6.14505,"transit":false},{"i_long":106.839204,"is_transit":false,"time":5,"line":11,"station_id":"KMO","distance":1901,"i_lat":-6.161728,"station_name":"Kemayoran","transit":false},{"i_lat":-6.174784,"i_long":106.84368,"transit":false,"is_transit":false,"time":4,"station_id":"PSE","distance":1436,"line":11,"station_name":"Pasar Senen"},{"transit":false,"is_transit":false,"time":8,"i_long":106.850107,"i_lat":-6.185975,"line":11,"station_id":"GST","station_name":"Gang Sentiong","distance":1567},{"transit":false,"time":1,"i_lat":-6.193792,"i_long":106.855437,"distance":973,"is_transit":false,"line":11,"station_id":"KMT","station_name":"Kramat"},{"distance":1829,"i_long":106.861737,"transit":false,"time":2,"i_lat":-6.209188,"station_id":"POK","is_transit":false,"line":11,"station_name":"Pondok Jati"},{"i_long":106.86807400000001,"distance":1236,"is_transit":true,"time":9,"transit":true,"station_name":"Jatinegara","i_lat":-6.215091,"station_id":"JNG","line":1},{"station_id":"MTR","distance":1377,"i_lat":-6.212485,"i_long":106.858896,"transit":false,"time":2,"line":1,"is_transit":false,"station_name":"Matraman"},{"i_long":106.84912,"station_name":"Manggarai","line":2,"is_transit":true,"i_lat":-6.209883,"station_id":"MRI","transit":true,"time":2,"distance":1275},{"station_id":"CKI","transit":false,"time":4,"i_lat":-6.198556,"i_long":106.840169,"station_name":"Cikini","distance":1590,"is_transit":false,"line":2},{"transit":false,"is_transit":false,"time":3,"i_lat":-6.186295,"i_long":106.832183,"station_id":"GDD","station_name":"Gondangdia","distance":1750,"line":2},{"station_name":"Juanda","transit":false,"distance":2015,"time":4,"i_lat":-6.166716,"i_long":106.828284,"line":2,"station_id":"JUA","is_transit":false},{"station_id":"SW","transit":false,"time":2,"is_transit":false,"station_name":"Sawah Besar","i_lat":-6.160725,"distance":1149,"i_long":106.827103,"line":2}],[{"i_lat":-6.162758,"transit":false,"station_id":"RW","time":0,"is_transit":false,"distance":0,"i_long":106.723064,"line":5,"station_name":"Rawa Buaya"},{"i_long":106.737035,"is_transit":false,"line":5,"distance":1152,"i_lat":-6.159876,"station_id":"BOI","station_name":"Bojongindah","time":4,"transit":false},{"transit":false,"time":2,"i_long":106.756522,"i_lat":-6.1587309999999995,"line":5,"distance":2334,"station_name":"Taman Kota","is_transit":false,"station_id":"TKO"},{"distance":1614,"i_lat":-6.161433,"station_name":"Pesing","transit":false,"line":5,"i_long":106.771379,"station_id":"PSG","is_transit":false,"time":2},{"distance":2036,"i_long":106.788277,"transit":false,"station_name":"Grogol","is_transit":false,"time":2,"i_lat":-6.162021,"station_id":"GGL","line":5},{"i_long":106.800832,"line":1,"time":3,"is_transit":true,"distance":1700,"station_id":"DU","station_name":"Duri","transit":true,"i_lat":-6.155215},{"i_lat":-6.185545,"is_transit":false,"station_id":"THB","station_name":"Tanah Abang","time":8,"transit":false,"i_long":106.811091,"distance":3632,"line":1},{"i_long":106.816351,"station_id":"KAT","distance":2029,"station_name":"Karet","time":5,"is_transit":false,"i_lat":-6.20132,"line":1,"transit":false},{"i_lat":-6.201433,"is_transit":false,"time":1,"station_id":"SUDB","transit":false,"i_long":106.819881,"line":1,"station_name":"Sudirman Baru","distance":471},{"i_long":106.822649,"is_transit":false,"station_name":"Sudirman","station_id":"SUD","time":1,"transit":false,"distance":280,"i_lat":-6.202263,"line":1},{"transit":false,"distance":3186,"time":4,"i_lat":-6.209883,"i_long":106.84912,"line":2,"is_transit":false,"station_name":"Manggarai","station_id":"MRI"},{"station_name":"Matraman","station_id":"MTR","transit":false,"is_transit":false,"time":2,"distance":1275,"i_long":106.858896,"line":1,"i_lat":-6.212485},{"transit":true,"is_transit":true,"station_name":"Jatinegara","i_long":106.86807400000001,"distance":1377,"station_id":"JNG","i_lat":-6.215091,"time":8,"line":1},{"line":11,"station_id":"POK","is_transit":false,"time":2,"distance":1236,"i_long":106.861737,"station_name":"Pondok Jati","i_lat":-6.209188,"transit":false},{"time":2,"i_long":106.855437,"transit":false,"station_name":"Kramat","line":11,"i_lat":-6.193792,"is_transit":false,"station_id":"KMT","distance":1829},{"is_transit":false,"i_lat":-6.185975,"station_id":"GST","transit":false,"time":1,"line":11,"station_name":"Gang Sentiong","distance":973,"i_long":106.850107},{"i_lat":-6.174784,"transit":false,"is_transit":false,"time":8,"distance":1567,"i_long":106.84368,"station_id":"PSE","line":11,"station_name":"Pasar Senen"},{"time":4,"transit":false,"distance":1436,"is_transit":false,"station_id":"KMO","i_lat":-6.161728,"i_long":106.839204,"line":11,"station_name":"Kemayoran"},{"is_transit":false,"transit":false,"station_id":"RJW","distance":1901,"time":5,"i_lat":-6.14505,"station_name":"Rajawali","line":11,"i_long":106.836569},{"line":4,"station_id":"KPB","station_name":"Kampung Bandan","is_transit":true,"transit":true,"distance":1444,"i_lat":-6.132549,"time":3,"i_long":106.826365},{"is_transit":true,"i_lat":-6.137569,"station_name":"Jakarta Kota","station_id":"JAKK","distance":1364,"time":3,"i_long":106.812439,"transit":true,"line":2},{"time":4,"is_transit":false,"line":2,"transit":false,"distance":1264,"station_id":"JAY","i_lat":-6.141205,"i_long":106.820901,"station_name":"Jayakarta"},{"distance":1080,"i_long":106.82482,"station_name":"Manggabesar","time":2,"line":2,"transit":false,"station_id":"MGB","is_transit":false,"i_lat":-6.149769},{"is_transit":false,"time":2,"i_lat":-6.160725,"distance":906,"line":2,"transit":false,"station_name":"Sawah Besar","station_id":"SW","i_long":106.827103}]]}