{"data":[[{"i_lat":-6.162758,"station_id":"RW","is_transit":false,"distance":0,"i_long":106.723064,"line":5,"station_name":"Rawa Buaya","transit":false,"time":0},{"is_transit":false,"time":3,"i_lat":-6.166068,"line":5,"station_id":"KDS","transit":false,"station_name":"Kalideres","i_long":106.701612,"distance":2504},{"station_id":"PI","line":5,"transit":false,"i_lat":-6.169933,"station_name":"Poris","is_transit":false,"time":3,"distance":2548,"i_long":106.679458},{"distance":1834,"station_id":"BPR","station_name":"Batuceper","transit":false,"i_long":106.665036,"is_transit":false,"line":5,"time":3,"i_lat":-6.171811},{"distance":2028,"station_id":"TTI","line":5,"is_transit":false,"transit":false,"time":3,"station_name":"Tanah Tinggi","i_lat":-6.17331,"i_long":106.64657}]]}