{"data":[[{"station_name":"Rawa Buaya","is_transit":false,"line":5,"station_id":"RW","time":0,"i_long":106.723064,"transit":false,"i_lat":-6.162758,"distance":0},{"distance":2504,"i_long":106.701612,"line":5,"station_id":"KDS","is_transit":false,"i_lat":-6.166068,"time":3,"transit":false,"station_name":"Kalideres"},{"station_id":"PI","line":5,"transit":false,"station_name":"Poris","i_long":106.679458,"distance":2548,"time":3,"i_lat":-6.169933,"is_transit":false},{"is_transit":false,"station_name":"Batuceper","station_id":"BPR","distance":1834,"i_lat":-6.171811,"transit":false,"line":5,"i_long":106.665036,"time":3},{"station_name":"Tanah Tinggi","station_id":"TTI","time":3,"transit":false,"distance":2028,"is_transit":false,"i_lat":-6.17331,"line":5,"i_long":106.64657},{"distance":1547,"station_id":"TNG","transit":false,"i_lat":-6.176583,"line":5,"is_transit":false,"i_long":106.632761,"time":3,"station_name":"Tangerang"}]]}