{"data":[[{"station_id":"RW","line":5,"is_transit":false,"station_name":"Rawa Buaya","i_long":106.723064,"transit":false,"time":0,"i_lat":-6.162758,"distance":0},{"station_name":"Kalideres","transit":false,"distance":2504,"i_lat":-6.166068,"time":3,"station_id":"KDS","is_transit":false,"line":5,"i_long":106.701612},{"station_id":"PI","distance":2548,"i_lat":-6.169933,"i_long":106.679458,"transit":false,"station_name":"Poris","is_transit":false,"time":3,"line":5},{"is_transit":false,"station_id":"BPR","i_lat":-6.171811,"i_long":106.665036,"line":5,"transit":false,"station_name":"Batuceper","distance":1834,"time":3},{"i_lat":-6.17331,"station_id":"TTI","distance":2028,"station_name":"Tanah Tinggi","time":3,"i_long":106.64657,"line":5,"is_transit":false,"transit":false},{"station_id":"TNG","i_lat":-6.176583,"is_transit":false,"transit":false,"line":5,"i_long":106.632761,"station_name":"Tangerang","time":3,"distance":1547}]]}