{"data":[[{"line":5,"station_id":"RW","station_name":"Rawa Buaya","distance":0,"transit":false,"is_transit":false,"time":0,"i_lat":-6.162758,"i_long":106.723064},{"i_long":106.701612,"line":5,"station_name":"Kalideres","i_lat":-6.166068,"transit":false,"distance":2504,"is_transit":false,"time":3,"station_id":"KDS"},{"time":3,"is_transit":false,"station_id":"PI","station_name":"Poris","transit":false,"i_long":106.679458,"line":5,"distance":2548,"i_lat":-6.169933},{"transit":false,"station_name":"Batuceper","station_id":"BPR","distance":1834,"is_transit":false,"i_lat":-6.171811,"i_long":106.665036,"time":3,"line":0},{"line":5,"is_transit":false,"i_long":106.64657,"i_lat":-6.17331,"distance":2028,"transit":false,"station_id":"TTI","time":3,"station_name":"Tanah Tinggi"},{"transit":false,"is_transit":false,"distance":1547,"line":5,"time":3,"station_name":"Tangerang","station_id":"TNG","i_lat":-6.176583,"i_long":106.632761}]]}