{"data":[[{"distance":0,"i_long":106.723064,"station_name":"Rawa Buaya","i_lat":-6.162758,"transit":false,"is_transit":false,"time":0,"station_id":"RW","line":5},{"station_name":"Kalideres","i_long":106.701612,"is_transit":false,"i_lat":-6.166068,"line":5,"distance":2504,"time":3,"station_id":"KDS","transit":false},{"station_name":"Poris","is_transit":false,"transit":false,"time":3,"distance":2548,"i_lat":-6.169933,"station_id":"PI","i_long":106.679458,"line":5},{"distance":1834,"station_name":"Batuceper","transit":false,"line":0,"station_id":"BPR","i_long":106.665036,"time":3,"is_transit":false,"i_lat":-6.171811},{"transit":false,"i_long":106.64657,"is_transit":false,"station_name":"Tanah Tinggi","line":5,"station_id":"TTI","distance":2028,"i_lat":-6.17331,"time":3}]]}