{"data":[[{"is_transit":false,"i_long":106.723064,"station_id":"RW","station_name":"Rawa Buaya","time":0,"distance":0,"i_lat":-6.162758,"line":5,"transit":false},{"time":3,"transit":false,"line":5,"station_name":"Kalideres","is_transit":false,"distance":2504,"i_lat":-6.166068,"station_id":"KDS","i_long":106.701612},{"transit":false,"is_transit":false,"line":5,"i_lat":-6.169933,"distance":2548,"station_name":"Poris","i_long":106.679458,"station_id":"PI","time":3},{"is_transit":false,"station_id":"BPR","distance":1834,"i_lat":-6.171811,"i_long":106.665036,"transit":false,"line":5,"time":3,"station_name":"Batuceper"},{"line":5,"i_lat":-6.17331,"time":3,"station_id":"TTI","distance":2028,"i_long":106.64657,"station_name":"Tanah Tinggi","is_transit":false,"transit":false}]]}