{"data":[[{"distance":0,"i_long":106.723064,"line":5,"station_id":"RW","time":0,"is_transit":false,"transit":false,"i_lat":-6.162758,"station_name":"Rawa Buaya"},{"station_id":"KDS","transit":false,"line":5,"time":3,"i_lat":-6.166068,"station_name":"Kalideres","i_long":106.701612,"distance":2504,"is_transit":false},{"i_long":106.679458,"line":5,"distance":2548,"transit":false,"i_lat":-6.169933,"time":3,"station_id":"PI","is_transit":false,"station_name":"Poris"},{"transit":false,"distance":1834,"i_lat":-6.171811,"i_long":106.665036,"line":5,"time":3,"station_id":"BPR","is_transit":false,"station_name":"Batuceper"},{"station_id":"TTI","is_transit":false,"time":3,"i_lat":-6.17331,"line":5,"distance":2028,"transit":false,"station_name":"Tanah Tinggi","i_long":106.64657}]]}