{"data":[[{"line":5,"i_lat":-6.162758,"station_name":"Rawa Buaya","distance":0,"i_long":106.723064,"time":0,"transit":false,"is_transit":false,"station_id":"RW"},{"transit":false,"station_id":"KDS","station_name":"Kalideres","is_transit":false,"time":3,"distance":2504,"i_lat":-6.166068,"i_long":106.701612,"line":5},{"line":5,"time":3,"is_transit":false,"i_lat":-6.169933,"station_id":"PI","distance":2548,"station_name":"Poris","i_long":106.679458,"transit":false},{"station_id":"BPR","distance":1834,"i_lat":-6.171811,"i_long":106.665036,"transit":false,"line":5,"station_name":"Batuceper","is_transit":false,"time":3},{"i_lat":-6.17331,"line":5,"is_transit":false,"time":3,"distance":2028,"i_long":106.64657,"station_id":"TTI","transit":false,"station_name":"Tanah Tinggi"},{"i_lat":-6.176583,"station_name":"Tangerang","distance":1547,"time":3,"transit":false,"i_long":106.632761,"is_transit":false,"station_id":"TNG","line":5}]]}