{"data":[[{"i_long":106.723064,"distance":0,"i_lat":-6.162758,"station_name":"Rawa Buaya","line":5,"is_transit":false,"station_id":"RW","time":0,"transit":false},{"distance":1152,"station_name":"Bojongindah","i_long":106.737035,"i_lat":-6.159876,"is_transit":false,"station_id":"BOI","time":4,"line":5,"transit":false},{"time":2,"line":5,"station_name":"Taman Kota","station_id":"TKO","i_long":106.756522,"distance":2334,"transit":false,"is_transit":false,"i_lat":-6.1587309999999995},{"station_name":"Pesing","i_lat":-6.161433,"transit":false,"station_id":"PSG","distance":1614,"line":5,"is_transit":false,"time":2,"i_long":106.771379},{"line":5,"distance":2036,"station_id":"GGL","is_transit":false,"transit":false,"i_long":106.788277,"time":2,"station_name":"Grogol","i_lat":-6.162021},{"distance":1700,"line":1,"i_long":106.800832,"i_lat":-6.155215,"is_transit":true,"transit":true,"time":3,"station_name":"Duri","station_id":"DU"},{"is_transit":false,"distance":3632,"transit":false,"time":8,"i_lat":-6.185545,"station_name":"Tanah Abang","i_long":106.811091,"line":1,"station_id":"THB"},{"i_long":106.816351,"transit":false,"time":5,"station_name":"Karet","line":1,"i_lat":-6.20132,"station_id":"KAT","is_transit":false,"distance":2029},{"is_transit":false,"distance":471,"i_lat":-6.201433,"station_id":"SUDB","i_long":106.819881,"line":1,"time":1,"station_name":"Sudirman Baru","transit":false},{"station_id":"SUD","distance":280,"is_transit":false,"transit":false,"time":1,"i_lat":-6.202263,"i_long":106.822649,"line":1,"station_name":"Sudirman"},{"transit":false,"time":4,"line":2,"i_lat":-6.209883,"station_name":"Manggarai","station_id":"MRI","distance":3186,"i_long":106.84912,"is_transit":false},{"is_transit":false,"i_long":106.858896,"line":1,"distance":1275,"station_name":"Matraman","transit":false,"time":2,"station_id":"MTR","i_lat":-6.212485},{"i_lat":-6.215091,"line":1,"time":8,"is_transit":false,"i_long":106.86807400000001,"station_id":"JNG","distance":1377,"transit":false,"station_name":"Jatinegara"},{"station_name":"Klender","transit":false,"station_id":"KLD","line":1,"is_transit":false,"i_lat":-6.2135,"time":3,"distance":3395,"i_long":106.899548},{"station_name":"Buaran","time":2,"i_lat":-6.215568,"is_transit":false,"station_id":"BUA","i_long":106.922662,"line":1,"distance":3100,"transit":false},{"station_name":"Klenderbaru","i_lat":-6.217455,"line":1,"is_transit":false,"station_id":"KLDB","time":1,"i_long":106.939679,"distance":1305,"transit":false},{"station_id":"CUK","i_lat":-6.219053,"is_transit":false,"line":1,"station_name":"Cakung","i_long":106.951283,"transit":false,"time":8,"distance":1385},{"line":1,"i_lat":-6.224515,"is_transit":false,"transit":false,"station_name":"Kranji","station_id":"KRI","distance":3097,"i_long":106.977657,"time":3},{"distance":2520,"i_lat":-6.236616,"i_long":106.997013,"time":4,"station_name":"Bekasi","transit":false,"line":1,"is_transit":false,"station_id":"BKS"},{"transit":false,"time":2,"distance":2368,"station_id":"BKST","i_long":107.016735,"station_name":"Bekasi Timur","is_transit":false,"line":1,"i_lat":-6.248029},{"time":7,"station_id":"TB","transit":false,"i_long":107.055722,"line":1,"is_transit":false,"distance":4460,"i_lat":-6.258864,"station_name":"Tambun"}],[{"station_id":"RW","time":0,"i_lat":-6.162758,"i_long":106.723064,"line":5,"transit":false,"distance":0,"station_name":"Rawa Buaya","is_transit":false},{"station_id":"BOI","transit":false,"time":4,"is_transit":false,"line":5,"i_lat":-6.159876,"distance":1152,"station_name":"Bojongindah","i_long":106.737035},{"distance":2334,"time":2,"is_transit":false,"station_name":"Taman Kota","transit":false,"i_long":106.756522,"station_id":"TKO","line":5,"i_lat":-6.1587309999999995},{"i_long":106.771379,"time":2,"transit":false,"i_lat":-6.161433,"station_id":"PSG","is_transit":false,"distance":1614,"line":5,"station_name":"Pesing"},{"distance":2036,"line":5,"i_long":106.788277,"transit":false,"station_name":"Grogol","i_lat":-6.162021,"is_transit":false,"station_id":"GGL","time":2},{"i_lat":-6.155215,"time":3,"distance":1700,"i_long":106.800832,"station_name":"Duri","station_id":"DU","line":1,"transit":true,"is_transit":true},{"station_name":"Angke","is_transit":false,"station_id":"AK","i_lat":-6.144674,"i_long":106.79867,"transit":false,"time":4,"distance":1230,"line":1},{"i_long":106.826365,"distance":4102,"time":9,"transit":true,"station_id":"KPB","station_name":"Kampung Bandan","is_transit":true,"i_lat":-6.132549,"line":4},{"time":3,"station_name":"Rajawali","transit":false,"is_transit":false,"line":11,"i_long":106.836569,"distance":1444,"station_id":"RJW","i_lat":-6.14505},{"is_transit":false,"line":11,"distance":1901,"station_id":"KMO","time":5,"i_long":106.839204,"transit":false,"station_name":"Kemayoran","i_lat":-6.161728},{"i_long":106.84368,"line":11,"distance":1436,"time":4,"is_transit":false,"transit":false,"station_id":"PSE","i_lat":-6.174784,"station_name":"Pasar Senen"},{"line":11,"distance":1567,"station_id":"GST","i_lat":-6.185975,"time":8,"transit":false,"i_long":106.850107,"is_transit":false,"station_name":"Gang Sentiong"},{"line":11,"is_transit":false,"i_lat":-6.193792,"time":1,"station_name":"Kramat","station_id":"KMT","distance":973,"i_long":106.855437,"transit":false},{"distance":1829,"station_name":"Pondok Jati","i_long":106.861737,"transit":false,"is_transit":false,"station_id":"POK","time":2,"i_lat":-6.209188,"line":11},{"i_long":106.86807400000001,"is_transit":true,"station_id":"JNG","transit":true,"station_name":"Jatinegara","i_lat":-6.215091,"line":1,"time":9,"distance":1236},{"line":1,"is_transit":false,"station_name":"Klender","i_lat":-6.2135,"transit":false,"station_id":"KLD","time":3,"distance":3395,"i_long":106.899548},{"transit":false,"i_long":106.922662,"station_name":"Buaran","line":1,"i_lat":-6.215568,"is_transit":false,"distance":3100,"time":2,"station_id":"BUA"},{"distance":1305,"time":1,"transit":false,"is_transit":false,"i_lat":-6.217455,"station_id":"KLDB","i_long":106.939679,"station_name":"Klenderbaru","line":1},{"is_transit":false,"time":8,"distance":1385,"i_lat":-6.219053,"station_id":"CUK","transit":false,"i_long":106.951283,"line":1,"station_name":"Cakung"},{"distance":3097,"line":1,"transit":false,"i_lat":-6.224515,"station_id":"KRI","time":3,"i_long":106.977657,"station_name":"Kranji","is_transit":false},{"station_name":"Bekasi","station_id":"BKS","is_transit":false,"line":1,"transit":false,"time":4,"distance":2520,"i_lat":-6.236616,"i_long":106.997013},{"is_transit":false,"transit":false,"station_name":"Bekasi Timur","station_id":"BKST","i_lat":-6.248029,"distance":2368,"i_long":107.016735,"line":1,"time":2},{"time":7,"transit":false,"distance":4460,"i_lat":-6.258864,"is_transit":false,"line":1,"i_long":107.055722,"station_id":"TB","station_name":"Tambun"}],[{"transit":false,"station_id":"RW","time":0,"distance":0,"line":5,"i_lat":-6.162758,"station_name":"Rawa Buaya","i_long":106.723064,"is_transit":false},{"transit":false,"distance":1152,"station_id":"BOI","i_lat":-6.159876,"time":4,"station_name":"Bojongindah","is_transit":false,"line":5,"i_long":106.737035},{"i_lat":-6.1587309999999995,"i_long":106.756522,"time":2,"station_name":"Taman Kota","station_id":"TKO","line":5,"distance":2334,"transit":false,"is_transit":false},{"station_name":"Pesing","distance":1614,"i_lat":-6.161433,"i_long":106.771379,"line":5,"is_transit":false,"station_id":"PSG","time":2,"transit":false},{"is_transit":false,"i_long":106.788277,"transit":false,"time":2,"i_lat":-6.162021,"distance":2036,"station_name":"Grogol","line":5,"station_id":"GGL"},{"transit":true,"is_transit":true,"distance":1700,"i_long":106.800832,"time":3,"i_lat":-6.155215,"station_name":"Duri","station_id":"DU","line":1},{"i_lat":-6.144674,"i_long":106.79867,"is_transit":false,"transit":false,"station_name":"Angke","line":1,"station_id":"AK","distance":1230,"time":4},{"transit":true,"line":4,"time":9,"i_lat":-6.132549,"i_long":106.826365,"station_id":"KPB","distance":4102,"is_transit":true,"station_name":"Kampung Bandan"},{"distance":1364,"i_long":106.812439,"is_transit":true,"time":3,"station_id":"JAKK","i_lat":-6.137569,"station_name":"Jakarta Kota","transit":true,"line":2},{"time":4,"line":2,"station_name":"Jayakarta","transit":false,"distance":1264,"station_id":"JAY","is_transit":false,"i_long":106.820901,"i_lat":-6.141205},{"station_name":"Manggabesar","line":2,"is_transit":false,"transit":false,"i_lat":-6.149769,"i_long":106.82482,"distance":1080,"station_id":"MGB","time":2},{"distance":906,"i_lat":-6.160725,"i_long":106.827103,"time":2,"station_name":"Sawah Besar","line":2,"is_transit":false,"transit":false,"station_id":"SW"},{"distance":1149,"transit":false,"station_name":"Juanda","line":2,"is_transit":false,"time":2,"i_long":106.828284,"i_lat":-6.166716,"station_id":"JUA"},{"line":2,"i_lat":-6.186295,"distance":2015,"transit":false,"is_transit":false,"i_long":106.832183,"station_name":"Gondangdia","time":4,"station_id":"GDD"},{"transit":false,"station_name":"Cikini","station_id":"CKI","is_transit":false,"distance":1750,"i_long":106.840169,"time":3,"line":2,"i_lat":-6.198556},{"i_lat":-6.209883,"is_transit":true,"station_name":"Manggarai","time":4,"distance":1590,"i_long":106.84912,"transit":true,"station_id":"MRI","line":2},{"distance":1275,"time":2,"i_lat":-6.212485,"station_id":"MTR","transit":false,"i_long":106.858896,"is_transit":false,"line":1,"station_name":"Matraman"},{"time":8,"is_transit":false,"station_name":"Jatinegara","station_id":"JNG","i_long":106.86807400000001,"line":1,"transit":false,"distance":1377,"i_lat":-6.215091},{"distance":3395,"station_name":"Klender","station_id":"KLD","i_lat":-6.2135,"time":3,"is_transit":false,"transit":false,"i_long":106.899548,"line":1},{"time":2,"is_transit":false,"transit":false,"i_lat":-6.215568,"station_name":"Buaran","i_long":106.922662,"station_id":"BUA","line":1,"distance":3100},{"line":1,"station_name":"Klenderbaru","transit":false,"is_transit":false,"time":1,"distance":1305,"i_long":106.939679,"station_id":"KLDB","i_lat":-6.217455},{"time":8,"transit":false,"is_transit":false,"distance":1385,"line":1,"station_id":"CUK","station_name":"Cakung","i_lat":-6.219053,"i_long":106.951283},{"station_name":"Kranji","i_long":106.977657,"is_transit":false,"station_id":"KRI","transit":false,"distance":3097,"i_lat":-6.224515,"line":1,"time":3},{"transit":false,"is_transit":false,"time":4,"distance":2520,"line":1,"station_id":"BKS","i_lat":-6.236616,"i_long":106.997013,"station_name":"Bekasi"},{"station_id":"BKST","transit":false,"line":1,"time":2,"distance":2368,"station_name":"Bekasi Timur","is_transit":false,"i_lat":-6.248029,"i_long":107.016735},{"distance":4460,"i_long":107.055722,"line":1,"transit":false,"station_name":"Tambun","is_transit":false,"time":7,"station_id":"TB","i_lat":-6.258864}],[{"transit":false,"time":0,"i_lat":-6.162758,"i_long":106.723064,"station_id":"RW","distance":0,"is_transit":false,"station_name":"Rawa Buaya","line":5},{"station_id":"BOI","time":4,"line":5,"i_lat":-6.159876,"station_name":"Bojongindah","transit":false,"distance":1152,"is_transit":false,"i_long":106.737035},{"i_lat":-6.1587309999999995,"distance":2334,"station_name":"Taman Kota","line":5,"transit":false,"is_transit":false,"time":2,"i_long":106.756522,"station_id":"TKO"},{"i_lat":-6.161433,"station_id":"PSG","distance":1614,"is_transit":false,"station_name":"Pesing","transit":false,"time":2,"i_long":106.771379,"line":5},{"station_name":"Grogol","station_id":"GGL","i_lat":-6.162021,"is_transit":false,"i_long":106.788277,"time":2,"line":5,"distance":2036,"transit":false},{"station_name":"Duri","transit":true,"station_id":"DU","distance":1700,"i_long":106.800832,"is_transit":true,"time":3,"line":1,"i_lat":-6.155215},{"is_transit":false,"i_lat":-6.185545,"station_id":"THB","time":8,"transit":false,"station_name":"Tanah Abang","i_long":106.811091,"line":1,"distance":3632},{"time":5,"i_lat":-6.20132,"station_name":"Karet","line":1,"transit":false,"station_id":"KAT","i_long":106.816351,"distance":2029,"is_transit":false},{"transit":false,"time":1,"station_id":"SUDB","line":1,"i_lat":-6.201433,"distance":471,"is_transit":false,"station_name":"Sudirman Baru","i_long":106.819881},{"i_lat":-6.202263,"i_long":106.822649,"transit":false,"station_id":"SUD","is_transit":false,"time":1,"line":1,"station_name":"Sudirman","distance":280},{"time":4,"station_name":"Manggarai","station_id":"MRI","transit":true,"is_transit":true,"i_lat":-6.209883,"line":2,"distance":3186,"i_long":106.84912},{"i_lat":-6.198556,"time":4,"is_transit":false,"transit":false,"station_name":"Cikini","station_id":"CKI","distance":1590,"i_long":106.840169,"line":2},{"station_name":"Gondangdia","transit":false,"station_id":"GDD","i_lat":-6.186295,"i_long":106.832183,"line":2,"is_transit":false,"distance":1750,"time":3},{"distance":2015,"is_transit":false,"time":4,"i_lat":-6.166716,"transit":false,"station_name":"Juanda","station_id":"JUA","line":2,"i_long":106.828284},{"station_name":"Sawah Besar","station_id":"SW","distance":1149,"i_lat":-6.160725,"line":2,"transit":false,"i_long":106.827103,"time":2,"is_transit":false},{"time":2,"station_id":"MGB","is_transit":false,"distance":906,"i_lat":-6.149769,"i_long":106.82482,"station_name":"Manggabesar","line":2,"transit":false},{"transit":false,"station_name":"Jayakarta","is_transit":false,"station_id":"JAY","i_lat":-6.141205,"i_long":106.820901,"time":2,"distance":1080,"line":2},{"station_id":"JAKK","distance":1264,"i_lat":-6.137569,"time":4,"transit":true,"line":2,"is_transit":true,"i_long":106.812439,"station_name":"Jakarta Kota"},{"i_long":106.826365,"station_name":"Kampung Bandan","station_id":"KPB","time":3,"is_transit":true,"line":4,"transit":true,"distance":1364,"i_lat":-6.132549},{"transit":false,"i_lat":-6.14505,"station_name":"Rajawali","is_transit":false,"time":3,"i_long":106.836569,"distance":1444,"station_id":"RJW","line":11},{"i_long":106.839204,"line":11,"transit":false,"distance":1901,"i_lat":-6.161728,"station_id":"KMO","is_transit":false,"station_name":"Kemayoran","time":5},{"i_lat":-6.174784,"station_id":"PSE","time":4,"i_long":106.84368,"distance":1436,"is_transit":false,"transit":false,"line":11,"station_name":"Pasar Senen"},{"i_long":106.850107,"is_transit":false,"i_lat":-6.185975,"station_id":"GST","distance":1567,"time":8,"station_name":"Gang Sentiong","line":11,"transit":false},{"transit":false,"station_id":"KMT","time":1,"distance":973,"is_transit":false,"i_lat":-6.193792,"station_name":"Kramat","i_long":106.855437,"line":11},{"transit":false,"station_id":"POK","time":2,"station_name":"Pondok Jati","is_transit":false,"distance":1829,"i_lat":-6.209188,"i_long":106.861737,"line":11},{"time":9,"i_lat":-6.215091,"transit":true,"station_name":"Jatinegara","station_id":"JNG","distance":1236,"i_long":106.86807400000001,"line":1,"is_transit":true},{"station_name":"Klender","is_transit":false,"distance":3395,"line":1,"station_id":"KLD","time":3,"transit":false,"i_lat":-6.2135,"i_long":106.899548},{"station_name":"Buaran","is_transit":false,"i_lat":-6.215568,"i_long":106.922662,"line":1,"time":2,"transit":false,"distance":3100,"station_id":"BUA"},{"is_transit":false,"line":1,"transit":false,"i_lat":-6.217455,"i_long":106.939679,"station_id":"KLDB","time":1,"station_name":"Klenderbaru","distance":1305},{"line":1,"i_long":106.951283,"transit":false,"station_name":"Cakung","i_lat":-6.219053,"is_transit":false,"distance":1385,"station_id":"CUK","time":8},{"is_transit":false,"station_name":"Kranji","distance":3097,"time":3,"transit":false,"i_long":106.977657,"i_lat":-6.224515,"station_id":"KRI","line":1},{"time":4,"line":1,"station_name":"Bekasi","station_id":"BKS","transit":false,"is_transit":false,"distance":2520,"i_long":106.997013,"i_lat":-6.236616},{"transit":false,"i_lat":-6.248029,"i_long":107.016735,"time":2,"distance":2368,"station_id":"BKST","is_transit":false,"line":1,"station_name":"Bekasi Timur"},{"transit":false,"time":7,"distance":4460,"i_lat":-6.258864,"i_long":107.055722,"line":1,"station_id":"TB","is_transit":false,"station_name":"Tambun"}]]}