{"data":[[{"i_lat":-6.162758,"station_id":"RW","time":0,"line":5,"transit":false,"i_long":106.723064,"distance":0,"station_name":"Rawa Buaya","is_transit":false},{"is_transit":false,"transit":false,"distance":1152,"i_lat":-6.159876,"i_long":106.737035,"station_id":"BOI","line":5,"station_name":"Bojongindah","time":4},{"station_id":"TKO","i_long":106.756522,"i_lat":-6.1587309999999995,"is_transit":false,"line":5,"distance":2334,"time":2,"transit":false,"station_name":"Taman Kota"},{"time":2,"is_transit":false,"transit":false,"i_lat":-6.161433,"station_id":"PSG","station_name":"Pesing","line":5,"i_long":106.771379,"distance":1614},{"station_name":"Grogol","station_id":"GGL","time":2,"i_lat":-6.162021,"line":5,"transit":false,"is_transit":false,"distance":2036,"i_long":106.788277},{"station_id":"DU","distance":1700,"station_name":"Duri","transit":true,"time":3,"i_lat":-6.155215,"i_long":106.800832,"line":1,"is_transit":true},{"station_id":"THB","line":1,"station_name":"Tanah Abang","transit":false,"i_long":106.811091,"i_lat":-6.185545,"distance":3632,"time":8,"is_transit":false},{"i_lat":-6.20132,"transit":false,"time":5,"distance":2029,"is_transit":false,"station_id":"KAT","i_long":106.816351,"line":1,"station_name":"Karet"},{"i_long":106.819881,"time":1,"station_id":"SUDB","distance":471,"station_name":"Sudirman Baru","transit":false,"is_transit":false,"i_lat":-6.201433,"line":1},{"station_name":"Sudirman","transit":false,"station_id":"SUD","i_long":106.822649,"time":1,"i_lat":-6.202263,"line":1,"distance":280,"is_transit":false},{"is_transit":false,"distance":3186,"time":4,"i_lat":-6.209883,"transit":false,"station_name":"Manggarai","line":2,"station_id":"MRI","i_long":106.84912},{"station_name":"Matraman","station_id":"MTR","time":2,"line":1,"distance":1275,"i_lat":-6.212485,"is_transit":false,"transit":false,"i_long":106.858896},{"i_lat":-6.215091,"station_id":"JNG","line":1,"is_transit":false,"transit":false,"distance":1377,"i_long":106.86807400000001,"time":8,"station_name":"Jatinegara"},{"station_id":"KLD","i_lat":-6.2135,"i_long":106.899548,"station_name":"Klender","transit":false,"is_transit":false,"time":3,"line":1,"distance":3395},{"line":1,"time":2,"distance":3100,"i_lat":-6.215568,"station_name":"Buaran","is_transit":false,"i_long":106.922662,"station_id":"BUA","transit":false},{"i_lat":-6.217455,"line":1,"station_id":"KLDB","time":1,"i_long":106.939679,"transit":false,"is_transit":false,"station_name":"Klenderbaru","distance":1305},{"i_lat":-6.219053,"time":8,"transit":false,"station_name":"Cakung","i_long":106.951283,"distance":1385,"station_id":"CUK","is_transit":false,"line":1},{"i_long":106.977657,"transit":false,"distance":3097,"i_lat":-6.224515,"time":3,"is_transit":false,"line":1,"station_id":"KRI","station_name":"Kranji"},{"i_lat":-6.236616,"station_name":"Bekasi","is_transit":false,"line":1,"i_long":106.997013,"transit":false,"station_id":"BKS","time":4,"distance":2520},{"station_id":"BKST","is_transit":false,"time":2,"line":1,"i_long":107.016735,"station_name":"Bekasi Timur","transit":false,"distance":2368,"i_lat":-6.248029},{"i_lat":-6.258864,"i_long":107.055722,"station_name":"Tambun","is_transit":false,"distance":4460,"line":1,"time":7,"station_id":"TB","transit":false}],[{"i_lat":-6.162758,"station_name":"Rawa Buaya","transit":false,"is_transit":false,"distance":0,"i_long":106.723064,"time":0,"station_id":"RW","line":5},{"distance":1152,"transit":false,"line":5,"station_id":"BOI","is_transit":false,"i_long":106.737035,"time":4,"station_name":"Bojongindah","i_lat":-6.159876},{"time":2,"transit":false,"i_long":106.756522,"distance":2334,"is_transit":false,"station_name":"Taman Kota","station_id":"TKO","i_lat":-6.1587309999999995,"line":5},{"station_id":"PSG","i_lat":-6.161433,"i_long":106.771379,"transit":false,"time":2,"is_transit":false,"line":5,"distance":1614,"station_name":"Pesing"},{"transit":false,"station_id":"GGL","i_lat":-6.162021,"distance":2036,"time":2,"is_transit":false,"line":5,"station_name":"Grogol","i_long":106.788277},{"i_long":106.800832,"time":3,"line":1,"station_name":"Duri","station_id":"DU","transit":true,"i_lat":-6.155215,"is_transit":true,"distance":1700},{"distance":1230,"transit":false,"time":4,"station_id":"AK","line":1,"i_lat":-6.144674,"i_long":106.79867,"station_name":"Angke","is_transit":false},{"i_lat":-6.132549,"i_long":106.826365,"time":9,"distance":4102,"station_name":"Kampung Bandan","line":4,"is_transit":true,"station_id":"KPB","transit":true},{"line":11,"station_name":"Rajawali","is_transit":false,"distance":1444,"i_lat":-6.14505,"time":3,"transit":false,"station_id":"RJW","i_long":106.836569},{"distance":1901,"i_lat":-6.161728,"line":11,"station_name":"Kemayoran","is_transit":false,"station_id":"KMO","i_long":106.839204,"time":5,"transit":false},{"distance":1436,"transit":false,"station_id":"PSE","time":4,"station_name":"Pasar Senen","i_lat":-6.174784,"i_long":106.84368,"is_transit":false,"line":11},{"distance":1567,"station_id":"GST","is_transit":false,"line":11,"time":8,"transit":false,"station_name":"Gang Sentiong","i_lat":-6.185975,"i_long":106.850107},{"station_id":"KMT","distance":973,"station_name":"Kramat","is_transit":false,"transit":false,"line":11,"i_lat":-6.193792,"i_long":106.855437,"time":1},{"time":2,"distance":1829,"line":11,"transit":false,"is_transit":false,"i_lat":-6.209188,"station_id":"POK","i_long":106.861737,"station_name":"Pondok Jati"},{"is_transit":true,"distance":1236,"station_name":"Jatinegara","transit":true,"line":1,"time":9,"i_lat":-6.215091,"station_id":"JNG","i_long":106.86807400000001},{"station_name":"Klender","station_id":"KLD","i_lat":-6.2135,"line":1,"distance":3395,"transit":false,"is_transit":false,"i_long":106.899548,"time":3},{"distance":3100,"station_name":"Buaran","line":1,"time":2,"is_transit":false,"i_lat":-6.215568,"transit":false,"station_id":"BUA","i_long":106.922662},{"is_transit":false,"i_lat":-6.217455,"station_name":"Klenderbaru","station_id":"KLDB","time":1,"transit":false,"i_long":106.939679,"line":1,"distance":1305},{"transit":false,"time":8,"distance":1385,"line":1,"i_lat":-6.219053,"station_id":"CUK","station_name":"Cakung","is_transit":false,"i_long":106.951283},{"transit":false,"is_transit":false,"distance":3097,"time":3,"station_name":"Kranji","station_id":"KRI","i_long":106.977657,"line":1,"i_lat":-6.224515},{"station_id":"BKS","line":1,"transit":false,"station_name":"Bekasi","is_transit":false,"i_lat":-6.236616,"i_long":106.997013,"distance":2520,"time":4},{"i_long":107.016735,"i_lat":-6.248029,"time":2,"station_name":"Bekasi Timur","station_id":"BKST","line":1,"transit":false,"distance":2368,"is_transit":false},{"is_transit":false,"distance":4460,"transit":false,"i_long":107.055722,"line":1,"time":7,"station_name":"Tambun","i_lat":-6.258864,"station_id":"TB"}],[{"i_long":106.723064,"station_id":"RW","time":0,"i_lat":-6.162758,"line":5,"transit":false,"distance":0,"station_name":"Rawa Buaya","is_transit":false},{"distance":1152,"time":4,"transit":false,"line":5,"i_lat":-6.159876,"station_name":"Bojongindah","is_transit":false,"i_long":106.737035,"station_id":"BOI"},{"station_name":"Taman Kota","time":2,"i_lat":-6.1587309999999995,"is_transit":false,"i_long":106.756522,"distance":2334,"line":5,"transit":false,"station_id":"TKO"},{"station_name":"Pesing","is_transit":false,"line":5,"distance":1614,"station_id":"PSG","i_long":106.771379,"transit":false,"time":2,"i_lat":-6.161433},{"distance":2036,"is_transit":false,"i_long":106.788277,"i_lat":-6.162021,"line":5,"station_name":"Grogol","transit":false,"station_id":"GGL","time":2},{"transit":true,"station_id":"DU","i_lat":-6.155215,"time":3,"is_transit":true,"distance":1700,"line":1,"i_long":106.800832,"station_name":"Duri"},{"is_transit":false,"i_long":106.79867,"distance":1230,"i_lat":-6.144674,"time":4,"line":1,"station_name":"Angke","transit":false,"station_id":"AK"},{"distance":4102,"i_long":106.826365,"transit":true,"is_transit":true,"i_lat":-6.132549,"line":4,"station_id":"KPB","time":9,"station_name":"Kampung Bandan"},{"time":3,"distance":1364,"station_name":"Jakarta Kota","station_id":"JAKK","i_lat":-6.137569,"i_long":106.812439,"line":2,"is_transit":true,"transit":true},{"time":4,"station_name":"Jayakarta","distance":1264,"is_transit":false,"i_lat":-6.141205,"station_id":"JAY","transit":false,"i_long":106.820901,"line":2},{"station_name":"Manggabesar","distance":1080,"i_lat":-6.149769,"transit":false,"is_transit":false,"i_long":106.82482,"time":2,"line":2,"station_id":"MGB"},{"line":2,"distance":906,"transit":false,"station_id":"SW","station_name":"Sawah Besar","i_lat":-6.160725,"i_long":106.827103,"is_transit":false,"time":2},{"time":2,"station_name":"Juanda","line":2,"station_id":"JUA","i_long":106.828284,"transit":false,"distance":1149,"is_transit":false,"i_lat":-6.166716},{"line":2,"transit":false,"i_lat":-6.186295,"i_long":106.832183,"time":4,"distance":2015,"station_name":"Gondangdia","station_id":"GDD","is_transit":false},{"is_transit":false,"station_id":"CKI","i_lat":-6.198556,"line":2,"time":3,"station_name":"Cikini","distance":1750,"i_long":106.840169,"transit":false},{"time":4,"i_long":106.84912,"station_id":"MRI","distance":1590,"station_name":"Manggarai","transit":true,"is_transit":true,"i_lat":-6.209883,"line":2},{"line":1,"is_transit":false,"time":2,"distance":1275,"i_long":106.858896,"i_lat":-6.212485,"station_id":"MTR","station_name":"Matraman","transit":false},{"i_long":106.86807400000001,"line":1,"distance":1377,"transit":false,"station_id":"JNG","time":8,"station_name":"Jatinegara","is_transit":false,"i_lat":-6.215091},{"distance":3395,"station_id":"KLD","time":3,"transit":false,"is_transit":false,"i_long":106.899548,"station_name":"Klender","i_lat":-6.2135,"line":1},{"i_lat":-6.215568,"i_long":106.922662,"is_transit":false,"station_name":"Buaran","line":1,"time":2,"transit":false,"station_id":"BUA","distance":3100},{"is_transit":false,"line":1,"i_long":106.939679,"time":1,"station_name":"Klenderbaru","i_lat":-6.217455,"station_id":"KLDB","distance":1305,"transit":false},{"line":1,"distance":1385,"time":8,"station_id":"CUK","transit":false,"is_transit":false,"i_lat":-6.219053,"i_long":106.951283,"station_name":"Cakung"},{"time":3,"transit":false,"is_transit":false,"i_lat":-6.224515,"line":1,"station_name":"Kranji","distance":3097,"station_id":"KRI","i_long":106.977657},{"station_id":"BKS","i_lat":-6.236616,"transit":false,"time":4,"line":1,"is_transit":false,"i_long":106.997013,"distance":2520,"station_name":"Bekasi"},{"station_name":"Bekasi Timur","i_lat":-6.248029,"line":1,"time":2,"distance":2368,"transit":false,"station_id":"BKST","is_transit":false,"i_long":107.016735},{"is_transit":false,"line":1,"station_id":"TB","station_name":"Tambun","i_long":107.055722,"transit":false,"i_lat":-6.258864,"time":7,"distance":4460}],[{"distance":0,"station_id":"RW","is_transit":false,"time":0,"i_lat":-6.162758,"line":5,"station_name":"Rawa Buaya","transit":false,"i_long":106.723064},{"line":5,"transit":false,"i_long":106.737035,"station_name":"Bojongindah","time":4,"station_id":"BOI","is_transit":false,"distance":1152,"i_lat":-6.159876},{"station_id":"TKO","distance":2334,"is_transit":false,"station_name":"Taman Kota","line":5,"time":2,"i_lat":-6.1587309999999995,"transit":false,"i_long":106.756522},{"station_name":"Pesing","line":5,"transit":false,"is_transit":false,"station_id":"PSG","time":2,"i_long":106.771379,"i_lat":-6.161433,"distance":1614},{"i_long":106.788277,"distance":2036,"station_id":"GGL","i_lat":-6.162021,"station_name":"Grogol","is_transit":false,"time":2,"line":5,"transit":false},{"transit":true,"distance":1700,"i_long":106.800832,"station_name":"Duri","time":3,"station_id":"DU","is_transit":true,"i_lat":-6.155215,"line":1},{"transit":false,"is_transit":false,"i_long":106.811091,"time":8,"station_name":"Tanah Abang","distance":3632,"i_lat":-6.185545,"line":1,"station_id":"THB"},{"is_transit":false,"i_lat":-6.20132,"line":1,"i_long":106.816351,"station_name":"Karet","time":5,"distance":2029,"station_id":"KAT","transit":false},{"station_name":"Sudirman Baru","transit":false,"is_transit":false,"line":1,"i_long":106.819881,"distance":471,"time":1,"i_lat":-6.201433,"station_id":"SUDB"},{"i_lat":-6.202263,"station_name":"Sudirman","line":1,"time":1,"transit":false,"distance":280,"i_long":106.822649,"is_transit":false,"station_id":"SUD"},{"distance":3186,"station_name":"Manggarai","i_lat":-6.209883,"time":4,"station_id":"MRI","i_long":106.84912,"transit":true,"line":2,"is_transit":true},{"transit":false,"line":2,"station_name":"Cikini","time":4,"i_long":106.840169,"distance":1590,"i_lat":-6.198556,"is_transit":false,"station_id":"CKI"},{"i_long":106.832183,"line":2,"is_transit":false,"station_name":"Gondangdia","i_lat":-6.186295,"distance":1750,"transit":false,"time":3,"station_id":"GDD"},{"i_long":106.828284,"time":4,"is_transit":false,"station_name":"Juanda","line":2,"distance":2015,"transit":false,"station_id":"JUA","i_lat":-6.166716},{"station_id":"SW","line":2,"station_name":"Sawah Besar","is_transit":false,"time":2,"i_lat":-6.160725,"distance":1149,"i_long":106.827103,"transit":false},{"time":2,"station_name":"Manggabesar","transit":false,"is_transit":false,"distance":906,"i_long":106.82482,"i_lat":-6.149769,"station_id":"MGB","line":2},{"i_lat":-6.141205,"station_id":"JAY","is_transit":false,"line":2,"station_name":"Jayakarta","time":2,"transit":false,"i_long":106.820901,"distance":1080},{"is_transit":true,"line":2,"transit":true,"distance":1264,"station_name":"Jakarta Kota","i_lat":-6.137569,"station_id":"JAKK","i_long":106.812439,"time":4},{"time":3,"line":4,"i_lat":-6.132549,"transit":true,"distance":1364,"station_id":"KPB","i_long":106.826365,"is_transit":true,"station_name":"Kampung Bandan"},{"station_name":"Rajawali","transit":false,"i_lat":-6.14505,"line":11,"station_id":"RJW","time":3,"distance":1444,"is_transit":false,"i_long":106.836569},{"transit":false,"station_id":"KMO","station_name":"Kemayoran","line":11,"time":5,"i_long":106.839204,"i_lat":-6.161728,"distance":1901,"is_transit":false},{"line":11,"i_long":106.84368,"station_name":"Pasar Senen","is_transit":false,"i_lat":-6.174784,"distance":1436,"transit":false,"time":4,"station_id":"PSE"},{"transit":false,"station_name":"Gang Sentiong","is_transit":false,"station_id":"GST","i_lat":-6.185975,"line":11,"distance":1567,"time":8,"i_long":106.850107},{"i_lat":-6.193792,"station_name":"Kramat","i_long":106.855437,"line":11,"distance":973,"is_transit":false,"station_id":"KMT","transit":false,"time":1},{"station_name":"Pondok Jati","station_id":"POK","i_lat":-6.209188,"transit":false,"distance":1829,"line":11,"time":2,"is_transit":false,"i_long":106.861737},{"distance":1236,"i_lat":-6.215091,"station_id":"JNG","is_transit":true,"transit":true,"time":9,"line":1,"station_name":"Jatinegara","i_long":106.86807400000001},{"station_name":"Klender","line":1,"time":3,"is_transit":false,"distance":3395,"i_lat":-6.2135,"i_long":106.899548,"transit":false,"station_id":"KLD"},{"time":2,"station_name":"Buaran","i_long":106.922662,"is_transit":false,"transit":false,"i_lat":-6.215568,"line":1,"distance":3100,"station_id":"BUA"},{"is_transit":false,"i_long":106.939679,"transit":false,"i_lat":-6.217455,"time":1,"distance":1305,"line":1,"station_id":"KLDB","station_name":"Klenderbaru"},{"station_id":"CUK","is_transit":false,"distance":1385,"i_lat":-6.219053,"line":1,"time":8,"transit":false,"i_long":106.951283,"station_name":"Cakung"},{"is_transit":false,"transit":false,"time":3,"station_id":"KRI","line":1,"station_name":"Kranji","i_lat":-6.224515,"i_long":106.977657,"distance":3097},{"station_name":"Bekasi","is_transit":false,"time":4,"distance":2520,"transit":false,"station_id":"BKS","i_lat":-6.236616,"i_long":106.997013,"line":1},{"distance":2368,"station_name":"Bekasi Timur","transit":false,"station_id":"BKST","is_transit":false,"i_lat":-6.248029,"i_long":107.016735,"line":1,"time":2},{"transit":false,"station_id":"TB","i_lat":-6.258864,"distance":4460,"time":7,"station_name":"Tambun","line":1,"i_long":107.055722,"is_transit":false}]]}