{"data":[[{"i_lat":-6.162758,"station_id":"RW","line":5,"transit":false,"time":0,"i_long":106.723064,"station_name":"Rawa Buaya","is_transit":false,"distance":0},{"is_transit":false,"station_name":"Bojongindah","distance":1152,"transit":false,"station_id":"BOI","time":4,"i_lat":-6.159876,"line":5,"i_long":106.737035},{"i_lat":-6.1587309999999995,"transit":false,"station_name":"Taman Kota","time":2,"distance":2334,"i_long":106.756522,"is_transit":false,"line":5,"station_id":"TKO"},{"line":5,"i_long":106.771379,"transit":false,"distance":1614,"is_transit":false,"station_id":"PSG","i_lat":-6.161433,"station_name":"Pesing","time":2},{"station_id":"GGL","transit":false,"station_name":"Grogol","time":2,"is_transit":false,"distance":2036,"i_lat":-6.162021,"i_long":106.788277,"line":5},{"station_name":"Duri","i_long":106.800832,"station_id":"DU","line":1,"time":3,"distance":1700,"i_lat":-6.155215,"transit":true,"is_transit":true},{"time":8,"distance":3632,"station_id":"THB","line":1,"station_name":"Tanah Abang","i_lat":-6.185545,"i_long":106.811091,"transit":false,"is_transit":false},{"transit":false,"is_transit":false,"i_long":106.816351,"station_name":"Karet","distance":2029,"time":5,"i_lat":-6.20132,"station_id":"KAT","line":1},{"station_name":"Sudirman Baru","is_transit":false,"i_long":106.819881,"transit":false,"line":1,"time":1,"distance":471,"station_id":"SUDB","i_lat":-6.201433},{"line":1,"station_id":"SUD","transit":false,"i_long":106.822649,"station_name":"Sudirman","time":1,"is_transit":false,"distance":280,"i_lat":-6.202263},{"time":4,"i_lat":-6.209883,"distance":3186,"transit":true,"i_long":106.84912,"line":2,"station_name":"Manggarai","station_id":"MRI","is_transit":true},{"i_long":106.857948,"distance":2610,"i_lat":-6.226659,"is_transit":false,"station_id":"TEB","line":2,"transit":false,"station_name":"Tebet","time":4},{"time":2,"i_long":106.856607,"line":2,"station_id":"CW","distance":1230,"i_lat":-6.242512,"transit":false,"station_name":"Cawang","is_transit":false},{"i_lat":-6.255332,"transit":false,"time":3,"distance":1546,"i_long":106.85449,"station_id":"DRN","is_transit":false,"station_name":"Duren Kalibata","line":2},{"i_long":106.851577,"time":2,"i_lat":-6.263214,"line":2,"transit":false,"distance":824,"station_id":"PSMB","is_transit":false,"station_name":"Pasar Minggu Baru"},{"distance":2380,"i_long":106.843999,"line":2,"station_id":"PSM","station_name":"Pasar Minggu","time":2,"transit":false,"is_transit":false,"i_lat":-6.2842400000000005},{"is_transit":false,"transit":false,"i_lat":-6.3080680000000005,"i_long":106.838896,"station_id":"TNT","station_name":"Tanjung Barat","line":2,"time":4,"distance":2820},{"is_transit":false,"transit":false,"i_long":106.832616,"distance":2671,"i_lat":-6.330363,"time":3,"station_id":"LNA","station_name":"Lenteng Agung","line":2},{"distance":1029,"i_lat":-6.339291,"station_name":"Univ. Pancasila","line":2,"station_id":"UP","time":2,"is_transit":false,"i_long":106.834175,"transit":false}],[{"station_name":"Rawa Buaya","is_transit":false,"station_id":"RW","distance":0,"i_lat":-6.162758,"time":0,"transit":false,"i_long":106.723064,"line":5},{"station_name":"Bojongindah","distance":1152,"station_id":"BOI","time":4,"i_lat":-6.159876,"transit":false,"is_transit":false,"line":5,"i_long":106.737035},{"station_name":"Taman Kota","i_lat":-6.1587309999999995,"distance":2334,"line":5,"transit":false,"is_transit":false,"station_id":"TKO","time":2,"i_long":106.756522},{"station_id":"PSG","transit":false,"is_transit":false,"line":5,"i_long":106.771379,"time":2,"i_lat":-6.161433,"distance":1614,"station_name":"Pesing"},{"i_long":106.788277,"line":5,"station_name":"Grogol","station_id":"GGL","transit":false,"is_transit":false,"distance":2036,"i_lat":-6.162021,"time":2},{"station_id":"DU","distance":1700,"station_name":"Duri","i_lat":-6.155215,"transit":true,"is_transit":true,"i_long":106.800832,"time":3,"line":1},{"i_lat":-6.144674,"line":1,"transit":false,"distance":1230,"time":4,"i_long":106.79867,"station_id":"AK","is_transit":false,"station_name":"Angke"},{"distance":4102,"time":9,"i_lat":-6.132549,"i_long":106.826365,"transit":true,"line":4,"station_name":"Kampung Bandan","station_id":"KPB","is_transit":true},{"is_transit":true,"time":3,"distance":1364,"transit":true,"station_id":"JAKK","station_name":"Jakarta Kota","line":2,"i_lat":-6.137569,"i_long":106.812439},{"distance":1264,"i_lat":-6.141205,"transit":false,"station_name":"Jayakarta","station_id":"JAY","is_transit":false,"time":4,"i_long":106.820901,"line":2},{"station_name":"Manggabesar","distance":1080,"line":2,"is_transit":false,"time":2,"i_lat":-6.149769,"i_long":106.82482,"station_id":"MGB","transit":false},{"line":2,"is_transit":false,"time":2,"i_long":106.827103,"station_id":"SW","transit":false,"i_lat":-6.160725,"station_name":"Sawah Besar","distance":906},{"is_transit":false,"i_lat":-6.166716,"i_long":106.828284,"distance":1149,"line":2,"transit":false,"station_name":"Juanda","time":2,"station_id":"JUA"},{"station_id":"GDD","i_lat":-6.186295,"transit":false,"station_name":"Gondangdia","distance":2015,"is_transit":false,"time":4,"i_long":106.832183,"line":2},{"distance":1750,"line":2,"station_id":"CKI","is_transit":false,"transit":false,"time":3,"i_lat":-6.198556,"i_long":106.840169,"station_name":"Cikini"},{"transit":false,"line":2,"time":4,"is_transit":false,"i_lat":-6.209883,"station_id":"MRI","i_long":106.84912,"station_name":"Manggarai","distance":1590},{"i_long":106.857948,"transit":false,"time":4,"station_name":"Tebet","station_id":"TEB","is_transit":false,"distance":2610,"line":2,"i_lat":-6.226659},{"i_long":106.856607,"is_transit":false,"line":2,"transit":false,"distance":1230,"i_lat":-6.242512,"station_name":"Cawang","station_id":"CW","time":2},{"is_transit":false,"station_name":"Duren Kalibata","time":3,"distance":1546,"i_lat":-6.255332,"station_id":"DRN","transit":false,"line":2,"i_long":106.85449},{"station_id":"PSMB","i_long":106.851577,"line":2,"distance":824,"station_name":"Pasar Minggu Baru","is_transit":false,"time":2,"i_lat":-6.263214,"transit":false},{"line":2,"time":2,"station_id":"PSM","station_name":"Pasar Minggu","is_transit":false,"transit":false,"distance":2380,"i_long":106.843999,"i_lat":-6.2842400000000005},{"station_id":"TNT","is_transit":false,"i_long":106.838896,"line":2,"time":4,"distance":2820,"i_lat":-6.3080680000000005,"station_name":"Tanjung Barat","transit":false},{"station_name":"Lenteng Agung","i_long":106.832616,"transit":false,"is_transit":false,"time":3,"line":2,"distance":2671,"i_lat":-6.330363,"station_id":"LNA"},{"line":2,"station_name":"Univ. Pancasila","transit":false,"time":2,"is_transit":false,"station_id":"UP","distance":1029,"i_lat":-6.339291,"i_long":106.834175}],[{"is_transit":false,"time":0,"distance":0,"i_lat":-6.162758,"line":5,"i_long":106.723064,"transit":false,"station_name":"Rawa Buaya","station_id":"RW"},{"station_id":"BOI","distance":1152,"time":4,"i_long":106.737035,"line":5,"transit":false,"is_transit":false,"station_name":"Bojongindah","i_lat":-6.159876},{"station_name":"Taman Kota","i_long":106.756522,"transit":false,"is_transit":false,"line":5,"station_id":"TKO","distance":2334,"i_lat":-6.1587309999999995,"time":2},{"distance":1614,"line":5,"station_name":"Pesing","is_transit":false,"i_long":106.771379,"time":2,"station_id":"PSG","i_lat":-6.161433,"transit":false},{"distance":2036,"i_long":106.788277,"i_lat":-6.162021,"station_id":"GGL","line":5,"station_name":"Grogol","is_transit":false,"transit":false,"time":2},{"i_lat":-6.155215,"i_long":106.800832,"line":1,"time":3,"is_transit":true,"station_id":"DU","station_name":"Duri","transit":true,"distance":1700},{"is_transit":false,"line":1,"transit":false,"time":4,"i_long":106.79867,"station_id":"AK","station_name":"Angke","distance":1230,"i_lat":-6.144674},{"is_transit":true,"i_lat":-6.132549,"station_name":"Kampung Bandan","time":9,"distance":4102,"station_id":"KPB","i_long":106.826365,"line":4,"transit":true},{"transit":false,"station_name":"Rajawali","time":3,"distance":1444,"station_id":"RJW","i_lat":-6.14505,"line":11,"i_long":106.836569,"is_transit":false},{"i_long":106.839204,"station_id":"KMO","time":5,"station_name":"Kemayoran","is_transit":false,"i_lat":-6.161728,"transit":false,"line":11,"distance":1901},{"station_name":"Pasar Senen","line":11,"is_transit":false,"transit":false,"time":4,"station_id":"PSE","distance":1436,"i_long":106.84368,"i_lat":-6.174784},{"is_transit":false,"distance":1567,"line":11,"station_id":"GST","transit":false,"time":8,"i_lat":-6.185975,"station_name":"Gang Sentiong","i_long":106.850107},{"i_long":106.855437,"transit":false,"station_id":"KMT","station_name":"Kramat","distance":973,"i_lat":-6.193792,"time":1,"line":11,"is_transit":false},{"station_id":"POK","time":2,"station_name":"Pondok Jati","is_transit":false,"line":11,"distance":1829,"i_long":106.861737,"i_lat":-6.209188,"transit":false},{"time":9,"station_id":"JNG","line":1,"is_transit":true,"i_long":106.86807400000001,"station_name":"Jatinegara","distance":1236,"i_lat":-6.215091,"transit":true},{"line":1,"station_name":"Matraman","is_transit":false,"station_id":"MTR","i_long":106.858896,"time":2,"transit":false,"distance":1377,"i_lat":-6.212485},{"i_long":106.84912,"line":2,"i_lat":-6.209883,"station_name":"Manggarai","time":2,"station_id":"MRI","is_transit":true,"distance":1275,"transit":true},{"station_id":"TEB","i_long":106.857948,"i_lat":-6.226659,"line":2,"distance":2610,"is_transit":false,"time":4,"station_name":"Tebet","transit":false},{"transit":false,"station_name":"Cawang","station_id":"CW","distance":1230,"i_long":106.856607,"is_transit":false,"time":2,"line":2,"i_lat":-6.242512},{"station_id":"DRN","time":3,"i_lat":-6.255332,"is_transit":false,"transit":false,"i_long":106.85449,"station_name":"Duren Kalibata","distance":1546,"line":2},{"transit":false,"i_long":106.851577,"station_id":"PSMB","is_transit":false,"time":2,"station_name":"Pasar Minggu Baru","distance":824,"i_lat":-6.263214,"line":2},{"station_name":"Pasar Minggu","i_lat":-6.2842400000000005,"distance":2380,"transit":false,"i_long":106.843999,"station_id":"PSM","time":2,"is_transit":false,"line":2},{"station_id":"TNT","distance":2820,"is_transit":false,"station_name":"Tanjung Barat","line":2,"i_lat":-6.3080680000000005,"time":4,"i_long":106.838896,"transit":false},{"station_name":"Lenteng Agung","is_transit":false,"transit":false,"line":2,"time":3,"station_id":"LNA","distance":2671,"i_long":106.832616,"i_lat":-6.330363},{"is_transit":false,"time":2,"i_long":106.834175,"transit":false,"station_name":"Univ. Pancasila","distance":1029,"i_lat":-6.339291,"line":2,"station_id":"UP"}]]}