{"data":[[{"station_name":"Rawa Buaya","transit":false,"time":0,"station_id":"RW","is_transit":false,"distance":0,"i_long":106.723064,"line":5,"i_lat":-6.162758},{"station_name":"Bojongindah","transit":false,"i_long":106.737035,"line":5,"time":4,"distance":1152,"is_transit":false,"i_lat":-6.159876,"station_id":"BOI"},{"i_long":106.756522,"distance":2334,"i_lat":-6.1587309999999995,"time":2,"is_transit":false,"line":5,"station_id":"TKO","transit":false,"station_name":"Taman Kota"},{"i_long":106.771379,"is_transit":false,"transit":false,"station_name":"Pesing","time":2,"distance":1614,"i_lat":-6.161433,"station_id":"PSG","line":5},{"i_long":106.788277,"line":5,"time":2,"station_id":"GGL","transit":false,"i_lat":-6.162021,"station_name":"Grogol","distance":2036,"is_transit":false},{"distance":1700,"i_lat":-6.155215,"time":3,"station_id":"DU","transit":true,"is_transit":true,"i_long":106.800832,"line":1,"station_name":"Duri"},{"time":8,"i_lat":-6.185545,"transit":false,"distance":3632,"i_long":106.811091,"station_id":"THB","line":1,"is_transit":false,"station_name":"Tanah Abang"},{"is_transit":false,"i_long":106.816351,"i_lat":-6.20132,"station_name":"Karet","distance":2029,"transit":false,"time":5,"line":1,"station_id":"KAT"},{"line":1,"distance":471,"station_name":"Sudirman Baru","time":1,"station_id":"SUDB","i_long":106.819881,"is_transit":false,"transit":false,"i_lat":-6.201433},{"i_long":106.822649,"distance":280,"transit":false,"station_name":"Sudirman","is_transit":false,"time":1,"i_lat":-6.202263,"line":1,"station_id":"SUD"},{"distance":3186,"time":4,"is_transit":true,"transit":true,"station_id":"MRI","i_long":106.84912,"i_lat":-6.209883,"line":2,"station_name":"Manggarai"},{"station_id":"TEB","time":4,"is_transit":false,"transit":false,"i_lat":-6.226659,"station_name":"Tebet","line":2,"distance":2610,"i_long":106.857948},{"distance":1230,"line":2,"i_long":106.856607,"transit":false,"i_lat":-6.242512,"station_name":"Cawang","is_transit":false,"station_id":"CW","time":2},{"station_id":"DRN","is_transit":false,"distance":1546,"i_lat":-6.255332,"time":3,"i_long":106.85449,"station_name":"Duren Kalibata","line":2,"transit":false},{"time":2,"i_lat":-6.263214,"station_name":"Pasar Minggu Baru","i_long":106.851577,"transit":false,"station_id":"PSMB","distance":824,"line":2,"is_transit":false},{"is_transit":false,"station_id":"PSM","i_long":106.843999,"line":2,"transit":false,"i_lat":-6.2842400000000005,"station_name":"Pasar Minggu","distance":2380,"time":2},{"transit":false,"time":4,"station_name":"Tanjung Barat","distance":2820,"is_transit":false,"i_long":106.838896,"station_id":"TNT","line":2,"i_lat":-6.3080680000000005},{"line":2,"station_name":"Lenteng Agung","distance":2671,"station_id":"LNA","transit":false,"i_lat":-6.330363,"i_long":106.832616,"time":3,"is_transit":false},{"time":2,"line":2,"station_name":"Univ. Pancasila","i_long":106.834175,"distance":1029,"transit":false,"is_transit":false,"i_lat":-6.339291,"station_id":"UP"}],[{"time":0,"i_long":106.723064,"station_id":"RW","i_lat":-6.162758,"line":5,"station_name":"Rawa Buaya","is_transit":false,"transit":false,"distance":0},{"transit":false,"is_transit":false,"time":4,"station_name":"Bojongindah","line":5,"i_lat":-6.159876,"i_long":106.737035,"station_id":"BOI","distance":1152},{"i_long":106.756522,"station_id":"TKO","station_name":"Taman Kota","time":2,"i_lat":-6.1587309999999995,"transit":false,"line":5,"is_transit":false,"distance":2334},{"station_id":"PSG","station_name":"Pesing","i_long":106.771379,"time":2,"distance":1614,"line":5,"i_lat":-6.161433,"is_transit":false,"transit":false},{"time":2,"station_id":"GGL","i_lat":-6.162021,"distance":2036,"i_long":106.788277,"is_transit":false,"line":5,"station_name":"Grogol","transit":false},{"time":3,"line":1,"i_lat":-6.155215,"i_long":106.800832,"transit":true,"station_id":"DU","distance":1700,"is_transit":true,"station_name":"Duri"},{"station_id":"AK","distance":1230,"transit":false,"is_transit":false,"station_name":"Angke","line":1,"i_lat":-6.144674,"i_long":106.79867,"time":4},{"time":9,"is_transit":true,"transit":true,"station_id":"KPB","line":4,"i_lat":-6.132549,"station_name":"Kampung Bandan","distance":4102,"i_long":106.826365},{"time":3,"transit":true,"i_long":106.812439,"line":2,"station_name":"Jakarta Kota","is_transit":true,"distance":1364,"i_lat":-6.137569,"station_id":"JAKK"},{"time":4,"is_transit":false,"station_id":"JAY","transit":false,"i_lat":-6.141205,"i_long":106.820901,"distance":1264,"station_name":"Jayakarta","line":2},{"station_id":"MGB","time":2,"distance":1080,"station_name":"Manggabesar","line":2,"i_lat":-6.149769,"transit":false,"is_transit":false,"i_long":106.82482},{"i_lat":-6.160725,"transit":false,"i_long":106.827103,"time":2,"line":2,"station_name":"Sawah Besar","station_id":"SW","is_transit":false,"distance":906},{"station_name":"Juanda","line":2,"transit":false,"is_transit":false,"station_id":"JUA","time":2,"i_long":106.828284,"i_lat":-6.166716,"distance":1149},{"station_name":"Gondangdia","is_transit":false,"distance":2015,"transit":false,"station_id":"GDD","i_lat":-6.186295,"i_long":106.832183,"line":2,"time":4},{"station_name":"Cikini","transit":false,"i_lat":-6.198556,"time":3,"station_id":"CKI","is_transit":false,"i_long":106.840169,"distance":1750,"line":2},{"transit":false,"i_lat":-6.209883,"station_id":"MRI","line":2,"i_long":106.84912,"is_transit":false,"distance":1590,"station_name":"Manggarai","time":4},{"time":4,"i_long":106.857948,"station_name":"Tebet","distance":2610,"transit":false,"station_id":"TEB","is_transit":false,"i_lat":-6.226659,"line":2},{"transit":false,"station_name":"Cawang","distance":1230,"station_id":"CW","is_transit":false,"i_lat":-6.242512,"i_long":106.856607,"line":2,"time":2},{"station_name":"Duren Kalibata","line":2,"time":3,"station_id":"DRN","i_lat":-6.255332,"transit":false,"is_transit":false,"distance":1546,"i_long":106.85449},{"i_lat":-6.263214,"is_transit":false,"time":2,"station_id":"PSMB","transit":false,"line":2,"distance":824,"station_name":"Pasar Minggu Baru","i_long":106.851577},{"station_id":"PSM","is_transit":false,"i_lat":-6.2842400000000005,"distance":2380,"line":2,"i_long":106.843999,"time":2,"station_name":"Pasar Minggu","transit":false},{"i_long":106.838896,"is_transit":false,"line":2,"station_name":"Tanjung Barat","transit":false,"station_id":"TNT","time":4,"i_lat":-6.3080680000000005,"distance":2820},{"station_name":"Lenteng Agung","time":3,"transit":false,"distance":2671,"i_lat":-6.330363,"i_long":106.832616,"station_id":"LNA","line":2,"is_transit":false},{"i_long":106.834175,"is_transit":false,"distance":1029,"station_id":"UP","time":2,"transit":false,"station_name":"Univ. Pancasila","i_lat":-6.339291,"line":2}],[{"station_name":"Rawa Buaya","station_id":"RW","i_long":106.723064,"line":5,"i_lat":-6.162758,"distance":0,"time":0,"is_transit":false,"transit":false},{"transit":false,"station_name":"Bojongindah","time":4,"is_transit":false,"i_lat":-6.159876,"station_id":"BOI","distance":1152,"i_long":106.737035,"line":5},{"distance":2334,"line":5,"time":2,"i_lat":-6.1587309999999995,"i_long":106.756522,"station_name":"Taman Kota","station_id":"TKO","transit":false,"is_transit":false},{"i_lat":-6.161433,"i_long":106.771379,"transit":false,"line":5,"is_transit":false,"distance":1614,"station_name":"Pesing","time":2,"station_id":"PSG"},{"time":2,"distance":2036,"i_lat":-6.162021,"line":5,"transit":false,"is_transit":false,"station_name":"Grogol","i_long":106.788277,"station_id":"GGL"},{"i_long":106.800832,"station_name":"Duri","transit":true,"line":1,"distance":1700,"i_lat":-6.155215,"station_id":"DU","is_transit":true,"time":3},{"i_lat":-6.144674,"i_long":106.79867,"station_name":"Angke","transit":false,"time":4,"distance":1230,"line":1,"station_id":"AK","is_transit":false},{"i_lat":-6.132549,"station_id":"KPB","time":9,"distance":4102,"i_long":106.826365,"station_name":"Kampung Bandan","is_transit":true,"line":4,"transit":true},{"station_name":"Rajawali","station_id":"RJW","i_lat":-6.14505,"i_long":106.836569,"is_transit":false,"transit":false,"time":3,"distance":1444,"line":11},{"station_id":"KMO","is_transit":false,"transit":false,"distance":1901,"station_name":"Kemayoran","time":5,"i_lat":-6.161728,"line":11,"i_long":106.839204},{"station_name":"Pasar Senen","distance":1436,"is_transit":false,"i_lat":-6.174784,"station_id":"PSE","line":11,"i_long":106.84368,"transit":false,"time":4},{"distance":1567,"transit":false,"line":11,"i_lat":-6.185975,"station_id":"GST","is_transit":false,"time":8,"i_long":106.850107,"station_name":"Gang Sentiong"},{"transit":false,"i_long":106.855437,"time":1,"line":11,"station_name":"Kramat","distance":973,"station_id":"KMT","is_transit":false,"i_lat":-6.193792},{"station_name":"Pondok Jati","station_id":"POK","transit":false,"is_transit":false,"i_lat":-6.209188,"line":11,"time":2,"i_long":106.861737,"distance":1829},{"is_transit":true,"distance":1236,"time":9,"i_long":106.86807400000001,"transit":true,"line":1,"station_id":"JNG","i_lat":-6.215091,"station_name":"Jatinegara"},{"i_lat":-6.212485,"is_transit":false,"line":1,"transit":false,"station_name":"Matraman","i_long":106.858896,"distance":1377,"station_id":"MTR","time":2},{"distance":1275,"i_lat":-6.209883,"line":2,"is_transit":true,"station_id":"MRI","transit":true,"station_name":"Manggarai","i_long":106.84912,"time":2},{"distance":2610,"station_id":"TEB","i_lat":-6.226659,"line":2,"is_transit":false,"time":4,"station_name":"Tebet","i_long":106.857948,"transit":false},{"distance":1230,"station_id":"CW","transit":false,"i_lat":-6.242512,"line":2,"time":2,"i_long":106.856607,"station_name":"Cawang","is_transit":false},{"i_long":106.85449,"transit":false,"time":3,"station_id":"DRN","is_transit":false,"distance":1546,"i_lat":-6.255332,"line":2,"station_name":"Duren Kalibata"},{"station_name":"Pasar Minggu Baru","is_transit":false,"i_long":106.851577,"line":2,"transit":false,"distance":824,"time":2,"station_id":"PSMB","i_lat":-6.263214},{"i_long":106.843999,"transit":false,"distance":2380,"line":2,"station_name":"Pasar Minggu","time":2,"is_transit":false,"station_id":"PSM","i_lat":-6.2842400000000005},{"station_id":"TNT","i_long":106.838896,"station_name":"Tanjung Barat","time":4,"i_lat":-6.3080680000000005,"line":2,"is_transit":false,"distance":2820,"transit":false},{"i_long":106.832616,"distance":2671,"time":3,"station_id":"LNA","station_name":"Lenteng Agung","transit":false,"is_transit":false,"line":2,"i_lat":-6.330363},{"station_name":"Univ. Pancasila","is_transit":false,"distance":1029,"i_lat":-6.339291,"time":2,"transit":false,"station_id":"UP","i_long":106.834175,"line":2}]]}