{"data":[[{"line":5,"is_transit":false,"station_name":"Rawa Buaya","transit":false,"distance":0,"time":0,"station_id":"RW","i_lat":-6.162758,"i_long":106.723064},{"i_long":106.737035,"line":0,"distance":1152,"is_transit":false,"i_lat":-6.159876,"station_name":"Bojongindah","time":4,"station_id":"BOI","transit":false},{"station_id":"TKO","transit":false,"i_long":106.756522,"line":5,"distance":2334,"is_transit":false,"station_name":"Taman Kota","time":2,"i_lat":-6.1587309999999995},{"i_long":106.771379,"i_lat":-6.161433,"line":5,"distance":1614,"station_id":"PSG","time":2,"transit":false,"is_transit":false,"station_name":"Pesing"},{"line":5,"is_transit":false,"transit":false,"station_name":"Grogol","distance":2036,"i_lat":-6.162021,"station_id":"GGL","time":2,"i_long":106.788277},{"i_lat":-6.155215,"i_long":106.800832,"line":1,"distance":1700,"station_name":"Duri","station_id":"DU","is_transit":true,"transit":true,"time":3},{"transit":false,"distance":3632,"is_transit":true,"station_id":"THB","station_name":"Tanah Abang","line":1,"time":8,"i_long":106.811091,"i_lat":-6.185545},{"i_lat":-6.20132,"time":5,"station_id":"KAT","distance":2029,"station_name":"Karet","line":1,"is_transit":false,"transit":false,"i_long":106.816351},{"is_transit":false,"i_lat":-6.201433,"transit":false,"i_long":106.819881,"time":1,"line":1,"station_name":"Sudirman Baru","station_id":"SUDB","distance":471},{"time":1,"i_lat":-6.202263,"station_name":"Sudirman","transit":false,"station_id":"SUD","is_transit":false,"distance":280,"i_long":106.822649,"line":1},{"i_lat":-6.209883,"i_long":106.84912,"distance":3186,"is_transit":true,"time":4,"line":0,"station_id":"MRI","station_name":"Manggarai","transit":true},{"line":2,"station_id":"TEB","transit":false,"distance":2610,"time":4,"station_name":"Tebet","i_lat":-6.226659,"i_long":106.857948,"is_transit":false},{"station_name":"Cawang","transit":false,"line":0,"i_lat":-6.242512,"distance":1230,"station_id":"CW","time":2,"is_transit":false,"i_long":106.856607},{"distance":1546,"i_long":106.85449,"station_id":"DRN","line":0,"station_name":"Duren Kalibata","is_transit":false,"transit":false,"time":3,"i_lat":-6.255332},{"time":2,"i_lat":-6.263214,"distance":824,"station_name":"Pasar Minggu Baru","station_id":"PSMB","transit":false,"i_long":106.851577,"is_transit":false,"line":2},{"transit":false,"station_id":"PSM","station_name":"Pasar Minggu","i_lat":-6.2842400000000005,"time":2,"is_transit":false,"line":2,"i_long":106.843999,"distance":2380},{"transit":false,"i_long":106.838896,"station_id":"TNT","line":2,"time":4,"is_transit":false,"station_name":"Tanjung Barat","distance":2820,"i_lat":-6.3080680000000005},{"is_transit":false,"station_id":"LNA","i_lat":-6.330363,"line":2,"i_long":106.832616,"transit":false,"station_name":"Lenteng Agung","distance":2671,"time":3},{"line":2,"transit":false,"station_id":"UP","station_name":"Univ. Pancasila","distance":1029,"i_long":106.834175,"is_transit":false,"time":2,"i_lat":-6.339291}],[{"station_name":"Rawa Buaya","i_long":106.723064,"transit":false,"i_lat":-6.162758,"time":0,"station_id":"RW","line":5,"is_transit":false,"distance":0},{"station_id":"BOI","line":0,"distance":1152,"station_name":"Bojongindah","transit":false,"time":4,"i_lat":-6.159876,"i_long":106.737035,"is_transit":false},{"i_lat":-6.1587309999999995,"distance":2334,"i_long":106.756522,"station_name":"Taman Kota","station_id":"TKO","transit":false,"time":2,"line":5,"is_transit":false},{"is_transit":false,"station_name":"Pesing","transit":false,"time":2,"i_long":106.771379,"distance":1614,"station_id":"PSG","line":5,"i_lat":-6.161433},{"station_name":"Grogol","i_long":106.788277,"station_id":"GGL","time":2,"distance":2036,"i_lat":-6.162021,"is_transit":false,"transit":false,"line":5},{"time":3,"i_lat":-6.155215,"station_id":"DU","distance":1700,"transit":true,"line":1,"is_transit":true,"station_name":"Duri","i_long":106.800832},{"station_name":"Angke","is_transit":false,"transit":false,"i_lat":-6.144674,"station_id":"AK","time":4,"i_long":106.79867,"line":0,"distance":1230},{"distance":4102,"station_name":"Kampung Bandan","i_long":106.826365,"is_transit":true,"time":9,"i_lat":-6.132549,"line":0,"station_id":"KPB","transit":false},{"station_name":"Jakarta Kota","line":0,"i_lat":-6.137569,"is_transit":true,"station_id":"JAKK","i_long":106.812439,"distance":1364,"transit":true,"time":3},{"transit":false,"station_id":"JAY","i_long":106.820901,"is_transit":false,"i_lat":-6.141205,"time":4,"line":7,"distance":1264,"station_name":"Jayakarta"},{"i_long":106.82482,"distance":1080,"transit":false,"i_lat":-6.149769,"line":2,"station_id":"MGB","station_name":"Manggabesar","is_transit":false,"time":2},{"distance":906,"is_transit":false,"station_name":"Sawah Besar","i_long":106.827103,"line":2,"station_id":"SW","time":2,"transit":false,"i_lat":-6.160725},{"i_long":106.828284,"is_transit":false,"time":2,"distance":1149,"station_id":"JUA","station_name":"Juanda","i_lat":-6.166716,"transit":false,"line":2},{"station_id":"GDD","is_transit":false,"station_name":"Gondangdia","i_long":106.832183,"i_lat":-6.186295,"time":4,"distance":2015,"transit":false,"line":2},{"line":0,"station_name":"Cikini","station_id":"CKI","transit":false,"distance":1750,"time":3,"is_transit":false,"i_long":106.840169,"i_lat":-6.198556},{"time":4,"station_id":"MRI","station_name":"Manggarai","i_lat":-6.209883,"transit":true,"i_long":106.84912,"line":0,"is_transit":true,"distance":1590},{"i_long":106.857948,"transit":false,"line":2,"station_id":"TEB","distance":2610,"time":4,"i_lat":-6.226659,"station_name":"Tebet","is_transit":false},{"time":2,"i_long":106.856607,"line":0,"distance":1230,"station_id":"CW","i_lat":-6.242512,"transit":false,"station_name":"Cawang","is_transit":false},{"station_name":"Duren Kalibata","distance":1546,"i_long":106.85449,"time":3,"transit":false,"i_lat":-6.255332,"line":0,"is_transit":false,"station_id":"DRN"},{"is_transit":false,"time":2,"line":2,"station_name":"Pasar Minggu Baru","i_long":106.851577,"i_lat":-6.263214,"distance":824,"station_id":"PSMB","transit":false},{"station_id":"PSM","distance":2380,"is_transit":false,"line":2,"time":2,"station_name":"Pasar Minggu","transit":false,"i_lat":-6.2842400000000005,"i_long":106.843999},{"distance":2820,"line":2,"transit":false,"station_id":"TNT","is_transit":false,"i_lat":-6.3080680000000005,"station_name":"Tanjung Barat","time":4,"i_long":106.838896},{"is_transit":false,"station_name":"Lenteng Agung","station_id":"LNA","line":2,"i_lat":-6.330363,"i_long":106.832616,"transit":false,"time":3,"distance":2671},{"station_id":"UP","is_transit":false,"transit":false,"i_lat":-6.339291,"station_name":"Univ. Pancasila","distance":1029,"time":2,"i_long":106.834175,"line":2}],[{"time":0,"i_lat":-6.162758,"distance":0,"station_name":"Rawa Buaya","i_long":106.723064,"line":5,"station_id":"RW","transit":false,"is_transit":false},{"i_long":106.737035,"is_transit":false,"distance":1152,"station_id":"BOI","line":0,"i_lat":-6.159876,"station_name":"Bojongindah","transit":false,"time":4},{"i_long":106.756522,"i_lat":-6.1587309999999995,"station_name":"Taman Kota","distance":2334,"line":5,"time":2,"station_id":"TKO","transit":false,"is_transit":false},{"is_transit":false,"time":2,"station_name":"Pesing","i_long":106.771379,"transit":false,"i_lat":-6.161433,"line":5,"distance":1614,"station_id":"PSG"},{"i_lat":-6.162021,"is_transit":false,"station_id":"GGL","distance":2036,"time":2,"station_name":"Grogol","i_long":106.788277,"line":5,"transit":false},{"line":1,"i_lat":-6.155215,"transit":true,"distance":1700,"is_transit":true,"station_id":"DU","station_name":"Duri","time":3,"i_long":106.800832},{"transit":false,"is_transit":false,"i_lat":-6.144674,"line":0,"i_long":106.79867,"station_name":"Angke","time":4,"station_id":"AK","distance":1230},{"is_transit":true,"transit":true,"station_id":"KPB","i_lat":-6.132549,"distance":4102,"time":9,"i_long":106.826365,"line":0,"station_name":"Kampung Bandan"},{"i_lat":-6.14505,"transit":false,"distance":1444,"station_name":"Rajawali","station_id":"RJW","time":3,"line":11,"is_transit":false,"i_long":106.836569},{"is_transit":false,"station_id":"KMO","transit":false,"station_name":"Kemayoran","i_lat":-6.161728,"time":5,"i_long":106.839204,"line":11,"distance":1901},{"transit":false,"distance":1436,"station_name":"Pasar Senen","i_lat":-6.174784,"time":4,"is_transit":false,"station_id":"PSE","i_long":106.84368,"line":11},{"transit":false,"i_lat":-6.185975,"i_long":106.850107,"is_transit":false,"distance":1567,"station_id":"GST","time":8,"line":11,"station_name":"Gang Sentiong"},{"distance":973,"transit":false,"i_lat":-6.193792,"station_name":"Kramat","i_long":106.855437,"is_transit":false,"station_id":"KMT","time":1,"line":11},{"station_id":"POK","time":2,"line":11,"is_transit":false,"station_name":"Pondok Jati","i_long":106.861737,"transit":false,"i_lat":-6.209188,"distance":1829},{"i_long":106.86807400000001,"i_lat":-6.215091,"line":0,"station_id":"JNG","is_transit":true,"station_name":"Jatinegara","transit":true,"distance":1236,"time":9},{"line":1,"station_id":"MTR","distance":1377,"station_name":"Matraman","i_long":106.858896,"transit":false,"time":2,"is_transit":false,"i_lat":-6.212485},{"station_id":"MRI","distance":1275,"time":2,"i_lat":-6.209883,"is_transit":true,"line":0,"station_name":"Manggarai","i_long":106.84912,"transit":true},{"transit":false,"is_transit":false,"station_name":"Tebet","station_id":"TEB","i_long":106.857948,"line":2,"time":4,"distance":2610,"i_lat":-6.226659},{"distance":1230,"station_id":"CW","transit":false,"time":2,"is_transit":false,"i_lat":-6.242512,"line":0,"i_long":106.856607,"station_name":"Cawang"},{"transit":false,"line":0,"distance":1546,"is_transit":false,"station_name":"Duren Kalibata","i_long":106.85449,"station_id":"DRN","time":3,"i_lat":-6.255332},{"time":2,"line":2,"i_long":106.851577,"i_lat":-6.263214,"is_transit":false,"transit":false,"distance":824,"station_id":"PSMB","station_name":"Pasar Minggu Baru"},{"time":2,"i_lat":-6.2842400000000005,"station_id":"PSM","i_long":106.843999,"is_transit":false,"transit":false,"distance":2380,"line":2,"station_name":"Pasar Minggu"},{"is_transit":false,"station_name":"Tanjung Barat","transit":false,"time":4,"station_id":"TNT","i_lat":-6.3080680000000005,"line":2,"i_long":106.838896,"distance":2820},{"i_long":106.832616,"station_name":"Lenteng Agung","i_lat":-6.330363,"transit":false,"time":3,"line":2,"distance":2671,"is_transit":false,"station_id":"LNA"},{"station_id":"UP","i_long":106.834175,"i_lat":-6.339291,"station_name":"Univ. Pancasila","distance":1029,"time":2,"line":2,"is_transit":false,"transit":false}]]}