{"data":[[{"time":0,"line":5,"station_id":"RW","i_lat":-6.162758,"is_transit":false,"distance":0,"transit":false,"station_name":"Rawa Buaya","i_long":106.723064},{"is_transit":false,"distance":1152,"transit":false,"line":5,"i_lat":-6.159876,"station_id":"BOI","time":4,"station_name":"Bojongindah","i_long":106.737035},{"i_lat":-6.1587309999999995,"line":5,"time":2,"is_transit":false,"i_long":106.756522,"transit":false,"distance":2334,"station_id":"TKO","station_name":"Taman Kota"},{"i_long":106.771379,"station_name":"Pesing","i_lat":-6.161433,"is_transit":false,"transit":false,"line":5,"station_id":"PSG","distance":1614,"time":2},{"transit":false,"i_lat":-6.162021,"i_long":106.788277,"line":5,"station_name":"Grogol","distance":2036,"time":2,"station_id":"GGL","is_transit":false},{"i_lat":-6.155215,"is_transit":true,"i_long":106.800832,"line":1,"station_name":"Duri","station_id":"DU","transit":true,"distance":1700,"time":3},{"line":1,"transit":false,"station_id":"THB","is_transit":false,"i_lat":-6.185545,"time":8,"station_name":"Tanah Abang","i_long":106.811091,"distance":3632},{"is_transit":false,"line":1,"station_id":"KAT","distance":2029,"i_lat":-6.20132,"time":5,"station_name":"Karet","transit":false,"i_long":106.816351},{"time":1,"distance":471,"is_transit":false,"i_lat":-6.201433,"transit":false,"i_long":106.819881,"station_id":"SUDB","line":1,"station_name":"Sudirman Baru"},{"time":1,"station_name":"Sudirman","line":1,"i_long":106.822649,"transit":false,"distance":280,"station_id":"SUD","is_transit":false,"i_lat":-6.202263},{"i_long":106.84912,"station_name":"Manggarai","station_id":"MRI","distance":3186,"is_transit":true,"time":4,"i_lat":-6.209883,"transit":true,"line":2},{"time":4,"distance":2610,"transit":false,"i_lat":-6.226659,"i_long":106.857948,"station_id":"TEB","is_transit":false,"station_name":"Tebet","line":2},{"line":2,"time":2,"i_long":106.856607,"transit":false,"is_transit":false,"station_name":"Cawang","i_lat":-6.242512,"distance":1230,"station_id":"CW"},{"is_transit":false,"i_long":106.85449,"i_lat":-6.255332,"transit":false,"time":3,"station_name":"Duren Kalibata","distance":1546,"line":2,"station_id":"DRN"},{"station_id":"PSMB","is_transit":false,"time":2,"line":2,"distance":824,"i_lat":-6.263214,"i_long":106.851577,"station_name":"Pasar Minggu Baru","transit":false},{"time":2,"station_name":"Pasar Minggu","i_lat":-6.2842400000000005,"transit":false,"line":2,"is_transit":false,"i_long":106.843999,"station_id":"PSM","distance":2380},{"station_name":"Tanjung Barat","i_lat":-6.3080680000000005,"line":2,"i_long":106.838896,"station_id":"TNT","time":4,"transit":false,"distance":2820,"is_transit":false},{"station_id":"LNA","station_name":"Lenteng Agung","i_lat":-6.330363,"is_transit":false,"transit":false,"distance":2671,"time":3,"line":2,"i_long":106.832616},{"line":2,"station_name":"Univ. Pancasila","distance":1029,"i_long":106.834175,"time":2,"is_transit":false,"station_id":"UP","transit":false,"i_lat":-6.339291}],[{"i_long":106.723064,"station_id":"RW","is_transit":false,"distance":0,"time":0,"line":5,"i_lat":-6.162758,"station_name":"Rawa Buaya","transit":false},{"i_long":106.737035,"station_id":"BOI","line":5,"time":4,"station_name":"Bojongindah","transit":false,"distance":1152,"is_transit":false,"i_lat":-6.159876},{"time":2,"line":5,"station_name":"Taman Kota","is_transit":false,"transit":false,"station_id":"TKO","i_long":106.756522,"i_lat":-6.1587309999999995,"distance":2334},{"is_transit":false,"station_id":"PSG","distance":1614,"time":2,"i_lat":-6.161433,"i_long":106.771379,"line":5,"station_name":"Pesing","transit":false},{"distance":2036,"is_transit":false,"transit":false,"station_id":"GGL","station_name":"Grogol","i_lat":-6.162021,"line":5,"i_long":106.788277,"time":2},{"station_id":"DU","time":3,"line":1,"i_lat":-6.155215,"station_name":"Duri","transit":true,"distance":1700,"i_long":106.800832,"is_transit":true},{"transit":false,"distance":1230,"station_id":"AK","is_transit":false,"station_name":"Angke","time":4,"i_lat":-6.144674,"i_long":106.79867,"line":1},{"i_long":106.826365,"distance":4102,"transit":true,"station_name":"Kampung Bandan","time":9,"is_transit":true,"i_lat":-6.132549,"station_id":"KPB","line":4},{"i_lat":-6.137569,"line":2,"is_transit":true,"station_name":"Jakarta Kota","time":3,"distance":1364,"i_long":106.812439,"transit":true,"station_id":"JAKK"},{"is_transit":false,"station_id":"JAY","transit":false,"i_lat":-6.141205,"station_name":"Jayakarta","distance":1264,"i_long":106.820901,"line":2,"time":4},{"station_id":"MGB","i_long":106.82482,"transit":false,"line":2,"time":2,"station_name":"Manggabesar","distance":1080,"is_transit":false,"i_lat":-6.149769},{"i_lat":-6.160725,"is_transit":false,"station_id":"SW","station_name":"Sawah Besar","time":2,"distance":906,"transit":false,"i_long":106.827103,"line":2},{"transit":false,"station_name":"Juanda","station_id":"JUA","i_lat":-6.166716,"is_transit":false,"time":2,"distance":1149,"line":2,"i_long":106.828284},{"i_lat":-6.186295,"distance":2015,"time":4,"i_long":106.832183,"station_name":"Gondangdia","is_transit":false,"station_id":"GDD","line":2,"transit":false},{"i_long":106.840169,"is_transit":false,"transit":false,"time":3,"distance":1750,"i_lat":-6.198556,"station_id":"CKI","line":2,"station_name":"Cikini"},{"time":4,"i_lat":-6.209883,"i_long":106.84912,"line":2,"station_id":"MRI","transit":false,"is_transit":false,"station_name":"Manggarai","distance":1590},{"i_lat":-6.226659,"distance":2610,"station_name":"Tebet","station_id":"TEB","is_transit":false,"transit":false,"time":4,"i_long":106.857948,"line":2},{"line":2,"is_transit":false,"distance":1230,"transit":false,"i_lat":-6.242512,"station_name":"Cawang","station_id":"CW","time":2,"i_long":106.856607},{"i_long":106.85449,"distance":1546,"line":2,"i_lat":-6.255332,"station_name":"Duren Kalibata","station_id":"DRN","time":3,"transit":false,"is_transit":false},{"station_name":"Pasar Minggu Baru","time":2,"line":2,"is_transit":false,"i_lat":-6.263214,"station_id":"PSMB","distance":824,"transit":false,"i_long":106.851577},{"line":2,"distance":2380,"station_id":"PSM","transit":false,"time":2,"station_name":"Pasar Minggu","i_lat":-6.2842400000000005,"is_transit":false,"i_long":106.843999},{"i_lat":-6.3080680000000005,"transit":false,"time":4,"i_long":106.838896,"station_id":"TNT","line":2,"distance":2820,"is_transit":false,"station_name":"Tanjung Barat"},{"i_long":106.832616,"station_id":"LNA","distance":2671,"station_name":"Lenteng Agung","i_lat":-6.330363,"time":3,"transit":false,"is_transit":false,"line":2},{"is_transit":false,"transit":false,"station_id":"UP","time":2,"i_long":106.834175,"line":2,"i_lat":-6.339291,"distance":1029,"station_name":"Univ. Pancasila"}],[{"is_transit":false,"time":0,"distance":0,"station_id":"RW","station_name":"Rawa Buaya","i_lat":-6.162758,"transit":false,"i_long":106.723064,"line":5},{"line":5,"time":4,"is_transit":false,"station_id":"BOI","transit":false,"station_name":"Bojongindah","distance":1152,"i_long":106.737035,"i_lat":-6.159876},{"is_transit":false,"distance":2334,"station_id":"TKO","transit":false,"i_lat":-6.1587309999999995,"station_name":"Taman Kota","i_long":106.756522,"line":5,"time":2},{"is_transit":false,"station_id":"PSG","transit":false,"station_name":"Pesing","line":5,"distance":1614,"time":2,"i_long":106.771379,"i_lat":-6.161433},{"distance":2036,"is_transit":false,"time":2,"station_name":"Grogol","station_id":"GGL","i_long":106.788277,"transit":false,"i_lat":-6.162021,"line":5},{"time":3,"is_transit":true,"station_name":"Duri","i_lat":-6.155215,"i_long":106.800832,"distance":1700,"line":1,"station_id":"DU","transit":true},{"i_lat":-6.144674,"line":1,"transit":false,"station_id":"AK","distance":1230,"is_transit":false,"time":4,"i_long":106.79867,"station_name":"Angke"},{"i_long":106.826365,"is_transit":true,"i_lat":-6.132549,"time":9,"station_name":"Kampung Bandan","station_id":"KPB","line":4,"distance":4102,"transit":true},{"transit":false,"time":3,"i_long":106.836569,"station_id":"RJW","i_lat":-6.14505,"line":11,"is_transit":false,"distance":1444,"station_name":"Rajawali"},{"line":11,"is_transit":false,"time":5,"i_lat":-6.161728,"i_long":106.839204,"distance":1901,"station_id":"KMO","station_name":"Kemayoran","transit":false},{"line":11,"transit":false,"distance":1436,"i_long":106.84368,"is_transit":false,"station_id":"PSE","station_name":"Pasar Senen","time":4,"i_lat":-6.174784},{"is_transit":false,"station_id":"GST","line":11,"time":8,"i_lat":-6.185975,"station_name":"Gang Sentiong","i_long":106.850107,"distance":1567,"transit":false},{"i_lat":-6.193792,"i_long":106.855437,"station_id":"KMT","distance":973,"time":1,"is_transit":false,"transit":false,"station_name":"Kramat","line":11},{"is_transit":false,"transit":false,"distance":1829,"station_id":"POK","i_lat":-6.209188,"i_long":106.861737,"line":11,"station_name":"Pondok Jati","time":2},{"time":9,"distance":1236,"i_long":106.86807400000001,"is_transit":true,"transit":true,"station_id":"JNG","line":1,"station_name":"Jatinegara","i_lat":-6.215091},{"station_name":"Matraman","i_lat":-6.212485,"transit":false,"station_id":"MTR","is_transit":false,"line":1,"i_long":106.858896,"time":2,"distance":1377},{"i_lat":-6.209883,"station_name":"Manggarai","is_transit":true,"time":2,"i_long":106.84912,"line":2,"distance":1275,"station_id":"MRI","transit":true},{"i_long":106.857948,"line":2,"transit":false,"i_lat":-6.226659,"time":4,"station_id":"TEB","station_name":"Tebet","distance":2610,"is_transit":false},{"time":2,"is_transit":false,"i_lat":-6.242512,"station_id":"CW","distance":1230,"i_long":106.856607,"station_name":"Cawang","transit":false,"line":2},{"transit":false,"time":3,"station_name":"Duren Kalibata","station_id":"DRN","is_transit":false,"line":2,"i_lat":-6.255332,"distance":1546,"i_long":106.85449},{"transit":false,"is_transit":false,"line":2,"i_long":106.851577,"distance":824,"station_name":"Pasar Minggu Baru","time":2,"i_lat":-6.263214,"station_id":"PSMB"},{"i_long":106.843999,"station_name":"Pasar Minggu","line":2,"distance":2380,"time":2,"i_lat":-6.2842400000000005,"is_transit":false,"station_id":"PSM","transit":false},{"i_long":106.838896,"station_name":"Tanjung Barat","time":4,"i_lat":-6.3080680000000005,"line":2,"is_transit":false,"distance":2820,"station_id":"TNT","transit":false},{"is_transit":false,"time":3,"distance":2671,"transit":false,"line":2,"i_lat":-6.330363,"station_name":"Lenteng Agung","station_id":"LNA","i_long":106.832616},{"station_id":"UP","station_name":"Univ. Pancasila","time":2,"is_transit":false,"line":2,"distance":1029,"transit":false,"i_lat":-6.339291,"i_long":106.834175}]]}