{"data":[[{"station_name":"Sudimara","distance":0,"i_lat":-6.296963,"station_id":"SDM","line":6,"is_transit":false,"transit":false,"i_long":106.712277,"time":0},{"station_id":"JMU","line":6,"is_transit":false,"i_long":106.728916,"station_name":"Jurangmangu","time":4,"distance":1994,"transit":false,"i_lat":-6.288927},{"time":3,"transit":false,"station_id":"PDJ","i_lat":-6.276362,"i_long":106.74273,"is_transit":false,"station_name":"Pondokranji","distance":2179,"line":6},{"i_lat":-6.237242,"distance":6218,"i_long":106.780334,"transit":false,"line":6,"station_name":"Kebayoran","is_transit":false,"time":8,"station_id":"KBY"},{"is_transit":false,"distance":3737,"i_lat":-6.207404,"station_id":"PLM","time":7,"station_name":"Palmerah","line":6,"i_long":106.79689,"transit":false},{"transit":true,"station_id":"THB","is_transit":true,"distance":3191,"line":1,"station_name":"Tanah Abang","time":6,"i_long":106.811091,"i_lat":-6.185545},{"time":8,"i_lat":-6.155215,"transit":false,"distance":3632,"station_id":"DU","station_name":"Duri","is_transit":false,"i_long":106.800832,"line":1},{"station_name":"Angke","time":4,"is_transit":false,"i_lat":-6.144674,"station_id":"AK","transit":false,"distance":1230,"line":1,"i_long":106.79867},{"is_transit":true,"transit":true,"station_name":"Kampung Bandan","i_long":106.826365,"i_lat":-6.132549,"line":4,"distance":4102,"time":9,"station_id":"KPB"},{"i_long":106.812439,"transit":false,"station_id":"JAKK","line":2,"station_name":"Jakarta Kota","is_transit":false,"time":3,"distance":1364,"i_lat":-6.137569}],[{"i_long":106.712277,"distance":0,"transit":false,"i_lat":-6.296963,"line":6,"station_id":"SDM","station_name":"Sudimara","time":0,"is_transit":false},{"is_transit":false,"i_long":106.728916,"time":4,"station_id":"JMU","transit":false,"station_name":"Jurangmangu","distance":1994,"line":6,"i_lat":-6.288927},{"station_id":"PDJ","is_transit":false,"time":3,"line":6,"i_long":106.74273,"distance":2179,"station_name":"Pondokranji","i_lat":-6.276362,"transit":false},{"station_name":"Kebayoran","time":8,"i_lat":-6.237242,"i_long":106.780334,"is_transit":false,"transit":false,"line":6,"distance":6218,"station_id":"KBY"},{"distance":3737,"i_lat":-6.207404,"transit":false,"station_name":"Palmerah","is_transit":false,"station_id":"PLM","i_long":106.79689,"time":7,"line":6},{"i_long":106.811091,"line":1,"station_name":"Tanah Abang","time":6,"distance":3191,"i_lat":-6.185545,"is_transit":true,"station_id":"THB","transit":true},{"is_transit":false,"transit":false,"i_long":106.816351,"line":1,"distance":2029,"station_id":"KAT","i_lat":-6.20132,"station_name":"Karet","time":5},{"transit":false,"time":1,"i_long":106.819881,"line":1,"station_id":"SUDB","station_name":"Sudirman Baru","is_transit":false,"distance":471,"i_lat":-6.201433},{"time":1,"is_transit":false,"i_long":106.822649,"station_id":"SUD","transit":false,"distance":280,"station_name":"Sudirman","i_lat":-6.202263,"line":1},{"is_transit":true,"i_lat":-6.209883,"time":4,"i_long":106.84912,"line":2,"station_name":"Manggarai","distance":3186,"transit":true,"station_id":"MRI"},{"is_transit":false,"station_name":"Cikini","i_long":106.840169,"i_lat":-6.198556,"time":4,"station_id":"CKI","transit":false,"distance":1590,"line":2},{"line":2,"transit":false,"i_lat":-6.186295,"station_name":"Gondangdia","station_id":"GDD","distance":1750,"time":3,"i_long":106.832183,"is_transit":false},{"time":4,"i_long":106.828284,"station_id":"JUA","i_lat":-6.166716,"distance":2015,"is_transit":false,"transit":false,"station_name":"Juanda","line":2},{"station_name":"Sawah Besar","station_id":"SW","line":2,"transit":false,"time":2,"i_lat":-6.160725,"is_transit":false,"distance":1149,"i_long":106.827103},{"station_name":"Manggabesar","is_transit":false,"i_lat":-6.149769,"transit":false,"i_long":106.82482,"line":2,"time":2,"distance":906,"station_id":"MGB"},{"station_id":"JAY","transit":false,"station_name":"Jayakarta","i_long":106.820901,"time":2,"is_transit":false,"line":2,"distance":1080,"i_lat":-6.141205},{"i_long":106.812439,"distance":1264,"time":4,"station_id":"JAKK","line":2,"i_lat":-6.137569,"is_transit":false,"transit":false,"station_name":"Jakarta Kota"}],[{"station_name":"Sudimara","i_lat":-6.296963,"station_id":"SDM","is_transit":false,"transit":false,"distance":0,"time":0,"i_long":106.712277,"line":6},{"line":6,"station_name":"Jurangmangu","i_long":106.728916,"is_transit":false,"i_lat":-6.288927,"transit":false,"station_id":"JMU","time":4,"distance":1994},{"i_long":106.74273,"station_id":"PDJ","i_lat":-6.276362,"distance":2179,"station_name":"Pondokranji","line":6,"is_transit":false,"transit":false,"time":3},{"i_long":106.780334,"station_id":"KBY","transit":false,"is_transit":false,"time":8,"distance":6218,"line":6,"i_lat":-6.237242,"station_name":"Kebayoran"},{"distance":3737,"station_name":"Palmerah","station_id":"PLM","line":6,"i_long":106.79689,"time":7,"is_transit":false,"transit":false,"i_lat":-6.207404},{"station_name":"Tanah Abang","time":6,"station_id":"THB","i_long":106.811091,"i_lat":-6.185545,"distance":3191,"transit":true,"line":1,"is_transit":true},{"station_id":"KAT","i_lat":-6.20132,"is_transit":false,"distance":2029,"line":1,"i_long":106.816351,"transit":false,"station_name":"Karet","time":5},{"transit":false,"line":1,"time":1,"station_id":"SUDB","i_long":106.819881,"station_name":"Sudirman Baru","distance":471,"i_lat":-6.201433,"is_transit":false},{"transit":false,"distance":280,"station_id":"SUD","i_long":106.822649,"is_transit":false,"time":1,"station_name":"Sudirman","i_lat":-6.202263,"line":1},{"distance":3186,"time":4,"i_lat":-6.209883,"is_transit":false,"station_id":"MRI","station_name":"Manggarai","i_long":106.84912,"transit":false,"line":2},{"station_id":"MTR","time":2,"station_name":"Matraman","distance":1275,"i_lat":-6.212485,"transit":false,"i_long":106.858896,"line":1,"is_transit":false},{"station_name":"Jatinegara","distance":1377,"is_transit":true,"station_id":"JNG","i_lat":-6.215091,"i_long":106.86807400000001,"transit":true,"line":1,"time":8},{"i_long":106.861737,"is_transit":false,"transit":false,"i_lat":-6.209188,"line":11,"time":2,"station_id":"POK","station_name":"Pondok Jati","distance":1236},{"station_id":"KMT","i_long":106.855437,"distance":1829,"i_lat":-6.193792,"line":11,"time":2,"transit":false,"station_name":"Kramat","is_transit":false},{"transit":false,"time":1,"station_name":"Gang Sentiong","station_id":"GST","i_long":106.850107,"is_transit":false,"line":11,"i_lat":-6.185975,"distance":973},{"station_id":"PSE","distance":1567,"time":8,"i_long":106.84368,"transit":false,"is_transit":false,"station_name":"Pasar Senen","i_lat":-6.174784,"line":11},{"time":4,"is_transit":false,"i_long":106.839204,"i_lat":-6.161728,"station_id":"KMO","line":11,"station_name":"Kemayoran","transit":false,"distance":1436},{"station_id":"RJW","distance":1901,"i_lat":-6.14505,"is_transit":false,"i_long":106.836569,"time":5,"line":11,"station_name":"Rajawali","transit":false},{"time":3,"is_transit":true,"i_long":106.826365,"transit":true,"station_name":"Kampung Bandan","i_lat":-6.132549,"line":4,"distance":1444,"station_id":"KPB"},{"time":3,"transit":false,"station_name":"Jakarta Kota","station_id":"JAKK","i_lat":-6.137569,"i_long":106.812439,"line":2,"distance":1364,"is_transit":false}],[{"transit":false,"time":0,"is_transit":false,"station_id":"SDM","station_name":"Sudimara","line":6,"i_lat":-6.296963,"i_long":106.712277,"distance":0},{"i_lat":-6.288927,"distance":1994,"station_id":"JMU","line":6,"transit":false,"is_transit":false,"station_name":"Jurangmangu","i_long":106.728916,"time":4},{"time":3,"station_id":"PDJ","i_lat":-6.276362,"line":6,"i_long":106.74273,"transit":false,"distance":2179,"station_name":"Pondokranji","is_transit":false},{"time":8,"station_name":"Kebayoran","i_lat":-6.237242,"line":6,"transit":false,"is_transit":false,"station_id":"KBY","distance":6218,"i_long":106.780334},{"line":6,"distance":3737,"i_lat":-6.207404,"time":7,"station_name":"Palmerah","i_long":106.79689,"is_transit":false,"station_id":"PLM","transit":false},{"transit":true,"line":1,"is_transit":true,"distance":3191,"station_name":"Tanah Abang","station_id":"THB","time":6,"i_lat":-6.185545,"i_long":106.811091},{"transit":false,"i_long":106.800832,"distance":3632,"line":1,"i_lat":-6.155215,"time":8,"station_id":"DU","is_transit":false,"station_name":"Duri"},{"is_transit":false,"station_name":"Angke","line":1,"i_lat":-6.144674,"station_id":"AK","distance":1230,"i_long":106.79867,"time":4,"transit":false},{"i_long":106.826365,"station_name":"Kampung Bandan","transit":true,"line":4,"is_transit":true,"time":9,"station_id":"KPB","distance":4102,"i_lat":-6.132549},{"station_name":"Rajawali","transit":false,"is_transit":false,"time":3,"i_lat":-6.14505,"distance":1444,"station_id":"RJW","i_long":106.836569,"line":11},{"is_transit":false,"time":5,"i_long":106.839204,"line":11,"transit":false,"station_id":"KMO","station_name":"Kemayoran","i_lat":-6.161728,"distance":1901},{"time":4,"transit":false,"i_lat":-6.174784,"distance":1436,"is_transit":false,"station_name":"Pasar Senen","station_id":"PSE","i_long":106.84368,"line":11},{"time":8,"station_id":"GST","transit":false,"i_lat":-6.185975,"i_long":106.850107,"distance":1567,"station_name":"Gang Sentiong","line":11,"is_transit":false},{"line":11,"time":1,"distance":973,"transit":false,"is_transit":false,"station_id":"KMT","i_lat":-6.193792,"i_long":106.855437,"station_name":"Kramat"},{"is_transit":false,"time":2,"i_lat":-6.209188,"transit":false,"distance":1829,"i_long":106.861737,"station_name":"Pondok Jati","line":11,"station_id":"POK"},{"transit":true,"time":9,"i_lat":-6.215091,"i_long":106.86807400000001,"is_transit":true,"line":1,"station_name":"Jatinegara","station_id":"JNG","distance":1236},{"station_id":"MTR","i_lat":-6.212485,"time":2,"station_name":"Matraman","distance":1377,"is_transit":false,"line":1,"transit":false,"i_long":106.858896},{"transit":true,"i_lat":-6.209883,"distance":1275,"i_long":106.84912,"is_transit":true,"time":2,"station_id":"MRI","station_name":"Manggarai","line":2},{"line":2,"is_transit":false,"station_name":"Cikini","time":4,"transit":false,"station_id":"CKI","distance":1590,"i_lat":-6.198556,"i_long":106.840169},{"i_long":106.832183,"line":2,"i_lat":-6.186295,"is_transit":false,"time":3,"station_name":"Gondangdia","transit":false,"station_id":"GDD","distance":1750},{"is_transit":false,"station_id":"JUA","i_lat":-6.166716,"time":4,"i_long":106.828284,"line":2,"transit":false,"station_name":"Juanda","distance":2015},{"time":2,"i_long":106.827103,"distance":1149,"station_name":"Sawah Besar","station_id":"SW","is_transit":false,"transit":false,"line":2,"i_lat":-6.160725},{"is_transit":false,"transit":false,"station_name":"Manggabesar","line":2,"time":2,"station_id":"MGB","i_long":106.82482,"i_lat":-6.149769,"distance":906},{"station_name":"Jayakarta","time":2,"line":2,"is_transit":false,"transit":false,"station_id":"JAY","distance":1080,"i_lat":-6.141205,"i_long":106.820901},{"transit":false,"line":2,"station_name":"Jakarta Kota","station_id":"JAKK","time":4,"distance":1264,"i_lat":-6.137569,"is_transit":false,"i_long":106.812439}]]}