{"data":[[{"time":0,"station_id":"SDM","is_transit":false,"station_name":"Sudimara","i_lat":-6.296963,"line":6,"i_long":106.712277,"distance":0,"transit":false},{"time":4,"line":6,"station_id":"JMU","distance":1994,"i_long":106.728916,"transit":false,"i_lat":-6.288927,"is_transit":false,"station_name":"Jurangmangu"},{"is_transit":false,"station_id":"PDJ","station_name":"Pondokranji","time":3,"i_lat":-6.276362,"transit":false,"i_long":106.74273,"distance":2179,"line":6},{"time":8,"transit":false,"i_long":106.780334,"is_transit":false,"line":6,"i_lat":-6.237242,"station_id":"KBY","distance":6218,"station_name":"Kebayoran"},{"station_id":"PLM","station_name":"Palmerah","i_lat":-6.207404,"time":7,"distance":3737,"transit":false,"i_long":106.79689,"is_transit":false,"line":6},{"i_long":106.811091,"distance":3191,"station_id":"THB","i_lat":-6.185545,"station_name":"Tanah Abang","time":6,"line":1,"transit":true,"is_transit":true},{"i_long":106.816351,"distance":2029,"station_name":"Karet","transit":false,"is_transit":false,"i_lat":-6.20132,"line":1,"time":5,"station_id":"KAT"},{"station_name":"Sudirman Baru","line":1,"transit":false,"is_transit":false,"distance":471,"i_lat":-6.201433,"time":1,"i_long":106.819881,"station_id":"SUDB"},{"station_name":"Sudirman","transit":false,"i_lat":-6.202263,"i_long":106.822649,"line":1,"distance":280,"is_transit":false,"time":1,"station_id":"SUD"},{"station_name":"Manggarai","i_lat":-6.209883,"distance":3186,"line":2,"transit":false,"time":4,"station_id":"MRI","is_transit":false,"i_long":106.84912},{"is_transit":false,"i_long":106.858896,"station_name":"Matraman","transit":false,"station_id":"MTR","time":2,"distance":1275,"line":1,"i_lat":-6.212485},{"station_name":"Jatinegara","transit":false,"station_id":"JNG","i_lat":-6.215091,"distance":1377,"is_transit":false,"i_long":106.86807400000001,"time":8,"line":1},{"i_lat":-6.2135,"distance":3395,"time":3,"station_name":"Klender","transit":false,"station_id":"KLD","i_long":106.899548,"is_transit":false,"line":1},{"station_name":"Buaran","line":1,"distance":3100,"station_id":"BUA","i_lat":-6.215568,"i_long":106.922662,"time":2,"is_transit":false,"transit":false},{"time":1,"distance":1305,"is_transit":false,"i_lat":-6.217455,"transit":false,"station_id":"KLDB","i_long":106.939679,"line":1,"station_name":"Klenderbaru"},{"distance":1385,"is_transit":false,"i_lat":-6.219053,"i_long":106.951283,"line":1,"time":8,"station_id":"CUK","station_name":"Cakung","transit":false},{"is_transit":false,"line":1,"i_long":106.977657,"distance":3097,"station_id":"KRI","i_lat":-6.224515,"transit":false,"station_name":"Kranji","time":3},{"station_id":"BKS","is_transit":false,"time":4,"distance":2520,"i_lat":-6.236616,"station_name":"Bekasi","i_long":106.997013,"transit":false,"line":1},{"station_id":"BKST","is_transit":false,"i_lat":-6.248029,"station_name":"Bekasi Timur","time":2,"distance":2368,"transit":false,"line":1,"i_long":107.016735},{"station_name":"Tambun","time":7,"station_id":"TB","distance":4460,"i_long":107.055722,"line":1,"is_transit":false,"transit":false,"i_lat":-6.258864},{"i_long":107.083084,"transit":false,"is_transit":false,"i_lat":-6.261877,"station_id":"CIT","distance":3420,"time":3,"station_name":"Cibitung","line":1},{"time":2,"station_name":"Metland Telaga Murni","station_id":"TLM","distance":2800,"transit":false,"line":1,"i_long":107.093313,"is_transit":false,"i_lat":-6.262938}],[{"station_id":"SDM","is_transit":false,"transit":false,"i_lat":-6.296963,"distance":0,"station_name":"Sudimara","i_long":106.712277,"line":6,"time":0},{"station_id":"JMU","transit":false,"is_transit":false,"i_long":106.728916,"station_name":"Jurangmangu","time":4,"line":6,"i_lat":-6.288927,"distance":1994},{"line":6,"is_transit":false,"time":3,"station_id":"PDJ","station_name":"Pondokranji","transit":false,"distance":2179,"i_lat":-6.276362,"i_long":106.74273},{"transit":false,"is_transit":false,"line":6,"distance":6218,"time":8,"i_long":106.780334,"i_lat":-6.237242,"station_id":"KBY","station_name":"Kebayoran"},{"station_name":"Palmerah","line":6,"distance":3737,"i_long":106.79689,"time":7,"transit":false,"i_lat":-6.207404,"station_id":"PLM","is_transit":false},{"distance":3191,"is_transit":true,"station_name":"Tanah Abang","i_long":106.811091,"station_id":"THB","i_lat":-6.185545,"time":6,"line":1,"transit":true},{"is_transit":false,"distance":3632,"i_lat":-6.155215,"time":8,"transit":false,"station_id":"DU","line":1,"station_name":"Duri","i_long":106.800832},{"station_name":"Angke","time":4,"is_transit":false,"distance":1230,"i_long":106.79867,"transit":false,"line":1,"i_lat":-6.144674,"station_id":"AK"},{"i_long":106.826365,"transit":true,"station_name":"Kampung Bandan","distance":4102,"line":4,"time":9,"station_id":"KPB","is_transit":true,"i_lat":-6.132549},{"station_id":"RJW","is_transit":false,"i_long":106.836569,"line":11,"i_lat":-6.14505,"station_name":"Rajawali","time":3,"distance":1444,"transit":false},{"i_long":106.839204,"transit":false,"distance":1901,"station_name":"Kemayoran","is_transit":false,"station_id":"KMO","time":5,"i_lat":-6.161728,"line":11},{"station_name":"Pasar Senen","i_lat":-6.174784,"distance":1436,"time":4,"transit":false,"is_transit":false,"i_long":106.84368,"line":11,"station_id":"PSE"},{"transit":false,"i_long":106.850107,"time":8,"i_lat":-6.185975,"line":11,"station_id":"GST","distance":1567,"station_name":"Gang Sentiong","is_transit":false},{"i_lat":-6.193792,"time":1,"is_transit":false,"transit":false,"distance":973,"station_id":"KMT","i_long":106.855437,"line":11,"station_name":"Kramat"},{"i_long":106.861737,"is_transit":false,"i_lat":-6.209188,"time":2,"line":11,"station_id":"POK","transit":false,"distance":1829,"station_name":"Pondok Jati"},{"station_id":"JNG","distance":1236,"is_transit":true,"i_lat":-6.215091,"time":9,"line":1,"station_name":"Jatinegara","i_long":106.86807400000001,"transit":true},{"station_id":"KLD","station_name":"Klender","distance":3395,"i_long":106.899548,"line":1,"transit":false,"i_lat":-6.2135,"is_transit":false,"time":3},{"i_lat":-6.215568,"distance":3100,"transit":false,"time":2,"station_name":"Buaran","i_long":106.922662,"line":1,"station_id":"BUA","is_transit":false},{"line":1,"station_name":"Klenderbaru","i_lat":-6.217455,"time":1,"station_id":"KLDB","is_transit":false,"i_long":106.939679,"transit":false,"distance":1305},{"is_transit":false,"line":1,"station_id":"CUK","transit":false,"distance":1385,"i_long":106.951283,"i_lat":-6.219053,"station_name":"Cakung","time":8},{"station_id":"KRI","time":3,"is_transit":false,"i_long":106.977657,"i_lat":-6.224515,"distance":3097,"station_name":"Kranji","line":1,"transit":false},{"line":1,"distance":2520,"time":4,"i_lat":-6.236616,"i_long":106.997013,"station_name":"Bekasi","transit":false,"is_transit":false,"station_id":"BKS"},{"station_id":"BKST","is_transit":false,"station_name":"Bekasi Timur","transit":false,"i_lat":-6.248029,"line":1,"i_long":107.016735,"distance":2368,"time":2},{"time":7,"transit":false,"is_transit":false,"distance":4460,"i_lat":-6.258864,"i_long":107.055722,"line":1,"station_id":"TB","station_name":"Tambun"},{"time":3,"station_id":"CIT","station_name":"Cibitung","transit":false,"is_transit":false,"distance":3420,"i_lat":-6.261877,"i_long":107.083084,"line":1},{"station_id":"TLM","station_name":"Metland Telaga Murni","i_lat":-6.262938,"is_transit":false,"transit":false,"i_long":107.093313,"distance":2800,"line":1,"time":2}],[{"transit":false,"station_name":"Sudimara","time":0,"is_transit":false,"i_long":106.712277,"line":6,"station_id":"SDM","distance":0,"i_lat":-6.296963},{"transit":false,"station_id":"JMU","is_transit":false,"time":4,"i_lat":-6.288927,"distance":1994,"i_long":106.728916,"line":6,"station_name":"Jurangmangu"},{"station_id":"PDJ","distance":2179,"transit":false,"time":3,"i_long":106.74273,"is_transit":false,"i_lat":-6.276362,"station_name":"Pondokranji","line":6},{"station_id":"KBY","i_lat":-6.237242,"line":6,"is_transit":false,"i_long":106.780334,"time":8,"station_name":"Kebayoran","transit":false,"distance":6218},{"i_long":106.79689,"i_lat":-6.207404,"station_id":"PLM","line":6,"time":7,"station_name":"Palmerah","transit":false,"is_transit":false,"distance":3737},{"station_name":"Tanah Abang","is_transit":true,"time":6,"distance":3191,"line":1,"transit":true,"station_id":"THB","i_lat":-6.185545,"i_long":106.811091},{"line":1,"transit":false,"time":8,"distance":3632,"station_id":"DU","is_transit":false,"i_lat":-6.155215,"i_long":106.800832,"station_name":"Duri"},{"station_name":"Angke","time":4,"i_long":106.79867,"line":1,"i_lat":-6.144674,"station_id":"AK","is_transit":false,"distance":1230,"transit":false},{"line":4,"i_long":106.826365,"transit":true,"i_lat":-6.132549,"station_name":"Kampung Bandan","station_id":"KPB","is_transit":true,"time":9,"distance":4102},{"station_id":"JAKK","i_lat":-6.137569,"line":2,"transit":true,"station_name":"Jakarta Kota","is_transit":true,"time":3,"distance":1364,"i_long":106.812439},{"i_long":106.820901,"time":4,"transit":false,"station_name":"Jayakarta","distance":1264,"line":2,"i_lat":-6.141205,"is_transit":false,"station_id":"JAY"},{"station_id":"MGB","is_transit":false,"distance":1080,"station_name":"Manggabesar","i_lat":-6.149769,"i_long":106.82482,"line":2,"transit":false,"time":2},{"i_lat":-6.160725,"station_id":"SW","transit":false,"time":2,"station_name":"Sawah Besar","is_transit":false,"i_long":106.827103,"distance":906,"line":2},{"i_lat":-6.166716,"is_transit":false,"station_name":"Juanda","transit":false,"distance":1149,"i_long":106.828284,"line":2,"time":2,"station_id":"JUA"},{"is_transit":false,"station_name":"Gondangdia","time":4,"distance":2015,"transit":false,"i_long":106.832183,"station_id":"GDD","line":2,"i_lat":-6.186295},{"i_long":106.840169,"time":3,"i_lat":-6.198556,"is_transit":false,"distance":1750,"line":2,"station_name":"Cikini","transit":false,"station_id":"CKI"},{"time":4,"transit":true,"is_transit":true,"line":2,"station_id":"MRI","i_lat":-6.209883,"station_name":"Manggarai","i_long":106.84912,"distance":1590},{"is_transit":false,"station_id":"MTR","line":1,"station_name":"Matraman","i_lat":-6.212485,"transit":false,"distance":1275,"i_long":106.858896,"time":2},{"station_id":"JNG","distance":1377,"i_long":106.86807400000001,"time":8,"transit":false,"is_transit":false,"line":1,"i_lat":-6.215091,"station_name":"Jatinegara"},{"distance":3395,"time":3,"i_lat":-6.2135,"station_id":"KLD","line":1,"station_name":"Klender","transit":false,"i_long":106.899548,"is_transit":false},{"station_id":"BUA","station_name":"Buaran","line":1,"is_transit":false,"distance":3100,"i_lat":-6.215568,"transit":false,"i_long":106.922662,"time":2},{"station_id":"KLDB","transit":false,"station_name":"Klenderbaru","is_transit":false,"distance":1305,"i_lat":-6.217455,"time":1,"i_long":106.939679,"line":1},{"is_transit":false,"transit":false,"time":8,"i_lat":-6.219053,"station_name":"Cakung","line":1,"station_id":"CUK","distance":1385,"i_long":106.951283},{"line":1,"i_long":106.977657,"time":3,"station_name":"Kranji","distance":3097,"is_transit":false,"i_lat":-6.224515,"transit":false,"station_id":"KRI"},{"station_id":"BKS","station_name":"Bekasi","i_long":106.997013,"transit":false,"is_transit":false,"i_lat":-6.236616,"time":4,"distance":2520,"line":1},{"station_id":"BKST","transit":false,"i_lat":-6.248029,"station_name":"Bekasi Timur","line":1,"distance":2368,"i_long":107.016735,"is_transit":false,"time":2},{"i_long":107.055722,"line":1,"station_id":"TB","distance":4460,"station_name":"Tambun","is_transit":false,"i_lat":-6.258864,"transit":false,"time":7},{"transit":false,"time":3,"station_id":"CIT","line":1,"i_long":107.083084,"distance":3420,"is_transit":false,"i_lat":-6.261877,"station_name":"Cibitung"},{"i_long":107.093313,"line":1,"time":2,"distance":2800,"station_name":"Metland Telaga Murni","i_lat":-6.262938,"station_id":"TLM","transit":false,"is_transit":false}],[{"distance":0,"station_name":"Sudimara","i_lat":-6.296963,"line":6,"time":0,"is_transit":false,"station_id":"SDM","i_long":106.712277,"transit":false},{"station_name":"Jurangmangu","station_id":"JMU","distance":1994,"transit":false,"time":4,"i_lat":-6.288927,"line":6,"is_transit":false,"i_long":106.728916},{"distance":2179,"line":6,"transit":false,"station_name":"Pondokranji","time":3,"is_transit":false,"i_lat":-6.276362,"i_long":106.74273,"station_id":"PDJ"},{"transit":false,"line":6,"station_id":"KBY","distance":6218,"station_name":"Kebayoran","i_lat":-6.237242,"is_transit":false,"i_long":106.780334,"time":8},{"is_transit":false,"distance":3737,"station_name":"Palmerah","i_long":106.79689,"transit":false,"i_lat":-6.207404,"line":6,"station_id":"PLM","time":7},{"transit":true,"time":6,"station_id":"THB","distance":3191,"i_long":106.811091,"is_transit":true,"i_lat":-6.185545,"line":1,"station_name":"Tanah Abang"},{"time":5,"transit":false,"station_id":"KAT","station_name":"Karet","distance":2029,"i_lat":-6.20132,"is_transit":false,"i_long":106.816351,"line":1},{"transit":false,"line":1,"distance":471,"time":1,"i_long":106.819881,"station_name":"Sudirman Baru","station_id":"SUDB","is_transit":false,"i_lat":-6.201433},{"station_id":"SUD","distance":280,"is_transit":false,"i_lat":-6.202263,"station_name":"Sudirman","transit":false,"time":1,"line":1,"i_long":106.822649},{"is_transit":true,"transit":true,"station_id":"MRI","distance":3186,"i_lat":-6.209883,"i_long":106.84912,"line":2,"time":4,"station_name":"Manggarai"},{"distance":1590,"i_lat":-6.198556,"station_name":"Cikini","station_id":"CKI","is_transit":false,"line":2,"i_long":106.840169,"transit":false,"time":4},{"distance":1750,"i_lat":-6.186295,"station_name":"Gondangdia","is_transit":false,"station_id":"GDD","i_long":106.832183,"line":2,"transit":false,"time":3},{"station_name":"Juanda","distance":2015,"time":4,"transit":false,"i_lat":-6.166716,"line":2,"station_id":"JUA","i_long":106.828284,"is_transit":false},{"time":2,"i_long":106.827103,"line":2,"distance":1149,"is_transit":false,"i_lat":-6.160725,"station_id":"SW","station_name":"Sawah Besar","transit":false},{"station_name":"Manggabesar","line":2,"station_id":"MGB","i_lat":-6.149769,"is_transit":false,"time":2,"distance":906,"i_long":106.82482,"transit":false},{"i_long":106.820901,"station_name":"Jayakarta","distance":1080,"is_transit":false,"station_id":"JAY","i_lat":-6.141205,"transit":false,"line":2,"time":2},{"time":4,"station_name":"Jakarta Kota","line":2,"i_long":106.812439,"station_id":"JAKK","transit":true,"is_transit":true,"distance":1264,"i_lat":-6.137569},{"station_id":"KPB","is_transit":true,"line":4,"transit":true,"time":3,"distance":1364,"i_lat":-6.132549,"i_long":106.826365,"station_name":"Kampung Bandan"},{"i_lat":-6.14505,"i_long":106.836569,"line":11,"is_transit":false,"transit":false,"time":3,"station_id":"RJW","distance":1444,"station_name":"Rajawali"},{"time":5,"is_transit":false,"line":11,"station_name":"Kemayoran","i_lat":-6.161728,"station_id":"KMO","distance":1901,"i_long":106.839204,"transit":false},{"station_id":"PSE","time":4,"distance":1436,"transit":false,"i_long":106.84368,"i_lat":-6.174784,"line":11,"station_name":"Pasar Senen","is_transit":false},{"station_name":"Gang Sentiong","station_id":"GST","is_transit":false,"i_long":106.850107,"line":11,"distance":1567,"transit":false,"time":8,"i_lat":-6.185975},{"time":1,"station_id":"KMT","is_transit":false,"line":11,"i_lat":-6.193792,"distance":973,"i_long":106.855437,"station_name":"Kramat","transit":false},{"line":11,"station_id":"POK","station_name":"Pondok Jati","is_transit":false,"transit":false,"time":2,"distance":1829,"i_lat":-6.209188,"i_long":106.861737},{"station_id":"JNG","is_transit":true,"distance":1236,"transit":true,"i_lat":-6.215091,"line":1,"time":9,"i_long":106.86807400000001,"station_name":"Jatinegara"},{"line":1,"i_lat":-6.2135,"distance":3395,"station_id":"KLD","i_long":106.899548,"time":3,"station_name":"Klender","transit":false,"is_transit":false},{"line":1,"transit":false,"station_name":"Buaran","i_lat":-6.215568,"is_transit":false,"distance":3100,"i_long":106.922662,"station_id":"BUA","time":2},{"line":1,"transit":false,"time":1,"station_id":"KLDB","station_name":"Klenderbaru","is_transit":false,"i_lat":-6.217455,"i_long":106.939679,"distance":1305},{"is_transit":false,"i_lat":-6.219053,"transit":false,"i_long":106.951283,"line":1,"distance":1385,"station_name":"Cakung","time":8,"station_id":"CUK"},{"time":3,"station_id":"KRI","is_transit":false,"distance":3097,"i_lat":-6.224515,"line":1,"i_long":106.977657,"station_name":"Kranji","transit":false},{"i_lat":-6.236616,"is_transit":false,"station_name":"Bekasi","time":4,"station_id":"BKS","distance":2520,"i_long":106.997013,"line":1,"transit":false},{"station_name":"Bekasi Timur","i_lat":-6.248029,"transit":false,"i_long":107.016735,"is_transit":false,"station_id":"BKST","time":2,"distance":2368,"line":1},{"station_name":"Tambun","station_id":"TB","i_long":107.055722,"i_lat":-6.258864,"is_transit":false,"time":7,"transit":false,"distance":4460,"line":1},{"i_lat":-6.261877,"i_long":107.083084,"distance":3420,"time":3,"transit":false,"line":1,"station_name":"Cibitung","station_id":"CIT","is_transit":false},{"station_id":"TLM","time":2,"i_lat":-6.262938,"station_name":"Metland Telaga Murni","is_transit":false,"distance":2800,"transit":false,"i_long":107.093313,"line":1}]]}