{"data":[[{"distance":0,"transit":false,"station_id":"SDM","station_name":"Sudimara","i_lat":-6.296963,"i_long":106.712277,"line":6,"time":0,"is_transit":false},{"i_lat":-6.314823,"station_name":"Rawa Buntu","transit":false,"line":6,"station_id":"RU","is_transit":false,"time":6,"distance":4566,"i_long":106.675475},{"is_transit":false,"time":4,"line":6,"distance":2413,"i_lat":-6.319871,"transit":false,"i_long":106.66566,"station_id":"SRP","station_name":"Serpong"},{"time":4,"station_id":"CSK","station_name":"Cisauk","i_long":106.640411,"is_transit":false,"transit":false,"distance":1784,"line":3,"i_lat":-6.32484},{"transit":false,"station_id":"CC","i_long":106.617853,"is_transit":false,"station_name":"Cicayur","time":4,"i_lat":-6.329547,"line":3,"distance":2519},{"time":8,"is_transit":false,"transit":false,"i_lat":-6.3441410000000005,"line":6,"i_long":106.568863,"station_id":"PRP","station_name":"Parung Panjang","distance":5968},{"is_transit":false,"transit":false,"station_name":"Cilejit","i_lat":-6.354349,"time":9,"line":3,"station_id":"CJT","distance":7025,"i_long":106.508482},{"transit":false,"station_name":"Daru","distance":2675,"is_transit":false,"i_lat":-6.338021,"line":0,"station_id":"DAR","i_long":106.491338,"time":6},{"station_id":"TEJ","is_transit":false,"distance":3902,"station_name":"Tenjo","i_lat":-6.327251,"i_long":106.460812,"line":6,"time":5,"transit":false},{"transit":false,"i_long":106.425991,"time":5,"is_transit":false,"station_id":"TGS","distance":2974,"line":6,"station_name":"Tigaraksa","i_lat":-6.328533}]]}