{"data":[[{"station_name":"Sudimara","distance":0,"time":0,"i_lat":-6.296963,"i_long":106.712277,"is_transit":false,"station_id":"SDM","line":6,"transit":false},{"station_name":"Jurangmangu","i_lat":-6.288927,"transit":false,"distance":1994,"i_long":106.728916,"line":6,"is_transit":false,"time":4,"station_id":"JMU"},{"transit":false,"is_transit":false,"i_lat":-6.276362,"i_long":106.74273,"station_name":"Pondokranji","distance":2179,"station_id":"PDJ","time":3,"line":6},{"is_transit":false,"station_name":"Kebayoran","distance":6218,"time":8,"i_lat":-6.237242,"station_id":"KBY","line":6,"i_long":106.780334,"transit":false},{"station_name":"Palmerah","time":7,"transit":false,"is_transit":false,"station_id":"PLM","i_long":106.79689,"i_lat":-6.207404,"distance":3737,"line":6},{"station_id":"THB","time":6,"line":1,"distance":3191,"i_lat":-6.185545,"is_transit":true,"i_long":106.811091,"transit":true,"station_name":"Tanah Abang"},{"transit":false,"is_transit":false,"i_lat":-6.20132,"time":5,"line":1,"station_id":"KAT","distance":2029,"i_long":106.816351,"station_name":"Karet"},{"station_id":"SUDB","i_lat":-6.201433,"transit":false,"station_name":"Sudirman Baru","distance":471,"is_transit":false,"time":1,"i_long":106.819881,"line":1},{"i_long":106.822649,"line":1,"transit":false,"is_transit":false,"station_id":"SUD","i_lat":-6.202263,"station_name":"Sudirman","time":1,"distance":280}],[{"is_transit":false,"i_lat":-6.296963,"i_long":106.712277,"station_name":"Sudimara","line":6,"transit":false,"distance":0,"station_id":"SDM","time":0},{"distance":1994,"line":6,"is_transit":false,"time":4,"i_lat":-6.288927,"i_long":106.728916,"transit":false,"station_id":"JMU","station_name":"Jurangmangu"},{"i_lat":-6.276362,"transit":false,"station_name":"Pondokranji","station_id":"PDJ","is_transit":false,"time":3,"i_long":106.74273,"distance":2179,"line":6},{"station_id":"KBY","i_lat":-6.237242,"station_name":"Kebayoran","distance":6218,"transit":false,"line":6,"i_long":106.780334,"is_transit":false,"time":8},{"station_id":"PLM","transit":false,"time":7,"is_transit":false,"distance":3737,"station_name":"Palmerah","i_long":106.79689,"line":6,"i_lat":-6.207404},{"station_name":"Tanah Abang","is_transit":true,"distance":3191,"i_lat":-6.185545,"i_long":106.811091,"line":1,"transit":true,"station_id":"THB","time":6},{"transit":false,"station_id":"DU","distance":3632,"i_long":106.800832,"i_lat":-6.155215,"time":8,"line":1,"station_name":"Duri","is_transit":false},{"transit":false,"station_name":"Angke","is_transit":false,"line":1,"time":4,"i_lat":-6.144674,"station_id":"AK","distance":1230,"i_long":106.79867},{"i_lat":-6.132549,"transit":true,"is_transit":true,"i_long":106.826365,"station_id":"KPB","station_name":"Kampung Bandan","distance":4102,"time":9,"line":4},{"time":3,"transit":true,"is_transit":true,"i_long":106.812439,"line":2,"i_lat":-6.137569,"station_id":"JAKK","station_name":"Jakarta Kota","distance":1364},{"is_transit":false,"line":2,"i_long":106.820901,"station_name":"Jayakarta","station_id":"JAY","distance":1264,"transit":false,"time":4,"i_lat":-6.141205},{"transit":false,"distance":1080,"is_transit":false,"i_long":106.82482,"line":2,"station_name":"Manggabesar","time":2,"i_lat":-6.149769,"station_id":"MGB"},{"line":2,"i_long":106.827103,"station_id":"SW","time":2,"transit":false,"distance":906,"i_lat":-6.160725,"is_transit":false,"station_name":"Sawah Besar"},{"is_transit":false,"station_id":"JUA","line":2,"distance":1149,"transit":false,"time":2,"station_name":"Juanda","i_lat":-6.166716,"i_long":106.828284},{"is_transit":false,"time":4,"distance":2015,"i_long":106.832183,"line":2,"i_lat":-6.186295,"transit":false,"station_id":"GDD","station_name":"Gondangdia"},{"line":2,"i_long":106.840169,"distance":1750,"station_id":"CKI","is_transit":false,"transit":false,"station_name":"Cikini","i_lat":-6.198556,"time":3},{"transit":true,"i_long":106.84912,"line":2,"i_lat":-6.209883,"distance":1590,"station_id":"MRI","is_transit":true,"time":4,"station_name":"Manggarai"},{"line":1,"transit":false,"i_lat":-6.202263,"is_transit":false,"station_name":"Sudirman","i_long":106.822649,"distance":3186,"station_id":"SUD","time":4}],[{"time":0,"station_id":"SDM","is_transit":false,"distance":0,"i_lat":-6.296963,"line":6,"station_name":"Sudimara","i_long":106.712277,"transit":false},{"line":6,"i_lat":-6.288927,"distance":1994,"station_id":"JMU","is_transit":false,"time":4,"station_name":"Jurangmangu","i_long":106.728916,"transit":false},{"transit":false,"time":3,"is_transit":false,"line":6,"station_name":"Pondokranji","i_lat":-6.276362,"distance":2179,"station_id":"PDJ","i_long":106.74273},{"station_id":"KBY","i_lat":-6.237242,"distance":6218,"station_name":"Kebayoran","line":6,"transit":false,"i_long":106.780334,"time":8,"is_transit":false},{"transit":false,"distance":3737,"station_id":"PLM","i_long":106.79689,"station_name":"Palmerah","i_lat":-6.207404,"time":7,"line":6,"is_transit":false},{"line":1,"time":6,"distance":3191,"i_lat":-6.185545,"station_name":"Tanah Abang","transit":true,"is_transit":true,"station_id":"THB","i_long":106.811091},{"station_id":"DU","is_transit":false,"line":1,"transit":false,"i_lat":-6.155215,"time":8,"distance":3632,"i_long":106.800832,"station_name":"Duri"},{"i_lat":-6.144674,"distance":1230,"transit":false,"station_name":"Angke","is_transit":false,"i_long":106.79867,"line":1,"time":4,"station_id":"AK"},{"distance":4102,"i_long":106.826365,"line":4,"station_name":"Kampung Bandan","station_id":"KPB","is_transit":true,"transit":true,"time":9,"i_lat":-6.132549},{"is_transit":false,"transit":false,"line":11,"distance":1444,"station_id":"RJW","time":3,"i_lat":-6.14505,"station_name":"Rajawali","i_long":106.836569},{"line":11,"station_name":"Kemayoran","i_lat":-6.161728,"i_long":106.839204,"station_id":"KMO","time":5,"distance":1901,"transit":false,"is_transit":false},{"time":4,"is_transit":false,"i_lat":-6.174784,"station_id":"PSE","i_long":106.84368,"distance":1436,"transit":false,"line":11,"station_name":"Pasar Senen"},{"time":8,"station_id":"GST","i_lat":-6.185975,"distance":1567,"line":11,"is_transit":false,"station_name":"Gang Sentiong","i_long":106.850107,"transit":false},{"transit":false,"station_id":"KMT","time":1,"i_lat":-6.193792,"i_long":106.855437,"distance":973,"is_transit":false,"line":11,"station_name":"Kramat"},{"station_name":"Pondok Jati","time":2,"line":11,"i_lat":-6.209188,"distance":1829,"station_id":"POK","is_transit":false,"i_long":106.861737,"transit":false},{"station_name":"Jatinegara","is_transit":true,"transit":true,"i_long":106.86807400000001,"line":1,"station_id":"JNG","time":9,"i_lat":-6.215091,"distance":1236},{"transit":false,"station_id":"MTR","station_name":"Matraman","time":2,"i_lat":-6.212485,"i_long":106.858896,"line":1,"is_transit":false,"distance":1377},{"transit":false,"i_long":106.84912,"station_id":"MRI","distance":1275,"line":2,"i_lat":-6.209883,"is_transit":false,"station_name":"Manggarai","time":2},{"transit":false,"i_long":106.822649,"line":1,"i_lat":-6.202263,"station_name":"Sudirman","distance":3186,"is_transit":false,"station_id":"SUD","time":4}]]}