{"data":[[{"distance":0,"i_lat":-6.296963,"station_name":"Sudimara","line":6,"station_id":"SDM","time":0,"is_transit":false,"i_long":106.712277,"transit":false},{"station_name":"Jurangmangu","is_transit":false,"station_id":"JMU","distance":1994,"i_lat":-6.288927,"time":4,"transit":false,"i_long":106.728916,"line":6},{"station_name":"Pondokranji","distance":2179,"station_id":"PDJ","time":3,"i_lat":-6.276362,"transit":false,"is_transit":false,"line":6,"i_long":106.74273},{"station_name":"Kebayoran","i_lat":-6.237242,"distance":6218,"line":6,"transit":false,"is_transit":false,"station_id":"KBY","time":8,"i_long":106.780334},{"station_id":"PLM","transit":false,"is_transit":false,"line":6,"i_long":106.79689,"time":7,"i_lat":-6.207404,"distance":3737,"station_name":"Palmerah"},{"i_long":106.811091,"line":1,"station_name":"Tanah Abang","station_id":"THB","transit":true,"is_transit":true,"distance":3191,"i_lat":-6.185545,"time":6},{"station_id":"DU","distance":3632,"station_name":"Duri","i_lat":-6.155215,"transit":true,"is_transit":true,"i_long":106.800832,"time":8,"line":1},{"i_lat":-6.162021,"line":5,"transit":false,"distance":1700,"time":3,"i_long":106.788277,"station_id":"GGL","is_transit":false,"station_name":"Grogol"},{"distance":2036,"time":2,"i_lat":-6.161433,"i_long":106.771379,"transit":false,"line":5,"station_name":"Pesing","station_id":"PSG","is_transit":false},{"is_transit":false,"time":2,"distance":1614,"transit":false,"station_id":"TKO","station_name":"Taman Kota","line":5,"i_lat":-6.1587309999999995,"i_long":106.756522},{"distance":2334,"i_lat":-6.159876,"transit":false,"station_name":"Bojongindah","station_id":"BOI","is_transit":false,"time":2,"i_long":106.737035,"line":5},{"station_name":"Rawa Buaya","distance":1152,"line":5,"is_transit":false,"time":4,"i_lat":-6.162758,"i_long":106.723064,"station_id":"RW","transit":false},{"line":5,"is_transit":false,"time":3,"i_long":106.701612,"station_id":"KDS","transit":false,"i_lat":-6.166068,"station_name":"Kalideres","distance":2504},{"is_transit":false,"i_lat":-6.169933,"i_long":106.679458,"distance":2548,"line":5,"transit":false,"station_name":"Poris","time":3,"station_id":"PI"},{"station_id":"BPR","i_lat":-6.171811,"transit":false,"station_name":"Batuceper","distance":1834,"is_transit":false,"time":3,"i_long":106.665036,"line":5}],[{"distance":0,"line":6,"station_id":"SDM","is_transit":false,"transit":false,"time":0,"i_lat":-6.296963,"i_long":106.712277,"station_name":"Sudimara"},{"transit":false,"line":6,"time":4,"is_transit":false,"i_lat":-6.288927,"station_id":"JMU","i_long":106.728916,"station_name":"Jurangmangu","distance":1994},{"i_long":106.74273,"transit":false,"time":3,"station_name":"Pondokranji","station_id":"PDJ","is_transit":false,"distance":2179,"line":6,"i_lat":-6.276362},{"station_name":"Kebayoran","i_lat":-6.237242,"is_transit":false,"time":8,"station_id":"KBY","transit":false,"distance":6218,"i_long":106.780334,"line":6},{"station_name":"Palmerah","time":7,"station_id":"PLM","transit":false,"is_transit":false,"distance":3737,"i_lat":-6.207404,"i_long":106.79689,"line":6},{"station_name":"Tanah Abang","i_long":106.811091,"i_lat":-6.185545,"is_transit":true,"station_id":"THB","time":6,"transit":true,"distance":3191,"line":1},{"i_lat":-6.20132,"station_id":"KAT","line":1,"distance":2029,"station_name":"Karet","i_long":106.816351,"transit":false,"time":5,"is_transit":false},{"is_transit":false,"station_name":"Sudirman Baru","station_id":"SUDB","transit":false,"time":1,"line":1,"i_long":106.819881,"distance":471,"i_lat":-6.201433},{"distance":280,"station_name":"Sudirman","line":1,"is_transit":false,"time":1,"i_lat":-6.202263,"station_id":"SUD","i_long":106.822649,"transit":false},{"time":4,"i_long":106.84912,"line":2,"transit":true,"station_name":"Manggarai","station_id":"MRI","is_transit":true,"distance":3186,"i_lat":-6.209883},{"station_name":"Cikini","transit":false,"i_long":106.840169,"is_transit":false,"distance":1590,"line":2,"station_id":"CKI","time":4,"i_lat":-6.198556},{"line":2,"distance":1750,"station_name":"Gondangdia","station_id":"GDD","i_lat":-6.186295,"i_long":106.832183,"is_transit":false,"transit":false,"time":3},{"transit":false,"time":4,"distance":2015,"i_lat":-6.166716,"is_transit":false,"station_id":"JUA","i_long":106.828284,"line":2,"station_name":"Juanda"},{"station_id":"SW","is_transit":false,"distance":1149,"i_lat":-6.160725,"line":2,"transit":false,"station_name":"Sawah Besar","time":2,"i_long":106.827103},{"is_transit":false,"transit":false,"station_name":"Manggabesar","distance":906,"i_lat":-6.149769,"i_long":106.82482,"time":2,"line":2,"station_id":"MGB"},{"line":2,"time":2,"i_long":106.820901,"transit":false,"distance":1080,"station_name":"Jayakarta","is_transit":false,"station_id":"JAY","i_lat":-6.141205},{"station_id":"JAKK","line":2,"station_name":"Jakarta Kota","is_transit":true,"time":4,"distance":1264,"i_long":106.812439,"i_lat":-6.137569,"transit":true},{"is_transit":true,"i_lat":-6.132549,"station_name":"Kampung Bandan","time":3,"distance":1364,"station_id":"KPB","i_long":106.826365,"line":4,"transit":true},{"transit":false,"station_name":"Angke","time":9,"distance":4102,"station_id":"AK","i_lat":-6.144674,"line":1,"i_long":106.79867,"is_transit":false},{"i_long":106.800832,"station_id":"DU","time":4,"station_name":"Duri","is_transit":true,"i_lat":-6.155215,"transit":true,"line":1,"distance":1230},{"station_name":"Grogol","line":5,"is_transit":false,"transit":false,"time":3,"station_id":"GGL","distance":1700,"i_long":106.788277,"i_lat":-6.162021},{"is_transit":false,"distance":2036,"line":5,"station_id":"PSG","transit":false,"time":2,"i_lat":-6.161433,"station_name":"Pesing","i_long":106.771379},{"i_long":106.756522,"transit":false,"station_id":"TKO","station_name":"Taman Kota","distance":1614,"i_lat":-6.1587309999999995,"time":2,"line":5,"is_transit":false},{"station_id":"BOI","time":2,"station_name":"Bojongindah","is_transit":false,"line":5,"distance":2334,"i_long":106.737035,"i_lat":-6.159876,"transit":false},{"time":4,"station_id":"RW","line":5,"is_transit":false,"i_long":106.723064,"station_name":"Rawa Buaya","distance":1152,"i_lat":-6.162758,"transit":false},{"line":5,"station_name":"Kalideres","is_transit":false,"station_id":"KDS","i_long":106.701612,"time":3,"transit":false,"distance":2504,"i_lat":-6.166068},{"i_long":106.679458,"line":5,"i_lat":-6.169933,"station_name":"Poris","time":3,"station_id":"PI","is_transit":false,"distance":2548,"transit":false},{"station_id":"BPR","i_lat":-6.171811,"is_transit":false,"transit":false,"station_name":"Batuceper","distance":1834,"line":5,"i_long":106.665036,"time":3}],[{"station_id":"SDM","time":0,"i_lat":-6.296963,"distance":0,"i_long":106.712277,"is_transit":false,"station_name":"Sudimara","line":6,"transit":false},{"station_name":"Jurangmangu","line":6,"distance":1994,"is_transit":false,"time":4,"i_long":106.728916,"station_id":"JMU","transit":false,"i_lat":-6.288927},{"line":6,"is_transit":false,"station_id":"PDJ","station_name":"Pondokranji","distance":2179,"time":3,"i_lat":-6.276362,"i_long":106.74273,"transit":false},{"station_name":"Kebayoran","distance":6218,"i_long":106.780334,"station_id":"KBY","time":8,"line":6,"transit":false,"is_transit":false,"i_lat":-6.237242},{"time":7,"i_long":106.79689,"i_lat":-6.207404,"transit":false,"station_name":"Palmerah","distance":3737,"is_transit":false,"station_id":"PLM","line":6},{"distance":3191,"line":1,"i_lat":-6.185545,"is_transit":true,"time":6,"i_long":106.811091,"station_id":"THB","transit":true,"station_name":"Tanah Abang"},{"i_lat":-6.20132,"station_id":"KAT","line":1,"transit":false,"station_name":"Karet","is_transit":false,"time":5,"distance":2029,"i_long":106.816351},{"distance":471,"i_lat":-6.201433,"i_long":106.819881,"line":1,"station_id":"SUDB","transit":false,"is_transit":false,"station_name":"Sudirman Baru","time":1},{"time":1,"distance":280,"line":1,"i_long":106.822649,"station_name":"Sudirman","is_transit":false,"transit":false,"i_lat":-6.202263,"station_id":"SUD"},{"i_long":106.84912,"time":4,"i_lat":-6.209883,"is_transit":false,"station_name":"Manggarai","transit":false,"station_id":"MRI","distance":3186,"line":2},{"transit":false,"is_transit":false,"distance":1275,"i_long":106.858896,"station_name":"Matraman","station_id":"MTR","line":1,"i_lat":-6.212485,"time":2},{"i_long":106.86807400000001,"transit":true,"line":1,"station_id":"JNG","time":8,"is_transit":true,"i_lat":-6.215091,"distance":1377,"station_name":"Jatinegara"},{"i_lat":-6.209188,"is_transit":false,"i_long":106.861737,"station_name":"Pondok Jati","distance":1236,"transit":false,"station_id":"POK","line":11,"time":2},{"i_lat":-6.193792,"is_transit":false,"line":11,"transit":false,"station_name":"Kramat","time":2,"station_id":"KMT","distance":1829,"i_long":106.855437},{"station_id":"GST","i_lat":-6.185975,"is_transit":false,"station_name":"Gang Sentiong","time":1,"transit":false,"distance":973,"i_long":106.850107,"line":11},{"station_name":"Pasar Senen","is_transit":false,"transit":false,"time":8,"i_long":106.84368,"i_lat":-6.174784,"distance":1567,"station_id":"PSE","line":11},{"is_transit":false,"transit":false,"station_name":"Kemayoran","i_long":106.839204,"time":4,"i_lat":-6.161728,"line":11,"distance":1436,"station_id":"KMO"},{"station_id":"RJW","distance":1901,"line":11,"time":5,"i_lat":-6.14505,"station_name":"Rajawali","is_transit":false,"i_long":106.836569,"transit":false},{"is_transit":true,"i_long":106.826365,"transit":true,"time":3,"station_id":"KPB","station_name":"Kampung Bandan","distance":1444,"line":4,"i_lat":-6.132549},{"is_transit":false,"i_lat":-6.144674,"line":1,"distance":4102,"transit":false,"station_name":"Angke","i_long":106.79867,"time":9,"station_id":"AK"},{"line":1,"is_transit":true,"distance":1230,"station_id":"DU","i_long":106.800832,"station_name":"Duri","i_lat":-6.155215,"time":4,"transit":true},{"i_long":106.788277,"is_transit":false,"i_lat":-6.162021,"line":5,"station_id":"GGL","distance":1700,"station_name":"Grogol","time":3,"transit":false},{"i_long":106.771379,"station_name":"Pesing","i_lat":-6.161433,"transit":false,"station_id":"PSG","distance":2036,"line":5,"time":2,"is_transit":false},{"line":5,"station_name":"Taman Kota","time":2,"i_lat":-6.1587309999999995,"station_id":"TKO","distance":1614,"is_transit":false,"transit":false,"i_long":106.756522},{"distance":2334,"i_long":106.737035,"line":5,"time":2,"transit":false,"station_name":"Bojongindah","is_transit":false,"i_lat":-6.159876,"station_id":"BOI"},{"transit":false,"i_lat":-6.162758,"station_id":"RW","station_name":"Rawa Buaya","i_long":106.723064,"is_transit":false,"time":4,"distance":1152,"line":5},{"distance":2504,"line":5,"station_id":"KDS","transit":false,"station_name":"Kalideres","time":3,"i_long":106.701612,"is_transit":false,"i_lat":-6.166068},{"station_name":"Poris","i_lat":-6.169933,"distance":2548,"i_long":106.679458,"line":5,"time":3,"station_id":"PI","is_transit":false,"transit":false},{"station_id":"BPR","time":3,"distance":1834,"i_lat":-6.171811,"line":5,"is_transit":false,"station_name":"Batuceper","i_long":106.665036,"transit":false}]]}