{"data":[[{"station_name":"Sudimara","i_lat":-6.296963,"distance":0,"time":0,"is_transit":false,"station_id":"SDM","line":6,"transit":false,"i_long":106.712277},{"station_id":"JMU","distance":1994,"time":4,"station_name":"Jurangmangu","i_long":106.728916,"transit":false,"i_lat":-6.288927,"is_transit":false,"line":6},{"i_long":106.74273,"transit":false,"i_lat":-6.276362,"line":6,"distance":2179,"is_transit":false,"station_id":"PDJ","time":3,"station_name":"Pondokranji"},{"station_name":"Kebayoran","i_lat":-6.237242,"time":8,"i_long":106.780334,"distance":6218,"station_id":"KBY","is_transit":false,"transit":false,"line":6},{"station_id":"PLM","station_name":"Palmerah","i_lat":-6.207404,"distance":3737,"line":6,"transit":false,"time":7,"is_transit":false,"i_long":106.79689},{"distance":3191,"station_id":"THB","line":1,"i_long":106.811091,"time":6,"station_name":"Tanah Abang","i_lat":-6.185545,"is_transit":true,"transit":true},{"is_transit":false,"station_id":"KAT","i_long":106.816351,"distance":2029,"line":1,"time":5,"transit":false,"station_name":"Karet","i_lat":-6.20132},{"station_id":"SUDB","station_name":"Sudirman Baru","i_long":106.819881,"i_lat":-6.201433,"distance":471,"is_transit":false,"transit":false,"line":1,"time":1},{"station_name":"Sudirman","time":1,"i_lat":-6.202263,"station_id":"SUD","is_transit":false,"i_long":106.822649,"line":1,"transit":false,"distance":280}],[{"distance":0,"time":0,"is_transit":false,"station_id":"SDM","transit":false,"station_name":"Sudimara","i_long":106.712277,"line":6,"i_lat":-6.296963},{"transit":false,"is_transit":false,"i_long":106.728916,"station_name":"Jurangmangu","distance":1994,"station_id":"JMU","line":6,"time":4,"i_lat":-6.288927},{"line":6,"station_id":"PDJ","distance":2179,"time":3,"is_transit":false,"station_name":"Pondokranji","transit":false,"i_long":106.74273,"i_lat":-6.276362},{"transit":false,"station_name":"Kebayoran","i_long":106.780334,"is_transit":false,"line":6,"i_lat":-6.237242,"time":8,"distance":6218,"station_id":"KBY"},{"station_name":"Palmerah","i_long":106.79689,"is_transit":false,"time":7,"i_lat":-6.207404,"transit":false,"line":6,"distance":3737,"station_id":"PLM"},{"station_name":"Tanah Abang","line":1,"i_long":106.811091,"station_id":"THB","is_transit":true,"distance":3191,"i_lat":-6.185545,"time":6,"transit":true},{"i_lat":-6.155215,"station_id":"DU","line":1,"i_long":106.800832,"distance":3632,"transit":false,"station_name":"Duri","time":8,"is_transit":false},{"time":4,"distance":1230,"is_transit":false,"line":1,"transit":false,"station_id":"AK","i_lat":-6.144674,"i_long":106.79867,"station_name":"Angke"},{"is_transit":true,"transit":true,"distance":4102,"station_name":"Kampung Bandan","time":9,"i_lat":-6.132549,"i_long":106.826365,"line":4,"station_id":"KPB"},{"station_name":"Jakarta Kota","time":3,"i_long":106.812439,"transit":true,"station_id":"JAKK","i_lat":-6.137569,"line":2,"distance":1364,"is_transit":true},{"i_long":106.820901,"is_transit":false,"time":4,"distance":1264,"station_id":"JAY","transit":false,"i_lat":-6.141205,"line":2,"station_name":"Jayakarta"},{"station_name":"Manggabesar","station_id":"MGB","is_transit":false,"transit":false,"time":2,"distance":1080,"i_lat":-6.149769,"i_long":106.82482,"line":2},{"i_lat":-6.160725,"line":2,"station_name":"Sawah Besar","distance":906,"is_transit":false,"i_long":106.827103,"station_id":"SW","transit":false,"time":2},{"station_id":"JUA","transit":false,"i_long":106.828284,"is_transit":false,"station_name":"Juanda","time":2,"i_lat":-6.166716,"line":2,"distance":1149},{"time":4,"is_transit":false,"transit":false,"station_name":"Gondangdia","i_lat":-6.186295,"i_long":106.832183,"distance":2015,"line":2,"station_id":"GDD"},{"i_long":106.840169,"i_lat":-6.198556,"station_id":"CKI","is_transit":false,"station_name":"Cikini","transit":false,"time":3,"line":2,"distance":1750},{"is_transit":true,"distance":1590,"station_id":"MRI","time":4,"transit":true,"station_name":"Manggarai","i_lat":-6.209883,"i_long":106.84912,"line":2},{"station_name":"Sudirman","transit":false,"station_id":"SUD","i_lat":-6.202263,"is_transit":false,"i_long":106.822649,"line":1,"distance":3186,"time":4}],[{"is_transit":false,"transit":false,"distance":0,"station_name":"Sudimara","line":6,"i_long":106.712277,"station_id":"SDM","time":0,"i_lat":-6.296963},{"i_lat":-6.288927,"transit":false,"time":4,"is_transit":false,"i_long":106.728916,"station_name":"Jurangmangu","distance":1994,"line":6,"station_id":"JMU"},{"transit":false,"i_long":106.74273,"station_id":"PDJ","i_lat":-6.276362,"line":6,"distance":2179,"time":3,"is_transit":false,"station_name":"Pondokranji"},{"station_id":"KBY","i_lat":-6.237242,"station_name":"Kebayoran","line":6,"distance":6218,"i_long":106.780334,"time":8,"transit":false,"is_transit":false},{"i_long":106.79689,"distance":3737,"line":6,"i_lat":-6.207404,"is_transit":false,"transit":false,"station_id":"PLM","station_name":"Palmerah","time":7},{"line":1,"station_id":"THB","i_lat":-6.185545,"i_long":106.811091,"transit":true,"distance":3191,"station_name":"Tanah Abang","time":6,"is_transit":true},{"distance":3632,"time":8,"transit":false,"station_name":"Duri","i_lat":-6.155215,"is_transit":false,"station_id":"DU","i_long":106.800832,"line":1},{"distance":1230,"station_id":"AK","is_transit":false,"time":4,"transit":false,"station_name":"Angke","i_long":106.79867,"i_lat":-6.144674,"line":1},{"station_id":"KPB","distance":4102,"transit":true,"i_long":106.826365,"line":4,"i_lat":-6.132549,"station_name":"Kampung Bandan","is_transit":true,"time":9},{"line":11,"time":3,"i_long":106.836569,"distance":1444,"transit":false,"station_name":"Rajawali","station_id":"RJW","i_lat":-6.14505,"is_transit":false},{"i_lat":-6.161728,"is_transit":false,"distance":1901,"station_id":"KMO","station_name":"Kemayoran","transit":false,"line":11,"time":5,"i_long":106.839204},{"i_lat":-6.174784,"i_long":106.84368,"station_id":"PSE","station_name":"Pasar Senen","distance":1436,"transit":false,"time":4,"line":11,"is_transit":false},{"transit":false,"i_lat":-6.185975,"i_long":106.850107,"line":11,"station_name":"Gang Sentiong","station_id":"GST","time":8,"distance":1567,"is_transit":false},{"i_lat":-6.193792,"station_name":"Kramat","transit":false,"is_transit":false,"time":1,"i_long":106.855437,"line":11,"distance":973,"station_id":"KMT"},{"transit":false,"i_long":106.861737,"is_transit":false,"station_id":"POK","time":2,"distance":1829,"i_lat":-6.209188,"station_name":"Pondok Jati","line":11},{"is_transit":true,"line":1,"time":9,"i_long":106.86807400000001,"distance":1236,"i_lat":-6.215091,"station_id":"JNG","station_name":"Jatinegara","transit":true},{"distance":1377,"time":2,"line":1,"station_id":"MTR","i_long":106.858896,"i_lat":-6.212485,"transit":false,"is_transit":false,"station_name":"Matraman"},{"i_lat":-6.209883,"distance":1275,"i_long":106.84912,"station_id":"MRI","is_transit":false,"line":2,"time":2,"transit":false,"station_name":"Manggarai"},{"line":1,"transit":false,"i_long":106.822649,"distance":3186,"is_transit":false,"station_name":"Sudirman","time":4,"i_lat":-6.202263,"station_id":"SUD"}]]}