{"data":[[{"i_lat":-6.296963,"is_transit":false,"line":6,"distance":0,"station_id":"SDM","time":0,"i_long":106.712277,"transit":false,"station_name":"Sudimara"},{"time":4,"station_name":"Jurangmangu","station_id":"JMU","transit":false,"i_lat":-6.288927,"distance":1994,"line":6,"is_transit":false,"i_long":106.728916},{"line":6,"is_transit":false,"station_id":"PDJ","distance":2179,"i_lat":-6.276362,"station_name":"Pondokranji","i_long":106.74273,"time":3,"transit":false},{"station_id":"KBY","time":8,"transit":false,"is_transit":false,"station_name":"Kebayoran","i_lat":-6.237242,"distance":6218,"i_long":106.780334,"line":6},{"transit":false,"station_name":"Palmerah","station_id":"PLM","is_transit":false,"distance":3737,"time":7,"i_lat":-6.207404,"i_long":106.79689,"line":6},{"transit":true,"is_transit":true,"station_id":"THB","station_name":"Tanah Abang","i_lat":-6.185545,"time":6,"line":1,"distance":3191,"i_long":106.811091},{"i_lat":-6.20132,"i_long":106.816351,"distance":2029,"station_id":"KAT","line":1,"transit":false,"is_transit":false,"station_name":"Karet","time":5},{"transit":false,"station_id":"SUDB","station_name":"Sudirman Baru","i_lat":-6.201433,"time":1,"distance":471,"i_long":106.819881,"is_transit":false,"line":1},{"station_id":"SUD","line":1,"i_long":106.822649,"distance":280,"i_lat":-6.202263,"station_name":"Sudirman","transit":false,"is_transit":false,"time":1},{"time":4,"is_transit":true,"station_name":"Manggarai","i_long":106.84912,"station_id":"MRI","line":2,"transit":true,"i_lat":-6.209883,"distance":3186},{"is_transit":false,"time":4,"i_long":106.857948,"line":2,"station_id":"TEB","station_name":"Tebet","transit":false,"i_lat":-6.226659,"distance":2610},{"distance":1230,"station_name":"Cawang","i_lat":-6.242512,"line":2,"station_id":"CW","i_long":106.856607,"time":2,"transit":false,"is_transit":false},{"station_name":"Duren Kalibata","i_lat":-6.255332,"time":3,"i_long":106.85449,"station_id":"DRN","line":2,"transit":false,"distance":1546,"is_transit":false},{"is_transit":false,"station_id":"PSMB","line":2,"time":2,"transit":false,"i_lat":-6.263214,"station_name":"Pasar Minggu Baru","i_long":106.851577,"distance":824},{"i_lat":-6.2842400000000005,"station_id":"PSM","time":2,"transit":false,"station_name":"Pasar Minggu","line":2,"i_long":106.843999,"distance":2380,"is_transit":false},{"i_lat":-6.3080680000000005,"i_long":106.838896,"line":2,"is_transit":false,"station_id":"TNT","station_name":"Tanjung Barat","distance":2820,"time":4,"transit":false},{"station_id":"LNA","distance":2671,"time":3,"transit":false,"i_lat":-6.330363,"is_transit":false,"station_name":"Lenteng Agung","i_long":106.832616,"line":2},{"station_id":"UP","i_lat":-6.339291,"distance":1029,"time":2,"station_name":"Univ. Pancasila","is_transit":false,"transit":false,"i_long":106.834175,"line":2},{"station_id":"UI","is_transit":false,"time":3,"i_lat":-6.360749,"i_long":106.831474,"distance":2264,"station_name":"Univ. Indonesia","line":2,"transit":false},{"station_name":"Pondok Cina","i_lat":-6.369073,"is_transit":false,"transit":false,"distance":1109,"time":2,"station_id":"POC","i_long":106.831114,"line":2},{"time":4,"i_long":106.819451,"station_name":"Depokbaru","station_id":"DPB","is_transit":false,"transit":false,"line":2,"distance":2727,"i_lat":-6.391065},{"station_name":"Depok","transit":false,"i_lat":-6.405256,"i_long":106.816926,"is_transit":false,"time":3,"line":2,"station_id":"DP","distance":1584},{"time":6,"line":2,"transit":true,"is_transit":true,"station_id":"CTA","distance":5084,"station_name":"Citayam","i_lat":-6.448811,"i_long":106.800298},{"distance":0,"is_transit":false,"line":21,"time":0,"station_id":"PDRG","i_long":106.824374,"transit":false,"station_name":"Pondok Rajeg","i_lat":-6.460735},{"i_long":106.851978,"station_id":"CBN","distance":0,"is_transit":false,"i_lat":-6.46424,"line":21,"station_name":"Cibinong","time":0,"transit":false},{"is_transit":false,"distance":6527,"transit":false,"time":10,"station_name":"Nambo","station_id":"NMO","i_lat":-6.466285,"line":21,"i_long":106.905196}],[{"line":6,"i_long":106.712277,"transit":false,"i_lat":-6.296963,"station_name":"Sudimara","station_id":"SDM","time":0,"distance":0,"is_transit":false},{"i_long":106.728916,"line":6,"distance":1994,"station_name":"Jurangmangu","station_id":"JMU","i_lat":-6.288927,"time":4,"transit":false,"is_transit":false},{"transit":false,"station_id":"PDJ","is_transit":false,"i_long":106.74273,"time":3,"station_name":"Pondokranji","distance":2179,"i_lat":-6.276362,"line":6},{"i_long":106.780334,"distance":6218,"transit":false,"line":6,"time":8,"station_name":"Kebayoran","i_lat":-6.237242,"is_transit":false,"station_id":"KBY"},{"time":7,"i_long":106.79689,"i_lat":-6.207404,"station_id":"PLM","is_transit":false,"line":6,"transit":false,"distance":3737,"station_name":"Palmerah"},{"i_long":106.811091,"transit":true,"is_transit":true,"i_lat":-6.185545,"time":6,"distance":3191,"station_id":"THB","line":1,"station_name":"Tanah Abang"},{"i_lat":-6.155215,"time":8,"station_name":"Duri","i_long":106.800832,"is_transit":false,"line":1,"distance":3632,"transit":false,"station_id":"DU"},{"station_id":"AK","time":4,"is_transit":false,"station_name":"Angke","transit":false,"distance":1230,"line":1,"i_lat":-6.144674,"i_long":106.79867},{"i_long":106.826365,"is_transit":true,"time":9,"station_name":"Kampung Bandan","transit":true,"i_lat":-6.132549,"line":4,"distance":4102,"station_id":"KPB"},{"station_id":"JAKK","i_lat":-6.137569,"i_long":106.812439,"station_name":"Jakarta Kota","transit":true,"line":2,"distance":1364,"time":3,"is_transit":true},{"line":2,"station_id":"JAY","i_lat":-6.141205,"distance":1264,"station_name":"Jayakarta","time":4,"is_transit":false,"transit":false,"i_long":106.820901},{"i_long":106.82482,"distance":1080,"transit":false,"i_lat":-6.149769,"is_transit":false,"time":2,"station_id":"MGB","station_name":"Manggabesar","line":2},{"station_name":"Sawah Besar","station_id":"SW","is_transit":false,"transit":false,"i_lat":-6.160725,"i_long":106.827103,"distance":906,"time":2,"line":2},{"i_long":106.828284,"station_name":"Juanda","line":2,"distance":1149,"transit":false,"is_transit":false,"station_id":"JUA","i_lat":-6.166716,"time":2},{"distance":2015,"is_transit":false,"transit":false,"station_id":"GDD","line":2,"i_lat":-6.186295,"i_long":106.832183,"station_name":"Gondangdia","time":4},{"i_lat":-6.198556,"station_id":"CKI","transit":false,"distance":1750,"line":2,"time":3,"i_long":106.840169,"station_name":"Cikini","is_transit":false},{"distance":1590,"station_name":"Manggarai","station_id":"MRI","i_lat":-6.209883,"transit":false,"time":4,"i_long":106.84912,"line":2,"is_transit":false},{"distance":2610,"is_transit":false,"i_long":106.857948,"time":4,"station_id":"TEB","station_name":"Tebet","i_lat":-6.226659,"transit":false,"line":2},{"time":2,"transit":false,"i_lat":-6.242512,"i_long":106.856607,"distance":1230,"line":2,"station_name":"Cawang","is_transit":false,"station_id":"CW"},{"i_lat":-6.255332,"transit":false,"is_transit":false,"line":2,"i_long":106.85449,"time":3,"station_name":"Duren Kalibata","station_id":"DRN","distance":1546},{"time":2,"distance":824,"line":2,"i_long":106.851577,"i_lat":-6.263214,"station_id":"PSMB","station_name":"Pasar Minggu Baru","transit":false,"is_transit":false},{"i_lat":-6.2842400000000005,"station_id":"PSM","distance":2380,"is_transit":false,"station_name":"Pasar Minggu","time":2,"i_long":106.843999,"transit":false,"line":2},{"i_lat":-6.3080680000000005,"transit":false,"i_long":106.838896,"is_transit":false,"distance":2820,"line":2,"station_id":"TNT","time":4,"station_name":"Tanjung Barat"},{"station_id":"LNA","transit":false,"i_long":106.832616,"line":2,"time":3,"is_transit":false,"station_name":"Lenteng Agung","distance":2671,"i_lat":-6.330363},{"station_name":"Univ. Pancasila","is_transit":false,"i_lat":-6.339291,"i_long":106.834175,"transit":false,"time":2,"station_id":"UP","line":2,"distance":1029},{"distance":2264,"station_name":"Univ. Indonesia","is_transit":false,"station_id":"UI","transit":false,"i_long":106.831474,"i_lat":-6.360749,"line":2,"time":3},{"distance":1109,"time":2,"station_name":"Pondok Cina","i_lat":-6.369073,"is_transit":false,"i_long":106.831114,"line":2,"station_id":"POC","transit":false},{"i_long":106.819451,"distance":2727,"is_transit":false,"transit":false,"line":2,"time":4,"station_name":"Depokbaru","station_id":"DPB","i_lat":-6.391065},{"is_transit":false,"i_long":106.816926,"distance":1584,"line":2,"station_id":"DP","station_name":"Depok","i_lat":-6.405256,"time":3,"transit":false},{"station_name":"Citayam","i_lat":-6.448811,"time":6,"station_id":"CTA","is_transit":true,"line":2,"i_long":106.800298,"distance":5084,"transit":true},{"is_transit":false,"station_name":"Pondok Rajeg","line":21,"station_id":"PDRG","distance":0,"time":0,"i_long":106.824374,"transit":false,"i_lat":-6.460735},{"distance":0,"station_name":"Cibinong","i_lat":-6.46424,"time":0,"line":21,"station_id":"CBN","i_long":106.851978,"is_transit":false,"transit":false},{"station_id":"NMO","is_transit":false,"i_long":106.905196,"line":21,"time":10,"transit":false,"distance":6527,"station_name":"Nambo","i_lat":-6.466285}],[{"time":0,"line":6,"station_id":"SDM","station_name":"Sudimara","transit":false,"i_long":106.712277,"distance":0,"is_transit":false,"i_lat":-6.296963},{"line":6,"transit":false,"is_transit":false,"station_name":"Jurangmangu","time":4,"station_id":"JMU","distance":1994,"i_lat":-6.288927,"i_long":106.728916},{"transit":false,"i_long":106.74273,"station_name":"Pondokranji","line":6,"distance":2179,"i_lat":-6.276362,"time":3,"station_id":"PDJ","is_transit":false},{"transit":false,"time":8,"station_name":"Kebayoran","distance":6218,"station_id":"KBY","i_lat":-6.237242,"is_transit":false,"i_long":106.780334,"line":6},{"distance":3737,"i_long":106.79689,"i_lat":-6.207404,"station_id":"PLM","is_transit":false,"line":6,"time":7,"transit":false,"station_name":"Palmerah"},{"i_long":106.811091,"time":6,"distance":3191,"station_name":"Tanah Abang","is_transit":true,"transit":true,"line":1,"i_lat":-6.185545,"station_id":"THB"},{"station_id":"DU","is_transit":false,"transit":false,"distance":3632,"i_long":106.800832,"station_name":"Duri","time":8,"i_lat":-6.155215,"line":1},{"transit":false,"line":1,"is_transit":false,"i_lat":-6.144674,"i_long":106.79867,"distance":1230,"time":4,"station_id":"AK","station_name":"Angke"},{"is_transit":true,"time":9,"distance":4102,"station_id":"KPB","transit":true,"line":4,"station_name":"Kampung Bandan","i_lat":-6.132549,"i_long":106.826365},{"station_name":"Rajawali","i_lat":-6.14505,"i_long":106.836569,"line":11,"is_transit":false,"time":3,"station_id":"RJW","distance":1444,"transit":false},{"transit":false,"i_lat":-6.161728,"station_name":"Kemayoran","distance":1901,"i_long":106.839204,"time":5,"is_transit":false,"line":11,"station_id":"KMO"},{"i_lat":-6.174784,"station_id":"PSE","is_transit":false,"transit":false,"i_long":106.84368,"line":11,"time":4,"station_name":"Pasar Senen","distance":1436},{"line":11,"station_id":"GST","time":8,"is_transit":false,"transit":false,"i_lat":-6.185975,"station_name":"Gang Sentiong","i_long":106.850107,"distance":1567},{"time":1,"station_id":"KMT","distance":973,"i_long":106.855437,"i_lat":-6.193792,"line":11,"station_name":"Kramat","is_transit":false,"transit":false},{"station_id":"POK","i_long":106.861737,"is_transit":false,"line":11,"i_lat":-6.209188,"transit":false,"distance":1829,"station_name":"Pondok Jati","time":2},{"i_lat":-6.215091,"transit":true,"line":1,"distance":1236,"time":9,"station_id":"JNG","is_transit":true,"i_long":106.86807400000001,"station_name":"Jatinegara"},{"time":2,"distance":1377,"i_lat":-6.212485,"i_long":106.858896,"station_name":"Matraman","station_id":"MTR","line":1,"is_transit":false,"transit":false},{"line":2,"station_name":"Manggarai","transit":true,"station_id":"MRI","i_lat":-6.209883,"distance":1275,"i_long":106.84912,"time":2,"is_transit":true},{"station_id":"TEB","station_name":"Tebet","i_lat":-6.226659,"line":2,"is_transit":false,"distance":2610,"time":4,"transit":false,"i_long":106.857948},{"is_transit":false,"station_name":"Cawang","station_id":"CW","i_lat":-6.242512,"line":2,"distance":1230,"time":2,"i_long":106.856607,"transit":false},{"i_lat":-6.255332,"time":3,"station_name":"Duren Kalibata","distance":1546,"station_id":"DRN","is_transit":false,"line":2,"transit":false,"i_long":106.85449},{"i_lat":-6.263214,"i_long":106.851577,"transit":false,"time":2,"station_name":"Pasar Minggu Baru","line":2,"station_id":"PSMB","distance":824,"is_transit":false},{"time":2,"distance":2380,"i_lat":-6.2842400000000005,"station_id":"PSM","transit":false,"line":2,"station_name":"Pasar Minggu","is_transit":false,"i_long":106.843999},{"station_id":"TNT","is_transit":false,"transit":false,"i_lat":-6.3080680000000005,"station_name":"Tanjung Barat","time":4,"i_long":106.838896,"line":2,"distance":2820},{"line":2,"distance":2671,"transit":false,"i_long":106.832616,"is_transit":false,"i_lat":-6.330363,"time":3,"station_name":"Lenteng Agung","station_id":"LNA"},{"station_id":"UP","station_name":"Univ. Pancasila","is_transit":false,"transit":false,"i_long":106.834175,"time":2,"i_lat":-6.339291,"line":2,"distance":1029},{"i_long":106.831474,"line":2,"time":3,"distance":2264,"station_id":"UI","is_transit":false,"transit":false,"i_lat":-6.360749,"station_name":"Univ. Indonesia"},{"line":2,"i_long":106.831114,"station_id":"POC","i_lat":-6.369073,"station_name":"Pondok Cina","distance":1109,"transit":false,"time":2,"is_transit":false},{"transit":false,"distance":2727,"time":4,"is_transit":false,"line":2,"station_name":"Depokbaru","i_long":106.819451,"station_id":"DPB","i_lat":-6.391065},{"transit":false,"i_long":106.816926,"time":3,"station_id":"DP","i_lat":-6.405256,"distance":1584,"station_name":"Depok","line":2,"is_transit":false},{"transit":true,"i_lat":-6.448811,"i_long":106.800298,"time":6,"station_id":"CTA","line":2,"distance":5084,"station_name":"Citayam","is_transit":true},{"i_lat":-6.460735,"is_transit":false,"time":0,"i_long":106.824374,"station_name":"Pondok Rajeg","transit":false,"distance":0,"line":21,"station_id":"PDRG"},{"i_lat":-6.46424,"i_long":106.851978,"transit":false,"station_name":"Cibinong","line":21,"time":0,"station_id":"CBN","distance":0,"is_transit":false},{"station_name":"Nambo","i_lat":-6.466285,"is_transit":false,"line":21,"station_id":"NMO","distance":6527,"time":10,"transit":false,"i_long":106.905196}]]}