{"data":[[{"i_long":106.712277,"station_id":"SDM","station_name":"Sudimara","time":0,"i_lat":-6.296963,"transit":false,"is_transit":false,"distance":0,"line":6},{"i_lat":-6.288927,"transit":false,"is_transit":false,"time":4,"station_name":"Jurangmangu","distance":1994,"i_long":106.728916,"station_id":"JMU","line":6},{"station_name":"Pondokranji","station_id":"PDJ","is_transit":false,"time":3,"i_lat":-6.276362,"i_long":106.74273,"line":6,"distance":2179,"transit":false},{"station_id":"KBY","i_lat":-6.237242,"distance":6218,"line":6,"is_transit":false,"time":8,"i_long":106.780334,"transit":false,"station_name":"Kebayoran"},{"station_name":"Palmerah","distance":3737,"time":7,"i_long":106.79689,"line":6,"station_id":"PLM","i_lat":-6.207404,"transit":false,"is_transit":false},{"is_transit":true,"i_long":106.811091,"station_id":"THB","distance":3191,"time":6,"transit":true,"station_name":"Tanah Abang","i_lat":-6.185545,"line":1},{"station_id":"KAT","transit":false,"distance":2029,"line":1,"i_lat":-6.20132,"station_name":"Karet","is_transit":false,"time":5,"i_long":106.816351},{"is_transit":false,"distance":471,"i_lat":-6.201433,"time":1,"line":1,"transit":false,"station_name":"Sudirman Baru","i_long":106.819881,"station_id":"SUDB"},{"transit":false,"i_lat":-6.202263,"station_id":"SUD","time":1,"is_transit":false,"i_long":106.822649,"station_name":"Sudirman","distance":280,"line":1},{"transit":false,"station_id":"MRI","distance":3186,"station_name":"Manggarai","is_transit":false,"time":4,"i_long":106.84912,"i_lat":-6.209883,"line":2},{"station_id":"MTR","is_transit":false,"i_lat":-6.212485,"transit":false,"i_long":106.858896,"time":2,"station_name":"Matraman","line":1,"distance":1275},{"transit":false,"i_lat":-6.215091,"station_name":"Jatinegara","distance":1377,"i_long":106.86807400000001,"is_transit":false,"station_id":"JNG","line":1,"time":8},{"station_id":"KLD","i_lat":-6.2135,"station_name":"Klender","distance":3395,"line":1,"is_transit":false,"transit":false,"time":3,"i_long":106.899548},{"distance":3100,"i_long":106.922662,"line":1,"station_name":"Buaran","is_transit":false,"i_lat":-6.215568,"time":2,"station_id":"BUA","transit":false},{"station_id":"KLDB","time":1,"i_long":106.939679,"i_lat":-6.217455,"line":1,"transit":false,"station_name":"Klenderbaru","is_transit":false,"distance":1305}],[{"station_name":"Sudimara","i_long":106.712277,"station_id":"SDM","time":0,"i_lat":-6.296963,"is_transit":false,"transit":false,"line":6,"distance":0},{"distance":1994,"transit":false,"station_id":"JMU","time":4,"i_lat":-6.288927,"is_transit":false,"i_long":106.728916,"station_name":"Jurangmangu","line":6},{"time":3,"i_long":106.74273,"is_transit":false,"i_lat":-6.276362,"distance":2179,"station_id":"PDJ","transit":false,"station_name":"Pondokranji","line":6},{"distance":6218,"time":8,"station_name":"Kebayoran","transit":false,"i_long":106.780334,"i_lat":-6.237242,"station_id":"KBY","is_transit":false,"line":6},{"transit":false,"i_long":106.79689,"time":7,"line":6,"station_id":"PLM","station_name":"Palmerah","distance":3737,"is_transit":false,"i_lat":-6.207404},{"transit":true,"distance":3191,"is_transit":true,"i_long":106.811091,"station_id":"THB","i_lat":-6.185545,"station_name":"Tanah Abang","line":1,"time":6},{"transit":false,"time":8,"line":1,"station_id":"DU","is_transit":false,"i_lat":-6.155215,"distance":3632,"station_name":"Duri","i_long":106.800832},{"is_transit":false,"station_id":"AK","distance":1230,"i_lat":-6.144674,"station_name":"Angke","line":1,"time":4,"transit":false,"i_long":106.79867},{"distance":4102,"station_id":"KPB","station_name":"Kampung Bandan","time":9,"transit":true,"i_lat":-6.132549,"is_transit":true,"i_long":106.826365,"line":4},{"time":3,"i_lat":-6.14505,"transit":false,"station_id":"RJW","station_name":"Rajawali","i_long":106.836569,"is_transit":false,"distance":1444,"line":11},{"i_long":106.839204,"is_transit":false,"line":11,"time":5,"i_lat":-6.161728,"distance":1901,"station_name":"Kemayoran","transit":false,"station_id":"KMO"},{"i_lat":-6.174784,"transit":false,"station_name":"Pasar Senen","distance":1436,"line":11,"is_transit":false,"station_id":"PSE","i_long":106.84368,"time":4},{"i_lat":-6.185975,"station_id":"GST","is_transit":false,"i_long":106.850107,"time":8,"distance":1567,"line":11,"transit":false,"station_name":"Gang Sentiong"},{"is_transit":false,"distance":973,"station_name":"Kramat","time":1,"transit":false,"line":11,"i_long":106.855437,"i_lat":-6.193792,"station_id":"KMT"},{"time":2,"i_long":106.861737,"transit":false,"line":11,"is_transit":false,"distance":1829,"station_name":"Pondok Jati","station_id":"POK","i_lat":-6.209188},{"transit":true,"station_name":"Jatinegara","i_long":106.86807400000001,"time":9,"i_lat":-6.215091,"distance":1236,"line":1,"station_id":"JNG","is_transit":true},{"line":1,"transit":false,"is_transit":false,"station_id":"KLD","i_lat":-6.2135,"i_long":106.899548,"station_name":"Klender","distance":3395,"time":3},{"line":1,"station_name":"Buaran","time":2,"distance":3100,"is_transit":false,"transit":false,"i_long":106.922662,"station_id":"BUA","i_lat":-6.215568},{"time":1,"transit":false,"i_long":106.939679,"i_lat":-6.217455,"distance":1305,"is_transit":false,"station_id":"KLDB","station_name":"Klenderbaru","line":1}],[{"station_name":"Sudimara","i_lat":-6.296963,"is_transit":false,"time":0,"distance":0,"station_id":"SDM","line":6,"transit":false,"i_long":106.712277},{"station_name":"Jurangmangu","is_transit":false,"i_long":106.728916,"time":4,"i_lat":-6.288927,"line":6,"distance":1994,"station_id":"JMU","transit":false},{"is_transit":false,"transit":false,"station_id":"PDJ","i_long":106.74273,"time":3,"distance":2179,"i_lat":-6.276362,"line":6,"station_name":"Pondokranji"},{"is_transit":false,"station_id":"KBY","line":6,"distance":6218,"time":8,"station_name":"Kebayoran","transit":false,"i_long":106.780334,"i_lat":-6.237242},{"station_id":"PLM","line":6,"station_name":"Palmerah","transit":false,"time":7,"i_lat":-6.207404,"is_transit":false,"i_long":106.79689,"distance":3737},{"station_name":"Tanah Abang","station_id":"THB","i_lat":-6.185545,"transit":true,"i_long":106.811091,"time":6,"distance":3191,"is_transit":true,"line":1},{"station_id":"DU","distance":3632,"transit":false,"i_long":106.800832,"i_lat":-6.155215,"station_name":"Duri","line":1,"is_transit":false,"time":8},{"is_transit":false,"distance":1230,"station_id":"AK","station_name":"Angke","i_lat":-6.144674,"i_long":106.79867,"time":4,"transit":false,"line":1},{"i_long":106.826365,"distance":4102,"transit":true,"i_lat":-6.132549,"station_id":"KPB","time":9,"station_name":"Kampung Bandan","line":4,"is_transit":true},{"station_id":"JAKK","distance":1364,"i_long":106.812439,"station_name":"Jakarta Kota","is_transit":true,"time":3,"transit":true,"i_lat":-6.137569,"line":2},{"station_id":"JAY","is_transit":false,"distance":1264,"line":2,"transit":false,"i_long":106.820901,"time":4,"i_lat":-6.141205,"station_name":"Jayakarta"},{"time":2,"distance":1080,"i_long":106.82482,"is_transit":false,"station_name":"Manggabesar","line":2,"station_id":"MGB","transit":false,"i_lat":-6.149769},{"line":2,"time":2,"transit":false,"i_long":106.827103,"is_transit":false,"i_lat":-6.160725,"station_id":"SW","station_name":"Sawah Besar","distance":906},{"distance":1149,"station_id":"JUA","transit":false,"i_lat":-6.166716,"time":2,"i_long":106.828284,"station_name":"Juanda","is_transit":false,"line":2},{"station_id":"GDD","i_long":106.832183,"line":2,"distance":2015,"is_transit":false,"time":4,"transit":false,"station_name":"Gondangdia","i_lat":-6.186295},{"is_transit":false,"distance":1750,"transit":false,"i_long":106.840169,"line":2,"station_name":"Cikini","station_id":"CKI","time":3,"i_lat":-6.198556},{"time":4,"distance":1590,"line":2,"transit":true,"station_id":"MRI","station_name":"Manggarai","is_transit":true,"i_lat":-6.209883,"i_long":106.84912},{"station_id":"MTR","station_name":"Matraman","i_lat":-6.212485,"line":1,"i_long":106.858896,"is_transit":false,"distance":1275,"time":2,"transit":false},{"is_transit":false,"distance":1377,"transit":false,"station_id":"JNG","time":8,"i_lat":-6.215091,"line":1,"i_long":106.86807400000001,"station_name":"Jatinegara"},{"is_transit":false,"i_long":106.899548,"time":3,"station_name":"Klender","line":1,"transit":false,"distance":3395,"station_id":"KLD","i_lat":-6.2135},{"i_lat":-6.215568,"station_id":"BUA","time":2,"transit":false,"is_transit":false,"distance":3100,"station_name":"Buaran","i_long":106.922662,"line":1},{"i_long":106.939679,"transit":false,"distance":1305,"is_transit":false,"time":1,"station_name":"Klenderbaru","station_id":"KLDB","i_lat":-6.217455,"line":1}],[{"transit":false,"is_transit":false,"station_name":"Sudimara","distance":0,"time":0,"i_lat":-6.296963,"station_id":"SDM","i_long":106.712277,"line":6},{"i_lat":-6.288927,"transit":false,"is_transit":false,"i_long":106.728916,"line":6,"station_name":"Jurangmangu","distance":1994,"time":4,"station_id":"JMU"},{"i_long":106.74273,"line":6,"station_id":"PDJ","station_name":"Pondokranji","transit":false,"i_lat":-6.276362,"distance":2179,"time":3,"is_transit":false},{"station_id":"KBY","i_lat":-6.237242,"line":6,"transit":false,"i_long":106.780334,"is_transit":false,"time":8,"station_name":"Kebayoran","distance":6218},{"is_transit":false,"station_id":"PLM","transit":false,"i_long":106.79689,"line":6,"distance":3737,"time":7,"i_lat":-6.207404,"station_name":"Palmerah"},{"station_name":"Tanah Abang","is_transit":true,"distance":3191,"i_lat":-6.185545,"line":1,"station_id":"THB","transit":true,"time":6,"i_long":106.811091},{"station_id":"KAT","time":5,"distance":2029,"i_long":106.816351,"line":1,"i_lat":-6.20132,"is_transit":false,"station_name":"Karet","transit":false},{"time":1,"station_name":"Sudirman Baru","station_id":"SUDB","i_long":106.819881,"line":1,"distance":471,"i_lat":-6.201433,"is_transit":false,"transit":false},{"i_long":106.822649,"transit":false,"time":1,"station_name":"Sudirman","distance":280,"i_lat":-6.202263,"station_id":"SUD","is_transit":false,"line":1},{"transit":true,"station_name":"Manggarai","is_transit":true,"station_id":"MRI","time":4,"distance":3186,"i_lat":-6.209883,"i_long":106.84912,"line":2},{"i_lat":-6.198556,"time":4,"distance":1590,"station_id":"CKI","station_name":"Cikini","transit":false,"i_long":106.840169,"is_transit":false,"line":2},{"station_id":"GDD","is_transit":false,"time":3,"transit":false,"i_long":106.832183,"line":2,"distance":1750,"station_name":"Gondangdia","i_lat":-6.186295},{"i_long":106.828284,"line":2,"is_transit":false,"distance":2015,"transit":false,"station_id":"JUA","station_name":"Juanda","i_lat":-6.166716,"time":4},{"time":2,"station_name":"Sawah Besar","transit":false,"distance":1149,"is_transit":false,"line":2,"station_id":"SW","i_lat":-6.160725,"i_long":106.827103},{"transit":false,"i_lat":-6.149769,"station_name":"Manggabesar","distance":906,"line":2,"is_transit":false,"station_id":"MGB","time":2,"i_long":106.82482},{"distance":1080,"time":2,"station_id":"JAY","i_lat":-6.141205,"is_transit":false,"station_name":"Jayakarta","i_long":106.820901,"line":2,"transit":false},{"is_transit":true,"station_id":"JAKK","line":2,"i_long":106.812439,"time":4,"station_name":"Jakarta Kota","distance":1264,"transit":true,"i_lat":-6.137569},{"time":3,"transit":true,"i_long":106.826365,"station_id":"KPB","is_transit":true,"line":4,"station_name":"Kampung Bandan","distance":1364,"i_lat":-6.132549},{"i_long":106.836569,"i_lat":-6.14505,"is_transit":false,"line":11,"station_name":"Rajawali","station_id":"RJW","transit":false,"time":3,"distance":1444},{"line":11,"time":5,"i_lat":-6.161728,"is_transit":false,"station_name":"Kemayoran","distance":1901,"transit":false,"station_id":"KMO","i_long":106.839204},{"station_id":"PSE","i_lat":-6.174784,"i_long":106.84368,"is_transit":false,"line":11,"distance":1436,"station_name":"Pasar Senen","time":4,"transit":false},{"time":8,"line":11,"i_lat":-6.185975,"is_transit":false,"distance":1567,"station_name":"Gang Sentiong","station_id":"GST","transit":false,"i_long":106.850107},{"transit":false,"line":11,"distance":973,"i_lat":-6.193792,"time":1,"is_transit":false,"i_long":106.855437,"station_name":"Kramat","station_id":"KMT"},{"station_name":"Pondok Jati","i_long":106.861737,"station_id":"POK","i_lat":-6.209188,"time":2,"line":11,"is_transit":false,"transit":false,"distance":1829},{"i_lat":-6.215091,"station_id":"JNG","time":9,"is_transit":true,"transit":true,"line":1,"station_name":"Jatinegara","i_long":106.86807400000001,"distance":1236},{"station_id":"KLD","i_long":106.899548,"station_name":"Klender","transit":false,"line":1,"i_lat":-6.2135,"is_transit":false,"time":3,"distance":3395},{"i_long":106.922662,"line":1,"time":2,"station_id":"BUA","distance":3100,"i_lat":-6.215568,"station_name":"Buaran","is_transit":false,"transit":false},{"station_id":"KLDB","time":1,"distance":1305,"i_long":106.939679,"line":1,"is_transit":false,"transit":false,"i_lat":-6.217455,"station_name":"Klenderbaru"}]]}