{"data":[[{"i_long":106.712277,"is_transit":false,"transit":false,"distance":0,"line":6,"i_lat":-6.296963,"station_id":"SDM","station_name":"Sudimara","time":0},{"station_name":"Jurangmangu","time":4,"station_id":"JMU","transit":false,"is_transit":false,"line":6,"distance":1994,"i_long":106.728916,"i_lat":-6.288927},{"i_lat":-6.276362,"line":6,"distance":2179,"transit":false,"time":3,"is_transit":false,"i_long":106.74273,"station_id":"PDJ","station_name":"Pondokranji"},{"time":8,"line":6,"is_transit":false,"i_lat":-6.237242,"i_long":106.780334,"transit":false,"station_name":"Kebayoran","distance":6218,"station_id":"KBY"},{"line":6,"station_name":"Palmerah","station_id":"PLM","transit":false,"is_transit":false,"i_long":106.79689,"i_lat":-6.207404,"distance":3737,"time":7},{"distance":3191,"station_id":"THB","is_transit":true,"i_long":106.811091,"time":6,"i_lat":-6.185545,"line":1,"transit":true,"station_name":"Tanah Abang"},{"i_long":106.816351,"station_id":"KAT","time":5,"transit":false,"distance":2029,"station_name":"Karet","line":1,"is_transit":false,"i_lat":-6.20132},{"station_name":"Sudirman Baru","transit":false,"i_lat":-6.201433,"line":1,"time":1,"station_id":"SUDB","is_transit":false,"distance":471,"i_long":106.819881},{"transit":false,"time":1,"station_name":"Sudirman","distance":280,"i_long":106.822649,"i_lat":-6.202263,"station_id":"SUD","is_transit":false,"line":1},{"station_name":"Manggarai","time":4,"transit":true,"station_id":"MRI","i_lat":-6.209883,"distance":3186,"line":2,"is_transit":true,"i_long":106.84912},{"distance":2610,"time":4,"transit":false,"station_id":"TEB","station_name":"Tebet","i_lat":-6.226659,"line":2,"is_transit":false,"i_long":106.857948},{"distance":1230,"i_long":106.856607,"line":2,"transit":false,"i_lat":-6.242512,"time":2,"station_id":"CW","station_name":"Cawang","is_transit":false},{"station_name":"Duren Kalibata","transit":false,"distance":1546,"line":2,"station_id":"DRN","i_long":106.85449,"time":3,"is_transit":false,"i_lat":-6.255332},{"is_transit":false,"distance":824,"i_lat":-6.263214,"station_id":"PSMB","time":2,"i_long":106.851577,"transit":false,"station_name":"Pasar Minggu Baru","line":2},{"distance":2380,"transit":false,"station_name":"Pasar Minggu","time":2,"line":2,"station_id":"PSM","is_transit":false,"i_lat":-6.2842400000000005,"i_long":106.843999},{"line":2,"is_transit":false,"distance":2820,"station_id":"TNT","transit":false,"time":4,"station_name":"Tanjung Barat","i_long":106.838896,"i_lat":-6.3080680000000005},{"station_id":"LNA","time":3,"transit":false,"distance":2671,"is_transit":false,"i_long":106.832616,"station_name":"Lenteng Agung","i_lat":-6.330363,"line":2},{"distance":1029,"time":2,"i_long":106.834175,"transit":false,"station_id":"UP","i_lat":-6.339291,"line":2,"station_name":"Univ. Pancasila","is_transit":false},{"transit":false,"station_id":"UI","i_lat":-6.360749,"station_name":"Univ. Indonesia","distance":2264,"line":2,"time":3,"i_long":106.831474,"is_transit":false},{"distance":1109,"transit":false,"station_name":"Pondok Cina","station_id":"POC","i_lat":-6.369073,"line":2,"time":2,"i_long":106.831114,"is_transit":false},{"i_long":106.819451,"station_id":"DPB","distance":2727,"time":4,"i_lat":-6.391065,"transit":false,"line":2,"station_name":"Depokbaru","is_transit":false},{"is_transit":false,"distance":1584,"time":3,"line":2,"transit":false,"station_name":"Depok","i_lat":-6.405256,"i_long":106.816926,"station_id":"DP"},{"station_id":"CTA","time":6,"i_lat":-6.448811,"i_long":106.800298,"line":2,"transit":false,"station_name":"Citayam","is_transit":false,"distance":5084},{"transit":false,"is_transit":false,"station_name":"Bojonggede","i_lat":-6.493243,"i_long":106.792719,"station_id":"BJD","line":2,"time":5,"distance":5197}],[{"i_long":106.712277,"transit":false,"station_id":"SDM","distance":0,"time":0,"station_name":"Sudimara","line":6,"is_transit":false,"i_lat":-6.296963},{"station_name":"Jurangmangu","i_lat":-6.288927,"time":4,"is_transit":false,"transit":false,"distance":1994,"i_long":106.728916,"station_id":"JMU","line":6},{"distance":2179,"station_id":"PDJ","line":6,"station_name":"Pondokranji","time":3,"is_transit":false,"i_lat":-6.276362,"transit":false,"i_long":106.74273},{"distance":6218,"i_long":106.780334,"station_name":"Kebayoran","time":8,"transit":false,"i_lat":-6.237242,"line":6,"station_id":"KBY","is_transit":false},{"station_id":"PLM","line":6,"time":7,"distance":3737,"transit":false,"i_long":106.79689,"is_transit":false,"station_name":"Palmerah","i_lat":-6.207404},{"time":6,"line":1,"distance":3191,"station_id":"THB","i_long":106.811091,"is_transit":true,"station_name":"Tanah Abang","i_lat":-6.185545,"transit":true},{"i_long":106.800832,"is_transit":false,"time":8,"line":1,"station_id":"DU","distance":3632,"i_lat":-6.155215,"station_name":"Duri","transit":false},{"i_lat":-6.144674,"i_long":106.79867,"transit":false,"time":4,"is_transit":false,"station_id":"AK","distance":1230,"line":1,"station_name":"Angke"},{"transit":true,"time":9,"is_transit":true,"i_long":106.826365,"i_lat":-6.132549,"line":4,"station_id":"KPB","station_name":"Kampung Bandan","distance":4102},{"transit":true,"time":3,"i_lat":-6.137569,"i_long":106.812439,"distance":1364,"is_transit":true,"line":2,"station_id":"JAKK","station_name":"Jakarta Kota"},{"distance":1264,"i_long":106.820901,"transit":false,"time":4,"i_lat":-6.141205,"station_id":"JAY","is_transit":false,"line":2,"station_name":"Jayakarta"},{"i_long":106.82482,"distance":1080,"is_transit":false,"time":2,"transit":false,"station_name":"Manggabesar","i_lat":-6.149769,"station_id":"MGB","line":2},{"station_id":"SW","distance":906,"i_lat":-6.160725,"i_long":106.827103,"transit":false,"time":2,"line":2,"is_transit":false,"station_name":"Sawah Besar"},{"i_long":106.828284,"station_name":"Juanda","line":2,"is_transit":false,"i_lat":-6.166716,"station_id":"JUA","transit":false,"time":2,"distance":1149},{"is_transit":false,"station_id":"GDD","transit":false,"station_name":"Gondangdia","time":4,"i_lat":-6.186295,"i_long":106.832183,"distance":2015,"line":2},{"i_lat":-6.198556,"station_id":"CKI","time":3,"distance":1750,"line":2,"i_long":106.840169,"station_name":"Cikini","is_transit":false,"transit":false},{"i_lat":-6.209883,"line":2,"is_transit":false,"station_name":"Manggarai","i_long":106.84912,"transit":false,"time":4,"station_id":"MRI","distance":1590},{"station_id":"TEB","transit":false,"time":4,"is_transit":false,"station_name":"Tebet","i_lat":-6.226659,"distance":2610,"i_long":106.857948,"line":2},{"i_lat":-6.242512,"transit":false,"station_id":"CW","time":2,"is_transit":false,"distance":1230,"i_long":106.856607,"line":2,"station_name":"Cawang"},{"i_long":106.85449,"is_transit":false,"line":2,"distance":1546,"i_lat":-6.255332,"station_name":"Duren Kalibata","station_id":"DRN","time":3,"transit":false},{"station_id":"PSMB","time":2,"i_long":106.851577,"i_lat":-6.263214,"line":2,"distance":824,"station_name":"Pasar Minggu Baru","is_transit":false,"transit":false},{"distance":2380,"i_lat":-6.2842400000000005,"transit":false,"station_name":"Pasar Minggu","line":2,"i_long":106.843999,"station_id":"PSM","is_transit":false,"time":2},{"distance":2820,"i_long":106.838896,"transit":false,"station_name":"Tanjung Barat","time":4,"is_transit":false,"i_lat":-6.3080680000000005,"station_id":"TNT","line":2},{"i_long":106.832616,"line":2,"time":3,"is_transit":false,"distance":2671,"station_name":"Lenteng Agung","transit":false,"station_id":"LNA","i_lat":-6.330363},{"i_lat":-6.339291,"is_transit":false,"station_name":"Univ. Pancasila","station_id":"UP","time":2,"transit":false,"i_long":106.834175,"distance":1029,"line":2},{"i_long":106.831474,"station_id":"UI","distance":2264,"station_name":"Univ. Indonesia","time":3,"is_transit":false,"i_lat":-6.360749,"line":2,"transit":false},{"i_lat":-6.369073,"is_transit":false,"time":2,"transit":false,"station_id":"POC","i_long":106.831114,"line":2,"station_name":"Pondok Cina","distance":1109},{"i_long":106.819451,"is_transit":false,"station_name":"Depokbaru","station_id":"DPB","time":4,"transit":false,"distance":2727,"i_lat":-6.391065,"line":2},{"transit":false,"distance":1584,"time":3,"i_lat":-6.405256,"i_long":106.816926,"line":2,"is_transit":false,"station_name":"Depok","station_id":"DP"},{"transit":false,"station_name":"Citayam","station_id":"CTA","time":6,"is_transit":false,"distance":5084,"i_long":106.800298,"line":2,"i_lat":-6.448811},{"transit":false,"is_transit":false,"station_name":"Bojonggede","i_long":106.792719,"distance":5197,"station_id":"BJD","i_lat":-6.493243,"time":5,"line":2}],[{"line":6,"station_id":"SDM","time":0,"is_transit":false,"distance":0,"i_long":106.712277,"station_name":"Sudimara","i_lat":-6.296963,"transit":false},{"time":4,"i_long":106.728916,"transit":false,"station_name":"Jurangmangu","line":6,"i_lat":-6.288927,"is_transit":false,"station_id":"JMU","distance":1994},{"is_transit":false,"i_lat":-6.276362,"station_id":"PDJ","transit":false,"time":3,"line":6,"station_name":"Pondokranji","distance":2179,"i_long":106.74273},{"i_lat":-6.237242,"transit":false,"time":8,"is_transit":false,"distance":6218,"i_long":106.780334,"station_id":"KBY","line":6,"station_name":"Kebayoran"},{"transit":false,"time":7,"station_name":"Palmerah","i_long":106.79689,"line":6,"is_transit":false,"station_id":"PLM","distance":3737,"i_lat":-6.207404},{"time":6,"i_lat":-6.185545,"station_name":"Tanah Abang","station_id":"THB","transit":true,"line":1,"distance":3191,"is_transit":true,"i_long":106.811091},{"time":8,"i_lat":-6.155215,"station_id":"DU","transit":false,"line":1,"i_long":106.800832,"station_name":"Duri","distance":3632,"is_transit":false},{"time":4,"i_long":106.79867,"is_transit":false,"transit":false,"station_name":"Angke","i_lat":-6.144674,"station_id":"AK","distance":1230,"line":1},{"time":9,"i_lat":-6.132549,"station_id":"KPB","i_long":106.826365,"is_transit":true,"station_name":"Kampung Bandan","distance":4102,"line":4,"transit":true},{"distance":1444,"i_long":106.836569,"time":3,"transit":false,"is_transit":false,"i_lat":-6.14505,"line":11,"station_name":"Rajawali","station_id":"RJW"},{"distance":1901,"i_lat":-6.161728,"station_name":"Kemayoran","station_id":"KMO","is_transit":false,"line":11,"time":5,"transit":false,"i_long":106.839204},{"station_name":"Pasar Senen","time":4,"distance":1436,"station_id":"PSE","i_lat":-6.174784,"is_transit":false,"i_long":106.84368,"transit":false,"line":11},{"distance":1567,"station_name":"Gang Sentiong","station_id":"GST","time":8,"transit":false,"is_transit":false,"i_lat":-6.185975,"i_long":106.850107,"line":11},{"time":1,"i_lat":-6.193792,"i_long":106.855437,"station_id":"KMT","distance":973,"is_transit":false,"line":11,"transit":false,"station_name":"Kramat"},{"station_name":"Pondok Jati","distance":1829,"station_id":"POK","time":2,"transit":false,"is_transit":false,"line":11,"i_lat":-6.209188,"i_long":106.861737},{"station_name":"Jatinegara","station_id":"JNG","is_transit":true,"transit":true,"distance":1236,"i_lat":-6.215091,"i_long":106.86807400000001,"time":9,"line":1},{"is_transit":false,"station_id":"MTR","line":1,"station_name":"Matraman","i_lat":-6.212485,"transit":false,"distance":1377,"i_long":106.858896,"time":2},{"i_lat":-6.209883,"time":2,"transit":true,"station_id":"MRI","station_name":"Manggarai","i_long":106.84912,"is_transit":true,"distance":1275,"line":2},{"station_id":"TEB","station_name":"Tebet","i_long":106.857948,"transit":false,"time":4,"is_transit":false,"i_lat":-6.226659,"distance":2610,"line":2},{"i_lat":-6.242512,"i_long":106.856607,"transit":false,"is_transit":false,"distance":1230,"station_name":"Cawang","line":2,"station_id":"CW","time":2},{"transit":false,"i_long":106.85449,"line":2,"i_lat":-6.255332,"station_id":"DRN","time":3,"is_transit":false,"distance":1546,"station_name":"Duren Kalibata"},{"i_lat":-6.263214,"i_long":106.851577,"distance":824,"line":2,"station_name":"Pasar Minggu Baru","station_id":"PSMB","time":2,"transit":false,"is_transit":false},{"station_name":"Pasar Minggu","distance":2380,"i_long":106.843999,"transit":false,"time":2,"station_id":"PSM","is_transit":false,"i_lat":-6.2842400000000005,"line":2},{"line":2,"distance":2820,"is_transit":false,"i_lat":-6.3080680000000005,"transit":false,"station_id":"TNT","time":4,"station_name":"Tanjung Barat","i_long":106.838896},{"i_long":106.832616,"station_id":"LNA","station_name":"Lenteng Agung","transit":false,"time":3,"distance":2671,"line":2,"is_transit":false,"i_lat":-6.330363},{"i_lat":-6.339291,"station_id":"UP","i_long":106.834175,"line":2,"is_transit":false,"transit":false,"time":2,"station_name":"Univ. Pancasila","distance":1029},{"station_id":"UI","station_name":"Univ. Indonesia","i_lat":-6.360749,"transit":false,"i_long":106.831474,"time":3,"distance":2264,"line":2,"is_transit":false},{"i_lat":-6.369073,"distance":1109,"line":2,"station_id":"POC","transit":false,"i_long":106.831114,"station_name":"Pondok Cina","time":2,"is_transit":false},{"is_transit":false,"line":2,"distance":2727,"time":4,"i_lat":-6.391065,"station_id":"DPB","station_name":"Depokbaru","transit":false,"i_long":106.819451},{"i_long":106.816926,"line":2,"distance":1584,"is_transit":false,"transit":false,"station_name":"Depok","time":3,"i_lat":-6.405256,"station_id":"DP"},{"station_name":"Citayam","is_transit":false,"station_id":"CTA","line":2,"i_lat":-6.448811,"transit":false,"distance":5084,"time":6,"i_long":106.800298},{"is_transit":false,"time":5,"station_id":"BJD","i_lat":-6.493243,"line":2,"station_name":"Bojonggede","distance":5197,"i_long":106.792719,"transit":false}]]}