{"data":[[{"station_name":"Sudimara","is_transit":false,"time":0,"transit":false,"line":6,"station_id":"SDM","i_long":106.712277,"distance":0,"i_lat":-6.296963},{"i_lat":-6.288927,"is_transit":false,"time":4,"i_long":106.728916,"station_id":"JMU","distance":1994,"station_name":"Jurangmangu","transit":false,"line":6},{"station_id":"PDJ","time":3,"transit":false,"i_lat":-6.276362,"line":6,"is_transit":false,"distance":2179,"station_name":"Pondokranji","i_long":106.74273},{"time":8,"transit":false,"line":6,"distance":6218,"station_id":"KBY","station_name":"Kebayoran","i_lat":-6.237242,"is_transit":false,"i_long":106.780334},{"transit":false,"line":6,"station_id":"PLM","station_name":"Palmerah","distance":3737,"is_transit":false,"i_lat":-6.207404,"time":7,"i_long":106.79689},{"station_name":"Tanah Abang","transit":true,"time":6,"i_long":106.811091,"station_id":"THB","i_lat":-6.185545,"distance":3191,"line":1,"is_transit":true},{"line":1,"station_name":"Karet","i_long":106.816351,"is_transit":false,"i_lat":-6.20132,"transit":false,"station_id":"KAT","time":5,"distance":2029},{"distance":471,"time":1,"station_id":"SUDB","is_transit":false,"station_name":"Sudirman Baru","line":1,"transit":false,"i_long":106.819881,"i_lat":-6.201433},{"line":1,"distance":280,"transit":false,"station_id":"SUD","i_long":106.822649,"is_transit":false,"station_name":"Sudirman","time":1,"i_lat":-6.202263},{"i_long":106.84912,"is_transit":true,"i_lat":-6.209883,"line":0,"time":4,"distance":3186,"station_id":"MRI","transit":true,"station_name":"Manggarai"},{"is_transit":false,"line":2,"station_name":"Tebet","station_id":"TEB","transit":false,"distance":2610,"i_long":106.857948,"i_lat":-6.226659,"time":4},{"transit":false,"i_long":106.856607,"time":2,"i_lat":-6.242512,"line":0,"distance":1230,"is_transit":false,"station_id":"CW","station_name":"Cawang"},{"line":0,"station_id":"DRN","distance":1546,"station_name":"Duren Kalibata","time":3,"is_transit":false,"i_long":106.85449,"i_lat":-6.255332,"transit":false},{"time":2,"distance":824,"i_long":106.851577,"station_name":"Pasar Minggu Baru","is_transit":false,"i_lat":-6.263214,"station_id":"PSMB","line":2,"transit":false},{"i_lat":-6.2842400000000005,"is_transit":false,"time":2,"line":2,"transit":false,"i_long":106.843999,"station_id":"PSM","distance":2380,"station_name":"Pasar Minggu"},{"distance":2820,"is_transit":false,"transit":false,"station_id":"TNT","time":4,"i_lat":-6.3080680000000005,"line":2,"station_name":"Tanjung Barat","i_long":106.838896},{"i_long":106.832616,"i_lat":-6.330363,"distance":2671,"time":3,"line":2,"station_id":"LNA","station_name":"Lenteng Agung","is_transit":false,"transit":false},{"transit":false,"distance":1029,"i_lat":-6.339291,"station_id":"UP","station_name":"Univ. Pancasila","i_long":106.834175,"line":2,"is_transit":false,"time":2},{"line":2,"distance":2264,"is_transit":false,"station_id":"UI","i_long":106.831474,"time":3,"station_name":"Univ. Indonesia","i_lat":-6.360749,"transit":false},{"station_name":"Pondok Cina","is_transit":false,"station_id":"POC","transit":false,"i_lat":-6.369073,"i_long":106.831114,"distance":1109,"time":2,"line":2},{"distance":2727,"station_name":"Depokbaru","station_id":"DPB","is_transit":false,"transit":false,"time":4,"i_lat":-6.391065,"i_long":106.819451,"line":0},{"i_lat":-6.405256,"station_id":"DP","transit":false,"time":3,"station_name":"Depok","i_long":106.816926,"distance":1584,"line":0,"is_transit":false},{"distance":5084,"transit":false,"i_long":106.800298,"line":1,"station_name":"Citayam","is_transit":true,"station_id":"CTA","time":6,"i_lat":-6.448811},{"i_long":106.851978,"line":0,"is_transit":false,"station_id":"CBN","time":10,"distance":6740,"station_name":"Cibinong","transit":false,"i_lat":-6.46424},{"distance":6527,"transit":false,"line":21,"i_long":106.905196,"time":10,"is_transit":false,"station_id":"NMO","station_name":"Nambo","i_lat":-6.466285}],[{"station_id":"SDM","station_name":"Sudimara","time":0,"i_lat":-6.296963,"line":6,"distance":0,"transit":false,"is_transit":false,"i_long":106.712277},{"i_lat":-6.288927,"station_name":"Jurangmangu","transit":false,"is_transit":false,"station_id":"JMU","time":4,"i_long":106.728916,"distance":1994,"line":6},{"i_long":106.74273,"station_id":"PDJ","line":6,"is_transit":false,"distance":2179,"station_name":"Pondokranji","transit":false,"time":3,"i_lat":-6.276362},{"i_lat":-6.237242,"is_transit":false,"station_name":"Kebayoran","i_long":106.780334,"distance":6218,"station_id":"KBY","time":8,"transit":false,"line":6},{"station_name":"Palmerah","transit":false,"is_transit":false,"i_long":106.79689,"distance":3737,"time":7,"line":6,"station_id":"PLM","i_lat":-6.207404},{"station_id":"THB","line":1,"transit":true,"is_transit":true,"i_lat":-6.185545,"i_long":106.811091,"distance":3191,"station_name":"Tanah Abang","time":6},{"station_name":"Duri","time":8,"line":1,"distance":3632,"station_id":"DU","is_transit":true,"i_lat":-6.155215,"transit":true,"i_long":106.800832},{"station_name":"Angke","distance":1230,"i_lat":-6.144674,"line":0,"time":4,"transit":false,"is_transit":false,"i_long":106.79867,"station_id":"AK"},{"is_transit":true,"transit":false,"station_name":"Kampung Bandan","time":9,"i_lat":-6.132549,"station_id":"KPB","i_long":106.826365,"distance":4102,"line":0},{"is_transit":true,"station_name":"Jakarta Kota","transit":true,"station_id":"JAKK","time":3,"line":0,"i_long":106.812439,"distance":1364,"i_lat":-6.137569},{"distance":1264,"is_transit":false,"i_long":106.820901,"transit":false,"station_id":"JAY","line":7,"i_lat":-6.141205,"station_name":"Jayakarta","time":4},{"station_id":"MGB","station_name":"Manggabesar","is_transit":false,"time":2,"i_lat":-6.149769,"transit":false,"i_long":106.82482,"line":2,"distance":1080},{"time":2,"i_long":106.827103,"station_id":"SW","station_name":"Sawah Besar","distance":906,"is_transit":false,"i_lat":-6.160725,"line":2,"transit":false},{"station_id":"JUA","transit":false,"time":2,"i_lat":-6.166716,"i_long":106.828284,"distance":1149,"is_transit":false,"line":2,"station_name":"Juanda"},{"i_lat":-6.186295,"station_id":"GDD","time":4,"is_transit":false,"station_name":"Gondangdia","line":2,"transit":false,"distance":2015,"i_long":106.832183},{"i_lat":-6.198556,"transit":false,"station_name":"Cikini","time":3,"is_transit":false,"line":0,"distance":1750,"i_long":106.840169,"station_id":"CKI"},{"i_long":106.84912,"line":0,"is_transit":true,"distance":1590,"station_id":"MRI","transit":true,"station_name":"Manggarai","time":4,"i_lat":-6.209883},{"time":4,"line":2,"i_long":106.857948,"transit":false,"distance":2610,"station_name":"Tebet","i_lat":-6.226659,"station_id":"TEB","is_transit":false},{"distance":1230,"transit":false,"i_lat":-6.242512,"i_long":106.856607,"time":2,"is_transit":false,"station_name":"Cawang","station_id":"CW","line":0},{"i_lat":-6.255332,"line":0,"distance":1546,"station_name":"Duren Kalibata","i_long":106.85449,"is_transit":false,"station_id":"DRN","time":3,"transit":false},{"line":2,"time":2,"station_name":"Pasar Minggu Baru","i_long":106.851577,"is_transit":false,"transit":false,"station_id":"PSMB","i_lat":-6.263214,"distance":824},{"i_lat":-6.2842400000000005,"line":2,"distance":2380,"i_long":106.843999,"transit":false,"is_transit":false,"station_name":"Pasar Minggu","station_id":"PSM","time":2},{"transit":false,"i_lat":-6.3080680000000005,"line":2,"is_transit":false,"distance":2820,"i_long":106.838896,"time":4,"station_name":"Tanjung Barat","station_id":"TNT"},{"distance":2671,"time":3,"is_transit":false,"station_id":"LNA","station_name":"Lenteng Agung","i_lat":-6.330363,"i_long":106.832616,"line":2,"transit":false},{"station_id":"UP","transit":false,"i_lat":-6.339291,"time":2,"line":2,"distance":1029,"is_transit":false,"station_name":"Univ. Pancasila","i_long":106.834175},{"distance":2264,"transit":false,"time":3,"i_lat":-6.360749,"i_long":106.831474,"station_id":"UI","station_name":"Univ. Indonesia","line":2,"is_transit":false},{"i_lat":-6.369073,"is_transit":false,"transit":false,"station_name":"Pondok Cina","station_id":"POC","time":2,"distance":1109,"i_long":106.831114,"line":2},{"i_lat":-6.391065,"i_long":106.819451,"station_id":"DPB","distance":2727,"time":4,"is_transit":false,"transit":false,"line":0,"station_name":"Depokbaru"},{"is_transit":false,"i_long":106.816926,"distance":1584,"station_id":"DP","i_lat":-6.405256,"time":3,"line":0,"station_name":"Depok","transit":false},{"station_name":"Citayam","transit":false,"time":6,"i_lat":-6.448811,"i_long":106.800298,"line":1,"is_transit":true,"station_id":"CTA","distance":5084},{"station_id":"CBN","time":10,"i_lat":-6.46424,"distance":6740,"i_long":106.851978,"station_name":"Cibinong","transit":false,"line":0,"is_transit":false},{"station_id":"NMO","i_long":106.905196,"station_name":"Nambo","i_lat":-6.466285,"transit":false,"line":21,"time":10,"distance":6527,"is_transit":false}],[{"distance":0,"station_id":"SDM","is_transit":false,"transit":false,"line":6,"i_long":106.712277,"station_name":"Sudimara","i_lat":-6.296963,"time":0},{"transit":false,"time":4,"distance":1994,"station_name":"Jurangmangu","i_lat":-6.288927,"line":6,"is_transit":false,"station_id":"JMU","i_long":106.728916},{"transit":false,"i_long":106.74273,"line":6,"i_lat":-6.276362,"is_transit":false,"station_name":"Pondokranji","time":3,"distance":2179,"station_id":"PDJ"},{"line":6,"time":8,"station_name":"Kebayoran","distance":6218,"station_id":"KBY","transit":false,"i_lat":-6.237242,"i_long":106.780334,"is_transit":false},{"i_lat":-6.207404,"station_name":"Palmerah","line":6,"station_id":"PLM","transit":false,"is_transit":false,"time":7,"i_long":106.79689,"distance":3737},{"distance":3191,"time":6,"station_name":"Tanah Abang","is_transit":true,"station_id":"THB","i_long":106.811091,"transit":true,"line":1,"i_lat":-6.185545},{"time":8,"i_long":106.800832,"distance":3632,"transit":true,"station_name":"Duri","is_transit":true,"station_id":"DU","line":1,"i_lat":-6.155215},{"is_transit":false,"station_id":"AK","transit":false,"time":4,"i_lat":-6.144674,"i_long":106.79867,"line":0,"distance":1230,"station_name":"Angke"},{"transit":true,"distance":4102,"is_transit":true,"station_id":"KPB","station_name":"Kampung Bandan","time":9,"i_lat":-6.132549,"i_long":106.826365,"line":0},{"is_transit":false,"line":11,"i_lat":-6.14505,"time":3,"distance":1444,"station_id":"RJW","station_name":"Rajawali","transit":false,"i_long":106.836569},{"distance":1901,"is_transit":false,"station_name":"Kemayoran","time":5,"transit":false,"line":11,"station_id":"KMO","i_lat":-6.161728,"i_long":106.839204},{"is_transit":false,"line":11,"station_name":"Pasar Senen","time":4,"transit":false,"i_lat":-6.174784,"distance":1436,"i_long":106.84368,"station_id":"PSE"},{"station_name":"Gang Sentiong","is_transit":false,"i_lat":-6.185975,"i_long":106.850107,"distance":1567,"station_id":"GST","transit":false,"line":11,"time":8},{"station_name":"Kramat","i_lat":-6.193792,"distance":973,"transit":false,"line":11,"time":1,"is_transit":false,"i_long":106.855437,"station_id":"KMT"},{"is_transit":false,"i_lat":-6.209188,"transit":false,"time":2,"line":11,"i_long":106.861737,"station_id":"POK","distance":1829,"station_name":"Pondok Jati"},{"line":0,"i_long":106.86807400000001,"is_transit":true,"i_lat":-6.215091,"distance":1236,"time":9,"station_name":"Jatinegara","station_id":"JNG","transit":true},{"is_transit":false,"distance":1377,"station_id":"MTR","station_name":"Matraman","transit":false,"i_long":106.858896,"i_lat":-6.212485,"time":2,"line":1},{"time":2,"distance":1275,"is_transit":true,"i_lat":-6.209883,"transit":true,"station_id":"MRI","station_name":"Manggarai","line":0,"i_long":106.84912},{"transit":false,"line":2,"is_transit":false,"station_name":"Tebet","distance":2610,"i_lat":-6.226659,"station_id":"TEB","time":4,"i_long":106.857948},{"line":0,"distance":1230,"station_id":"CW","time":2,"is_transit":false,"transit":false,"station_name":"Cawang","i_lat":-6.242512,"i_long":106.856607},{"is_transit":false,"transit":false,"i_lat":-6.255332,"distance":1546,"station_name":"Duren Kalibata","i_long":106.85449,"line":0,"time":3,"station_id":"DRN"},{"station_name":"Pasar Minggu Baru","time":2,"distance":824,"is_transit":false,"station_id":"PSMB","i_long":106.851577,"line":2,"transit":false,"i_lat":-6.263214},{"distance":2380,"line":2,"station_name":"Pasar Minggu","time":2,"station_id":"PSM","transit":false,"i_long":106.843999,"i_lat":-6.2842400000000005,"is_transit":false},{"distance":2820,"is_transit":false,"i_lat":-6.3080680000000005,"transit":false,"line":2,"station_name":"Tanjung Barat","time":4,"station_id":"TNT","i_long":106.838896},{"is_transit":false,"i_lat":-6.330363,"i_long":106.832616,"station_id":"LNA","distance":2671,"time":3,"station_name":"Lenteng Agung","transit":false,"line":2},{"i_long":106.834175,"distance":1029,"time":2,"is_transit":false,"station_name":"Univ. Pancasila","station_id":"UP","transit":false,"line":2,"i_lat":-6.339291},{"distance":2264,"line":2,"is_transit":false,"i_lat":-6.360749,"station_name":"Univ. Indonesia","i_long":106.831474,"transit":false,"time":3,"station_id":"UI"},{"distance":1109,"time":2,"i_lat":-6.369073,"i_long":106.831114,"station_id":"POC","is_transit":false,"station_name":"Pondok Cina","transit":false,"line":2},{"time":4,"i_long":106.819451,"i_lat":-6.391065,"is_transit":false,"distance":2727,"station_id":"DPB","station_name":"Depokbaru","transit":false,"line":0},{"i_long":106.816926,"time":3,"i_lat":-6.405256,"line":0,"is_transit":false,"station_name":"Depok","station_id":"DP","distance":1584,"transit":false},{"station_name":"Citayam","distance":5084,"line":1,"is_transit":true,"station_id":"CTA","i_lat":-6.448811,"time":6,"i_long":106.800298,"transit":false},{"station_id":"CBN","i_long":106.851978,"transit":false,"station_name":"Cibinong","i_lat":-6.46424,"line":0,"distance":6740,"time":10,"is_transit":false},{"line":21,"i_long":106.905196,"distance":6527,"station_id":"NMO","transit":false,"i_lat":-6.466285,"station_name":"Nambo","is_transit":false,"time":10}]]}