{"data":[[{"station_name":"Sudimara","distance":0,"is_transit":false,"transit":false,"i_lat":-6.296963,"time":0,"i_long":106.712277,"station_id":"SDM","line":6},{"is_transit":false,"i_long":106.728916,"line":6,"transit":false,"station_name":"Jurangmangu","i_lat":-6.288927,"station_id":"JMU","distance":1994,"time":4},{"is_transit":false,"time":3,"station_name":"Pondokranji","transit":false,"station_id":"PDJ","distance":2179,"i_long":106.74273,"i_lat":-6.276362,"line":6},{"distance":6218,"time":8,"transit":false,"is_transit":false,"i_lat":-6.237242,"i_long":106.780334,"line":6,"station_name":"Kebayoran","station_id":"KBY"},{"time":7,"station_name":"Palmerah","transit":false,"station_id":"PLM","distance":3737,"i_long":106.79689,"i_lat":-6.207404,"line":6,"is_transit":false},{"transit":true,"time":6,"station_name":"Tanah Abang","station_id":"THB","is_transit":true,"line":1,"distance":3191,"i_lat":-6.185545,"i_long":106.811091},{"time":8,"i_long":106.800832,"line":1,"station_name":"Duri","is_transit":true,"i_lat":-6.155215,"station_id":"DU","distance":3632,"transit":true},{"station_name":"Grogol","is_transit":false,"station_id":"GGL","time":3,"distance":1700,"line":5,"i_lat":-6.162021,"transit":false,"i_long":106.788277},{"i_lat":-6.161433,"station_name":"Pesing","time":2,"i_long":106.771379,"line":5,"station_id":"PSG","transit":false,"is_transit":false,"distance":2036},{"time":2,"i_long":106.756522,"station_id":"TKO","distance":1614,"station_name":"Taman Kota","is_transit":false,"line":5,"i_lat":-6.1587309999999995,"transit":false},{"line":5,"i_lat":-6.159876,"time":2,"is_transit":false,"i_long":106.737035,"distance":2334,"transit":false,"station_name":"Bojongindah","station_id":"BOI"},{"i_long":106.723064,"is_transit":false,"transit":false,"line":5,"distance":1152,"i_lat":-6.162758,"station_name":"Rawa Buaya","station_id":"RW","time":4},{"line":5,"time":3,"i_long":106.701612,"transit":false,"distance":2504,"station_id":"KDS","station_name":"Kalideres","i_lat":-6.166068,"is_transit":false},{"station_id":"PI","time":3,"distance":2548,"i_lat":-6.169933,"is_transit":false,"line":5,"transit":false,"station_name":"Poris","i_long":106.679458},{"station_name":"Batuceper","is_transit":false,"transit":false,"time":3,"distance":1834,"i_lat":-6.171811,"i_long":106.665036,"line":5,"station_id":"BPR"},{"i_long":106.64657,"distance":2028,"time":3,"i_lat":-6.17331,"line":5,"transit":false,"station_id":"TTI","is_transit":false,"station_name":"Tanah Tinggi"}],[{"time":0,"i_lat":-6.296963,"i_long":106.712277,"station_name":"Sudimara","distance":0,"line":6,"station_id":"SDM","is_transit":false,"transit":false},{"time":4,"transit":false,"i_lat":-6.288927,"station_id":"JMU","station_name":"Jurangmangu","is_transit":false,"i_long":106.728916,"distance":1994,"line":6},{"distance":2179,"transit":false,"station_name":"Pondokranji","station_id":"PDJ","time":3,"i_long":106.74273,"is_transit":false,"line":6,"i_lat":-6.276362},{"line":6,"station_name":"Kebayoran","transit":false,"distance":6218,"is_transit":false,"i_long":106.780334,"time":8,"station_id":"KBY","i_lat":-6.237242},{"time":7,"distance":3737,"i_lat":-6.207404,"station_name":"Palmerah","transit":false,"line":6,"is_transit":false,"station_id":"PLM","i_long":106.79689},{"time":6,"station_id":"THB","transit":true,"i_lat":-6.185545,"line":1,"distance":3191,"i_long":106.811091,"is_transit":true,"station_name":"Tanah Abang"},{"distance":2029,"i_lat":-6.20132,"transit":false,"i_long":106.816351,"line":1,"is_transit":false,"station_id":"KAT","time":5,"station_name":"Karet"},{"line":1,"station_id":"SUDB","station_name":"Sudirman Baru","time":1,"i_lat":-6.201433,"transit":false,"distance":471,"i_long":106.819881,"is_transit":false},{"station_id":"SUD","time":1,"distance":280,"transit":false,"station_name":"Sudirman","is_transit":false,"i_lat":-6.202263,"i_long":106.822649,"line":1},{"is_transit":true,"time":4,"i_long":106.84912,"distance":3186,"i_lat":-6.209883,"transit":true,"line":2,"station_name":"Manggarai","station_id":"MRI"},{"i_lat":-6.198556,"i_long":106.840169,"station_id":"CKI","time":4,"station_name":"Cikini","is_transit":false,"transit":false,"distance":1590,"line":2},{"station_id":"GDD","time":3,"distance":1750,"is_transit":false,"i_long":106.832183,"transit":false,"station_name":"Gondangdia","line":2,"i_lat":-6.186295},{"station_id":"JUA","distance":2015,"station_name":"Juanda","transit":false,"i_long":106.828284,"i_lat":-6.166716,"is_transit":false,"line":2,"time":4},{"transit":false,"i_lat":-6.160725,"line":2,"time":2,"distance":1149,"station_name":"Sawah Besar","station_id":"SW","is_transit":false,"i_long":106.827103},{"transit":false,"station_name":"Manggabesar","is_transit":false,"i_lat":-6.149769,"distance":906,"time":2,"i_long":106.82482,"station_id":"MGB","line":2},{"is_transit":false,"i_lat":-6.141205,"i_long":106.820901,"time":2,"line":2,"distance":1080,"transit":false,"station_name":"Jayakarta","station_id":"JAY"},{"distance":1264,"i_long":106.812439,"line":2,"station_id":"JAKK","time":4,"station_name":"Jakarta Kota","i_lat":-6.137569,"transit":true,"is_transit":true},{"time":3,"transit":true,"is_transit":true,"distance":1364,"station_id":"KPB","i_lat":-6.132549,"station_name":"Kampung Bandan","line":4,"i_long":106.826365},{"station_id":"AK","distance":4102,"is_transit":false,"station_name":"Angke","time":9,"transit":false,"i_long":106.79867,"i_lat":-6.144674,"line":1},{"station_name":"Duri","distance":1230,"i_long":106.800832,"station_id":"DU","transit":true,"line":1,"is_transit":true,"i_lat":-6.155215,"time":4},{"station_name":"Grogol","is_transit":false,"distance":1700,"transit":false,"i_long":106.788277,"time":3,"station_id":"GGL","i_lat":-6.162021,"line":5},{"station_name":"Pesing","is_transit":false,"time":2,"i_lat":-6.161433,"line":5,"station_id":"PSG","distance":2036,"i_long":106.771379,"transit":false},{"transit":false,"time":2,"station_name":"Taman Kota","i_long":106.756522,"i_lat":-6.1587309999999995,"station_id":"TKO","is_transit":false,"distance":1614,"line":5},{"is_transit":false,"station_name":"Bojongindah","transit":false,"i_lat":-6.159876,"line":5,"distance":2334,"station_id":"BOI","time":2,"i_long":106.737035},{"i_lat":-6.162758,"transit":false,"is_transit":false,"station_id":"RW","distance":1152,"station_name":"Rawa Buaya","i_long":106.723064,"line":5,"time":4},{"station_name":"Kalideres","line":5,"is_transit":false,"station_id":"KDS","i_long":106.701612,"distance":2504,"i_lat":-6.166068,"transit":false,"time":3},{"station_id":"PI","line":5,"station_name":"Poris","i_long":106.679458,"transit":false,"is_transit":false,"i_lat":-6.169933,"time":3,"distance":2548},{"transit":false,"station_name":"Batuceper","distance":1834,"i_lat":-6.171811,"line":5,"time":3,"station_id":"BPR","is_transit":false,"i_long":106.665036},{"time":3,"distance":2028,"i_lat":-6.17331,"transit":false,"line":5,"i_long":106.64657,"is_transit":false,"station_name":"Tanah Tinggi","station_id":"TTI"}],[{"transit":false,"station_name":"Sudimara","station_id":"SDM","i_lat":-6.296963,"is_transit":false,"line":6,"i_long":106.712277,"distance":0,"time":0},{"time":4,"transit":false,"station_name":"Jurangmangu","station_id":"JMU","line":6,"i_lat":-6.288927,"i_long":106.728916,"distance":1994,"is_transit":false},{"line":6,"distance":2179,"time":3,"is_transit":false,"station_name":"Pondokranji","i_long":106.74273,"transit":false,"i_lat":-6.276362,"station_id":"PDJ"},{"is_transit":false,"i_long":106.780334,"time":8,"distance":6218,"transit":false,"station_name":"Kebayoran","station_id":"KBY","i_lat":-6.237242,"line":6},{"is_transit":false,"time":7,"transit":false,"i_long":106.79689,"station_name":"Palmerah","distance":3737,"i_lat":-6.207404,"station_id":"PLM","line":6},{"transit":true,"station_id":"THB","i_long":106.811091,"time":6,"line":1,"i_lat":-6.185545,"distance":3191,"station_name":"Tanah Abang","is_transit":true},{"i_lat":-6.20132,"transit":false,"is_transit":false,"distance":2029,"i_long":106.816351,"station_id":"KAT","station_name":"Karet","line":1,"time":5},{"is_transit":false,"line":1,"transit":false,"station_id":"SUDB","distance":471,"time":1,"i_lat":-6.201433,"i_long":106.819881,"station_name":"Sudirman Baru"},{"time":1,"distance":280,"is_transit":false,"line":1,"i_lat":-6.202263,"i_long":106.822649,"station_id":"SUD","transit":false,"station_name":"Sudirman"},{"i_lat":-6.209883,"i_long":106.84912,"station_name":"Manggarai","transit":false,"time":4,"station_id":"MRI","is_transit":false,"line":2,"distance":3186},{"distance":1275,"transit":false,"station_name":"Matraman","is_transit":false,"time":2,"i_lat":-6.212485,"i_long":106.858896,"station_id":"MTR","line":1},{"line":1,"station_id":"JNG","station_name":"Jatinegara","i_long":106.86807400000001,"time":8,"transit":true,"distance":1377,"is_transit":true,"i_lat":-6.215091},{"i_lat":-6.209188,"time":2,"line":11,"station_id":"POK","transit":false,"station_name":"Pondok Jati","i_long":106.861737,"is_transit":false,"distance":1236},{"distance":1829,"transit":false,"station_name":"Kramat","is_transit":false,"time":2,"station_id":"KMT","i_long":106.855437,"i_lat":-6.193792,"line":11},{"station_id":"GST","distance":973,"station_name":"Gang Sentiong","time":1,"line":11,"transit":false,"is_transit":false,"i_lat":-6.185975,"i_long":106.850107},{"transit":false,"station_id":"PSE","station_name":"Pasar Senen","is_transit":false,"time":8,"distance":1567,"i_lat":-6.174784,"i_long":106.84368,"line":11},{"time":4,"station_id":"KMO","i_long":106.839204,"i_lat":-6.161728,"distance":1436,"is_transit":false,"transit":false,"line":11,"station_name":"Kemayoran"},{"station_id":"RJW","distance":1901,"is_transit":false,"i_long":106.836569,"time":5,"station_name":"Rajawali","i_lat":-6.14505,"transit":false,"line":11},{"i_lat":-6.132549,"line":4,"distance":1444,"transit":true,"station_id":"KPB","time":3,"i_long":106.826365,"station_name":"Kampung Bandan","is_transit":true},{"is_transit":false,"time":9,"line":1,"i_lat":-6.144674,"station_name":"Angke","i_long":106.79867,"distance":4102,"transit":false,"station_id":"AK"},{"transit":true,"i_long":106.800832,"distance":1230,"time":4,"line":1,"station_id":"DU","station_name":"Duri","is_transit":true,"i_lat":-6.155215},{"station_name":"Grogol","distance":1700,"i_long":106.788277,"line":5,"station_id":"GGL","transit":false,"i_lat":-6.162021,"is_transit":false,"time":3},{"station_name":"Pesing","i_long":106.771379,"distance":2036,"i_lat":-6.161433,"transit":false,"time":2,"station_id":"PSG","is_transit":false,"line":5},{"i_long":106.756522,"line":5,"i_lat":-6.1587309999999995,"distance":1614,"station_id":"TKO","transit":false,"is_transit":false,"time":2,"station_name":"Taman Kota"},{"station_name":"Bojongindah","is_transit":false,"i_lat":-6.159876,"i_long":106.737035,"distance":2334,"transit":false,"station_id":"BOI","time":2,"line":5},{"line":5,"station_name":"Rawa Buaya","i_lat":-6.162758,"time":4,"transit":false,"station_id":"RW","is_transit":false,"distance":1152,"i_long":106.723064},{"i_long":106.701612,"station_name":"Kalideres","distance":2504,"i_lat":-6.166068,"is_transit":false,"time":3,"line":5,"station_id":"KDS","transit":false},{"is_transit":false,"distance":2548,"time":3,"transit":false,"station_name":"Poris","station_id":"PI","i_lat":-6.169933,"line":5,"i_long":106.679458},{"station_id":"BPR","i_lat":-6.171811,"line":5,"time":3,"transit":false,"i_long":106.665036,"is_transit":false,"station_name":"Batuceper","distance":1834},{"transit":false,"is_transit":false,"station_name":"Tanah Tinggi","station_id":"TTI","time":3,"distance":2028,"line":5,"i_long":106.64657,"i_lat":-6.17331}]]}