{"data":[[{"i_long":106.712277,"station_id":"SDM","line":6,"time":0,"transit":false,"is_transit":false,"station_name":"Sudimara","i_lat":-6.296963,"distance":0},{"station_name":"Jurangmangu","distance":1994,"i_lat":-6.288927,"line":6,"transit":false,"i_long":106.728916,"is_transit":false,"station_id":"JMU","time":4},{"distance":2179,"is_transit":false,"i_lat":-6.276362,"time":3,"i_long":106.74273,"transit":false,"station_name":"Pondokranji","line":6,"station_id":"PDJ"},{"i_lat":-6.237242,"line":6,"is_transit":false,"station_name":"Kebayoran","station_id":"KBY","transit":false,"i_long":106.780334,"distance":6218,"time":8},{"station_id":"PLM","i_long":106.79689,"line":6,"i_lat":-6.207404,"station_name":"Palmerah","distance":3737,"transit":false,"time":7,"is_transit":false},{"line":1,"i_long":106.811091,"transit":true,"station_id":"THB","station_name":"Tanah Abang","time":6,"is_transit":true,"distance":3191,"i_lat":-6.185545},{"i_long":106.800832,"station_id":"DU","line":1,"time":8,"station_name":"Duri","i_lat":-6.155215,"distance":3632,"transit":true,"is_transit":true},{"station_id":"GGL","transit":false,"i_long":106.788277,"line":5,"is_transit":false,"i_lat":-6.162021,"station_name":"Grogol","time":3,"distance":1700},{"line":5,"i_lat":-6.161433,"station_name":"Pesing","distance":2036,"transit":false,"i_long":106.771379,"time":2,"station_id":"PSG","is_transit":false},{"i_long":106.756522,"station_id":"TKO","is_transit":false,"time":2,"distance":1614,"transit":false,"station_name":"Taman Kota","line":5,"i_lat":-6.1587309999999995},{"i_lat":-6.159876,"transit":false,"distance":2334,"station_id":"BOI","i_long":106.737035,"time":2,"station_name":"Bojongindah","is_transit":false,"line":5},{"station_id":"RW","station_name":"Rawa Buaya","time":4,"distance":1152,"is_transit":false,"i_lat":-6.162758,"i_long":106.723064,"line":5,"transit":false},{"line":5,"time":3,"station_id":"KDS","is_transit":false,"transit":false,"distance":2504,"i_lat":-6.166068,"station_name":"Kalideres","i_long":106.701612},{"time":3,"station_name":"Poris","i_long":106.679458,"distance":2548,"transit":false,"i_lat":-6.169933,"is_transit":false,"line":5,"station_id":"PI"},{"time":3,"is_transit":false,"station_name":"Batuceper","i_long":106.665036,"distance":1834,"transit":false,"line":5,"station_id":"BPR","i_lat":-6.171811}],[{"station_id":"SDM","is_transit":false,"i_long":106.712277,"time":0,"distance":0,"i_lat":-6.296963,"line":6,"transit":false,"station_name":"Sudimara"},{"station_name":"Jurangmangu","i_lat":-6.288927,"i_long":106.728916,"line":6,"is_transit":false,"transit":false,"distance":1994,"time":4,"station_id":"JMU"},{"is_transit":false,"distance":2179,"i_lat":-6.276362,"station_name":"Pondokranji","time":3,"transit":false,"i_long":106.74273,"station_id":"PDJ","line":6},{"station_name":"Kebayoran","time":8,"transit":false,"is_transit":false,"i_long":106.780334,"station_id":"KBY","distance":6218,"i_lat":-6.237242,"line":6},{"is_transit":false,"transit":false,"time":7,"station_name":"Palmerah","station_id":"PLM","i_lat":-6.207404,"line":6,"distance":3737,"i_long":106.79689},{"line":1,"station_name":"Tanah Abang","distance":3191,"transit":true,"i_lat":-6.185545,"i_long":106.811091,"time":6,"station_id":"THB","is_transit":true},{"station_name":"Karet","i_long":106.816351,"distance":2029,"line":1,"time":5,"i_lat":-6.20132,"is_transit":false,"transit":false,"station_id":"KAT"},{"i_long":106.819881,"station_id":"SUDB","is_transit":false,"transit":false,"station_name":"Sudirman Baru","time":1,"i_lat":-6.201433,"distance":471,"line":1},{"transit":false,"station_id":"SUD","station_name":"Sudirman","i_long":106.822649,"line":1,"i_lat":-6.202263,"time":1,"is_transit":false,"distance":280},{"transit":true,"i_lat":-6.209883,"line":2,"i_long":106.84912,"distance":3186,"is_transit":true,"station_id":"MRI","time":4,"station_name":"Manggarai"},{"line":2,"station_id":"CKI","distance":1590,"transit":false,"station_name":"Cikini","i_lat":-6.198556,"i_long":106.840169,"is_transit":false,"time":4},{"i_lat":-6.186295,"distance":1750,"i_long":106.832183,"is_transit":false,"line":2,"transit":false,"station_id":"GDD","station_name":"Gondangdia","time":3},{"station_name":"Juanda","i_long":106.828284,"line":2,"is_transit":false,"time":4,"transit":false,"distance":2015,"i_lat":-6.166716,"station_id":"JUA"},{"station_id":"SW","transit":false,"i_lat":-6.160725,"is_transit":false,"station_name":"Sawah Besar","line":2,"distance":1149,"i_long":106.827103,"time":2},{"station_name":"Manggabesar","i_lat":-6.149769,"line":2,"station_id":"MGB","is_transit":false,"distance":906,"time":2,"transit":false,"i_long":106.82482},{"distance":1080,"time":2,"i_long":106.820901,"i_lat":-6.141205,"station_name":"Jayakarta","line":2,"station_id":"JAY","is_transit":false,"transit":false},{"i_long":106.812439,"station_id":"JAKK","station_name":"Jakarta Kota","time":4,"is_transit":true,"transit":true,"line":2,"i_lat":-6.137569,"distance":1264},{"transit":true,"i_long":106.826365,"time":3,"distance":1364,"line":4,"station_id":"KPB","is_transit":true,"station_name":"Kampung Bandan","i_lat":-6.132549},{"is_transit":false,"station_id":"AK","distance":4102,"transit":false,"i_long":106.79867,"line":1,"i_lat":-6.144674,"time":9,"station_name":"Angke"},{"line":1,"is_transit":true,"transit":true,"i_lat":-6.155215,"i_long":106.800832,"distance":1230,"station_name":"Duri","station_id":"DU","time":4},{"transit":false,"station_id":"GGL","station_name":"Grogol","time":3,"distance":1700,"i_lat":-6.162021,"i_long":106.788277,"is_transit":false,"line":5},{"time":2,"i_long":106.771379,"transit":false,"station_name":"Pesing","station_id":"PSG","is_transit":false,"distance":2036,"i_lat":-6.161433,"line":5},{"distance":1614,"is_transit":false,"station_name":"Taman Kota","station_id":"TKO","transit":false,"time":2,"i_lat":-6.1587309999999995,"i_long":106.756522,"line":5},{"i_lat":-6.159876,"i_long":106.737035,"line":5,"transit":false,"is_transit":false,"time":2,"station_id":"BOI","station_name":"Bojongindah","distance":2334},{"time":4,"i_long":106.723064,"transit":false,"distance":1152,"i_lat":-6.162758,"is_transit":false,"station_id":"RW","line":5,"station_name":"Rawa Buaya"},{"i_lat":-6.166068,"distance":2504,"transit":false,"station_id":"KDS","time":3,"station_name":"Kalideres","i_long":106.701612,"is_transit":false,"line":5},{"i_lat":-6.169933,"line":5,"station_name":"Poris","i_long":106.679458,"transit":false,"distance":2548,"station_id":"PI","is_transit":false,"time":3},{"line":5,"is_transit":false,"station_id":"BPR","transit":false,"time":3,"station_name":"Batuceper","distance":1834,"i_lat":-6.171811,"i_long":106.665036}],[{"station_id":"SDM","i_lat":-6.296963,"time":0,"station_name":"Sudimara","is_transit":false,"transit":false,"i_long":106.712277,"distance":0,"line":6},{"station_name":"Jurangmangu","i_long":106.728916,"is_transit":false,"transit":false,"time":4,"distance":1994,"i_lat":-6.288927,"line":6,"station_id":"JMU"},{"station_name":"Pondokranji","i_lat":-6.276362,"is_transit":false,"time":3,"distance":2179,"i_long":106.74273,"line":6,"station_id":"PDJ","transit":false},{"transit":false,"i_lat":-6.237242,"i_long":106.780334,"is_transit":false,"line":6,"time":8,"station_id":"KBY","station_name":"Kebayoran","distance":6218},{"station_id":"PLM","transit":false,"distance":3737,"i_long":106.79689,"line":6,"i_lat":-6.207404,"is_transit":false,"station_name":"Palmerah","time":7},{"station_id":"THB","is_transit":true,"line":1,"time":6,"i_lat":-6.185545,"station_name":"Tanah Abang","distance":3191,"i_long":106.811091,"transit":true},{"station_name":"Karet","is_transit":false,"i_lat":-6.20132,"distance":2029,"line":1,"time":5,"i_long":106.816351,"transit":false,"station_id":"KAT"},{"time":1,"distance":471,"i_lat":-6.201433,"station_id":"SUDB","station_name":"Sudirman Baru","line":1,"is_transit":false,"transit":false,"i_long":106.819881},{"i_lat":-6.202263,"transit":false,"i_long":106.822649,"line":1,"station_id":"SUD","time":1,"station_name":"Sudirman","distance":280,"is_transit":false},{"i_lat":-6.209883,"i_long":106.84912,"time":4,"station_name":"Manggarai","transit":false,"is_transit":false,"distance":3186,"line":2,"station_id":"MRI"},{"is_transit":false,"distance":1275,"i_lat":-6.212485,"station_id":"MTR","time":2,"transit":false,"station_name":"Matraman","i_long":106.858896,"line":1},{"distance":1377,"line":1,"time":8,"station_name":"Jatinegara","i_long":106.86807400000001,"station_id":"JNG","is_transit":true,"transit":true,"i_lat":-6.215091},{"is_transit":false,"distance":1236,"transit":false,"station_id":"POK","line":11,"time":2,"station_name":"Pondok Jati","i_lat":-6.209188,"i_long":106.861737},{"station_id":"KMT","i_lat":-6.193792,"time":2,"station_name":"Kramat","distance":1829,"transit":false,"is_transit":false,"i_long":106.855437,"line":11},{"station_id":"GST","is_transit":false,"time":1,"i_lat":-6.185975,"i_long":106.850107,"distance":973,"station_name":"Gang Sentiong","line":11,"transit":false},{"station_name":"Pasar Senen","i_lat":-6.174784,"is_transit":false,"transit":false,"distance":1567,"time":8,"station_id":"PSE","i_long":106.84368,"line":11},{"time":4,"i_long":106.839204,"station_name":"Kemayoran","station_id":"KMO","transit":false,"is_transit":false,"line":11,"distance":1436,"i_lat":-6.161728},{"transit":false,"time":5,"i_long":106.836569,"station_name":"Rajawali","line":11,"distance":1901,"i_lat":-6.14505,"station_id":"RJW","is_transit":false},{"line":4,"station_name":"Kampung Bandan","is_transit":true,"distance":1444,"i_lat":-6.132549,"i_long":106.826365,"transit":true,"time":3,"station_id":"KPB"},{"time":9,"transit":false,"station_name":"Angke","i_lat":-6.144674,"station_id":"AK","distance":4102,"line":1,"i_long":106.79867,"is_transit":false},{"is_transit":true,"time":4,"station_id":"DU","distance":1230,"i_long":106.800832,"station_name":"Duri","transit":true,"i_lat":-6.155215,"line":1},{"line":5,"station_id":"GGL","time":3,"transit":false,"i_lat":-6.162021,"station_name":"Grogol","is_transit":false,"distance":1700,"i_long":106.788277},{"time":2,"station_id":"PSG","is_transit":false,"i_long":106.771379,"distance":2036,"transit":false,"station_name":"Pesing","i_lat":-6.161433,"line":5},{"station_name":"Taman Kota","line":5,"i_lat":-6.1587309999999995,"is_transit":false,"i_long":106.756522,"transit":false,"distance":1614,"time":2,"station_id":"TKO"},{"transit":false,"line":5,"distance":2334,"i_lat":-6.159876,"station_id":"BOI","time":2,"i_long":106.737035,"station_name":"Bojongindah","is_transit":false},{"i_long":106.723064,"transit":false,"distance":1152,"line":5,"station_id":"RW","station_name":"Rawa Buaya","time":4,"is_transit":false,"i_lat":-6.162758},{"station_id":"KDS","distance":2504,"time":3,"i_lat":-6.166068,"station_name":"Kalideres","line":5,"i_long":106.701612,"is_transit":false,"transit":false},{"line":5,"is_transit":false,"transit":false,"time":3,"station_id":"PI","i_lat":-6.169933,"i_long":106.679458,"distance":2548,"station_name":"Poris"},{"distance":1834,"transit":false,"line":5,"is_transit":false,"i_lat":-6.171811,"station_name":"Batuceper","time":3,"station_id":"BPR","i_long":106.665036}]]}