{"data":[[{"distance":0,"i_lat":-6.296963,"station_name":"Sudimara","i_long":106.712277,"line":6,"transit":false,"station_id":"SDM","is_transit":false,"time":0},{"line":6,"is_transit":false,"i_long":106.728916,"transit":false,"station_name":"Jurangmangu","i_lat":-6.288927,"distance":1994,"time":4,"station_id":"JMU"},{"distance":2179,"is_transit":false,"i_lat":-6.276362,"time":3,"station_id":"PDJ","line":6,"transit":false,"station_name":"Pondokranji","i_long":106.74273},{"distance":6218,"i_lat":-6.237242,"is_transit":false,"transit":false,"station_name":"Kebayoran","line":6,"i_long":106.780334,"station_id":"KBY","time":8},{"station_name":"Palmerah","i_long":106.79689,"station_id":"PLM","i_lat":-6.207404,"distance":3737,"is_transit":false,"time":7,"line":6,"transit":false},{"i_long":106.811091,"transit":true,"station_id":"THB","is_transit":true,"station_name":"Tanah Abang","i_lat":-6.185545,"time":6,"distance":3191,"line":1},{"i_long":106.816351,"station_name":"Karet","station_id":"KAT","i_lat":-6.20132,"is_transit":false,"distance":2029,"transit":false,"line":1,"time":5},{"distance":471,"is_transit":false,"transit":false,"station_name":"Sudirman Baru","line":1,"i_long":106.819881,"time":1,"station_id":"SUDB","i_lat":-6.201433},{"i_long":106.822649,"station_name":"Sudirman","line":1,"station_id":"SUD","distance":280,"is_transit":false,"transit":false,"time":1,"i_lat":-6.202263},{"transit":true,"i_lat":-6.209883,"is_transit":true,"distance":3186,"station_id":"MRI","time":4,"i_long":106.84912,"station_name":"Manggarai","line":2},{"is_transit":false,"line":2,"transit":false,"distance":2610,"time":4,"i_lat":-6.226659,"station_id":"TEB","station_name":"Tebet","i_long":106.857948},{"transit":false,"line":2,"station_id":"CW","i_long":106.856607,"time":2,"distance":1230,"is_transit":false,"station_name":"Cawang","i_lat":-6.242512},{"station_name":"Duren Kalibata","is_transit":false,"station_id":"DRN","time":3,"i_long":106.85449,"line":2,"distance":1546,"i_lat":-6.255332,"transit":false},{"i_long":106.851577,"line":2,"distance":824,"station_name":"Pasar Minggu Baru","i_lat":-6.263214,"transit":false,"is_transit":false,"station_id":"PSMB","time":2}],[{"is_transit":false,"time":0,"station_id":"SDM","i_lat":-6.296963,"transit":false,"i_long":106.712277,"station_name":"Sudimara","distance":0,"line":6},{"time":4,"i_lat":-6.288927,"station_name":"Jurangmangu","station_id":"JMU","distance":1994,"transit":false,"line":6,"i_long":106.728916,"is_transit":false},{"station_name":"Pondokranji","transit":false,"station_id":"PDJ","line":6,"i_long":106.74273,"i_lat":-6.276362,"time":3,"is_transit":false,"distance":2179},{"line":6,"distance":6218,"station_name":"Kebayoran","i_long":106.780334,"transit":false,"station_id":"KBY","time":8,"is_transit":false,"i_lat":-6.237242},{"i_lat":-6.207404,"time":7,"station_id":"PLM","is_transit":false,"distance":3737,"station_name":"Palmerah","i_long":106.79689,"line":6,"transit":false},{"i_long":106.811091,"station_name":"Tanah Abang","transit":true,"station_id":"THB","distance":3191,"is_transit":true,"line":1,"time":6,"i_lat":-6.185545},{"is_transit":false,"i_long":106.800832,"line":1,"station_name":"Duri","distance":3632,"station_id":"DU","transit":false,"i_lat":-6.155215,"time":8},{"station_name":"Angke","line":1,"transit":false,"i_long":106.79867,"is_transit":false,"time":4,"distance":1230,"station_id":"AK","i_lat":-6.144674},{"distance":4102,"line":4,"i_long":106.826365,"time":9,"is_transit":true,"transit":true,"i_lat":-6.132549,"station_name":"Kampung Bandan","station_id":"KPB"},{"station_name":"Jakarta Kota","distance":1364,"is_transit":true,"time":3,"line":2,"i_long":106.812439,"transit":true,"station_id":"JAKK","i_lat":-6.137569},{"time":4,"i_long":106.820901,"station_name":"Jayakarta","line":2,"is_transit":false,"transit":false,"distance":1264,"i_lat":-6.141205,"station_id":"JAY"},{"is_transit":false,"i_lat":-6.149769,"time":2,"i_long":106.82482,"line":2,"distance":1080,"station_name":"Manggabesar","station_id":"MGB","transit":false},{"station_name":"Sawah Besar","distance":906,"station_id":"SW","transit":false,"time":2,"i_lat":-6.160725,"is_transit":false,"i_long":106.827103,"line":2},{"transit":false,"time":2,"line":2,"i_lat":-6.166716,"is_transit":false,"distance":1149,"i_long":106.828284,"station_name":"Juanda","station_id":"JUA"},{"transit":false,"line":2,"time":4,"distance":2015,"i_long":106.832183,"station_id":"GDD","i_lat":-6.186295,"station_name":"Gondangdia","is_transit":false},{"time":3,"line":2,"transit":false,"is_transit":false,"i_lat":-6.198556,"station_name":"Cikini","station_id":"CKI","i_long":106.840169,"distance":1750},{"station_name":"Manggarai","i_lat":-6.209883,"i_long":106.84912,"transit":false,"line":2,"is_transit":false,"station_id":"MRI","distance":1590,"time":4},{"transit":false,"i_lat":-6.226659,"time":4,"station_id":"TEB","i_long":106.857948,"distance":2610,"station_name":"Tebet","line":2,"is_transit":false},{"distance":1230,"station_id":"CW","i_lat":-6.242512,"transit":false,"i_long":106.856607,"station_name":"Cawang","line":2,"is_transit":false,"time":2},{"is_transit":false,"station_name":"Duren Kalibata","time":3,"transit":false,"line":2,"distance":1546,"i_long":106.85449,"i_lat":-6.255332,"station_id":"DRN"},{"is_transit":false,"station_id":"PSMB","time":2,"i_long":106.851577,"line":2,"i_lat":-6.263214,"station_name":"Pasar Minggu Baru","distance":824,"transit":false}],[{"is_transit":false,"i_long":106.712277,"station_id":"SDM","line":6,"station_name":"Sudimara","transit":false,"time":0,"i_lat":-6.296963,"distance":0},{"i_long":106.728916,"i_lat":-6.288927,"station_id":"JMU","is_transit":false,"station_name":"Jurangmangu","time":4,"transit":false,"distance":1994,"line":6},{"station_id":"PDJ","transit":false,"station_name":"Pondokranji","i_long":106.74273,"time":3,"i_lat":-6.276362,"is_transit":false,"distance":2179,"line":6},{"i_long":106.780334,"is_transit":false,"time":8,"transit":false,"station_id":"KBY","distance":6218,"line":6,"station_name":"Kebayoran","i_lat":-6.237242},{"is_transit":false,"i_long":106.79689,"station_id":"PLM","station_name":"Palmerah","distance":3737,"line":6,"i_lat":-6.207404,"time":7,"transit":false},{"distance":3191,"i_long":106.811091,"is_transit":true,"line":1,"transit":true,"time":6,"i_lat":-6.185545,"station_name":"Tanah Abang","station_id":"THB"},{"is_transit":false,"i_lat":-6.155215,"distance":3632,"line":1,"station_name":"Duri","station_id":"DU","i_long":106.800832,"transit":false,"time":8},{"station_name":"Angke","is_transit":false,"i_long":106.79867,"line":1,"transit":false,"time":4,"distance":1230,"i_lat":-6.144674,"station_id":"AK"},{"time":9,"distance":4102,"transit":true,"is_transit":true,"station_id":"KPB","station_name":"Kampung Bandan","i_lat":-6.132549,"i_long":106.826365,"line":4},{"transit":false,"time":3,"distance":1444,"station_name":"Rajawali","i_lat":-6.14505,"line":11,"is_transit":false,"station_id":"RJW","i_long":106.836569},{"i_long":106.839204,"i_lat":-6.161728,"distance":1901,"transit":false,"station_name":"Kemayoran","is_transit":false,"line":11,"time":5,"station_id":"KMO"},{"is_transit":false,"distance":1436,"station_name":"Pasar Senen","line":11,"time":4,"transit":false,"i_long":106.84368,"station_id":"PSE","i_lat":-6.174784},{"station_name":"Gang Sentiong","i_long":106.850107,"i_lat":-6.185975,"distance":1567,"station_id":"GST","is_transit":false,"time":8,"line":11,"transit":false},{"station_id":"KMT","i_lat":-6.193792,"line":11,"transit":false,"is_transit":false,"station_name":"Kramat","i_long":106.855437,"distance":973,"time":1},{"i_long":106.861737,"transit":false,"time":2,"line":11,"distance":1829,"i_lat":-6.209188,"station_name":"Pondok Jati","is_transit":false,"station_id":"POK"},{"i_lat":-6.215091,"distance":1236,"station_name":"Jatinegara","is_transit":true,"i_long":106.86807400000001,"time":9,"line":1,"transit":true,"station_id":"JNG"},{"transit":false,"distance":1377,"station_name":"Matraman","station_id":"MTR","line":1,"i_lat":-6.212485,"is_transit":false,"time":2,"i_long":106.858896},{"station_id":"MRI","i_lat":-6.209883,"i_long":106.84912,"station_name":"Manggarai","time":2,"is_transit":true,"transit":true,"line":2,"distance":1275},{"time":4,"i_lat":-6.226659,"is_transit":false,"station_name":"Tebet","transit":false,"station_id":"TEB","line":2,"distance":2610,"i_long":106.857948},{"line":2,"time":2,"transit":false,"station_name":"Cawang","is_transit":false,"distance":1230,"i_long":106.856607,"i_lat":-6.242512,"station_id":"CW"},{"is_transit":false,"time":3,"distance":1546,"i_long":106.85449,"station_name":"Duren Kalibata","line":2,"transit":false,"station_id":"DRN","i_lat":-6.255332},{"is_transit":false,"station_name":"Pasar Minggu Baru","station_id":"PSMB","distance":824,"i_long":106.851577,"transit":false,"time":2,"line":2,"i_lat":-6.263214}]]}