{"data":[[{"i_lat":-6.296963,"transit":false,"is_transit":false,"distance":0,"station_id":"SDM","i_long":106.712277,"time":0,"line":6,"station_name":"Sudimara"},{"distance":1994,"transit":false,"station_id":"JMU","station_name":"Jurangmangu","line":6,"time":4,"is_transit":false,"i_long":106.728916,"i_lat":-6.288927},{"is_transit":false,"station_name":"Pondokranji","i_long":106.74273,"transit":false,"distance":2179,"time":3,"station_id":"PDJ","i_lat":-6.276362,"line":6},{"time":8,"distance":6218,"station_id":"KBY","transit":false,"is_transit":false,"station_name":"Kebayoran","i_lat":-6.237242,"line":6,"i_long":106.780334},{"time":7,"station_name":"Palmerah","line":6,"is_transit":false,"station_id":"PLM","i_long":106.79689,"transit":false,"i_lat":-6.207404,"distance":3737},{"transit":true,"i_lat":-6.185545,"i_long":106.811091,"station_id":"THB","station_name":"Tanah Abang","distance":3191,"is_transit":true,"time":6,"line":1},{"i_long":106.816351,"station_name":"Karet","line":1,"time":5,"station_id":"KAT","is_transit":false,"distance":2029,"transit":false,"i_lat":-6.20132},{"line":1,"i_long":106.819881,"i_lat":-6.201433,"station_id":"SUDB","transit":false,"is_transit":false,"distance":471,"station_name":"Sudirman Baru","time":1},{"station_id":"SUD","i_lat":-6.202263,"i_long":106.822649,"station_name":"Sudirman","distance":280,"transit":false,"time":1,"is_transit":false,"line":1},{"line":0,"i_lat":-6.209883,"station_name":"Manggarai","distance":3186,"is_transit":true,"i_long":106.84912,"transit":false,"time":4,"station_id":"MRI"},{"is_transit":false,"station_name":"Matraman","i_long":106.858896,"distance":1275,"i_lat":-6.212485,"time":2,"station_id":"MTR","line":1,"transit":false},{"is_transit":true,"line":0,"transit":false,"i_lat":-6.215091,"station_name":"Jatinegara","station_id":"JNG","time":8,"i_long":106.86807400000001,"distance":1377},{"line":1,"station_id":"KLD","i_long":106.899548,"is_transit":false,"time":3,"i_lat":-6.2135,"distance":3395,"transit":false,"station_name":"Klender"},{"transit":false,"i_lat":-6.215568,"time":2,"i_long":106.922662,"distance":3100,"station_name":"Buaran","is_transit":false,"station_id":"BUA","line":0},{"station_id":"KLDB","time":1,"distance":1305,"i_lat":-6.217455,"line":1,"is_transit":false,"transit":false,"i_long":106.939679,"station_name":"Klenderbaru"}],[{"station_name":"Sudimara","line":6,"i_lat":-6.296963,"station_id":"SDM","transit":false,"time":0,"distance":0,"is_transit":false,"i_long":106.712277},{"station_name":"Jurangmangu","line":6,"is_transit":false,"transit":false,"i_lat":-6.288927,"i_long":106.728916,"distance":1994,"time":4,"station_id":"JMU"},{"time":3,"line":6,"i_lat":-6.276362,"transit":false,"distance":2179,"is_transit":false,"station_name":"Pondokranji","i_long":106.74273,"station_id":"PDJ"},{"line":6,"station_id":"KBY","station_name":"Kebayoran","transit":false,"is_transit":false,"i_lat":-6.237242,"i_long":106.780334,"distance":6218,"time":8},{"distance":3737,"station_name":"Palmerah","transit":false,"i_lat":-6.207404,"i_long":106.79689,"line":6,"time":7,"is_transit":false,"station_id":"PLM"},{"time":6,"is_transit":true,"i_long":106.811091,"i_lat":-6.185545,"distance":3191,"station_name":"Tanah Abang","transit":true,"line":1,"station_id":"THB"},{"station_id":"DU","is_transit":true,"transit":true,"i_long":106.800832,"station_name":"Duri","time":8,"i_lat":-6.155215,"line":1,"distance":3632},{"distance":1230,"time":4,"i_lat":-6.144674,"transit":false,"is_transit":false,"station_name":"Angke","station_id":"AK","i_long":106.79867,"line":0},{"line":0,"is_transit":true,"distance":4102,"i_lat":-6.132549,"time":9,"station_id":"KPB","i_long":106.826365,"station_name":"Kampung Bandan","transit":true},{"distance":1444,"time":3,"i_long":106.836569,"transit":false,"line":11,"station_id":"RJW","station_name":"Rajawali","i_lat":-6.14505,"is_transit":false},{"time":5,"station_id":"KMO","station_name":"Kemayoran","i_long":106.839204,"line":11,"distance":1901,"transit":false,"is_transit":false,"i_lat":-6.161728},{"time":4,"i_long":106.84368,"line":11,"station_id":"PSE","transit":false,"distance":1436,"is_transit":false,"station_name":"Pasar Senen","i_lat":-6.174784},{"line":11,"is_transit":false,"i_lat":-6.185975,"station_id":"GST","i_long":106.850107,"station_name":"Gang Sentiong","time":8,"distance":1567,"transit":false},{"station_name":"Kramat","time":1,"distance":973,"i_lat":-6.193792,"is_transit":false,"i_long":106.855437,"line":11,"station_id":"KMT","transit":false},{"station_id":"POK","i_long":106.861737,"line":11,"is_transit":false,"time":2,"transit":false,"i_lat":-6.209188,"distance":1829,"station_name":"Pondok Jati"},{"station_id":"JNG","station_name":"Jatinegara","distance":1236,"time":9,"transit":true,"is_transit":true,"i_lat":-6.215091,"line":0,"i_long":106.86807400000001},{"i_long":106.899548,"station_name":"Klender","is_transit":false,"transit":false,"line":1,"station_id":"KLD","i_lat":-6.2135,"time":3,"distance":3395},{"station_name":"Buaran","line":0,"i_long":106.922662,"distance":3100,"transit":false,"time":2,"station_id":"BUA","is_transit":false,"i_lat":-6.215568},{"i_long":106.939679,"line":1,"i_lat":-6.217455,"time":1,"distance":1305,"station_id":"KLDB","is_transit":false,"station_name":"Klenderbaru","transit":false}],[{"i_long":106.712277,"line":6,"station_name":"Sudimara","time":0,"i_lat":-6.296963,"is_transit":false,"distance":0,"transit":false,"station_id":"SDM"},{"i_lat":-6.288927,"station_name":"Jurangmangu","distance":1994,"time":4,"line":6,"is_transit":false,"station_id":"JMU","transit":false,"i_long":106.728916},{"i_long":106.74273,"station_id":"PDJ","is_transit":false,"distance":2179,"i_lat":-6.276362,"time":3,"transit":false,"station_name":"Pondokranji","line":6},{"station_id":"KBY","transit":false,"time":8,"station_name":"Kebayoran","distance":6218,"is_transit":false,"i_long":106.780334,"line":6,"i_lat":-6.237242},{"time":7,"is_transit":false,"transit":false,"i_long":106.79689,"line":6,"station_id":"PLM","distance":3737,"station_name":"Palmerah","i_lat":-6.207404},{"station_id":"THB","distance":3191,"line":1,"time":6,"is_transit":true,"transit":true,"i_lat":-6.185545,"i_long":106.811091,"station_name":"Tanah Abang"},{"distance":3632,"station_id":"DU","transit":true,"time":8,"i_long":106.800832,"i_lat":-6.155215,"is_transit":true,"line":1,"station_name":"Duri"},{"i_long":106.79867,"line":0,"station_id":"AK","i_lat":-6.144674,"is_transit":false,"distance":1230,"transit":false,"time":4,"station_name":"Angke"},{"line":0,"distance":4102,"is_transit":true,"time":9,"i_lat":-6.132549,"transit":false,"station_id":"KPB","station_name":"Kampung Bandan","i_long":106.826365},{"station_name":"Jakarta Kota","line":0,"distance":1364,"i_long":106.812439,"transit":true,"i_lat":-6.137569,"is_transit":true,"time":3,"station_id":"JAKK"},{"distance":1264,"station_name":"Jayakarta","transit":false,"i_lat":-6.141205,"i_long":106.820901,"station_id":"JAY","is_transit":false,"line":7,"time":4},{"is_transit":false,"time":2,"line":2,"i_long":106.82482,"i_lat":-6.149769,"station_id":"MGB","distance":1080,"transit":false,"station_name":"Manggabesar"},{"station_id":"SW","i_long":106.827103,"line":2,"transit":false,"distance":906,"is_transit":false,"time":2,"i_lat":-6.160725,"station_name":"Sawah Besar"},{"i_lat":-6.166716,"line":2,"distance":1149,"is_transit":false,"time":2,"i_long":106.828284,"station_id":"JUA","station_name":"Juanda","transit":false},{"i_long":106.832183,"distance":2015,"station_name":"Gondangdia","station_id":"GDD","line":2,"i_lat":-6.186295,"transit":false,"time":4,"is_transit":false},{"is_transit":false,"i_lat":-6.198556,"distance":1750,"station_id":"CKI","transit":false,"time":3,"i_long":106.840169,"station_name":"Cikini","line":0},{"is_transit":true,"line":0,"time":4,"station_id":"MRI","distance":1590,"transit":true,"i_long":106.84912,"station_name":"Manggarai","i_lat":-6.209883},{"line":1,"time":2,"station_name":"Matraman","i_lat":-6.212485,"station_id":"MTR","transit":false,"is_transit":false,"i_long":106.858896,"distance":1275},{"i_lat":-6.215091,"station_name":"Jatinegara","distance":1377,"line":0,"station_id":"JNG","transit":false,"time":8,"is_transit":true,"i_long":106.86807400000001},{"station_id":"KLD","distance":3395,"time":3,"i_long":106.899548,"is_transit":false,"transit":false,"station_name":"Klender","i_lat":-6.2135,"line":1},{"transit":false,"station_name":"Buaran","time":2,"station_id":"BUA","i_lat":-6.215568,"line":0,"i_long":106.922662,"distance":3100,"is_transit":false},{"time":1,"i_lat":-6.217455,"line":1,"station_id":"KLDB","station_name":"Klenderbaru","distance":1305,"is_transit":false,"transit":false,"i_long":106.939679}],[{"time":0,"line":6,"station_name":"Sudimara","is_transit":false,"distance":0,"i_long":106.712277,"i_lat":-6.296963,"transit":false,"station_id":"SDM"},{"i_long":106.728916,"station_id":"JMU","i_lat":-6.288927,"line":6,"is_transit":false,"transit":false,"station_name":"Jurangmangu","time":4,"distance":1994},{"station_id":"PDJ","time":3,"line":6,"i_lat":-6.276362,"distance":2179,"is_transit":false,"transit":false,"i_long":106.74273,"station_name":"Pondokranji"},{"distance":6218,"transit":false,"is_transit":false,"station_id":"KBY","time":8,"station_name":"Kebayoran","line":6,"i_lat":-6.237242,"i_long":106.780334},{"i_lat":-6.207404,"i_long":106.79689,"distance":3737,"line":6,"transit":false,"is_transit":false,"station_name":"Palmerah","station_id":"PLM","time":7},{"line":1,"is_transit":true,"distance":3191,"station_id":"THB","station_name":"Tanah Abang","i_lat":-6.185545,"transit":true,"time":6,"i_long":106.811091},{"station_id":"KAT","i_lat":-6.20132,"is_transit":false,"distance":2029,"station_name":"Karet","transit":false,"i_long":106.816351,"time":5,"line":1},{"station_id":"SUDB","transit":false,"time":1,"line":1,"station_name":"Sudirman Baru","is_transit":false,"i_long":106.819881,"distance":471,"i_lat":-6.201433},{"distance":280,"station_id":"SUD","station_name":"Sudirman","is_transit":false,"time":1,"i_lat":-6.202263,"i_long":106.822649,"line":1,"transit":false},{"line":0,"station_id":"MRI","distance":3186,"station_name":"Manggarai","i_lat":-6.209883,"transit":true,"is_transit":true,"time":4,"i_long":106.84912},{"distance":1590,"is_transit":false,"station_name":"Cikini","i_lat":-6.198556,"line":0,"transit":false,"station_id":"CKI","time":4,"i_long":106.840169},{"time":3,"i_lat":-6.186295,"i_long":106.832183,"line":2,"station_name":"Gondangdia","distance":1750,"station_id":"GDD","is_transit":false,"transit":false},{"distance":2015,"station_id":"JUA","station_name":"Juanda","i_long":106.828284,"i_lat":-6.166716,"line":2,"transit":false,"time":4,"is_transit":false},{"transit":false,"time":2,"line":2,"distance":1149,"station_id":"SW","is_transit":false,"i_lat":-6.160725,"i_long":106.827103,"station_name":"Sawah Besar"},{"is_transit":false,"station_id":"MGB","i_lat":-6.149769,"i_long":106.82482,"line":2,"station_name":"Manggabesar","distance":906,"time":2,"transit":false},{"is_transit":false,"line":7,"time":2,"transit":false,"distance":1080,"station_id":"JAY","i_lat":-6.141205,"i_long":106.820901,"station_name":"Jayakarta"},{"station_id":"JAKK","station_name":"Jakarta Kota","time":4,"i_long":106.812439,"transit":true,"distance":1264,"i_lat":-6.137569,"line":0,"is_transit":true},{"transit":true,"i_long":106.826365,"distance":1364,"time":3,"i_lat":-6.132549,"station_id":"KPB","line":0,"is_transit":true,"station_name":"Kampung Bandan"},{"is_transit":false,"station_id":"RJW","transit":false,"time":3,"i_lat":-6.14505,"i_long":106.836569,"line":11,"station_name":"Rajawali","distance":1444},{"i_long":106.839204,"station_name":"Kemayoran","line":11,"time":5,"i_lat":-6.161728,"station_id":"KMO","transit":false,"is_transit":false,"distance":1901},{"i_long":106.84368,"distance":1436,"station_name":"Pasar Senen","time":4,"is_transit":false,"i_lat":-6.174784,"station_id":"PSE","transit":false,"line":11},{"distance":1567,"is_transit":false,"station_id":"GST","time":8,"i_long":106.850107,"station_name":"Gang Sentiong","line":11,"i_lat":-6.185975,"transit":false},{"station_name":"Kramat","i_long":106.855437,"station_id":"KMT","is_transit":false,"transit":false,"time":1,"i_lat":-6.193792,"distance":973,"line":11},{"station_name":"Pondok Jati","distance":1829,"transit":false,"i_long":106.861737,"station_id":"POK","is_transit":false,"time":2,"i_lat":-6.209188,"line":11},{"transit":true,"station_id":"JNG","line":0,"distance":1236,"is_transit":true,"time":9,"i_lat":-6.215091,"i_long":106.86807400000001,"station_name":"Jatinegara"},{"distance":3395,"station_id":"KLD","time":3,"transit":false,"line":1,"i_long":106.899548,"i_lat":-6.2135,"is_transit":false,"station_name":"Klender"},{"transit":false,"is_transit":false,"station_name":"Buaran","time":2,"i_lat":-6.215568,"station_id":"BUA","i_long":106.922662,"line":0,"distance":3100},{"station_id":"KLDB","station_name":"Klenderbaru","time":1,"i_lat":-6.217455,"line":1,"is_transit":false,"transit":false,"i_long":106.939679,"distance":1305}]]}