{"data":[[{"time":0,"transit":false,"i_long":106.712277,"distance":0,"station_name":"Sudimara","i_lat":-6.296963,"line":6,"is_transit":false,"station_id":"SDM"},{"station_id":"JMU","i_long":106.728916,"line":6,"transit":false,"time":4,"is_transit":false,"distance":1994,"station_name":"Jurangmangu","i_lat":-6.288927},{"distance":2179,"i_long":106.74273,"station_id":"PDJ","is_transit":false,"station_name":"Pondokranji","time":3,"i_lat":-6.276362,"transit":false,"line":6},{"station_id":"KBY","i_long":106.780334,"station_name":"Kebayoran","i_lat":-6.237242,"transit":false,"is_transit":false,"line":6,"distance":6218,"time":8},{"time":7,"i_long":106.79689,"i_lat":-6.207404,"line":6,"transit":false,"station_id":"PLM","is_transit":false,"distance":3737,"station_name":"Palmerah"},{"is_transit":true,"distance":3191,"time":6,"station_id":"THB","i_long":106.811091,"line":1,"station_name":"Tanah Abang","i_lat":-6.185545,"transit":true},{"station_id":"KAT","transit":false,"distance":2029,"time":5,"is_transit":false,"i_lat":-6.20132,"i_long":106.816351,"line":1,"station_name":"Karet"},{"transit":false,"i_long":106.819881,"line":1,"distance":471,"station_id":"SUDB","station_name":"Sudirman Baru","time":1,"i_lat":-6.201433,"is_transit":false},{"time":1,"i_lat":-6.202263,"i_long":106.822649,"station_name":"Sudirman","station_id":"SUD","line":1,"distance":280,"is_transit":false,"transit":false}],[{"time":0,"line":6,"station_name":"Sudimara","i_lat":-6.296963,"is_transit":false,"i_long":106.712277,"station_id":"SDM","transit":false,"distance":0},{"distance":1994,"station_id":"JMU","line":6,"transit":false,"station_name":"Jurangmangu","i_lat":-6.288927,"is_transit":false,"i_long":106.728916,"time":4},{"transit":false,"i_lat":-6.276362,"line":6,"i_long":106.74273,"is_transit":false,"time":3,"distance":2179,"station_id":"PDJ","station_name":"Pondokranji"},{"is_transit":false,"i_long":106.780334,"distance":6218,"time":8,"i_lat":-6.237242,"station_id":"KBY","line":6,"station_name":"Kebayoran","transit":false},{"is_transit":false,"time":7,"line":6,"station_id":"PLM","i_long":106.79689,"i_lat":-6.207404,"station_name":"Palmerah","transit":false,"distance":3737},{"transit":true,"time":6,"i_long":106.811091,"line":1,"is_transit":true,"i_lat":-6.185545,"station_name":"Tanah Abang","distance":3191,"station_id":"THB"},{"transit":true,"distance":3632,"is_transit":true,"station_id":"DU","station_name":"Duri","i_lat":-6.155215,"i_long":106.800832,"line":1,"time":8},{"transit":false,"i_lat":-6.144674,"distance":1230,"time":4,"is_transit":false,"line":0,"station_name":"Angke","i_long":106.79867,"station_id":"AK"},{"station_id":"KPB","is_transit":true,"i_lat":-6.132549,"line":0,"time":9,"station_name":"Kampung Bandan","distance":4102,"transit":false,"i_long":106.826365},{"i_long":106.812439,"station_id":"JAKK","transit":true,"is_transit":true,"station_name":"Jakarta Kota","distance":1364,"time":3,"line":0,"i_lat":-6.137569},{"station_id":"JAY","is_transit":false,"line":7,"distance":1264,"i_lat":-6.141205,"i_long":106.820901,"time":4,"transit":false,"station_name":"Jayakarta"},{"i_long":106.82482,"station_id":"MGB","time":2,"line":2,"i_lat":-6.149769,"is_transit":false,"station_name":"Manggabesar","distance":1080,"transit":false},{"distance":906,"station_id":"SW","i_lat":-6.160725,"i_long":106.827103,"station_name":"Sawah Besar","transit":false,"is_transit":false,"time":2,"line":2},{"station_name":"Juanda","station_id":"JUA","time":2,"i_lat":-6.166716,"distance":1149,"is_transit":false,"i_long":106.828284,"line":2,"transit":false},{"station_name":"Gondangdia","time":4,"transit":false,"station_id":"GDD","is_transit":false,"i_lat":-6.186295,"line":2,"distance":2015,"i_long":106.832183},{"distance":1750,"station_name":"Cikini","time":3,"line":0,"station_id":"CKI","is_transit":false,"transit":false,"i_lat":-6.198556,"i_long":106.840169},{"i_lat":-6.209883,"station_id":"MRI","station_name":"Manggarai","is_transit":true,"i_long":106.84912,"line":0,"transit":true,"time":4,"distance":1590},{"is_transit":false,"i_lat":-6.202263,"station_name":"Sudirman","i_long":106.822649,"distance":3186,"station_id":"SUD","transit":false,"time":4,"line":1}],[{"station_id":"SDM","time":0,"i_lat":-6.296963,"transit":false,"line":6,"i_long":106.712277,"distance":0,"is_transit":false,"station_name":"Sudimara"},{"i_lat":-6.288927,"is_transit":false,"time":4,"transit":false,"station_name":"Jurangmangu","i_long":106.728916,"line":6,"station_id":"JMU","distance":1994},{"station_name":"Pondokranji","line":6,"distance":2179,"time":3,"station_id":"PDJ","transit":false,"i_lat":-6.276362,"is_transit":false,"i_long":106.74273},{"line":6,"station_name":"Kebayoran","station_id":"KBY","i_long":106.780334,"is_transit":false,"distance":6218,"transit":false,"i_lat":-6.237242,"time":8},{"i_long":106.79689,"is_transit":false,"station_id":"PLM","line":6,"station_name":"Palmerah","distance":3737,"transit":false,"i_lat":-6.207404,"time":7},{"transit":true,"time":6,"line":1,"distance":3191,"is_transit":true,"station_name":"Tanah Abang","i_long":106.811091,"i_lat":-6.185545,"station_id":"THB"},{"line":1,"distance":3632,"station_id":"DU","is_transit":true,"transit":true,"time":8,"i_long":106.800832,"i_lat":-6.155215,"station_name":"Duri"},{"i_long":106.79867,"is_transit":false,"distance":1230,"station_name":"Angke","transit":false,"time":4,"station_id":"AK","line":0,"i_lat":-6.144674},{"transit":true,"station_name":"Kampung Bandan","is_transit":true,"i_long":106.826365,"time":9,"station_id":"KPB","distance":4102,"line":0,"i_lat":-6.132549},{"i_lat":-6.14505,"distance":1444,"station_id":"RJW","line":11,"transit":false,"is_transit":false,"time":3,"station_name":"Rajawali","i_long":106.836569},{"time":5,"i_long":106.839204,"line":11,"distance":1901,"is_transit":false,"station_name":"Kemayoran","station_id":"KMO","transit":false,"i_lat":-6.161728},{"i_lat":-6.174784,"distance":1436,"station_id":"PSE","station_name":"Pasar Senen","line":11,"is_transit":false,"i_long":106.84368,"transit":false,"time":4},{"distance":1567,"i_long":106.850107,"is_transit":false,"line":11,"station_id":"GST","time":8,"transit":false,"i_lat":-6.185975,"station_name":"Gang Sentiong"},{"distance":973,"is_transit":false,"i_long":106.855437,"time":1,"station_id":"KMT","station_name":"Kramat","transit":false,"i_lat":-6.193792,"line":11},{"i_long":106.861737,"transit":false,"time":2,"station_id":"POK","line":11,"distance":1829,"i_lat":-6.209188,"station_name":"Pondok Jati","is_transit":false},{"line":0,"is_transit":true,"i_long":106.86807400000001,"station_id":"JNG","station_name":"Jatinegara","transit":true,"time":9,"i_lat":-6.215091,"distance":1236},{"i_long":106.858896,"time":2,"transit":false,"is_transit":false,"station_name":"Matraman","line":1,"i_lat":-6.212485,"station_id":"MTR","distance":1377},{"distance":1275,"station_id":"MRI","i_long":106.84912,"station_name":"Manggarai","i_lat":-6.209883,"line":0,"is_transit":true,"transit":false,"time":2},{"is_transit":false,"i_long":106.822649,"station_name":"Sudirman","line":1,"distance":3186,"station_id":"SUD","i_lat":-6.202263,"time":4,"transit":false}]]}