{"data":[[{"is_transit":false,"station_name":"Sudimara","line":6,"i_long":106.712277,"i_lat":-6.296963,"time":0,"station_id":"SDM","distance":0,"transit":false},{"is_transit":false,"distance":1994,"station_id":"JMU","i_lat":-6.288927,"i_long":106.728916,"line":6,"transit":false,"time":4,"station_name":"Jurangmangu"},{"i_long":106.74273,"time":3,"is_transit":false,"distance":2179,"station_id":"PDJ","station_name":"Pondokranji","transit":false,"i_lat":-6.276362,"line":6},{"station_name":"Kebayoran","transit":false,"line":6,"station_id":"KBY","time":8,"distance":6218,"i_lat":-6.237242,"i_long":106.780334,"is_transit":false},{"transit":false,"is_transit":false,"time":7,"distance":3737,"i_lat":-6.207404,"i_long":106.79689,"line":6,"station_name":"Palmerah","station_id":"PLM"},{"station_name":"Tanah Abang","transit":true,"time":6,"distance":3191,"station_id":"THB","is_transit":true,"i_lat":-6.185545,"i_long":106.811091,"line":1},{"time":5,"transit":false,"i_long":106.816351,"line":1,"station_name":"Karet","distance":2029,"i_lat":-6.20132,"is_transit":false,"station_id":"KAT"},{"i_long":106.819881,"distance":471,"is_transit":false,"station_id":"SUDB","time":1,"transit":false,"station_name":"Sudirman Baru","line":1,"i_lat":-6.201433},{"i_long":106.822649,"transit":false,"line":1,"station_name":"Sudirman","distance":280,"time":1,"i_lat":-6.202263,"is_transit":false,"station_id":"SUD"},{"time":4,"i_long":106.84912,"transit":true,"station_name":"Manggarai","line":2,"distance":3186,"station_id":"MRI","is_transit":true,"i_lat":-6.209883},{"transit":false,"is_transit":false,"i_lat":-6.198556,"i_long":106.840169,"station_name":"Cikini","line":2,"station_id":"CKI","time":4,"distance":1590},{"distance":1750,"transit":false,"i_long":106.832183,"line":2,"is_transit":false,"station_name":"Gondangdia","i_lat":-6.186295,"station_id":"GDD","time":3}],[{"station_name":"Sudimara","i_lat":-6.296963,"distance":0,"is_transit":false,"time":0,"i_long":106.712277,"station_id":"SDM","line":6,"transit":false},{"station_name":"Jurangmangu","time":4,"station_id":"JMU","is_transit":false,"i_long":106.728916,"line":6,"distance":1994,"i_lat":-6.288927,"transit":false},{"i_long":106.74273,"line":6,"station_name":"Pondokranji","transit":false,"time":3,"i_lat":-6.276362,"station_id":"PDJ","distance":2179,"is_transit":false},{"distance":6218,"line":6,"i_lat":-6.237242,"station_name":"Kebayoran","station_id":"KBY","i_long":106.780334,"is_transit":false,"time":8,"transit":false},{"time":7,"i_lat":-6.207404,"transit":false,"i_long":106.79689,"line":6,"station_id":"PLM","is_transit":false,"station_name":"Palmerah","distance":3737},{"line":1,"transit":true,"station_name":"Tanah Abang","distance":3191,"time":6,"is_transit":true,"i_long":106.811091,"station_id":"THB","i_lat":-6.185545},{"transit":false,"time":8,"i_long":106.800832,"line":1,"station_id":"DU","station_name":"Duri","is_transit":false,"i_lat":-6.155215,"distance":3632},{"is_transit":false,"time":4,"i_long":106.79867,"distance":1230,"station_id":"AK","station_name":"Angke","line":1,"transit":false,"i_lat":-6.144674},{"is_transit":true,"time":9,"i_lat":-6.132549,"station_name":"Kampung Bandan","distance":4102,"transit":true,"line":4,"i_long":106.826365,"station_id":"KPB"},{"i_lat":-6.137569,"line":2,"distance":1364,"i_long":106.812439,"time":3,"station_id":"JAKK","is_transit":true,"transit":true,"station_name":"Jakarta Kota"},{"is_transit":false,"station_name":"Jayakarta","i_lat":-6.141205,"i_long":106.820901,"distance":1264,"station_id":"JAY","transit":false,"time":4,"line":2},{"i_lat":-6.149769,"is_transit":false,"transit":false,"line":2,"time":2,"i_long":106.82482,"station_name":"Manggabesar","distance":1080,"station_id":"MGB"},{"is_transit":false,"i_lat":-6.160725,"i_long":106.827103,"distance":906,"station_name":"Sawah Besar","station_id":"SW","time":2,"transit":false,"line":2},{"line":2,"i_lat":-6.166716,"transit":false,"time":2,"is_transit":false,"distance":1149,"i_long":106.828284,"station_id":"JUA","station_name":"Juanda"},{"transit":false,"line":2,"i_long":106.832183,"i_lat":-6.186295,"distance":2015,"station_id":"GDD","time":4,"station_name":"Gondangdia","is_transit":false}],[{"is_transit":false,"station_name":"Sudimara","i_long":106.712277,"distance":0,"time":0,"transit":false,"station_id":"SDM","i_lat":-6.296963,"line":6},{"line":6,"station_id":"JMU","station_name":"Jurangmangu","i_lat":-6.288927,"is_transit":false,"i_long":106.728916,"time":4,"distance":1994,"transit":false},{"station_id":"PDJ","distance":2179,"i_lat":-6.276362,"transit":false,"station_name":"Pondokranji","is_transit":false,"i_long":106.74273,"line":6,"time":3},{"is_transit":false,"i_long":106.780334,"time":8,"station_name":"Kebayoran","station_id":"KBY","i_lat":-6.237242,"line":6,"distance":6218,"transit":false},{"distance":3737,"i_long":106.79689,"time":7,"line":6,"transit":false,"is_transit":false,"i_lat":-6.207404,"station_id":"PLM","station_name":"Palmerah"},{"transit":true,"distance":3191,"station_name":"Tanah Abang","i_lat":-6.185545,"i_long":106.811091,"is_transit":true,"time":6,"station_id":"THB","line":1},{"transit":false,"time":8,"station_id":"DU","is_transit":false,"station_name":"Duri","i_lat":-6.155215,"i_long":106.800832,"line":1,"distance":3632},{"transit":false,"i_lat":-6.144674,"distance":1230,"i_long":106.79867,"time":4,"line":1,"station_id":"AK","is_transit":false,"station_name":"Angke"},{"line":4,"station_name":"Kampung Bandan","station_id":"KPB","i_lat":-6.132549,"time":9,"distance":4102,"is_transit":true,"transit":true,"i_long":106.826365},{"distance":1444,"i_lat":-6.14505,"transit":false,"station_name":"Rajawali","is_transit":false,"time":3,"station_id":"RJW","i_long":106.836569,"line":11},{"station_id":"KMO","transit":false,"distance":1901,"time":5,"i_lat":-6.161728,"line":11,"station_name":"Kemayoran","i_long":106.839204,"is_transit":false},{"transit":false,"station_name":"Pasar Senen","i_long":106.84368,"is_transit":false,"line":11,"station_id":"PSE","i_lat":-6.174784,"time":4,"distance":1436},{"station_id":"GST","station_name":"Gang Sentiong","transit":false,"is_transit":false,"i_lat":-6.185975,"time":8,"distance":1567,"i_long":106.850107,"line":11},{"line":11,"station_name":"Kramat","i_long":106.855437,"time":1,"distance":973,"station_id":"KMT","is_transit":false,"transit":false,"i_lat":-6.193792},{"i_long":106.861737,"time":2,"transit":false,"line":11,"station_name":"Pondok Jati","distance":1829,"station_id":"POK","is_transit":false,"i_lat":-6.209188},{"time":9,"i_lat":-6.215091,"distance":1236,"is_transit":true,"station_id":"JNG","i_long":106.86807400000001,"transit":true,"line":1,"station_name":"Jatinegara"},{"station_id":"MTR","distance":1377,"time":2,"i_lat":-6.212485,"line":1,"transit":false,"is_transit":false,"i_long":106.858896,"station_name":"Matraman"},{"is_transit":true,"station_id":"MRI","time":2,"line":2,"i_lat":-6.209883,"distance":1275,"i_long":106.84912,"transit":true,"station_name":"Manggarai"},{"station_name":"Cikini","line":2,"i_lat":-6.198556,"distance":1590,"time":4,"station_id":"CKI","transit":false,"i_long":106.840169,"is_transit":false},{"i_lat":-6.186295,"station_id":"GDD","distance":1750,"station_name":"Gondangdia","i_long":106.832183,"is_transit":false,"line":2,"transit":false,"time":3}],[{"time":0,"line":6,"station_id":"SDM","i_long":106.712277,"transit":false,"distance":0,"station_name":"Sudimara","i_lat":-6.296963,"is_transit":false},{"station_id":"JMU","i_lat":-6.288927,"station_name":"Jurangmangu","is_transit":false,"distance":1994,"line":6,"i_long":106.728916,"time":4,"transit":false},{"station_name":"Pondokranji","time":3,"distance":2179,"is_transit":false,"transit":false,"i_long":106.74273,"line":6,"i_lat":-6.276362,"station_id":"PDJ"},{"station_id":"KBY","time":8,"i_lat":-6.237242,"distance":6218,"line":6,"station_name":"Kebayoran","is_transit":false,"transit":false,"i_long":106.780334},{"i_lat":-6.207404,"station_id":"PLM","i_long":106.79689,"time":7,"transit":false,"line":6,"station_name":"Palmerah","is_transit":false,"distance":3737},{"line":1,"time":6,"transit":true,"is_transit":true,"distance":3191,"i_lat":-6.185545,"station_name":"Tanah Abang","station_id":"THB","i_long":106.811091},{"time":5,"station_id":"KAT","is_transit":false,"transit":false,"i_lat":-6.20132,"line":1,"station_name":"Karet","distance":2029,"i_long":106.816351},{"station_id":"SUDB","is_transit":false,"line":1,"time":1,"i_long":106.819881,"distance":471,"transit":false,"i_lat":-6.201433,"station_name":"Sudirman Baru"},{"is_transit":false,"station_id":"SUD","transit":false,"station_name":"Sudirman","time":1,"distance":280,"i_lat":-6.202263,"i_long":106.822649,"line":1},{"is_transit":false,"i_long":106.84912,"line":2,"station_id":"MRI","station_name":"Manggarai","time":4,"distance":3186,"transit":false,"i_lat":-6.209883},{"is_transit":false,"distance":1275,"i_lat":-6.212485,"transit":false,"line":1,"station_name":"Matraman","time":2,"station_id":"MTR","i_long":106.858896},{"transit":true,"i_long":106.86807400000001,"station_name":"Jatinegara","distance":1377,"line":1,"station_id":"JNG","is_transit":true,"time":8,"i_lat":-6.215091},{"time":2,"i_lat":-6.209188,"line":11,"station_id":"POK","distance":1236,"i_long":106.861737,"is_transit":false,"transit":false,"station_name":"Pondok Jati"},{"time":2,"transit":false,"i_long":106.855437,"is_transit":false,"distance":1829,"line":11,"station_name":"Kramat","i_lat":-6.193792,"station_id":"KMT"},{"i_lat":-6.185975,"time":1,"station_id":"GST","is_transit":false,"distance":973,"transit":false,"i_long":106.850107,"line":11,"station_name":"Gang Sentiong"},{"station_id":"PSE","station_name":"Pasar Senen","i_lat":-6.174784,"i_long":106.84368,"time":8,"transit":false,"distance":1567,"line":11,"is_transit":false},{"time":4,"transit":false,"i_long":106.839204,"station_name":"Kemayoran","station_id":"KMO","distance":1436,"is_transit":false,"i_lat":-6.161728,"line":11},{"transit":false,"station_id":"RJW","time":5,"distance":1901,"i_long":106.836569,"line":11,"station_name":"Rajawali","i_lat":-6.14505,"is_transit":false},{"transit":true,"i_long":106.826365,"line":4,"time":3,"i_lat":-6.132549,"station_name":"Kampung Bandan","is_transit":true,"station_id":"KPB","distance":1444},{"transit":true,"distance":1364,"time":3,"i_lat":-6.137569,"station_name":"Jakarta Kota","station_id":"JAKK","line":2,"i_long":106.812439,"is_transit":true},{"distance":1264,"i_lat":-6.141205,"i_long":106.820901,"transit":false,"station_id":"JAY","line":2,"is_transit":false,"time":4,"station_name":"Jayakarta"},{"distance":1080,"station_name":"Manggabesar","time":2,"station_id":"MGB","i_long":106.82482,"i_lat":-6.149769,"is_transit":false,"transit":false,"line":2},{"transit":false,"distance":906,"i_long":106.827103,"i_lat":-6.160725,"line":2,"station_id":"SW","is_transit":false,"station_name":"Sawah Besar","time":2},{"i_lat":-6.166716,"time":2,"distance":1149,"station_name":"Juanda","is_transit":false,"station_id":"JUA","transit":false,"i_long":106.828284,"line":2},{"line":2,"is_transit":false,"distance":2015,"transit":false,"i_long":106.832183,"i_lat":-6.186295,"station_name":"Gondangdia","time":4,"station_id":"GDD"}]]}