{
  "data": [
    [
      {
        "distance": 0,
        "i_lat": -6.296963,
        "i_long": 106.712277,
        "is_transit": false,
        "line": 6,
        "station_id": "SDM",
        "station_name": "Sudimara",
        "time": 0,
        "transit": false
      },
      {
        "distance": 1994,
        "i_lat": -6.288927,
        "i_long": 106.728916,
        "is_transit": false,
        "line": 6,
        "station_id": "JMU",
        "station_name": "Jurangmangu",
        "time": 4,
        "transit": false
      },
      {
        "distance": 2179,
        "i_lat": -6.276362,
        "i_long": 106.74273,
        "is_transit": false,
        "line": 6,
        "station_id": "PDJ",
        "station_name": "Pondokranji",
        "time": 3,
        "transit": false
      },
      {
        "distance": 6218,
        "i_lat": -6.237242,
        "i_long": 106.780334,
        "is_transit": false,
        "line": 6,
        "station_id": "KBY",
        "station_name": "Kebayoran",
        "time": 8,
        "transit": false
      },
      {
        "distance": 3737,
        "i_lat": -6.207404,
        "i_long": 106.79689,
        "is_transit": false,
        "line": 6,
        "station_id": "PLM",
        "station_name": "Palmerah",
        "time": 7,
        "transit": false
      },
      {
        "distance": 3191,
        "i_lat": -6.185545,
        "i_long": 106.811091,
        "is_transit": false,
        "line": 1,
        "station_id": "THB",
        "station_name": "Tanah Abang",
        "time": 6,
        "transit": false
      }
    ]
  ]
}
