{"data":[[{"station_id":"SDM","transit":false,"i_lat":-6.296963,"is_transit":false,"time":0,"i_long":106.712277,"distance":0,"line":6,"station_name":"Sudimara"},{"line":6,"is_transit":false,"time":4,"transit":false,"station_name":"Jurangmangu","distance":1994,"station_id":"JMU","i_lat":-6.288927,"i_long":106.728916},{"station_name":"Pondokranji","is_transit":false,"line":6,"station_id":"PDJ","time":3,"i_lat":-6.276362,"i_long":106.74273,"transit":false,"distance":2179},{"station_id":"KBY","i_lat":-6.237242,"i_long":106.780334,"distance":6218,"is_transit":false,"time":8,"station_name":"Kebayoran","line":6,"transit":false},{"time":7,"i_long":106.79689,"line":6,"i_lat":-6.207404,"is_transit":false,"transit":false,"distance":3737,"station_id":"PLM","station_name":"Palmerah"},{"is_transit":true,"i_lat":-6.185545,"i_long":106.811091,"distance":3191,"line":1,"station_id":"THB","station_name":"Tanah Abang","transit":true,"time":6},{"station_id":"DU","time":8,"i_lat":-6.155215,"station_name":"Duri","is_transit":true,"distance":3632,"transit":true,"i_long":106.800832,"line":1},{"station_name":"Grogol","i_lat":-6.162021,"distance":1700,"station_id":"GGL","i_long":106.788277,"transit":false,"time":3,"is_transit":false,"line":5},{"station_name":"Pesing","time":2,"i_long":106.771379,"i_lat":-6.161433,"station_id":"PSG","distance":2036,"is_transit":false,"transit":false,"line":5},{"station_name":"Taman Kota","is_transit":false,"time":2,"station_id":"TKO","transit":false,"i_long":106.756522,"distance":1614,"i_lat":-6.1587309999999995,"line":5},{"line":0,"distance":2334,"time":2,"station_name":"Bojongindah","i_lat":-6.159876,"station_id":"BOI","is_transit":false,"transit":false,"i_long":106.737035},{"transit":false,"station_name":"Rawa Buaya","line":5,"i_lat":-6.162758,"i_long":106.723064,"distance":1152,"time":4,"station_id":"RW","is_transit":false},{"is_transit":false,"i_lat":-6.166068,"line":5,"i_long":106.701612,"time":3,"station_id":"KDS","station_name":"Kalideres","transit":false,"distance":2504},{"i_lat":-6.169933,"time":3,"station_id":"PI","distance":2548,"line":5,"i_long":106.679458,"station_name":"Poris","transit":false,"is_transit":false},{"station_name":"Batuceper","is_transit":false,"time":3,"distance":1834,"i_lat":-6.171811,"transit":false,"line":0,"i_long":106.665036,"station_id":"BPR"}],[{"time":0,"distance":0,"station_name":"Sudimara","station_id":"SDM","transit":false,"is_transit":false,"i_long":106.712277,"line":6,"i_lat":-6.296963},{"transit":false,"i_lat":-6.288927,"station_id":"JMU","is_transit":false,"time":4,"i_long":106.728916,"distance":1994,"station_name":"Jurangmangu","line":6},{"is_transit":false,"time":3,"station_id":"PDJ","i_lat":-6.276362,"line":6,"station_name":"Pondokranji","transit":false,"i_long":106.74273,"distance":2179},{"distance":6218,"is_transit":false,"time":8,"transit":false,"line":6,"station_name":"Kebayoran","station_id":"KBY","i_long":106.780334,"i_lat":-6.237242},{"is_transit":false,"distance":3737,"station_name":"Palmerah","time":7,"line":6,"i_long":106.79689,"station_id":"PLM","transit":false,"i_lat":-6.207404},{"i_long":106.811091,"line":1,"is_transit":true,"i_lat":-6.185545,"station_id":"THB","station_name":"Tanah Abang","time":6,"transit":true,"distance":3191},{"station_id":"KAT","line":1,"i_lat":-6.20132,"station_name":"Karet","distance":2029,"transit":false,"is_transit":false,"time":5,"i_long":106.816351},{"line":1,"i_lat":-6.201433,"station_id":"SUDB","is_transit":false,"i_long":106.819881,"transit":false,"distance":471,"station_name":"Sudirman Baru","time":1},{"transit":false,"is_transit":false,"time":1,"station_id":"SUD","i_lat":-6.202263,"i_long":106.822649,"line":1,"station_name":"Sudirman","distance":280},{"line":0,"station_name":"Manggarai","time":4,"i_long":106.84912,"station_id":"MRI","is_transit":true,"i_lat":-6.209883,"transit":true,"distance":3186},{"is_transit":false,"station_id":"CKI","i_lat":-6.198556,"distance":1590,"station_name":"Cikini","time":4,"i_long":106.840169,"line":0,"transit":false},{"station_name":"Gondangdia","station_id":"GDD","line":2,"time":3,"distance":1750,"transit":false,"i_lat":-6.186295,"i_long":106.832183,"is_transit":false},{"line":2,"is_transit":false,"time":4,"transit":false,"distance":2015,"i_long":106.828284,"i_lat":-6.166716,"station_id":"JUA","station_name":"Juanda"},{"line":2,"time":2,"station_name":"Sawah Besar","i_long":106.827103,"transit":false,"distance":1149,"station_id":"SW","i_lat":-6.160725,"is_transit":false},{"i_long":106.82482,"i_lat":-6.149769,"distance":906,"station_id":"MGB","transit":false,"time":2,"is_transit":false,"line":2,"station_name":"Manggabesar"},{"station_name":"Jayakarta","time":2,"line":7,"is_transit":false,"distance":1080,"transit":false,"i_lat":-6.141205,"station_id":"JAY","i_long":106.820901},{"transit":true,"time":4,"station_name":"Jakarta Kota","i_lat":-6.137569,"line":0,"i_long":106.812439,"distance":1264,"station_id":"JAKK","is_transit":true},{"station_name":"Kampung Bandan","is_transit":true,"i_long":106.826365,"line":0,"time":3,"distance":1364,"station_id":"KPB","transit":false,"i_lat":-6.132549},{"station_name":"Angke","line":0,"i_lat":-6.144674,"station_id":"AK","i_long":106.79867,"transit":false,"is_transit":false,"distance":4102,"time":9},{"distance":1230,"time":4,"is_transit":true,"i_long":106.800832,"station_id":"DU","station_name":"Duri","i_lat":-6.155215,"line":1,"transit":true},{"station_id":"GGL","i_long":106.788277,"line":5,"i_lat":-6.162021,"is_transit":false,"station_name":"Grogol","distance":1700,"transit":false,"time":3},{"line":5,"time":2,"station_id":"PSG","distance":2036,"station_name":"Pesing","transit":false,"i_lat":-6.161433,"is_transit":false,"i_long":106.771379},{"transit":false,"line":5,"distance":1614,"i_lat":-6.1587309999999995,"station_id":"TKO","i_long":106.756522,"time":2,"station_name":"Taman Kota","is_transit":false},{"is_transit":false,"station_name":"Bojongindah","distance":2334,"transit":false,"station_id":"BOI","i_long":106.737035,"time":2,"line":0,"i_lat":-6.159876},{"i_lat":-6.162758,"i_long":106.723064,"distance":1152,"time":4,"station_id":"RW","transit":false,"is_transit":false,"line":5,"station_name":"Rawa Buaya"},{"is_transit":false,"i_lat":-6.166068,"line":5,"station_id":"KDS","distance":2504,"station_name":"Kalideres","transit":false,"time":3,"i_long":106.701612},{"transit":false,"time":3,"is_transit":false,"station_id":"PI","i_lat":-6.169933,"line":5,"i_long":106.679458,"distance":2548,"station_name":"Poris"},{"is_transit":false,"line":0,"time":3,"station_name":"Batuceper","i_long":106.665036,"i_lat":-6.171811,"transit":false,"station_id":"BPR","distance":1834}],[{"station_name":"Sudimara","distance":0,"i_lat":-6.296963,"station_id":"SDM","i_long":106.712277,"transit":false,"is_transit":false,"time":0,"line":6},{"time":4,"i_lat":-6.288927,"distance":1994,"station_id":"JMU","is_transit":false,"line":6,"transit":false,"i_long":106.728916,"station_name":"Jurangmangu"},{"time":3,"line":6,"station_id":"PDJ","station_name":"Pondokranji","transit":false,"distance":2179,"is_transit":false,"i_lat":-6.276362,"i_long":106.74273},{"transit":false,"is_transit":false,"line":6,"distance":6218,"station_name":"Kebayoran","station_id":"KBY","i_long":106.780334,"i_lat":-6.237242,"time":8},{"transit":false,"is_transit":false,"time":7,"station_name":"Palmerah","i_lat":-6.207404,"line":6,"i_long":106.79689,"station_id":"PLM","distance":3737},{"line":1,"station_name":"Tanah Abang","i_long":106.811091,"i_lat":-6.185545,"transit":true,"time":6,"distance":3191,"is_transit":true,"station_id":"THB"},{"time":5,"i_long":106.816351,"line":1,"station_name":"Karet","transit":false,"station_id":"KAT","is_transit":false,"i_lat":-6.20132,"distance":2029},{"is_transit":false,"line":1,"station_id":"SUDB","station_name":"Sudirman Baru","i_long":106.819881,"time":1,"i_lat":-6.201433,"transit":false,"distance":471},{"distance":280,"station_id":"SUD","time":1,"station_name":"Sudirman","is_transit":false,"transit":false,"i_lat":-6.202263,"i_long":106.822649,"line":1},{"is_transit":true,"i_lat":-6.209883,"distance":3186,"time":4,"station_name":"Manggarai","transit":false,"i_long":106.84912,"station_id":"MRI","line":0},{"distance":1275,"line":1,"i_lat":-6.212485,"station_name":"Matraman","station_id":"MTR","transit":false,"is_transit":false,"time":2,"i_long":106.858896},{"time":8,"i_long":106.86807400000001,"is_transit":true,"line":0,"transit":true,"distance":1377,"station_id":"JNG","station_name":"Jatinegara","i_lat":-6.215091},{"station_id":"POK","station_name":"Pondok Jati","line":11,"transit":false,"i_lat":-6.209188,"distance":1236,"time":2,"i_long":106.861737,"is_transit":false},{"distance":1829,"station_id":"KMT","is_transit":false,"time":2,"i_lat":-6.193792,"i_long":106.855437,"station_name":"Kramat","line":11,"transit":false},{"time":1,"i_long":106.850107,"transit":false,"station_id":"GST","distance":973,"line":11,"i_lat":-6.185975,"station_name":"Gang Sentiong","is_transit":false},{"is_transit":false,"transit":false,"line":11,"station_id":"PSE","i_long":106.84368,"i_lat":-6.174784,"station_name":"Pasar Senen","distance":1567,"time":8},{"transit":false,"distance":1436,"i_lat":-6.161728,"line":11,"time":4,"i_long":106.839204,"station_id":"KMO","station_name":"Kemayoran","is_transit":false},{"station_name":"Rajawali","i_long":106.836569,"i_lat":-6.14505,"line":11,"is_transit":false,"time":5,"distance":1901,"transit":false,"station_id":"RJW"},{"station_id":"KPB","i_long":106.826365,"line":0,"distance":1444,"time":3,"transit":true,"station_name":"Kampung Bandan","i_lat":-6.132549,"is_transit":true},{"station_id":"AK","line":0,"is_transit":false,"transit":false,"time":9,"station_name":"Angke","distance":4102,"i_lat":-6.144674,"i_long":106.79867},{"distance":1230,"station_name":"Duri","i_long":106.800832,"station_id":"DU","time":4,"is_transit":true,"i_lat":-6.155215,"transit":true,"line":1},{"station_id":"GGL","transit":false,"is_transit":false,"station_name":"Grogol","i_long":106.788277,"i_lat":-6.162021,"line":5,"distance":1700,"time":3},{"time":2,"i_lat":-6.161433,"station_id":"PSG","transit":false,"line":5,"is_transit":false,"distance":2036,"station_name":"Pesing","i_long":106.771379},{"distance":1614,"station_name":"Taman Kota","time":2,"i_long":106.756522,"station_id":"TKO","is_transit":false,"i_lat":-6.1587309999999995,"line":5,"transit":false},{"station_name":"Bojongindah","distance":2334,"station_id":"BOI","time":2,"transit":false,"is_transit":false,"i_lat":-6.159876,"line":0,"i_long":106.737035},{"line":5,"distance":1152,"station_name":"Rawa Buaya","transit":false,"is_transit":false,"i_long":106.723064,"i_lat":-6.162758,"time":4,"station_id":"RW"},{"line":5,"station_id":"KDS","i_lat":-6.166068,"distance":2504,"station_name":"Kalideres","is_transit":false,"time":3,"i_long":106.701612,"transit":false},{"station_name":"Poris","station_id":"PI","line":5,"distance":2548,"transit":false,"time":3,"is_transit":false,"i_lat":-6.169933,"i_long":106.679458},{"is_transit":false,"time":3,"distance":1834,"station_id":"BPR","i_lat":-6.171811,"transit":false,"station_name":"Batuceper","line":0,"i_long":106.665036}]]}