{"data":[[{"i_long":106.712277,"time":0,"line":6,"distance":0,"station_id":"SDM","is_transit":false,"station_name":"Sudimara","transit":false,"i_lat":-6.296963},{"line":6,"i_lat":-6.288927,"station_name":"Jurangmangu","i_long":106.728916,"is_transit":false,"station_id":"JMU","time":4,"transit":false,"distance":1994},{"station_name":"Pondokranji","station_id":"PDJ","distance":2179,"line":6,"transit":false,"is_transit":false,"i_lat":-6.276362,"time":3,"i_long":106.74273},{"station_id":"KBY","transit":false,"distance":6218,"is_transit":false,"i_long":106.780334,"time":8,"i_lat":-6.237242,"station_name":"Kebayoran","line":6},{"line":6,"station_name":"Palmerah","i_long":106.79689,"distance":3737,"time":7,"station_id":"PLM","is_transit":false,"transit":false,"i_lat":-6.207404},{"station_id":"THB","is_transit":true,"i_long":106.811091,"line":1,"station_name":"Tanah Abang","transit":true,"i_lat":-6.185545,"time":6,"distance":3191},{"i_long":106.800832,"line":1,"transit":true,"distance":3632,"station_name":"Duri","station_id":"DU","time":8,"is_transit":true,"i_lat":-6.155215},{"line":5,"i_lat":-6.162021,"is_transit":false,"i_long":106.788277,"distance":1700,"station_id":"GGL","transit":false,"station_name":"Grogol","time":3},{"line":5,"is_transit":false,"transit":false,"station_id":"PSG","i_long":106.771379,"distance":2036,"station_name":"Pesing","time":2,"i_lat":-6.161433},{"is_transit":false,"i_long":106.756522,"i_lat":-6.1587309999999995,"station_name":"Taman Kota","time":2,"distance":1614,"line":5,"station_id":"TKO","transit":false},{"time":2,"station_name":"Bojongindah","i_long":106.737035,"i_lat":-6.159876,"station_id":"BOI","line":0,"transit":false,"distance":2334,"is_transit":false},{"line":5,"station_name":"Rawa Buaya","transit":false,"is_transit":false,"distance":1152,"station_id":"RW","time":4,"i_lat":-6.162758,"i_long":106.723064},{"is_transit":false,"station_id":"KDS","i_long":106.701612,"time":3,"line":5,"station_name":"Kalideres","transit":false,"i_lat":-6.166068,"distance":2504},{"line":5,"is_transit":false,"transit":false,"i_lat":-6.169933,"station_name":"Poris","i_long":106.679458,"time":3,"distance":2548,"station_id":"PI"},{"transit":false,"is_transit":false,"time":3,"i_lat":-6.171811,"distance":1834,"line":0,"station_id":"BPR","i_long":106.665036,"station_name":"Batuceper"},{"i_long":106.64657,"transit":false,"station_id":"TTI","station_name":"Tanah Tinggi","distance":2028,"time":3,"line":5,"is_transit":false,"i_lat":-6.17331},{"station_id":"TNG","line":5,"i_long":106.632761,"distance":1547,"is_transit":false,"station_name":"Tangerang","transit":false,"i_lat":-6.176583,"time":3}],[{"station_id":"SDM","transit":false,"i_lat":-6.296963,"time":0,"is_transit":false,"i_long":106.712277,"line":6,"distance":0,"station_name":"Sudimara"},{"time":4,"station_id":"JMU","is_transit":false,"i_lat":-6.288927,"station_name":"Jurangmangu","transit":false,"line":6,"i_long":106.728916,"distance":1994},{"transit":false,"i_long":106.74273,"line":6,"i_lat":-6.276362,"station_id":"PDJ","time":3,"distance":2179,"is_transit":false,"station_name":"Pondokranji"},{"distance":6218,"station_name":"Kebayoran","i_lat":-6.237242,"i_long":106.780334,"is_transit":false,"transit":false,"time":8,"line":6,"station_id":"KBY"},{"i_long":106.79689,"line":6,"station_id":"PLM","i_lat":-6.207404,"station_name":"Palmerah","time":7,"distance":3737,"is_transit":false,"transit":false},{"line":1,"i_long":106.811091,"transit":true,"station_id":"THB","station_name":"Tanah Abang","distance":3191,"i_lat":-6.185545,"is_transit":true,"time":6},{"distance":2029,"is_transit":false,"time":5,"i_long":106.816351,"station_name":"Karet","transit":false,"station_id":"KAT","i_lat":-6.20132,"line":1},{"time":1,"station_id":"SUDB","i_lat":-6.201433,"i_long":106.819881,"distance":471,"is_transit":false,"line":1,"station_name":"Sudirman Baru","transit":false},{"time":1,"distance":280,"i_lat":-6.202263,"station_id":"SUD","transit":false,"i_long":106.822649,"line":1,"is_transit":false,"station_name":"Sudirman"},{"distance":3186,"station_id":"MRI","transit":true,"is_transit":true,"time":4,"i_lat":-6.209883,"i_long":106.84912,"station_name":"Manggarai","line":0},{"transit":false,"is_transit":false,"station_name":"Cikini","time":4,"distance":1590,"i_long":106.840169,"line":0,"station_id":"CKI","i_lat":-6.198556},{"distance":1750,"time":3,"line":2,"station_id":"GDD","station_name":"Gondangdia","is_transit":false,"i_long":106.832183,"transit":false,"i_lat":-6.186295},{"i_long":106.828284,"station_name":"Juanda","station_id":"JUA","is_transit":false,"distance":2015,"transit":false,"i_lat":-6.166716,"line":2,"time":4},{"station_id":"SW","transit":false,"line":2,"i_long":106.827103,"distance":1149,"is_transit":false,"station_name":"Sawah Besar","i_lat":-6.160725,"time":2},{"time":2,"distance":906,"station_id":"MGB","line":2,"is_transit":false,"i_lat":-6.149769,"station_name":"Manggabesar","i_long":106.82482,"transit":false},{"i_long":106.820901,"is_transit":false,"distance":1080,"station_name":"Jayakarta","line":7,"station_id":"JAY","transit":false,"time":2,"i_lat":-6.141205},{"transit":true,"line":0,"is_transit":true,"distance":1264,"time":4,"station_name":"Jakarta Kota","i_long":106.812439,"station_id":"JAKK","i_lat":-6.137569},{"distance":1364,"transit":false,"line":0,"is_transit":true,"time":3,"station_name":"Kampung Bandan","i_long":106.826365,"station_id":"KPB","i_lat":-6.132549},{"i_long":106.79867,"line":0,"transit":false,"i_lat":-6.144674,"is_transit":false,"station_name":"Angke","station_id":"AK","time":9,"distance":4102},{"station_name":"Duri","time":4,"distance":1230,"station_id":"DU","i_long":106.800832,"i_lat":-6.155215,"line":1,"transit":true,"is_transit":true},{"station_id":"GGL","time":3,"i_long":106.788277,"line":5,"distance":1700,"station_name":"Grogol","i_lat":-6.162021,"transit":false,"is_transit":false},{"station_id":"PSG","is_transit":false,"station_name":"Pesing","distance":2036,"i_lat":-6.161433,"i_long":106.771379,"line":5,"time":2,"transit":false},{"station_id":"TKO","station_name":"Taman Kota","line":5,"time":2,"i_long":106.756522,"i_lat":-6.1587309999999995,"transit":false,"distance":1614,"is_transit":false},{"distance":2334,"is_transit":false,"station_name":"Bojongindah","time":2,"i_lat":-6.159876,"i_long":106.737035,"station_id":"BOI","line":0,"transit":false},{"is_transit":false,"i_lat":-6.162758,"i_long":106.723064,"line":5,"time":4,"station_id":"RW","station_name":"Rawa Buaya","transit":false,"distance":1152},{"station_id":"KDS","station_name":"Kalideres","time":3,"i_lat":-6.166068,"transit":false,"distance":2504,"i_long":106.701612,"line":5,"is_transit":false},{"i_lat":-6.169933,"station_id":"PI","i_long":106.679458,"line":5,"distance":2548,"time":3,"is_transit":false,"transit":false,"station_name":"Poris"},{"time":3,"station_name":"Batuceper","station_id":"BPR","line":0,"distance":1834,"is_transit":false,"i_long":106.665036,"transit":false,"i_lat":-6.171811},{"time":3,"i_long":106.64657,"station_name":"Tanah Tinggi","is_transit":false,"line":5,"station_id":"TTI","distance":2028,"i_lat":-6.17331,"transit":false},{"i_long":106.632761,"station_id":"TNG","station_name":"Tangerang","i_lat":-6.176583,"line":5,"time":3,"transit":false,"distance":1547,"is_transit":false}],[{"station_id":"SDM","time":0,"i_lat":-6.296963,"transit":false,"i_long":106.712277,"distance":0,"is_transit":false,"line":6,"station_name":"Sudimara"},{"time":4,"distance":1994,"line":6,"i_long":106.728916,"station_id":"JMU","i_lat":-6.288927,"is_transit":false,"station_name":"Jurangmangu","transit":false},{"distance":2179,"time":3,"station_id":"PDJ","station_name":"Pondokranji","is_transit":false,"transit":false,"i_lat":-6.276362,"i_long":106.74273,"line":6},{"station_name":"Kebayoran","time":8,"transit":false,"i_lat":-6.237242,"is_transit":false,"i_long":106.780334,"line":6,"station_id":"KBY","distance":6218},{"transit":false,"time":7,"line":6,"station_name":"Palmerah","is_transit":false,"distance":3737,"i_lat":-6.207404,"i_long":106.79689,"station_id":"PLM"},{"i_long":106.811091,"station_name":"Tanah Abang","is_transit":true,"line":1,"station_id":"THB","time":6,"i_lat":-6.185545,"distance":3191,"transit":true},{"is_transit":false,"station_name":"Karet","transit":false,"station_id":"KAT","line":1,"time":5,"distance":2029,"i_lat":-6.20132,"i_long":106.816351},{"distance":471,"line":1,"is_transit":false,"transit":false,"i_long":106.819881,"i_lat":-6.201433,"time":1,"station_id":"SUDB","station_name":"Sudirman Baru"},{"distance":280,"station_id":"SUD","i_lat":-6.202263,"i_long":106.822649,"line":1,"transit":false,"time":1,"station_name":"Sudirman","is_transit":false},{"transit":false,"i_lat":-6.209883,"time":4,"distance":3186,"station_id":"MRI","i_long":106.84912,"line":0,"is_transit":true,"station_name":"Manggarai"},{"is_transit":false,"i_lat":-6.212485,"distance":1275,"i_long":106.858896,"station_id":"MTR","station_name":"Matraman","time":2,"transit":false,"line":1},{"is_transit":true,"line":0,"time":8,"distance":1377,"i_lat":-6.215091,"station_id":"JNG","i_long":106.86807400000001,"station_name":"Jatinegara","transit":true},{"station_id":"POK","station_name":"Pondok Jati","time":2,"i_lat":-6.209188,"i_long":106.861737,"line":11,"distance":1236,"is_transit":false,"transit":false},{"transit":false,"i_long":106.855437,"is_transit":false,"i_lat":-6.193792,"line":11,"station_id":"KMT","station_name":"Kramat","time":2,"distance":1829},{"time":1,"line":11,"is_transit":false,"i_lat":-6.185975,"i_long":106.850107,"station_id":"GST","station_name":"Gang Sentiong","distance":973,"transit":false},{"i_lat":-6.174784,"is_transit":false,"distance":1567,"i_long":106.84368,"station_name":"Pasar Senen","station_id":"PSE","time":8,"line":11,"transit":false},{"transit":false,"station_id":"KMO","is_transit":false,"line":11,"i_lat":-6.161728,"distance":1436,"station_name":"Kemayoran","i_long":106.839204,"time":4},{"time":5,"is_transit":false,"i_long":106.836569,"station_id":"RJW","station_name":"Rajawali","line":11,"i_lat":-6.14505,"transit":false,"distance":1901},{"time":3,"distance":1444,"transit":true,"line":0,"station_name":"Kampung Bandan","is_transit":true,"station_id":"KPB","i_long":106.826365,"i_lat":-6.132549},{"i_lat":-6.144674,"transit":false,"line":0,"time":9,"distance":4102,"station_id":"AK","station_name":"Angke","i_long":106.79867,"is_transit":false},{"station_id":"DU","i_lat":-6.155215,"time":4,"i_long":106.800832,"transit":true,"is_transit":true,"line":1,"distance":1230,"station_name":"Duri"},{"station_name":"Grogol","transit":false,"distance":1700,"station_id":"GGL","time":3,"i_lat":-6.162021,"i_long":106.788277,"line":5,"is_transit":false},{"is_transit":false,"distance":2036,"station_id":"PSG","station_name":"Pesing","i_lat":-6.161433,"line":5,"transit":false,"time":2,"i_long":106.771379},{"station_name":"Taman Kota","distance":1614,"transit":false,"time":2,"i_long":106.756522,"i_lat":-6.1587309999999995,"station_id":"TKO","line":5,"is_transit":false},{"time":2,"is_transit":false,"transit":false,"i_long":106.737035,"distance":2334,"station_name":"Bojongindah","i_lat":-6.159876,"station_id":"BOI","line":0},{"distance":1152,"is_transit":false,"line":5,"transit":false,"station_id":"RW","i_lat":-6.162758,"time":4,"i_long":106.723064,"station_name":"Rawa Buaya"},{"distance":2504,"i_long":106.701612,"i_lat":-6.166068,"is_transit":false,"station_name":"Kalideres","line":5,"transit":false,"station_id":"KDS","time":3},{"time":3,"transit":false,"station_name":"Poris","i_long":106.679458,"i_lat":-6.169933,"is_transit":false,"line":5,"station_id":"PI","distance":2548},{"transit":false,"time":3,"i_long":106.665036,"station_id":"BPR","station_name":"Batuceper","line":0,"distance":1834,"i_lat":-6.171811,"is_transit":false},{"distance":2028,"transit":false,"time":3,"line":5,"is_transit":false,"station_name":"Tanah Tinggi","station_id":"TTI","i_lat":-6.17331,"i_long":106.64657},{"station_name":"Tangerang","time":3,"distance":1547,"is_transit":false,"i_lat":-6.176583,"i_long":106.632761,"transit":false,"line":5,"station_id":"TNG"}]]}