{"data":[[{"time":0,"line":6,"is_transit":false,"distance":0,"transit":false,"i_long":106.712277,"station_id":"SDM","station_name":"Sudimara","i_lat":-6.296963},{"is_transit":false,"line":6,"station_id":"JMU","station_name":"Jurangmangu","i_lat":-6.288927,"i_long":106.728916,"transit":false,"time":4,"distance":1994},{"transit":false,"station_id":"PDJ","station_name":"Pondokranji","distance":2179,"i_long":106.74273,"i_lat":-6.276362,"time":3,"line":6,"is_transit":false},{"time":8,"distance":6218,"transit":false,"i_lat":-6.237242,"station_name":"Kebayoran","is_transit":false,"i_long":106.780334,"station_id":"KBY","line":6},{"i_lat":-6.207404,"is_transit":false,"station_id":"PLM","distance":3737,"time":7,"line":6,"station_name":"Palmerah","transit":false,"i_long":106.79689},{"station_name":"Tanah Abang","i_lat":-6.185545,"distance":3191,"time":6,"station_id":"THB","is_transit":true,"transit":true,"line":1,"i_long":106.811091},{"time":8,"i_lat":-6.155215,"station_name":"Duri","i_long":106.800832,"transit":true,"station_id":"DU","line":1,"distance":3632,"is_transit":true},{"transit":false,"station_name":"Grogol","time":3,"distance":1700,"station_id":"GRG","line":5,"is_transit":false,"i_lat":-6.162021,"i_long":106.788277},{"transit":false,"time":2,"distance":2036,"is_transit":false,"i_long":106.771379,"station_name":"Pesing","i_lat":-6.161433,"line":5,"station_id":"PSG"},{"distance":1614,"i_lat":-6.1587309999999995,"line":5,"station_name":"Taman Kota","i_long":106.756522,"transit":false,"station_id":"TKO","time":2,"is_transit":false},{"station_name":"Bojongindah","distance":2334,"station_id":"BOI","line":5,"i_lat":-6.159876,"transit":false,"i_long":106.737035,"is_transit":false,"time":2},{"line":5,"station_id":"RW","is_transit":false,"distance":1152,"station_name":"Rawa Buaya","time":4,"i_lat":-6.162758,"i_long":106.723064,"transit":false},{"time":3,"transit":false,"station_name":"Kalideres","distance":2504,"is_transit":false,"i_lat":-6.166068,"station_id":"KDS","i_long":106.701612,"line":5},{"is_transit":false,"time":3,"station_name":"Poris","station_id":"PI","i_lat":-6.169933,"distance":2548,"i_long":106.679458,"line":5,"transit":false},{"i_long":106.665036,"station_name":"Batuceper","distance":1834,"station_id":"BPR","is_transit":false,"line":5,"transit":false,"i_lat":-6.171811,"time":3},{"station_name":"Tanah Tinggi","is_transit":false,"station_id":"TTI","i_lat":-6.17331,"transit":false,"line":5,"i_long":106.64657,"time":3,"distance":2028},{"is_transit":false,"time":3,"line":5,"distance":1547,"station_id":"TNG","i_long":106.632761,"transit":false,"station_name":"Tangerang","i_lat":-6.176583}],[{"time":0,"station_id":"SDM","distance":0,"station_name":"Sudimara","i_long":106.712277,"line":6,"transit":false,"i_lat":-6.296963,"is_transit":false},{"distance":1994,"time":4,"station_id":"JMU","i_long":106.728916,"station_name":"Jurangmangu","transit":false,"line":6,"is_transit":false,"i_lat":-6.288927},{"time":3,"line":6,"station_id":"PDJ","station_name":"Pondokranji","distance":2179,"i_lat":-6.276362,"is_transit":false,"transit":false,"i_long":106.74273},{"transit":false,"station_id":"KBY","is_transit":false,"i_long":106.780334,"line":6,"distance":6218,"i_lat":-6.237242,"station_name":"Kebayoran","time":8},{"i_long":106.79689,"station_name":"Palmerah","distance":3737,"i_lat":-6.207404,"transit":false,"is_transit":false,"line":6,"time":7,"station_id":"PLM"},{"i_long":106.811091,"time":6,"distance":3191,"station_name":"Tanah Abang","is_transit":true,"station_id":"THB","line":1,"i_lat":-6.185545,"transit":true},{"station_name":"Karet","is_transit":false,"time":5,"i_long":106.816351,"line":1,"distance":2029,"station_id":"KAT","i_lat":-6.20132,"transit":false},{"i_long":106.819881,"station_name":"Sudirman Baru","is_transit":false,"distance":471,"station_id":"SUDB","i_lat":-6.201433,"time":1,"transit":false,"line":1},{"is_transit":false,"station_id":"SUD","distance":280,"i_long":106.822649,"line":1,"time":1,"i_lat":-6.202263,"transit":false,"station_name":"Sudirman"},{"station_id":"MRI","is_transit":true,"distance":3186,"i_lat":-6.209883,"transit":true,"line":2,"station_name":"Manggarai","time":4,"i_long":106.84912},{"is_transit":false,"i_lat":-6.198556,"distance":1590,"transit":false,"i_long":106.840169,"time":4,"station_name":"Cikini","line":2,"station_id":"CKI"},{"i_lat":-6.186295,"is_transit":false,"distance":1750,"time":3,"transit":false,"i_long":106.832183,"station_name":"Gondangdia","line":2,"station_id":"GDD"},{"station_name":"Juanda","i_lat":-6.166716,"distance":2015,"i_long":106.828284,"station_id":"JUA","is_transit":false,"line":2,"time":4,"transit":false},{"distance":1149,"station_id":"SW","i_lat":-6.160725,"line":2,"station_name":"Sawah Besar","transit":false,"is_transit":false,"time":2,"i_long":106.827103},{"distance":906,"i_lat":-6.149769,"time":2,"station_name":"Manggabesar","station_id":"MGB","is_transit":false,"i_long":106.82482,"line":2,"transit":false},{"station_id":"JAY","distance":1080,"station_name":"Jayakarta","i_lat":-6.141205,"line":2,"transit":false,"i_long":106.820901,"time":2,"is_transit":false},{"i_lat":-6.137569,"station_name":"Jakarta Kota","line":2,"is_transit":true,"i_long":106.812439,"distance":1264,"station_id":"JAKK","transit":true,"time":4},{"transit":true,"line":4,"station_id":"KPB","i_long":106.826365,"distance":1364,"station_name":"Kampung Bandan","is_transit":true,"time":3,"i_lat":-6.132549},{"time":9,"transit":false,"station_name":"Angke","i_lat":-6.144674,"distance":4102,"line":1,"station_id":"AK","is_transit":false,"i_long":106.79867},{"i_long":106.800832,"is_transit":true,"time":4,"transit":true,"distance":1230,"line":1,"station_name":"Duri","i_lat":-6.155215,"station_id":"DU"},{"station_name":"Grogol","is_transit":false,"i_lat":-6.162021,"line":5,"distance":1700,"transit":false,"station_id":"GRG","time":3,"i_long":106.788277},{"station_name":"Pesing","line":5,"is_transit":false,"time":2,"station_id":"PSG","i_long":106.771379,"distance":2036,"transit":false,"i_lat":-6.161433},{"time":2,"station_id":"TKO","station_name":"Taman Kota","i_lat":-6.1587309999999995,"transit":false,"i_long":106.756522,"is_transit":false,"distance":1614,"line":5},{"i_long":106.737035,"is_transit":false,"transit":false,"i_lat":-6.159876,"station_name":"Bojongindah","line":5,"time":2,"station_id":"BOI","distance":2334},{"is_transit":false,"station_id":"RW","i_lat":-6.162758,"i_long":106.723064,"distance":1152,"line":5,"station_name":"Rawa Buaya","time":4,"transit":false},{"distance":2504,"transit":false,"i_long":106.701612,"is_transit":false,"station_id":"KDS","i_lat":-6.166068,"time":3,"station_name":"Kalideres","line":5},{"distance":2548,"station_name":"Poris","time":3,"line":5,"i_long":106.679458,"station_id":"PI","is_transit":false,"transit":false,"i_lat":-6.169933},{"station_id":"BPR","is_transit":false,"distance":1834,"time":3,"station_name":"Batuceper","transit":false,"line":5,"i_long":106.665036,"i_lat":-6.171811},{"transit":false,"station_name":"Tanah Tinggi","is_transit":false,"station_id":"TTI","distance":2028,"time":3,"i_lat":-6.17331,"i_long":106.64657,"line":5},{"distance":1547,"time":3,"line":5,"i_lat":-6.176583,"is_transit":false,"transit":false,"station_id":"TNG","i_long":106.632761,"station_name":"Tangerang"}],[{"station_id":"SDM","i_lat":-6.296963,"distance":0,"transit":false,"station_name":"Sudimara","i_long":106.712277,"line":6,"is_transit":false,"time":0},{"station_name":"Jurangmangu","time":4,"i_lat":-6.288927,"is_transit":false,"i_long":106.728916,"line":6,"transit":false,"station_id":"JMU","distance":1994},{"transit":false,"station_id":"PDJ","station_name":"Pondokranji","i_lat":-6.276362,"line":6,"i_long":106.74273,"time":3,"distance":2179,"is_transit":false},{"line":6,"i_lat":-6.237242,"i_long":106.780334,"distance":6218,"station_name":"Kebayoran","station_id":"KBY","time":8,"is_transit":false,"transit":false},{"line":6,"station_id":"PLM","distance":3737,"station_name":"Palmerah","transit":false,"i_long":106.79689,"is_transit":false,"time":7,"i_lat":-6.207404},{"distance":3191,"i_long":106.811091,"line":1,"i_lat":-6.185545,"time":6,"transit":true,"station_name":"Tanah Abang","is_transit":true,"station_id":"THB"},{"transit":false,"station_id":"KAT","is_transit":false,"distance":2029,"i_long":106.816351,"station_name":"Karet","time":5,"line":1,"i_lat":-6.20132},{"i_lat":-6.201433,"line":1,"station_id":"SUDB","distance":471,"station_name":"Sudirman Baru","is_transit":false,"time":1,"transit":false,"i_long":106.819881},{"transit":false,"i_lat":-6.202263,"i_long":106.822649,"is_transit":false,"line":1,"station_id":"SUD","distance":280,"station_name":"Sudirman","time":1},{"station_name":"Manggarai","time":4,"line":2,"station_id":"MRI","distance":3186,"i_lat":-6.209883,"i_long":106.84912,"transit":false,"is_transit":false},{"transit":false,"line":1,"i_lat":-6.212485,"time":2,"station_id":"MTR","i_long":106.858896,"is_transit":false,"distance":1275,"station_name":"Matraman"},{"distance":1377,"time":8,"line":1,"station_name":"Jatinegara","i_lat":-6.215091,"i_long":106.86807400000001,"transit":true,"is_transit":true,"station_id":"JNG"},{"i_long":106.861737,"is_transit":false,"line":11,"distance":1236,"transit":false,"station_name":"Pondok Jati","i_lat":-6.209188,"time":2,"station_id":"POK"},{"is_transit":false,"i_long":106.855437,"station_name":"Kramat","time":2,"transit":false,"distance":1829,"i_lat":-6.193792,"station_id":"KMT","line":11},{"time":1,"transit":false,"line":11,"station_id":"GST","distance":973,"is_transit":false,"i_long":106.850107,"i_lat":-6.185975,"station_name":"Gang Sentiong"},{"station_name":"Pasar Senen","distance":1567,"time":8,"i_lat":-6.174784,"station_id":"PSE","line":11,"i_long":106.84368,"is_transit":false,"transit":false},{"station_name":"Kemayoran","station_id":"KMO","i_lat":-6.161728,"i_long":106.839204,"line":11,"time":4,"transit":false,"distance":1436,"is_transit":false},{"i_long":106.836569,"i_lat":-6.14505,"station_name":"Rajawali","line":11,"is_transit":false,"transit":false,"time":5,"distance":1901,"station_id":"RJW"},{"station_id":"KPB","is_transit":true,"i_lat":-6.132549,"time":3,"line":4,"distance":1444,"station_name":"Kampung Bandan","i_long":106.826365,"transit":true},{"station_name":"Angke","line":1,"i_lat":-6.144674,"is_transit":false,"time":9,"i_long":106.79867,"distance":4102,"transit":false,"station_id":"AK"},{"station_name":"Duri","i_lat":-6.155215,"line":1,"i_long":106.800832,"time":4,"station_id":"DU","transit":true,"is_transit":true,"distance":1230},{"is_transit":false,"distance":1700,"transit":false,"station_name":"Grogol","line":5,"time":3,"i_lat":-6.162021,"i_long":106.788277,"station_id":"GRG"},{"distance":2036,"i_long":106.771379,"station_name":"Pesing","transit":false,"i_lat":-6.161433,"station_id":"PSG","is_transit":false,"time":2,"line":5},{"station_name":"Taman Kota","station_id":"TKO","is_transit":false,"line":5,"distance":1614,"time":2,"i_long":106.756522,"transit":false,"i_lat":-6.1587309999999995},{"station_id":"BOI","distance":2334,"time":2,"i_lat":-6.159876,"i_long":106.737035,"line":5,"transit":false,"station_name":"Bojongindah","is_transit":false},{"time":4,"line":5,"i_lat":-6.162758,"i_long":106.723064,"distance":1152,"transit":false,"station_id":"RW","station_name":"Rawa Buaya","is_transit":false},{"time":3,"station_id":"KDS","station_name":"Kalideres","i_long":106.701612,"distance":2504,"i_lat":-6.166068,"is_transit":false,"line":5,"transit":false},{"is_transit":false,"i_lat":-6.169933,"i_long":106.679458,"transit":false,"time":3,"distance":2548,"line":5,"station_id":"PI","station_name":"Poris"},{"i_long":106.665036,"is_transit":false,"transit":false,"time":3,"distance":1834,"station_name":"Batuceper","station_id":"BPR","i_lat":-6.171811,"line":5},{"transit":false,"line":5,"station_name":"Tanah Tinggi","station_id":"TTI","is_transit":false,"distance":2028,"i_long":106.64657,"time":3,"i_lat":-6.17331},{"line":5,"station_id":"TNG","i_long":106.632761,"time":3,"is_transit":false,"transit":false,"station_name":"Tangerang","distance":1547,"i_lat":-6.176583}]]}