{"data":[[{"line":6,"station_id":"SDM","time":0,"i_lat":-6.296963,"is_transit":false,"distance":0,"station_name":"Sudimara","transit":false,"i_long":106.712277},{"station_name":"Jurangmangu","station_id":"JMU","i_lat":-6.288927,"distance":1994,"transit":false,"i_long":106.728916,"is_transit":false,"time":4,"line":6},{"i_long":106.74273,"i_lat":-6.276362,"station_name":"Pondokranji","time":3,"station_id":"PDJ","distance":2179,"is_transit":false,"transit":false,"line":6},{"i_long":106.780334,"i_lat":-6.237242,"line":6,"station_name":"Kebayoran","is_transit":false,"distance":6218,"station_id":"KBY","transit":false,"time":8},{"time":7,"line":6,"i_long":106.79689,"transit":false,"is_transit":false,"i_lat":-6.207404,"distance":3737,"station_id":"PLM","station_name":"Palmerah"},{"line":1,"is_transit":true,"transit":true,"time":6,"i_long":106.811091,"distance":3191,"station_name":"Tanah Abang","i_lat":-6.185545,"station_id":"THB"},{"i_long":106.800832,"line":1,"station_name":"Duri","i_lat":-6.155215,"time":8,"distance":3632,"transit":true,"is_transit":true,"station_id":"DU"},{"is_transit":false,"distance":1700,"i_long":106.788277,"station_name":"Grogol","transit":false,"time":3,"line":5,"station_id":"GGL","i_lat":-6.162021},{"i_lat":-6.161433,"station_id":"PSG","transit":false,"distance":2036,"time":2,"i_long":106.771379,"line":5,"station_name":"Pesing","is_transit":false},{"i_long":106.756522,"time":2,"distance":1614,"i_lat":-6.1587309999999995,"transit":false,"station_name":"Taman Kota","is_transit":false,"station_id":"TKO","line":5},{"distance":2334,"i_lat":-6.159876,"station_id":"BOI","time":2,"transit":false,"i_long":106.737035,"station_name":"Bojongindah","line":0,"is_transit":false},{"station_id":"RW","i_lat":-6.162758,"transit":false,"distance":1152,"i_long":106.723064,"time":4,"station_name":"Rawa Buaya","line":5,"is_transit":false},{"distance":2504,"is_transit":false,"time":3,"line":5,"station_id":"KDS","i_long":106.701612,"station_name":"Kalideres","transit":false,"i_lat":-6.166068},{"i_long":106.679458,"i_lat":-6.169933,"distance":2548,"is_transit":false,"station_id":"PI","station_name":"Poris","transit":false,"time":3,"line":5},{"distance":1834,"is_transit":false,"i_lat":-6.171811,"station_id":"BPR","i_long":106.665036,"line":0,"station_name":"Batuceper","transit":false,"time":3},{"station_name":"Tanah Tinggi","distance":2028,"transit":false,"i_lat":-6.17331,"i_long":106.64657,"line":5,"time":3,"station_id":"TTI","is_transit":false}],[{"is_transit":false,"transit":false,"station_name":"Sudimara","time":0,"distance":0,"station_id":"SDM","i_lat":-6.296963,"line":6,"i_long":106.712277},{"transit":false,"is_transit":false,"i_lat":-6.288927,"line":6,"station_id":"JMU","i_long":106.728916,"distance":1994,"station_name":"Jurangmangu","time":4},{"station_name":"Pondokranji","i_lat":-6.276362,"is_transit":false,"transit":false,"distance":2179,"i_long":106.74273,"line":6,"station_id":"PDJ","time":3},{"i_lat":-6.237242,"distance":6218,"station_id":"KBY","is_transit":false,"transit":false,"time":8,"i_long":106.780334,"station_name":"Kebayoran","line":6},{"i_lat":-6.207404,"distance":3737,"line":6,"station_id":"PLM","i_long":106.79689,"is_transit":false,"time":7,"transit":false,"station_name":"Palmerah"},{"is_transit":true,"distance":3191,"time":6,"station_name":"Tanah Abang","transit":true,"line":1,"i_lat":-6.185545,"station_id":"THB","i_long":106.811091},{"i_long":106.816351,"is_transit":false,"distance":2029,"station_id":"KAT","station_name":"Karet","transit":false,"time":5,"i_lat":-6.20132,"line":1},{"station_name":"Sudirman Baru","line":1,"i_long":106.819881,"distance":471,"is_transit":false,"transit":false,"i_lat":-6.201433,"station_id":"SUDB","time":1},{"is_transit":false,"distance":280,"station_name":"Sudirman","time":1,"i_long":106.822649,"line":1,"transit":false,"i_lat":-6.202263,"station_id":"SUD"},{"i_lat":-6.209883,"i_long":106.84912,"line":0,"is_transit":true,"transit":true,"station_name":"Manggarai","time":4,"station_id":"MRI","distance":3186},{"line":0,"transit":false,"i_long":106.840169,"station_id":"CKI","i_lat":-6.198556,"station_name":"Cikini","is_transit":false,"time":4,"distance":1590},{"transit":false,"time":3,"i_lat":-6.186295,"is_transit":false,"station_id":"GDD","i_long":106.832183,"distance":1750,"line":2,"station_name":"Gondangdia"},{"is_transit":false,"distance":2015,"i_long":106.828284,"station_id":"JUA","time":4,"line":2,"station_name":"Juanda","transit":false,"i_lat":-6.166716},{"station_id":"SW","distance":1149,"station_name":"Sawah Besar","transit":false,"i_long":106.827103,"time":2,"line":2,"i_lat":-6.160725,"is_transit":false},{"line":2,"i_long":106.82482,"station_id":"MGB","is_transit":false,"distance":906,"station_name":"Manggabesar","time":2,"i_lat":-6.149769,"transit":false},{"is_transit":false,"time":2,"i_lat":-6.141205,"station_id":"JAY","distance":1080,"i_long":106.820901,"line":7,"station_name":"Jayakarta","transit":false},{"station_id":"JAKK","line":0,"transit":true,"i_lat":-6.137569,"is_transit":true,"station_name":"Jakarta Kota","i_long":106.812439,"distance":1264,"time":4},{"station_name":"Kampung Bandan","is_transit":true,"i_long":106.826365,"station_id":"KPB","transit":false,"time":3,"distance":1364,"i_lat":-6.132549,"line":0},{"i_long":106.79867,"distance":4102,"transit":false,"station_name":"Angke","i_lat":-6.144674,"line":0,"time":9,"is_transit":false,"station_id":"AK"},{"i_lat":-6.155215,"station_id":"DU","i_long":106.800832,"station_name":"Duri","distance":1230,"time":4,"line":1,"is_transit":true,"transit":true},{"transit":false,"line":5,"is_transit":false,"time":3,"distance":1700,"i_long":106.788277,"station_id":"GGL","i_lat":-6.162021,"station_name":"Grogol"},{"distance":2036,"line":5,"time":2,"i_long":106.771379,"is_transit":false,"i_lat":-6.161433,"station_name":"Pesing","station_id":"PSG","transit":false},{"is_transit":false,"i_long":106.756522,"line":5,"station_id":"TKO","transit":false,"distance":1614,"station_name":"Taman Kota","time":2,"i_lat":-6.1587309999999995},{"line":0,"station_id":"BOI","time":2,"station_name":"Bojongindah","i_lat":-6.159876,"transit":false,"is_transit":false,"distance":2334,"i_long":106.737035},{"line":5,"station_id":"RW","station_name":"Rawa Buaya","time":4,"transit":false,"distance":1152,"i_lat":-6.162758,"is_transit":false,"i_long":106.723064},{"time":3,"distance":2504,"i_lat":-6.166068,"line":5,"transit":false,"station_id":"KDS","is_transit":false,"station_name":"Kalideres","i_long":106.701612},{"line":5,"transit":false,"i_lat":-6.169933,"i_long":106.679458,"station_name":"Poris","distance":2548,"station_id":"PI","time":3,"is_transit":false},{"station_id":"BPR","time":3,"i_long":106.665036,"i_lat":-6.171811,"is_transit":false,"transit":false,"station_name":"Batuceper","distance":1834,"line":0},{"i_long":106.64657,"line":5,"time":3,"station_name":"Tanah Tinggi","i_lat":-6.17331,"transit":false,"station_id":"TTI","distance":2028,"is_transit":false}],[{"time":0,"i_lat":-6.296963,"i_long":106.712277,"distance":0,"station_id":"SDM","transit":false,"line":6,"is_transit":false,"station_name":"Sudimara"},{"line":6,"distance":1994,"i_lat":-6.288927,"time":4,"transit":false,"i_long":106.728916,"station_id":"JMU","is_transit":false,"station_name":"Jurangmangu"},{"is_transit":false,"distance":2179,"transit":false,"i_long":106.74273,"station_name":"Pondokranji","time":3,"i_lat":-6.276362,"line":6,"station_id":"PDJ"},{"distance":6218,"is_transit":false,"line":6,"station_id":"KBY","i_lat":-6.237242,"station_name":"Kebayoran","transit":false,"time":8,"i_long":106.780334},{"station_id":"PLM","is_transit":false,"distance":3737,"station_name":"Palmerah","i_long":106.79689,"transit":false,"line":6,"time":7,"i_lat":-6.207404},{"time":6,"i_lat":-6.185545,"station_id":"THB","station_name":"Tanah Abang","i_long":106.811091,"line":1,"distance":3191,"is_transit":true,"transit":true},{"i_lat":-6.20132,"station_name":"Karet","distance":2029,"station_id":"KAT","time":5,"i_long":106.816351,"is_transit":false,"transit":false,"line":1},{"time":1,"i_long":106.819881,"line":1,"i_lat":-6.201433,"transit":false,"distance":471,"station_id":"SUDB","station_name":"Sudirman Baru","is_transit":false},{"distance":280,"transit":false,"line":1,"i_lat":-6.202263,"station_id":"SUD","station_name":"Sudirman","time":1,"is_transit":false,"i_long":106.822649},{"line":0,"i_long":106.84912,"is_transit":true,"distance":3186,"station_name":"Manggarai","i_lat":-6.209883,"station_id":"MRI","transit":false,"time":4},{"station_name":"Matraman","transit":false,"line":1,"distance":1275,"station_id":"MTR","is_transit":false,"time":2,"i_lat":-6.212485,"i_long":106.858896},{"is_transit":true,"station_id":"JNG","transit":true,"i_lat":-6.215091,"i_long":106.86807400000001,"distance":1377,"time":8,"station_name":"Jatinegara","line":0},{"i_long":106.861737,"transit":false,"distance":1236,"is_transit":false,"time":2,"line":11,"station_id":"POK","i_lat":-6.209188,"station_name":"Pondok Jati"},{"station_id":"KMT","i_long":106.855437,"is_transit":false,"station_name":"Kramat","distance":1829,"i_lat":-6.193792,"line":11,"time":2,"transit":false},{"i_lat":-6.185975,"transit":false,"is_transit":false,"station_name":"Gang Sentiong","i_long":106.850107,"time":1,"station_id":"GST","distance":973,"line":11},{"transit":false,"line":11,"distance":1567,"is_transit":false,"time":8,"i_lat":-6.174784,"station_name":"Pasar Senen","station_id":"PSE","i_long":106.84368},{"line":11,"i_long":106.839204,"i_lat":-6.161728,"distance":1436,"is_transit":false,"station_id":"KMO","station_name":"Kemayoran","time":4,"transit":false},{"line":11,"time":5,"transit":false,"is_transit":false,"station_id":"RJW","i_lat":-6.14505,"distance":1901,"station_name":"Rajawali","i_long":106.836569},{"time":3,"station_id":"KPB","line":0,"is_transit":true,"i_lat":-6.132549,"transit":true,"i_long":106.826365,"station_name":"Kampung Bandan","distance":1444},{"line":0,"distance":4102,"station_id":"AK","is_transit":false,"transit":false,"station_name":"Angke","i_lat":-6.144674,"i_long":106.79867,"time":9},{"is_transit":true,"i_lat":-6.155215,"time":4,"transit":true,"distance":1230,"station_id":"DU","station_name":"Duri","line":1,"i_long":106.800832},{"is_transit":false,"i_lat":-6.162021,"station_id":"GGL","station_name":"Grogol","transit":false,"line":5,"distance":1700,"time":3,"i_long":106.788277},{"i_lat":-6.161433,"i_long":106.771379,"is_transit":false,"time":2,"distance":2036,"station_name":"Pesing","transit":false,"station_id":"PSG","line":5},{"station_id":"TKO","transit":false,"i_long":106.756522,"station_name":"Taman Kota","time":2,"line":5,"distance":1614,"is_transit":false,"i_lat":-6.1587309999999995},{"i_long":106.737035,"station_name":"Bojongindah","is_transit":false,"station_id":"BOI","transit":false,"line":0,"time":2,"i_lat":-6.159876,"distance":2334},{"station_id":"RW","transit":false,"distance":1152,"i_long":106.723064,"line":5,"time":4,"station_name":"Rawa Buaya","i_lat":-6.162758,"is_transit":false},{"distance":2504,"is_transit":false,"transit":false,"time":3,"i_lat":-6.166068,"station_id":"KDS","line":5,"i_long":106.701612,"station_name":"Kalideres"},{"distance":2548,"station_id":"PI","station_name":"Poris","time":3,"i_lat":-6.169933,"transit":false,"is_transit":false,"line":5,"i_long":106.679458},{"station_id":"BPR","distance":1834,"station_name":"Batuceper","i_lat":-6.171811,"time":3,"is_transit":false,"i_long":106.665036,"transit":false,"line":0},{"is_transit":false,"time":3,"i_long":106.64657,"line":5,"station_name":"Tanah Tinggi","i_lat":-6.17331,"distance":2028,"station_id":"TTI","transit":false}]]}