{"data":[[{"time":0,"transit":false,"station_name":"Sudimara","i_long":106.712277,"station_id":"SDM","is_transit":false,"distance":0,"i_lat":-6.296963,"line":6},{"is_transit":false,"i_lat":-6.288927,"time":4,"station_id":"JMU","i_long":106.728916,"transit":false,"distance":1994,"station_name":"Jurangmangu","line":6},{"time":3,"i_long":106.74273,"is_transit":false,"line":6,"transit":false,"i_lat":-6.276362,"distance":2179,"station_name":"Pondokranji","station_id":"PDJ"},{"is_transit":false,"i_lat":-6.237242,"transit":false,"i_long":106.780334,"distance":6218,"line":6,"station_name":"Kebayoran","time":8,"station_id":"KBY"},{"station_id":"PLM","transit":false,"station_name":"Palmerah","i_long":106.79689,"is_transit":false,"line":6,"i_lat":-6.207404,"distance":3737,"time":7},{"transit":true,"station_id":"THB","station_name":"Tanah Abang","time":6,"i_lat":-6.185545,"i_long":106.811091,"line":1,"is_transit":true,"distance":3191},{"i_long":106.800832,"transit":true,"station_id":"DU","i_lat":-6.155215,"line":1,"time":8,"is_transit":true,"station_name":"Duri","distance":3632},{"transit":false,"station_name":"Grogol","distance":1700,"station_id":"GGL","i_long":106.788277,"is_transit":false,"i_lat":-6.162021,"time":3,"line":5},{"i_long":106.771379,"line":5,"i_lat":-6.161433,"transit":false,"station_name":"Pesing","distance":2036,"time":2,"station_id":"PSG","is_transit":false},{"station_name":"Taman Kota","i_lat":-6.1587309999999995,"i_long":106.756522,"station_id":"TKO","is_transit":false,"line":5,"transit":false,"distance":1614,"time":2},{"i_long":106.737035,"line":5,"station_id":"BOI","station_name":"Bojongindah","is_transit":false,"transit":false,"i_lat":-6.159876,"distance":2334,"time":2},{"station_name":"Rawa Buaya","i_lat":-6.162758,"station_id":"RW","distance":1152,"is_transit":false,"transit":false,"i_long":106.723064,"time":4,"line":5},{"is_transit":false,"distance":2504,"line":5,"time":3,"i_long":106.701612,"transit":false,"i_lat":-6.166068,"station_id":"KDS","station_name":"Kalideres"},{"is_transit":false,"station_id":"PI","time":3,"transit":false,"line":5,"i_lat":-6.169933,"i_long":106.679458,"distance":2548,"station_name":"Poris"},{"distance":1834,"transit":false,"line":5,"i_lat":-6.171811,"i_long":106.665036,"is_transit":false,"time":3,"station_name":"Batuceper","station_id":"BPR"},{"line":5,"is_transit":false,"distance":2028,"station_id":"TTI","i_lat":-6.17331,"i_long":106.64657,"time":3,"transit":false,"station_name":"Tanah Tinggi"}],[{"time":0,"station_name":"Sudimara","line":6,"distance":0,"station_id":"SDM","transit":false,"is_transit":false,"i_lat":-6.296963,"i_long":106.712277},{"station_name":"Jurangmangu","line":6,"station_id":"JMU","i_long":106.728916,"is_transit":false,"distance":1994,"i_lat":-6.288927,"time":4,"transit":false},{"line":6,"i_lat":-6.276362,"distance":2179,"station_name":"Pondokranji","time":3,"station_id":"PDJ","is_transit":false,"transit":false,"i_long":106.74273},{"line":6,"distance":6218,"time":8,"is_transit":false,"transit":false,"station_name":"Kebayoran","i_long":106.780334,"i_lat":-6.237242,"station_id":"KBY"},{"i_lat":-6.207404,"transit":false,"is_transit":false,"station_id":"PLM","station_name":"Palmerah","distance":3737,"time":7,"i_long":106.79689,"line":6},{"station_name":"Tanah Abang","i_long":106.811091,"transit":true,"line":1,"time":6,"distance":3191,"station_id":"THB","i_lat":-6.185545,"is_transit":true},{"distance":2029,"i_long":106.816351,"line":1,"station_id":"KAT","transit":false,"is_transit":false,"station_name":"Karet","time":5,"i_lat":-6.20132},{"distance":471,"transit":false,"i_lat":-6.201433,"i_long":106.819881,"station_id":"SUDB","station_name":"Sudirman Baru","is_transit":false,"time":1,"line":1},{"station_id":"SUD","transit":false,"distance":280,"is_transit":false,"i_lat":-6.202263,"station_name":"Sudirman","i_long":106.822649,"line":1,"time":1},{"line":2,"time":4,"i_long":106.84912,"distance":3186,"i_lat":-6.209883,"transit":true,"is_transit":true,"station_name":"Manggarai","station_id":"MRI"},{"station_id":"CKI","is_transit":false,"i_long":106.840169,"station_name":"Cikini","i_lat":-6.198556,"line":2,"transit":false,"distance":1590,"time":4},{"station_id":"GDD","transit":false,"is_transit":false,"time":3,"distance":1750,"line":2,"station_name":"Gondangdia","i_lat":-6.186295,"i_long":106.832183},{"is_transit":false,"station_name":"Juanda","station_id":"JUA","i_long":106.828284,"transit":false,"i_lat":-6.166716,"distance":2015,"line":2,"time":4},{"station_id":"SW","is_transit":false,"i_lat":-6.160725,"time":2,"station_name":"Sawah Besar","distance":1149,"transit":false,"i_long":106.827103,"line":2},{"time":2,"distance":906,"transit":false,"i_lat":-6.149769,"i_long":106.82482,"station_name":"Manggabesar","station_id":"MGB","is_transit":false,"line":2},{"station_name":"Jayakarta","is_transit":false,"line":2,"station_id":"JAY","time":2,"distance":1080,"transit":false,"i_lat":-6.141205,"i_long":106.820901},{"is_transit":true,"line":2,"i_long":106.812439,"distance":1264,"transit":true,"i_lat":-6.137569,"station_name":"Jakarta Kota","station_id":"JAKK","time":4},{"station_id":"KPB","line":4,"distance":1364,"transit":true,"time":3,"i_lat":-6.132549,"i_long":106.826365,"station_name":"Kampung Bandan","is_transit":true},{"distance":4102,"transit":false,"i_lat":-6.144674,"is_transit":false,"i_long":106.79867,"time":9,"station_id":"AK","line":1,"station_name":"Angke"},{"is_transit":true,"i_lat":-6.155215,"station_name":"Duri","time":4,"i_long":106.800832,"transit":true,"distance":1230,"line":1,"station_id":"DU"},{"i_lat":-6.162021,"station_name":"Grogol","distance":1700,"line":5,"transit":false,"station_id":"GGL","i_long":106.788277,"is_transit":false,"time":3},{"is_transit":false,"i_long":106.771379,"i_lat":-6.161433,"station_id":"PSG","distance":2036,"transit":false,"station_name":"Pesing","line":5,"time":2},{"line":5,"i_long":106.756522,"transit":false,"station_name":"Taman Kota","time":2,"station_id":"TKO","is_transit":false,"distance":1614,"i_lat":-6.1587309999999995},{"station_name":"Bojongindah","time":2,"i_long":106.737035,"distance":2334,"i_lat":-6.159876,"transit":false,"is_transit":false,"station_id":"BOI","line":5},{"is_transit":false,"time":4,"station_id":"RW","i_lat":-6.162758,"line":5,"transit":false,"distance":1152,"i_long":106.723064,"station_name":"Rawa Buaya"},{"time":3,"i_long":106.701612,"station_name":"Kalideres","is_transit":false,"line":5,"transit":false,"station_id":"KDS","i_lat":-6.166068,"distance":2504},{"i_lat":-6.169933,"time":3,"station_name":"Poris","i_long":106.679458,"station_id":"PI","is_transit":false,"line":5,"transit":false,"distance":2548},{"distance":1834,"i_lat":-6.171811,"station_name":"Batuceper","transit":false,"line":5,"is_transit":false,"station_id":"BPR","time":3,"i_long":106.665036},{"station_id":"TTI","line":5,"transit":false,"station_name":"Tanah Tinggi","distance":2028,"time":3,"i_long":106.64657,"is_transit":false,"i_lat":-6.17331}],[{"i_lat":-6.296963,"line":6,"distance":0,"i_long":106.712277,"transit":false,"is_transit":false,"time":0,"station_name":"Sudimara","station_id":"SDM"},{"is_transit":false,"i_long":106.728916,"distance":1994,"station_name":"Jurangmangu","station_id":"JMU","i_lat":-6.288927,"time":4,"transit":false,"line":6},{"time":3,"station_name":"Pondokranji","station_id":"PDJ","i_long":106.74273,"line":6,"i_lat":-6.276362,"is_transit":false,"distance":2179,"transit":false},{"station_id":"KBY","distance":6218,"i_long":106.780334,"is_transit":false,"i_lat":-6.237242,"line":6,"transit":false,"time":8,"station_name":"Kebayoran"},{"time":7,"line":6,"i_long":106.79689,"is_transit":false,"distance":3737,"transit":false,"station_name":"Palmerah","station_id":"PLM","i_lat":-6.207404},{"station_id":"THB","distance":3191,"is_transit":true,"time":6,"station_name":"Tanah Abang","transit":true,"i_lat":-6.185545,"line":1,"i_long":106.811091},{"time":5,"distance":2029,"is_transit":false,"transit":false,"station_name":"Karet","i_lat":-6.20132,"line":1,"i_long":106.816351,"station_id":"KAT"},{"i_lat":-6.201433,"distance":471,"line":1,"transit":false,"is_transit":false,"time":1,"i_long":106.819881,"station_name":"Sudirman Baru","station_id":"SUDB"},{"distance":280,"time":1,"transit":false,"station_name":"Sudirman","station_id":"SUD","line":1,"i_lat":-6.202263,"is_transit":false,"i_long":106.822649},{"is_transit":false,"i_lat":-6.209883,"distance":3186,"transit":false,"station_name":"Manggarai","i_long":106.84912,"line":2,"time":4,"station_id":"MRI"},{"line":1,"station_id":"MTR","time":2,"transit":false,"i_long":106.858896,"is_transit":false,"distance":1275,"station_name":"Matraman","i_lat":-6.212485},{"transit":true,"is_transit":true,"station_name":"Jatinegara","i_lat":-6.215091,"line":1,"time":8,"distance":1377,"station_id":"JNG","i_long":106.86807400000001},{"is_transit":false,"station_name":"Pondok Jati","i_lat":-6.209188,"transit":false,"station_id":"POK","time":2,"i_long":106.861737,"line":11,"distance":1236},{"i_lat":-6.193792,"i_long":106.855437,"time":2,"line":11,"is_transit":false,"transit":false,"station_id":"KMT","station_name":"Kramat","distance":1829},{"distance":973,"transit":false,"line":11,"is_transit":false,"station_name":"Gang Sentiong","station_id":"GST","time":1,"i_lat":-6.185975,"i_long":106.850107},{"station_id":"PSE","distance":1567,"i_long":106.84368,"is_transit":false,"time":8,"transit":false,"i_lat":-6.174784,"line":11,"station_name":"Pasar Senen"},{"i_lat":-6.161728,"transit":false,"station_id":"KMO","i_long":106.839204,"is_transit":false,"time":4,"line":11,"distance":1436,"station_name":"Kemayoran"},{"station_name":"Rajawali","line":11,"is_transit":false,"station_id":"RJW","i_lat":-6.14505,"i_long":106.836569,"transit":false,"time":5,"distance":1901},{"transit":true,"station_id":"KPB","station_name":"Kampung Bandan","i_long":106.826365,"i_lat":-6.132549,"line":4,"is_transit":true,"time":3,"distance":1444},{"time":9,"line":1,"station_id":"AK","transit":false,"i_long":106.79867,"distance":4102,"station_name":"Angke","i_lat":-6.144674,"is_transit":false},{"transit":true,"time":4,"is_transit":true,"station_id":"DU","line":1,"i_long":106.800832,"station_name":"Duri","distance":1230,"i_lat":-6.155215},{"is_transit":false,"station_id":"GGL","distance":1700,"time":3,"i_lat":-6.162021,"i_long":106.788277,"line":5,"station_name":"Grogol","transit":false},{"is_transit":false,"i_lat":-6.161433,"time":2,"transit":false,"line":5,"distance":2036,"station_id":"PSG","i_long":106.771379,"station_name":"Pesing"},{"i_long":106.756522,"is_transit":false,"distance":1614,"i_lat":-6.1587309999999995,"line":5,"station_name":"Taman Kota","station_id":"TKO","transit":false,"time":2},{"i_lat":-6.159876,"distance":2334,"station_name":"Bojongindah","line":5,"transit":false,"is_transit":false,"i_long":106.737035,"time":2,"station_id":"BOI"},{"distance":1152,"transit":false,"i_lat":-6.162758,"line":5,"station_name":"Rawa Buaya","is_transit":false,"station_id":"RW","i_long":106.723064,"time":4},{"is_transit":false,"station_id":"KDS","distance":2504,"transit":false,"time":3,"i_lat":-6.166068,"station_name":"Kalideres","i_long":106.701612,"line":5},{"line":5,"transit":false,"station_name":"Poris","is_transit":false,"station_id":"PI","distance":2548,"i_long":106.679458,"time":3,"i_lat":-6.169933},{"i_long":106.665036,"is_transit":false,"station_name":"Batuceper","station_id":"BPR","transit":false,"i_lat":-6.171811,"line":5,"time":3,"distance":1834},{"line":5,"i_long":106.64657,"distance":2028,"station_name":"Tanah Tinggi","station_id":"TTI","is_transit":false,"i_lat":-6.17331,"transit":false,"time":3}]]}