{"data":[[{"distance":0,"i_long":106.712277,"line":6,"transit":false,"i_lat":-6.296963,"station_id":"SDM","is_transit":false,"time":0,"station_name":"Sudimara"},{"distance":1994,"is_transit":false,"station_id":"JMU","time":4,"i_lat":-6.288927,"line":6,"transit":false,"station_name":"Jurangmangu","i_long":106.728916},{"is_transit":false,"station_name":"Pondokranji","transit":false,"time":3,"station_id":"PDJ","i_long":106.74273,"line":6,"distance":2179,"i_lat":-6.276362},{"i_long":106.780334,"i_lat":-6.237242,"line":6,"time":8,"transit":false,"station_name":"Kebayoran","is_transit":false,"station_id":"KBY","distance":6218},{"station_id":"PLM","is_transit":false,"line":6,"transit":false,"station_name":"Palmerah","time":7,"i_lat":-6.207404,"i_long":106.79689,"distance":3737},{"time":6,"line":1,"station_id":"THB","transit":true,"station_name":"Tanah Abang","is_transit":true,"distance":3191,"i_lat":-6.185545,"i_long":106.811091},{"line":1,"time":5,"station_name":"Karet","distance":2029,"is_transit":false,"i_long":106.816351,"i_lat":-6.20132,"station_id":"KAT","transit":false},{"transit":false,"i_lat":-6.201433,"station_name":"Sudirman Baru","distance":471,"i_long":106.819881,"time":1,"line":1,"station_id":"SUDB","is_transit":false},{"i_long":106.822649,"station_name":"Sudirman","line":1,"is_transit":false,"station_id":"SUD","transit":false,"time":1,"distance":280,"i_lat":-6.202263}],[{"transit":false,"station_id":"SDM","i_lat":-6.296963,"station_name":"Sudimara","line":6,"i_long":106.712277,"is_transit":false,"time":0,"distance":0},{"distance":1994,"time":4,"transit":false,"i_lat":-6.288927,"line":6,"is_transit":false,"station_id":"JMU","i_long":106.728916,"station_name":"Jurangmangu"},{"i_long":106.74273,"distance":2179,"station_id":"PDJ","line":6,"transit":false,"time":3,"i_lat":-6.276362,"is_transit":false,"station_name":"Pondokranji"},{"time":8,"i_lat":-6.237242,"line":6,"transit":false,"distance":6218,"is_transit":false,"station_name":"Kebayoran","i_long":106.780334,"station_id":"KBY"},{"i_long":106.79689,"station_name":"Palmerah","distance":3737,"line":6,"transit":false,"station_id":"PLM","time":7,"i_lat":-6.207404,"is_transit":false},{"station_name":"Tanah Abang","line":1,"i_long":106.811091,"station_id":"THB","time":6,"distance":3191,"i_lat":-6.185545,"transit":true,"is_transit":true},{"time":8,"is_transit":false,"i_lat":-6.155215,"transit":false,"station_id":"DU","station_name":"Duri","distance":3632,"i_long":106.800832,"line":1},{"distance":1230,"station_id":"AK","line":1,"station_name":"Angke","is_transit":false,"transit":false,"time":4,"i_lat":-6.144674,"i_long":106.79867},{"i_lat":-6.132549,"is_transit":true,"time":9,"i_long":106.826365,"transit":true,"station_name":"Kampung Bandan","station_id":"KPB","distance":4102,"line":4},{"distance":1364,"transit":true,"station_name":"Jakarta Kota","i_lat":-6.137569,"station_id":"JAKK","time":3,"line":2,"is_transit":true,"i_long":106.812439},{"transit":false,"station_id":"JAY","time":4,"distance":1264,"i_lat":-6.141205,"line":2,"is_transit":false,"i_long":106.820901,"station_name":"Jayakarta"},{"is_transit":false,"station_name":"Manggabesar","time":2,"station_id":"MGB","distance":1080,"transit":false,"i_long":106.82482,"line":2,"i_lat":-6.149769},{"station_id":"SW","transit":false,"i_long":106.827103,"line":2,"station_name":"Sawah Besar","time":2,"distance":906,"is_transit":false,"i_lat":-6.160725},{"distance":1149,"i_long":106.828284,"line":2,"station_name":"Juanda","i_lat":-6.166716,"transit":false,"station_id":"JUA","is_transit":false,"time":2},{"line":2,"time":4,"transit":false,"is_transit":false,"i_long":106.832183,"distance":2015,"i_lat":-6.186295,"station_name":"Gondangdia","station_id":"GDD"},{"transit":false,"i_long":106.840169,"station_id":"CKI","station_name":"Cikini","line":2,"is_transit":false,"i_lat":-6.198556,"time":3,"distance":1750},{"distance":1590,"i_lat":-6.209883,"i_long":106.84912,"station_name":"Manggarai","transit":true,"time":4,"is_transit":true,"station_id":"MRI","line":2},{"i_long":106.822649,"station_name":"Sudirman","transit":false,"distance":3186,"is_transit":false,"line":1,"i_lat":-6.202263,"station_id":"SUD","time":4}],[{"station_id":"SDM","station_name":"Sudimara","transit":false,"i_lat":-6.296963,"is_transit":false,"i_long":106.712277,"line":6,"distance":0,"time":0},{"line":6,"station_id":"JMU","transit":false,"is_transit":false,"time":4,"station_name":"Jurangmangu","distance":1994,"i_lat":-6.288927,"i_long":106.728916},{"station_name":"Pondokranji","distance":2179,"station_id":"PDJ","transit":false,"is_transit":false,"i_lat":-6.276362,"i_long":106.74273,"line":6,"time":3},{"time":8,"station_name":"Kebayoran","i_lat":-6.237242,"is_transit":false,"i_long":106.780334,"transit":false,"distance":6218,"line":6,"station_id":"KBY"},{"line":6,"distance":3737,"transit":false,"i_long":106.79689,"station_name":"Palmerah","station_id":"PLM","time":7,"is_transit":false,"i_lat":-6.207404},{"i_lat":-6.185545,"i_long":106.811091,"distance":3191,"transit":true,"time":6,"line":1,"is_transit":true,"station_id":"THB","station_name":"Tanah Abang"},{"transit":false,"time":8,"distance":3632,"i_lat":-6.155215,"i_long":106.800832,"line":1,"station_id":"DU","station_name":"Duri","is_transit":false},{"transit":false,"station_id":"AK","distance":1230,"i_long":106.79867,"is_transit":false,"time":4,"i_lat":-6.144674,"line":1,"station_name":"Angke"},{"i_long":106.826365,"i_lat":-6.132549,"distance":4102,"station_name":"Kampung Bandan","station_id":"KPB","is_transit":true,"line":4,"transit":true,"time":9},{"transit":false,"is_transit":false,"distance":1444,"station_id":"RJW","line":11,"station_name":"Rajawali","time":3,"i_lat":-6.14505,"i_long":106.836569},{"i_long":106.839204,"station_name":"Kemayoran","line":11,"time":5,"is_transit":false,"station_id":"KMO","transit":false,"distance":1901,"i_lat":-6.161728},{"is_transit":false,"i_lat":-6.174784,"station_id":"PSE","line":11,"time":4,"transit":false,"station_name":"Pasar Senen","distance":1436,"i_long":106.84368},{"transit":false,"is_transit":false,"i_lat":-6.185975,"station_name":"Gang Sentiong","i_long":106.850107,"line":11,"time":8,"distance":1567,"station_id":"GST"},{"time":1,"i_long":106.855437,"station_name":"Kramat","transit":false,"station_id":"KMT","line":11,"is_transit":false,"distance":973,"i_lat":-6.193792},{"station_name":"Pondok Jati","transit":false,"station_id":"POK","time":2,"distance":1829,"i_long":106.861737,"i_lat":-6.209188,"line":11,"is_transit":false},{"is_transit":true,"transit":true,"distance":1236,"station_id":"JNG","i_lat":-6.215091,"station_name":"Jatinegara","time":9,"line":1,"i_long":106.86807400000001},{"is_transit":false,"line":1,"i_long":106.858896,"time":2,"station_id":"MTR","station_name":"Matraman","distance":1377,"transit":false,"i_lat":-6.212485},{"station_id":"MRI","time":2,"is_transit":false,"i_lat":-6.209883,"i_long":106.84912,"transit":false,"distance":1275,"line":2,"station_name":"Manggarai"},{"is_transit":false,"station_name":"Sudirman","time":4,"distance":3186,"i_long":106.822649,"line":1,"station_id":"SUD","i_lat":-6.202263,"transit":false}]]}