{"data":[[{"is_transit":false,"i_lat":-6.296963,"station_id":"SDM","i_long":106.712277,"time":0,"distance":0,"station_name":"Sudimara","line":6,"transit":false},{"i_lat":-6.288927,"distance":1994,"station_name":"Jurangmangu","i_long":106.728916,"transit":false,"is_transit":false,"station_id":"JMU","line":6,"time":4},{"station_id":"PDJ","time":3,"transit":false,"station_name":"Pondokranji","distance":2179,"line":6,"i_long":106.74273,"is_transit":false,"i_lat":-6.276362},{"is_transit":false,"i_long":106.780334,"i_lat":-6.237242,"line":6,"transit":false,"station_name":"Kebayoran","distance":6218,"time":8,"station_id":"KBY"},{"time":7,"station_id":"PLM","distance":3737,"is_transit":false,"i_lat":-6.207404,"line":6,"i_long":106.79689,"station_name":"Palmerah","transit":false},{"i_lat":-6.185545,"line":1,"transit":true,"station_id":"THB","station_name":"Tanah Abang","i_long":106.811091,"distance":3191,"time":6,"is_transit":true},{"station_id":"DU","distance":3632,"i_long":106.800832,"transit":true,"station_name":"Duri","time":8,"is_transit":true,"i_lat":-6.155215,"line":1},{"station_id":"GGL","transit":false,"time":3,"i_lat":-6.162021,"distance":1700,"is_transit":false,"i_long":106.788277,"station_name":"Grogol","line":5},{"line":5,"station_name":"Pesing","station_id":"PSG","is_transit":false,"i_lat":-6.161433,"i_long":106.771379,"transit":false,"time":2,"distance":2036},{"distance":1614,"i_lat":-6.1587309999999995,"station_id":"TKO","i_long":106.756522,"transit":false,"is_transit":false,"time":2,"line":5,"station_name":"Taman Kota"},{"distance":2334,"station_name":"Bojongindah","line":5,"transit":false,"time":2,"station_id":"BOI","i_lat":-6.159876,"is_transit":false,"i_long":106.737035},{"station_name":"Rawa Buaya","is_transit":false,"time":4,"i_long":106.723064,"distance":1152,"i_lat":-6.162758,"transit":false,"station_id":"RW","line":5},{"station_id":"KDS","time":3,"line":5,"transit":false,"is_transit":false,"i_lat":-6.166068,"distance":2504,"i_long":106.701612,"station_name":"Kalideres"},{"line":5,"distance":2548,"is_transit":false,"time":3,"station_id":"PI","i_long":106.679458,"transit":false,"station_name":"Poris","i_lat":-6.169933},{"time":3,"transit":false,"station_name":"Batuceper","station_id":"BPR","is_transit":false,"distance":1834,"i_lat":-6.171811,"line":5,"i_long":106.665036},{"station_id":"TTI","line":5,"time":3,"i_long":106.64657,"station_name":"Tanah Tinggi","transit":false,"is_transit":false,"i_lat":-6.17331,"distance":2028},{"line":5,"i_long":106.632761,"station_name":"Tangerang","time":3,"i_lat":-6.176583,"distance":1547,"station_id":"TNG","is_transit":false,"transit":false}],[{"station_id":"SDM","is_transit":false,"station_name":"Sudimara","transit":false,"time":0,"distance":0,"i_long":106.712277,"i_lat":-6.296963,"line":6},{"is_transit":false,"transit":false,"time":4,"station_id":"JMU","station_name":"Jurangmangu","i_lat":-6.288927,"line":6,"distance":1994,"i_long":106.728916},{"line":6,"time":3,"station_id":"PDJ","is_transit":false,"transit":false,"distance":2179,"i_lat":-6.276362,"station_name":"Pondokranji","i_long":106.74273},{"transit":false,"is_transit":false,"station_id":"KBY","distance":6218,"i_long":106.780334,"station_name":"Kebayoran","line":6,"time":8,"i_lat":-6.237242},{"transit":false,"i_long":106.79689,"is_transit":false,"i_lat":-6.207404,"distance":3737,"time":7,"line":6,"station_id":"PLM","station_name":"Palmerah"},{"is_transit":true,"station_id":"THB","i_long":106.811091,"distance":3191,"transit":true,"station_name":"Tanah Abang","time":6,"i_lat":-6.185545,"line":1},{"transit":false,"is_transit":false,"station_name":"Karet","time":5,"i_lat":-6.20132,"i_long":106.816351,"line":1,"distance":2029,"station_id":"KAT"},{"is_transit":false,"transit":false,"time":1,"station_id":"SUDB","distance":471,"station_name":"Sudirman Baru","i_long":106.819881,"line":1,"i_lat":-6.201433},{"station_name":"Sudirman","is_transit":false,"time":1,"station_id":"SUD","line":1,"distance":280,"i_long":106.822649,"i_lat":-6.202263,"transit":false},{"transit":true,"station_name":"Manggarai","line":2,"time":4,"i_lat":-6.209883,"distance":3186,"i_long":106.84912,"is_transit":true,"station_id":"MRI"},{"is_transit":false,"station_name":"Cikini","transit":false,"distance":1590,"station_id":"CKI","i_lat":-6.198556,"i_long":106.840169,"time":4,"line":2},{"line":2,"transit":false,"station_name":"Gondangdia","is_transit":false,"i_long":106.832183,"distance":1750,"time":3,"i_lat":-6.186295,"station_id":"GDD"},{"transit":false,"distance":2015,"line":2,"station_name":"Juanda","i_lat":-6.166716,"i_long":106.828284,"station_id":"JUA","time":4,"is_transit":false},{"transit":false,"i_long":106.827103,"time":2,"station_name":"Sawah Besar","i_lat":-6.160725,"station_id":"SW","is_transit":false,"distance":1149,"line":2},{"station_name":"Manggabesar","is_transit":false,"i_long":106.82482,"transit":false,"distance":906,"line":2,"station_id":"MGB","i_lat":-6.149769,"time":2},{"line":2,"station_name":"Jayakarta","is_transit":false,"station_id":"JAY","time":2,"i_long":106.820901,"transit":false,"distance":1080,"i_lat":-6.141205},{"i_lat":-6.137569,"transit":true,"distance":1264,"line":2,"station_name":"Jakarta Kota","time":4,"i_long":106.812439,"station_id":"JAKK","is_transit":true},{"station_name":"Kampung Bandan","station_id":"KPB","i_long":106.826365,"distance":1364,"i_lat":-6.132549,"line":4,"is_transit":true,"time":3,"transit":true},{"station_name":"Angke","time":9,"is_transit":false,"i_lat":-6.144674,"station_id":"AK","distance":4102,"line":1,"transit":false,"i_long":106.79867},{"i_lat":-6.155215,"station_name":"Duri","is_transit":true,"line":1,"station_id":"DU","distance":1230,"i_long":106.800832,"time":4,"transit":true},{"is_transit":false,"time":3,"station_id":"GGL","i_long":106.788277,"transit":false,"i_lat":-6.162021,"station_name":"Grogol","line":5,"distance":1700},{"station_id":"PSG","station_name":"Pesing","is_transit":false,"line":5,"i_lat":-6.161433,"i_long":106.771379,"time":2,"distance":2036,"transit":false},{"station_name":"Taman Kota","station_id":"TKO","distance":1614,"transit":false,"i_lat":-6.1587309999999995,"is_transit":false,"line":5,"i_long":106.756522,"time":2},{"distance":2334,"i_lat":-6.159876,"station_name":"Bojongindah","i_long":106.737035,"transit":false,"line":5,"is_transit":false,"time":2,"station_id":"BOI"},{"station_name":"Rawa Buaya","line":5,"transit":false,"station_id":"RW","is_transit":false,"distance":1152,"i_lat":-6.162758,"time":4,"i_long":106.723064},{"transit":false,"station_id":"KDS","station_name":"Kalideres","time":3,"i_lat":-6.166068,"i_long":106.701612,"line":5,"distance":2504,"is_transit":false},{"line":5,"station_id":"PI","distance":2548,"i_long":106.679458,"transit":false,"time":3,"i_lat":-6.169933,"station_name":"Poris","is_transit":false},{"line":5,"i_long":106.665036,"station_id":"BPR","i_lat":-6.171811,"is_transit":false,"time":3,"station_name":"Batuceper","transit":false,"distance":1834},{"station_id":"TTI","transit":false,"station_name":"Tanah Tinggi","i_lat":-6.17331,"i_long":106.64657,"line":5,"is_transit":false,"time":3,"distance":2028},{"i_long":106.632761,"is_transit":false,"station_name":"Tangerang","transit":false,"station_id":"TNG","line":5,"distance":1547,"i_lat":-6.176583,"time":3}],[{"is_transit":false,"line":6,"distance":0,"i_long":106.712277,"station_id":"SDM","transit":false,"station_name":"Sudimara","i_lat":-6.296963,"time":0},{"time":4,"transit":false,"station_id":"JMU","is_transit":false,"distance":1994,"i_lat":-6.288927,"i_long":106.728916,"line":6,"station_name":"Jurangmangu"},{"time":3,"distance":2179,"station_id":"PDJ","i_long":106.74273,"transit":false,"station_name":"Pondokranji","is_transit":false,"i_lat":-6.276362,"line":6},{"transit":false,"station_id":"KBY","distance":6218,"i_lat":-6.237242,"time":8,"i_long":106.780334,"is_transit":false,"station_name":"Kebayoran","line":6},{"station_id":"PLM","is_transit":false,"distance":3737,"i_lat":-6.207404,"station_name":"Palmerah","time":7,"line":6,"i_long":106.79689,"transit":false},{"time":6,"i_long":106.811091,"i_lat":-6.185545,"station_name":"Tanah Abang","is_transit":true,"distance":3191,"line":1,"transit":true,"station_id":"THB"},{"station_id":"KAT","station_name":"Karet","time":5,"distance":2029,"transit":false,"i_lat":-6.20132,"is_transit":false,"i_long":106.816351,"line":1},{"station_name":"Sudirman Baru","line":1,"is_transit":false,"time":1,"i_lat":-6.201433,"transit":false,"station_id":"SUDB","distance":471,"i_long":106.819881},{"station_id":"SUD","station_name":"Sudirman","distance":280,"i_long":106.822649,"is_transit":false,"transit":false,"i_lat":-6.202263,"line":1,"time":1},{"transit":false,"line":2,"station_id":"MRI","i_lat":-6.209883,"time":4,"is_transit":false,"distance":3186,"station_name":"Manggarai","i_long":106.84912},{"transit":false,"i_long":106.858896,"station_id":"MTR","station_name":"Matraman","time":2,"is_transit":false,"distance":1275,"i_lat":-6.212485,"line":1},{"transit":true,"station_id":"JNG","is_transit":true,"i_lat":-6.215091,"distance":1377,"station_name":"Jatinegara","time":8,"line":1,"i_long":106.86807400000001},{"is_transit":false,"time":2,"distance":1236,"i_long":106.861737,"transit":false,"i_lat":-6.209188,"line":11,"station_name":"Pondok Jati","station_id":"POK"},{"i_long":106.855437,"line":11,"station_id":"KMT","time":2,"is_transit":false,"distance":1829,"i_lat":-6.193792,"transit":false,"station_name":"Kramat"},{"is_transit":false,"transit":false,"station_name":"Gang Sentiong","station_id":"GST","time":1,"distance":973,"i_long":106.850107,"line":11,"i_lat":-6.185975},{"station_id":"PSE","transit":false,"distance":1567,"i_long":106.84368,"line":11,"time":8,"is_transit":false,"i_lat":-6.174784,"station_name":"Pasar Senen"},{"distance":1436,"time":4,"is_transit":false,"i_lat":-6.161728,"i_long":106.839204,"transit":false,"line":11,"station_id":"KMO","station_name":"Kemayoran"},{"i_lat":-6.14505,"i_long":106.836569,"time":5,"station_name":"Rajawali","is_transit":false,"station_id":"RJW","distance":1901,"line":11,"transit":false},{"is_transit":true,"transit":true,"time":3,"station_name":"Kampung Bandan","distance":1444,"station_id":"KPB","i_long":106.826365,"line":4,"i_lat":-6.132549},{"line":1,"station_name":"Angke","is_transit":false,"i_lat":-6.144674,"time":9,"distance":4102,"station_id":"AK","i_long":106.79867,"transit":false},{"time":4,"distance":1230,"station_id":"DU","station_name":"Duri","is_transit":true,"i_lat":-6.155215,"line":1,"transit":true,"i_long":106.800832},{"station_name":"Grogol","is_transit":false,"distance":1700,"station_id":"GGL","time":3,"i_lat":-6.162021,"i_long":106.788277,"line":5,"transit":false},{"line":5,"transit":false,"station_id":"PSG","i_long":106.771379,"distance":2036,"is_transit":false,"time":2,"i_lat":-6.161433,"station_name":"Pesing"},{"i_lat":-6.1587309999999995,"line":5,"is_transit":false,"time":2,"distance":1614,"station_id":"TKO","transit":false,"i_long":106.756522,"station_name":"Taman Kota"},{"station_id":"BOI","time":2,"i_lat":-6.159876,"transit":false,"distance":2334,"line":5,"i_long":106.737035,"station_name":"Bojongindah","is_transit":false},{"i_long":106.723064,"transit":false,"distance":1152,"i_lat":-6.162758,"line":5,"is_transit":false,"time":4,"station_id":"RW","station_name":"Rawa Buaya"},{"station_name":"Kalideres","i_lat":-6.166068,"station_id":"KDS","line":5,"time":3,"transit":false,"is_transit":false,"i_long":106.701612,"distance":2504},{"i_lat":-6.169933,"transit":false,"i_long":106.679458,"is_transit":false,"station_id":"PI","distance":2548,"line":5,"station_name":"Poris","time":3},{"line":5,"station_name":"Batuceper","transit":false,"distance":1834,"i_long":106.665036,"station_id":"BPR","is_transit":false,"i_lat":-6.171811,"time":3},{"distance":2028,"i_lat":-6.17331,"station_name":"Tanah Tinggi","line":5,"transit":false,"station_id":"TTI","is_transit":false,"i_long":106.64657,"time":3},{"station_name":"Tangerang","distance":1547,"is_transit":false,"time":3,"station_id":"TNG","i_lat":-6.176583,"line":5,"transit":false,"i_long":106.632761}]]}