{"data":[[{"i_long":106.712277,"time":0,"transit":false,"distance":0,"station_id":"SDM","station_name":"Sudimara","is_transit":false,"line":6,"i_lat":-6.296963},{"is_transit":false,"station_name":"Jurangmangu","line":6,"distance":1994,"transit":false,"station_id":"JMU","time":4,"i_lat":-6.288927,"i_long":106.728916},{"time":3,"transit":false,"distance":2179,"i_long":106.74273,"is_transit":false,"station_id":"PDJ","i_lat":-6.276362,"line":6,"station_name":"Pondokranji"},{"is_transit":false,"i_lat":-6.237242,"i_long":106.780334,"station_id":"KBY","line":6,"distance":6218,"transit":false,"time":8,"station_name":"Kebayoran"},{"line":6,"station_name":"Palmerah","station_id":"PLM","time":7,"transit":false,"distance":3737,"i_lat":-6.207404,"is_transit":false,"i_long":106.79689},{"station_id":"THB","transit":true,"station_name":"Tanah Abang","distance":3191,"i_long":106.811091,"time":6,"is_transit":true,"line":1,"i_lat":-6.185545},{"line":1,"i_lat":-6.20132,"time":5,"station_id":"KAT","transit":false,"station_name":"Karet","distance":2029,"is_transit":false,"i_long":106.816351},{"station_name":"Sudirman Baru","i_lat":-6.201433,"line":1,"distance":471,"transit":false,"time":1,"is_transit":false,"i_long":106.819881,"station_id":"SUDB"},{"i_lat":-6.202263,"distance":280,"transit":false,"time":1,"station_name":"Sudirman","is_transit":false,"line":1,"station_id":"SUD","i_long":106.822649},{"distance":3186,"is_transit":true,"station_id":"MRI","i_lat":-6.209883,"time":4,"line":2,"transit":true,"station_name":"Manggarai","i_long":106.84912},{"transit":false,"is_transit":false,"station_id":"TEB","line":2,"time":4,"distance":2610,"i_lat":-6.226659,"i_long":106.857948,"station_name":"Tebet"},{"i_long":106.856607,"distance":1230,"is_transit":false,"time":2,"transit":false,"station_id":"CW","i_lat":-6.242512,"station_name":"Cawang","line":2},{"station_id":"DRN","time":3,"i_long":106.85449,"distance":1546,"is_transit":false,"line":2,"station_name":"Duren Kalibata","transit":false,"i_lat":-6.255332},{"transit":false,"distance":824,"i_long":106.851577,"line":2,"station_name":"Pasar Minggu Baru","station_id":"PSMB","time":2,"is_transit":false,"i_lat":-6.263214}],[{"station_name":"Sudimara","time":0,"is_transit":false,"line":6,"i_lat":-6.296963,"transit":false,"station_id":"SDM","i_long":106.712277,"distance":0},{"distance":1994,"transit":false,"station_name":"Jurangmangu","line":6,"is_transit":false,"station_id":"JMU","time":4,"i_long":106.728916,"i_lat":-6.288927},{"station_name":"Pondokranji","i_lat":-6.276362,"station_id":"PDJ","transit":false,"time":3,"distance":2179,"is_transit":false,"i_long":106.74273,"line":6},{"distance":6218,"line":6,"station_id":"KBY","transit":false,"i_long":106.780334,"i_lat":-6.237242,"is_transit":false,"time":8,"station_name":"Kebayoran"},{"line":6,"station_name":"Palmerah","is_transit":false,"station_id":"PLM","i_lat":-6.207404,"i_long":106.79689,"distance":3737,"transit":false,"time":7},{"station_id":"THB","time":6,"transit":true,"is_transit":true,"i_lat":-6.185545,"distance":3191,"line":1,"i_long":106.811091,"station_name":"Tanah Abang"},{"station_id":"DU","time":8,"transit":false,"station_name":"Duri","is_transit":false,"distance":3632,"i_lat":-6.155215,"i_long":106.800832,"line":1},{"station_id":"AK","transit":false,"is_transit":false,"distance":1230,"station_name":"Angke","time":4,"i_long":106.79867,"i_lat":-6.144674,"line":1},{"is_transit":true,"line":4,"transit":true,"i_lat":-6.132549,"distance":4102,"station_id":"KPB","time":9,"i_long":106.826365,"station_name":"Kampung Bandan"},{"station_id":"JAKK","is_transit":true,"line":2,"station_name":"Jakarta Kota","transit":true,"distance":1364,"time":3,"i_long":106.812439,"i_lat":-6.137569},{"line":2,"transit":false,"distance":1264,"i_lat":-6.141205,"i_long":106.820901,"time":4,"station_name":"Jayakarta","station_id":"JAY","is_transit":false},{"time":2,"line":2,"i_long":106.82482,"transit":false,"distance":1080,"station_id":"MGB","i_lat":-6.149769,"station_name":"Manggabesar","is_transit":false},{"i_lat":-6.160725,"distance":906,"transit":false,"time":2,"i_long":106.827103,"is_transit":false,"station_name":"Sawah Besar","line":2,"station_id":"SW"},{"time":2,"distance":1149,"line":2,"station_name":"Juanda","is_transit":false,"i_long":106.828284,"i_lat":-6.166716,"station_id":"JUA","transit":false},{"time":4,"i_long":106.832183,"distance":2015,"i_lat":-6.186295,"station_id":"GDD","line":2,"transit":false,"is_transit":false,"station_name":"Gondangdia"},{"station_id":"CKI","time":3,"is_transit":false,"transit":false,"i_lat":-6.198556,"station_name":"Cikini","distance":1750,"line":2,"i_long":106.840169},{"transit":false,"is_transit":false,"station_id":"MRI","time":4,"line":2,"i_long":106.84912,"i_lat":-6.209883,"station_name":"Manggarai","distance":1590},{"time":4,"i_lat":-6.226659,"station_name":"Tebet","i_long":106.857948,"is_transit":false,"station_id":"TEB","line":2,"distance":2610,"transit":false},{"transit":false,"time":2,"i_lat":-6.242512,"i_long":106.856607,"station_id":"CW","line":2,"is_transit":false,"station_name":"Cawang","distance":1230},{"distance":1546,"station_id":"DRN","time":3,"i_long":106.85449,"is_transit":false,"station_name":"Duren Kalibata","i_lat":-6.255332,"transit":false,"line":2},{"is_transit":false,"distance":824,"station_name":"Pasar Minggu Baru","i_long":106.851577,"line":2,"station_id":"PSMB","transit":false,"time":2,"i_lat":-6.263214}],[{"i_long":106.712277,"station_id":"SDM","distance":0,"transit":false,"time":0,"is_transit":false,"line":6,"i_lat":-6.296963,"station_name":"Sudimara"},{"station_name":"Jurangmangu","station_id":"JMU","is_transit":false,"transit":false,"time":4,"distance":1994,"line":6,"i_lat":-6.288927,"i_long":106.728916},{"station_name":"Pondokranji","line":6,"transit":false,"time":3,"distance":2179,"is_transit":false,"station_id":"PDJ","i_lat":-6.276362,"i_long":106.74273},{"time":8,"is_transit":false,"station_id":"KBY","distance":6218,"i_long":106.780334,"i_lat":-6.237242,"line":6,"station_name":"Kebayoran","transit":false},{"distance":3737,"i_lat":-6.207404,"is_transit":false,"transit":false,"time":7,"station_name":"Palmerah","station_id":"PLM","line":6,"i_long":106.79689},{"i_lat":-6.185545,"transit":true,"station_id":"THB","i_long":106.811091,"line":1,"time":6,"distance":3191,"station_name":"Tanah Abang","is_transit":true},{"distance":3632,"is_transit":false,"station_id":"DU","i_long":106.800832,"i_lat":-6.155215,"transit":false,"station_name":"Duri","line":1,"time":8},{"transit":false,"station_id":"AK","i_lat":-6.144674,"i_long":106.79867,"time":4,"station_name":"Angke","distance":1230,"line":1,"is_transit":false},{"station_id":"KPB","distance":4102,"i_lat":-6.132549,"i_long":106.826365,"station_name":"Kampung Bandan","time":9,"line":4,"transit":true,"is_transit":true},{"station_id":"RJW","transit":false,"line":11,"i_lat":-6.14505,"distance":1444,"time":3,"i_long":106.836569,"station_name":"Rajawali","is_transit":false},{"line":11,"distance":1901,"time":5,"transit":false,"station_id":"KMO","i_lat":-6.161728,"station_name":"Kemayoran","i_long":106.839204,"is_transit":false},{"transit":false,"distance":1436,"is_transit":false,"i_lat":-6.174784,"time":4,"line":11,"station_id":"PSE","station_name":"Pasar Senen","i_long":106.84368},{"time":8,"i_lat":-6.185975,"i_long":106.850107,"station_name":"Gang Sentiong","is_transit":false,"line":11,"transit":false,"distance":1567,"station_id":"GST"},{"transit":false,"i_long":106.855437,"station_id":"KMT","i_lat":-6.193792,"line":11,"station_name":"Kramat","is_transit":false,"distance":973,"time":1},{"transit":false,"distance":1829,"is_transit":false,"i_lat":-6.209188,"station_name":"Pondok Jati","time":2,"station_id":"POK","i_long":106.861737,"line":11},{"time":9,"i_lat":-6.215091,"transit":true,"is_transit":true,"distance":1236,"station_id":"JNG","line":1,"i_long":106.86807400000001,"station_name":"Jatinegara"},{"is_transit":false,"i_lat":-6.212485,"i_long":106.858896,"line":1,"transit":false,"station_name":"Matraman","station_id":"MTR","time":2,"distance":1377},{"i_lat":-6.209883,"time":2,"distance":1275,"line":2,"i_long":106.84912,"station_name":"Manggarai","is_transit":true,"station_id":"MRI","transit":true},{"i_long":106.857948,"i_lat":-6.226659,"station_id":"TEB","line":2,"transit":false,"station_name":"Tebet","distance":2610,"time":4,"is_transit":false},{"line":2,"is_transit":false,"i_long":106.856607,"station_name":"Cawang","transit":false,"i_lat":-6.242512,"time":2,"distance":1230,"station_id":"CW"},{"time":3,"distance":1546,"station_id":"DRN","i_long":106.85449,"station_name":"Duren Kalibata","i_lat":-6.255332,"line":2,"is_transit":false,"transit":false},{"time":2,"distance":824,"station_name":"Pasar Minggu Baru","i_long":106.851577,"line":2,"station_id":"PSMB","is_transit":false,"i_lat":-6.263214,"transit":false}]]}