{"data":[[{"station_name":"Sudimara","i_long":106.712277,"line":6,"transit":false,"i_lat":-6.296963,"distance":0,"station_id":"SDM","is_transit":false,"time":0},{"station_name":"Jurangmangu","transit":false,"station_id":"JMU","i_long":106.728916,"i_lat":-6.288927,"time":4,"line":6,"is_transit":false,"distance":1994},{"i_lat":-6.276362,"line":6,"station_id":"PDJ","distance":2179,"i_long":106.74273,"station_name":"Pondokranji","transit":false,"is_transit":false,"time":3},{"is_transit":false,"i_long":106.780334,"transit":false,"station_name":"Kebayoran","time":8,"i_lat":-6.237242,"line":6,"distance":6218,"station_id":"KBY"},{"i_lat":-6.207404,"is_transit":false,"transit":false,"time":7,"i_long":106.79689,"line":6,"station_id":"PLM","station_name":"Palmerah","distance":3737},{"time":6,"station_name":"Tanah Abang","station_id":"THB","distance":3191,"i_lat":-6.185545,"i_long":106.811091,"line":1,"transit":true,"is_transit":true},{"is_transit":false,"station_name":"Duri","transit":false,"i_long":106.800832,"line":1,"station_id":"DU","distance":3632,"time":8,"i_lat":-6.155215},{"time":4,"line":1,"distance":1230,"i_lat":-6.144674,"is_transit":false,"station_id":"AK","transit":false,"station_name":"Angke","i_long":106.79867},{"transit":true,"line":4,"distance":4102,"i_long":106.826365,"station_id":"KPB","station_name":"Kampung Bandan","is_transit":true,"time":9,"i_lat":-6.132549},{"station_name":"Jakarta Kota","distance":1364,"time":3,"transit":false,"is_transit":false,"station_id":"JAKK","i_lat":-6.137569,"i_long":106.812439,"line":2}],[{"line":6,"is_transit":false,"distance":0,"transit":false,"time":0,"station_id":"SDM","station_name":"Sudimara","i_lat":-6.296963,"i_long":106.712277},{"is_transit":false,"distance":1994,"i_lat":-6.288927,"station_name":"Jurangmangu","station_id":"JMU","time":4,"line":6,"transit":false,"i_long":106.728916},{"line":6,"station_name":"Pondokranji","is_transit":false,"station_id":"PDJ","time":3,"transit":false,"i_lat":-6.276362,"distance":2179,"i_long":106.74273},{"station_id":"KBY","line":6,"is_transit":false,"i_long":106.780334,"station_name":"Kebayoran","i_lat":-6.237242,"transit":false,"time":8,"distance":6218},{"i_long":106.79689,"transit":false,"line":6,"station_id":"PLM","time":7,"is_transit":false,"station_name":"Palmerah","i_lat":-6.207404,"distance":3737},{"is_transit":true,"line":1,"distance":3191,"station_name":"Tanah Abang","station_id":"THB","i_lat":-6.185545,"i_long":106.811091,"time":6,"transit":true},{"transit":false,"station_name":"Karet","i_lat":-6.20132,"i_long":106.816351,"line":1,"station_id":"KAT","distance":2029,"is_transit":false,"time":5},{"line":1,"time":1,"i_long":106.819881,"is_transit":false,"station_id":"SUDB","station_name":"Sudirman Baru","distance":471,"i_lat":-6.201433,"transit":false},{"distance":280,"transit":false,"is_transit":false,"i_lat":-6.202263,"i_long":106.822649,"station_name":"Sudirman","line":1,"time":1,"station_id":"SUD"},{"distance":3186,"is_transit":true,"i_lat":-6.209883,"station_id":"MRI","i_long":106.84912,"line":2,"transit":true,"time":4,"station_name":"Manggarai"},{"time":4,"station_name":"Cikini","distance":1590,"i_lat":-6.198556,"i_long":106.840169,"station_id":"CKI","transit":false,"line":2,"is_transit":false},{"is_transit":false,"distance":1750,"i_long":106.832183,"station_name":"Gondangdia","line":2,"transit":false,"station_id":"GDD","time":3,"i_lat":-6.186295},{"distance":2015,"time":4,"line":2,"station_name":"Juanda","i_lat":-6.166716,"i_long":106.828284,"is_transit":false,"transit":false,"station_id":"JUA"},{"transit":false,"station_name":"Sawah Besar","distance":1149,"i_lat":-6.160725,"i_long":106.827103,"line":2,"station_id":"SW","time":2,"is_transit":false},{"is_transit":false,"distance":906,"i_lat":-6.149769,"station_id":"MGB","station_name":"Manggabesar","i_long":106.82482,"line":2,"time":2,"transit":false},{"transit":false,"time":2,"is_transit":false,"distance":1080,"i_lat":-6.141205,"station_name":"Jayakarta","station_id":"JAY","i_long":106.820901,"line":2},{"line":2,"transit":false,"distance":1264,"station_id":"JAKK","station_name":"Jakarta Kota","i_lat":-6.137569,"i_long":106.812439,"is_transit":false,"time":4}],[{"distance":0,"station_name":"Sudimara","is_transit":false,"time":0,"station_id":"SDM","transit":false,"i_lat":-6.296963,"i_long":106.712277,"line":6},{"transit":false,"is_transit":false,"station_id":"JMU","i_long":106.728916,"line":6,"distance":1994,"station_name":"Jurangmangu","time":4,"i_lat":-6.288927},{"line":6,"station_id":"PDJ","is_transit":false,"i_long":106.74273,"distance":2179,"transit":false,"station_name":"Pondokranji","time":3,"i_lat":-6.276362},{"time":8,"line":6,"transit":false,"distance":6218,"station_name":"Kebayoran","station_id":"KBY","is_transit":false,"i_lat":-6.237242,"i_long":106.780334},{"station_id":"PLM","i_lat":-6.207404,"transit":false,"distance":3737,"line":6,"is_transit":false,"station_name":"Palmerah","time":7,"i_long":106.79689},{"transit":true,"i_lat":-6.185545,"is_transit":true,"time":6,"distance":3191,"station_name":"Tanah Abang","station_id":"THB","line":1,"i_long":106.811091},{"distance":2029,"i_lat":-6.20132,"station_name":"Karet","i_long":106.816351,"station_id":"KAT","line":1,"transit":false,"is_transit":false,"time":5},{"line":1,"station_id":"SUDB","i_long":106.819881,"is_transit":false,"i_lat":-6.201433,"transit":false,"time":1,"distance":471,"station_name":"Sudirman Baru"},{"transit":false,"time":1,"distance":280,"station_name":"Sudirman","i_long":106.822649,"line":1,"is_transit":false,"i_lat":-6.202263,"station_id":"SUD"},{"line":2,"i_long":106.84912,"transit":false,"station_name":"Manggarai","is_transit":false,"i_lat":-6.209883,"distance":3186,"station_id":"MRI","time":4},{"i_long":106.858896,"is_transit":false,"time":2,"station_name":"Matraman","station_id":"MTR","transit":false,"distance":1275,"line":1,"i_lat":-6.212485},{"time":8,"station_name":"Jatinegara","i_lat":-6.215091,"distance":1377,"is_transit":true,"line":1,"station_id":"JNG","transit":true,"i_long":106.86807400000001},{"i_lat":-6.209188,"i_long":106.861737,"time":2,"is_transit":false,"station_name":"Pondok Jati","distance":1236,"transit":false,"station_id":"POK","line":11},{"time":2,"station_id":"KMT","distance":1829,"i_lat":-6.193792,"station_name":"Kramat","transit":false,"i_long":106.855437,"line":11,"is_transit":false},{"is_transit":false,"station_id":"GST","time":1,"distance":973,"i_long":106.850107,"line":11,"i_lat":-6.185975,"transit":false,"station_name":"Gang Sentiong"},{"station_id":"PSE","i_long":106.84368,"line":11,"transit":false,"distance":1567,"i_lat":-6.174784,"time":8,"is_transit":false,"station_name":"Pasar Senen"},{"distance":1436,"transit":false,"station_name":"Kemayoran","station_id":"KMO","is_transit":false,"time":4,"i_lat":-6.161728,"line":11,"i_long":106.839204},{"line":11,"time":5,"distance":1901,"i_lat":-6.14505,"i_long":106.836569,"station_id":"RJW","is_transit":false,"transit":false,"station_name":"Rajawali"},{"i_long":106.826365,"station_name":"Kampung Bandan","is_transit":true,"transit":true,"time":3,"distance":1444,"i_lat":-6.132549,"line":4,"station_id":"KPB"},{"is_transit":false,"transit":false,"station_id":"JAKK","station_name":"Jakarta Kota","i_lat":-6.137569,"i_long":106.812439,"line":2,"time":3,"distance":1364}],[{"station_id":"SDM","i_lat":-6.296963,"is_transit":false,"time":0,"transit":false,"i_long":106.712277,"distance":0,"line":6,"station_name":"Sudimara"},{"is_transit":false,"time":4,"line":6,"station_name":"Jurangmangu","i_lat":-6.288927,"station_id":"JMU","transit":false,"i_long":106.728916,"distance":1994},{"station_name":"Pondokranji","station_id":"PDJ","is_transit":false,"distance":2179,"line":6,"i_long":106.74273,"time":3,"i_lat":-6.276362,"transit":false},{"station_id":"KBY","distance":6218,"time":8,"is_transit":false,"i_long":106.780334,"station_name":"Kebayoran","transit":false,"i_lat":-6.237242,"line":6},{"distance":3737,"i_lat":-6.207404,"time":7,"is_transit":false,"station_name":"Palmerah","line":6,"transit":false,"station_id":"PLM","i_long":106.79689},{"is_transit":true,"i_long":106.811091,"line":1,"i_lat":-6.185545,"transit":true,"distance":3191,"station_id":"THB","station_name":"Tanah Abang","time":6},{"transit":false,"distance":3632,"i_lat":-6.155215,"station_name":"Duri","station_id":"DU","is_transit":false,"i_long":106.800832,"line":1,"time":8},{"transit":false,"station_name":"Angke","distance":1230,"i_lat":-6.144674,"line":1,"station_id":"AK","is_transit":false,"time":4,"i_long":106.79867},{"line":4,"transit":true,"station_name":"Kampung Bandan","i_lat":-6.132549,"station_id":"KPB","time":9,"distance":4102,"is_transit":true,"i_long":106.826365},{"transit":false,"station_name":"Rajawali","i_lat":-6.14505,"i_long":106.836569,"is_transit":false,"distance":1444,"line":11,"station_id":"RJW","time":3},{"i_lat":-6.161728,"distance":1901,"transit":false,"line":11,"time":5,"station_id":"KMO","i_long":106.839204,"station_name":"Kemayoran","is_transit":false},{"is_transit":false,"i_lat":-6.174784,"station_id":"PSE","line":11,"station_name":"Pasar Senen","time":4,"transit":false,"distance":1436,"i_long":106.84368},{"line":11,"station_id":"GST","station_name":"Gang Sentiong","i_lat":-6.185975,"time":8,"is_transit":false,"transit":false,"i_long":106.850107,"distance":1567},{"transit":false,"i_lat":-6.193792,"is_transit":false,"station_id":"KMT","i_long":106.855437,"time":1,"line":11,"station_name":"Kramat","distance":973},{"line":11,"i_long":106.861737,"transit":false,"station_name":"Pondok Jati","time":2,"station_id":"POK","is_transit":false,"i_lat":-6.209188,"distance":1829},{"line":1,"station_id":"JNG","i_long":106.86807400000001,"station_name":"Jatinegara","distance":1236,"i_lat":-6.215091,"time":9,"transit":true,"is_transit":true},{"i_long":106.858896,"line":1,"transit":false,"station_name":"Matraman","station_id":"MTR","is_transit":false,"time":2,"distance":1377,"i_lat":-6.212485},{"distance":1275,"station_name":"Manggarai","line":2,"transit":true,"time":2,"station_id":"MRI","i_lat":-6.209883,"is_transit":true,"i_long":106.84912},{"station_name":"Cikini","is_transit":false,"time":4,"i_long":106.840169,"distance":1590,"i_lat":-6.198556,"transit":false,"station_id":"CKI","line":2},{"station_id":"GDD","time":3,"line":2,"transit":false,"is_transit":false,"i_lat":-6.186295,"distance":1750,"i_long":106.832183,"station_name":"Gondangdia"},{"line":2,"distance":2015,"is_transit":false,"time":4,"station_id":"JUA","i_long":106.828284,"transit":false,"station_name":"Juanda","i_lat":-6.166716},{"time":2,"transit":false,"station_name":"Sawah Besar","station_id":"SW","is_transit":false,"distance":1149,"i_lat":-6.160725,"line":2,"i_long":106.827103},{"station_id":"MGB","line":2,"time":2,"i_long":106.82482,"station_name":"Manggabesar","transit":false,"is_transit":false,"i_lat":-6.149769,"distance":906},{"line":2,"i_long":106.820901,"station_name":"Jayakarta","time":2,"i_lat":-6.141205,"distance":1080,"station_id":"JAY","is_transit":false,"transit":false},{"i_long":106.812439,"station_id":"JAKK","distance":1264,"line":2,"i_lat":-6.137569,"transit":false,"time":4,"is_transit":false,"station_name":"Jakarta Kota"}]]}