{"data":[[{"i_lat":-6.296963,"line":6,"station_name":"Sudimara","station_id":"SDM","is_transit":false,"distance":0,"i_long":106.712277,"time":0,"transit":false},{"i_long":106.728916,"line":6,"is_transit":false,"i_lat":-6.288927,"station_name":"Jurangmangu","station_id":"JMU","distance":1994,"time":4,"transit":false},{"distance":2179,"i_lat":-6.276362,"station_name":"Pondokranji","i_long":106.74273,"transit":false,"line":6,"station_id":"PDJ","is_transit":false,"time":3},{"time":8,"station_name":"Kebayoran","i_long":106.780334,"line":6,"station_id":"KBY","transit":false,"is_transit":false,"i_lat":-6.237242,"distance":6218},{"line":6,"station_name":"Palmerah","transit":false,"time":7,"i_long":106.79689,"is_transit":false,"station_id":"PLM","distance":3737,"i_lat":-6.207404},{"is_transit":true,"time":6,"station_name":"Tanah Abang","transit":true,"distance":3191,"i_long":106.811091,"line":1,"station_id":"THB","i_lat":-6.185545},{"time":5,"is_transit":false,"station_name":"Karet","line":1,"i_lat":-6.20132,"transit":false,"i_long":106.816351,"distance":2029,"station_id":"KAT"},{"i_long":106.819881,"is_transit":false,"transit":false,"station_name":"Sudirman Baru","time":1,"distance":471,"i_lat":-6.201433,"line":1,"station_id":"SUDB"},{"is_transit":false,"i_lat":-6.202263,"distance":280,"station_id":"SUD","time":1,"transit":false,"i_long":106.822649,"station_name":"Sudirman","line":1},{"i_long":106.84912,"transit":true,"line":2,"i_lat":-6.209883,"station_id":"MRI","time":4,"is_transit":true,"distance":3186,"station_name":"Manggarai"},{"station_id":"CKI","distance":1590,"i_lat":-6.198556,"transit":false,"is_transit":false,"time":4,"line":2,"station_name":"Cikini","i_long":106.840169},{"station_id":"GDD","station_name":"Gondangdia","is_transit":false,"i_long":106.832183,"time":3,"line":2,"i_lat":-6.186295,"transit":false,"distance":1750}],[{"distance":0,"station_id":"SDM","is_transit":false,"transit":false,"i_lat":-6.296963,"line":6,"time":0,"i_long":106.712277,"station_name":"Sudimara"},{"distance":1994,"i_long":106.728916,"time":4,"i_lat":-6.288927,"is_transit":false,"line":6,"transit":false,"station_name":"Jurangmangu","station_id":"JMU"},{"station_id":"PDJ","i_long":106.74273,"time":3,"line":6,"is_transit":false,"i_lat":-6.276362,"distance":2179,"transit":false,"station_name":"Pondokranji"},{"i_lat":-6.237242,"station_id":"KBY","is_transit":false,"transit":false,"line":6,"i_long":106.780334,"station_name":"Kebayoran","time":8,"distance":6218},{"i_lat":-6.207404,"line":6,"station_id":"PLM","station_name":"Palmerah","time":7,"i_long":106.79689,"transit":false,"is_transit":false,"distance":3737},{"is_transit":true,"distance":3191,"time":6,"station_id":"THB","station_name":"Tanah Abang","i_lat":-6.185545,"line":1,"transit":true,"i_long":106.811091},{"station_id":"DU","time":8,"transit":false,"station_name":"Duri","is_transit":false,"distance":3632,"i_lat":-6.155215,"i_long":106.800832,"line":1},{"i_lat":-6.144674,"i_long":106.79867,"station_name":"Angke","distance":1230,"station_id":"AK","is_transit":false,"time":4,"line":1,"transit":false},{"distance":4102,"i_lat":-6.132549,"is_transit":true,"time":9,"transit":true,"i_long":106.826365,"station_id":"KPB","line":4,"station_name":"Kampung Bandan"},{"transit":true,"line":2,"i_lat":-6.137569,"distance":1364,"i_long":106.812439,"is_transit":true,"station_name":"Jakarta Kota","station_id":"JAKK","time":3},{"line":2,"i_lat":-6.141205,"is_transit":false,"i_long":106.820901,"distance":1264,"station_id":"JAY","transit":false,"station_name":"Jayakarta","time":4},{"station_id":"MGB","transit":false,"time":2,"station_name":"Manggabesar","line":2,"is_transit":false,"i_lat":-6.149769,"i_long":106.82482,"distance":1080},{"station_name":"Sawah Besar","station_id":"SW","i_long":106.827103,"time":2,"distance":906,"i_lat":-6.160725,"line":2,"is_transit":false,"transit":false},{"is_transit":false,"station_name":"Juanda","i_long":106.828284,"line":2,"time":2,"distance":1149,"station_id":"JUA","i_lat":-6.166716,"transit":false},{"i_lat":-6.186295,"transit":false,"station_id":"GDD","time":4,"is_transit":false,"station_name":"Gondangdia","line":2,"distance":2015,"i_long":106.832183}],[{"is_transit":false,"i_lat":-6.296963,"transit":false,"station_name":"Sudimara","time":0,"i_long":106.712277,"distance":0,"station_id":"SDM","line":6},{"i_long":106.728916,"time":4,"station_name":"Jurangmangu","station_id":"JMU","is_transit":false,"i_lat":-6.288927,"line":6,"transit":false,"distance":1994},{"i_lat":-6.276362,"station_name":"Pondokranji","is_transit":false,"distance":2179,"i_long":106.74273,"transit":false,"line":6,"station_id":"PDJ","time":3},{"transit":false,"station_name":"Kebayoran","i_long":106.780334,"time":8,"line":6,"station_id":"KBY","i_lat":-6.237242,"is_transit":false,"distance":6218},{"station_name":"Palmerah","is_transit":false,"time":7,"transit":false,"distance":3737,"i_lat":-6.207404,"line":6,"station_id":"PLM","i_long":106.79689},{"station_name":"Tanah Abang","transit":true,"is_transit":true,"i_lat":-6.185545,"line":1,"i_long":106.811091,"time":6,"station_id":"THB","distance":3191},{"transit":false,"station_id":"DU","station_name":"Duri","time":8,"i_long":106.800832,"line":1,"i_lat":-6.155215,"distance":3632,"is_transit":false},{"station_name":"Angke","time":4,"i_lat":-6.144674,"transit":false,"i_long":106.79867,"station_id":"AK","distance":1230,"is_transit":false,"line":1},{"i_long":106.826365,"transit":true,"i_lat":-6.132549,"distance":4102,"is_transit":true,"line":4,"station_name":"Kampung Bandan","station_id":"KPB","time":9},{"distance":1444,"i_lat":-6.14505,"i_long":106.836569,"transit":false,"station_id":"RJW","is_transit":false,"line":11,"time":3,"station_name":"Rajawali"},{"is_transit":false,"distance":1901,"i_lat":-6.161728,"line":11,"station_id":"KMO","i_long":106.839204,"transit":false,"station_name":"Kemayoran","time":5},{"i_long":106.84368,"transit":false,"line":11,"distance":1436,"i_lat":-6.174784,"station_name":"Pasar Senen","is_transit":false,"station_id":"PSE","time":4},{"station_id":"GST","transit":false,"distance":1567,"time":8,"i_lat":-6.185975,"i_long":106.850107,"station_name":"Gang Sentiong","line":11,"is_transit":false},{"i_long":106.855437,"line":11,"station_id":"KMT","time":1,"i_lat":-6.193792,"transit":false,"station_name":"Kramat","distance":973,"is_transit":false},{"line":11,"is_transit":false,"time":2,"i_long":106.861737,"station_id":"POK","transit":false,"station_name":"Pondok Jati","distance":1829,"i_lat":-6.209188},{"time":9,"is_transit":true,"i_long":106.86807400000001,"station_id":"JNG","transit":true,"station_name":"Jatinegara","distance":1236,"i_lat":-6.215091,"line":1},{"station_id":"MTR","distance":1377,"i_long":106.858896,"line":1,"time":2,"station_name":"Matraman","is_transit":false,"transit":false,"i_lat":-6.212485},{"line":2,"i_long":106.84912,"distance":1275,"i_lat":-6.209883,"time":2,"transit":true,"station_id":"MRI","station_name":"Manggarai","is_transit":true},{"station_id":"CKI","transit":false,"time":4,"i_lat":-6.198556,"station_name":"Cikini","is_transit":false,"line":2,"distance":1590,"i_long":106.840169},{"transit":false,"time":3,"distance":1750,"i_lat":-6.186295,"i_long":106.832183,"line":2,"station_id":"GDD","is_transit":false,"station_name":"Gondangdia"}],[{"station_id":"SDM","is_transit":false,"time":0,"line":6,"distance":0,"transit":false,"station_name":"Sudimara","i_lat":-6.296963,"i_long":106.712277},{"is_transit":false,"station_name":"Jurangmangu","time":4,"distance":1994,"i_lat":-6.288927,"transit":false,"i_long":106.728916,"line":6,"station_id":"JMU"},{"i_long":106.74273,"station_id":"PDJ","distance":2179,"i_lat":-6.276362,"time":3,"is_transit":false,"line":6,"transit":false,"station_name":"Pondokranji"},{"line":6,"station_name":"Kebayoran","i_lat":-6.237242,"transit":false,"i_long":106.780334,"station_id":"KBY","time":8,"distance":6218,"is_transit":false},{"transit":false,"station_id":"PLM","i_long":106.79689,"line":6,"i_lat":-6.207404,"station_name":"Palmerah","time":7,"is_transit":false,"distance":3737},{"station_id":"THB","transit":true,"distance":3191,"i_long":106.811091,"i_lat":-6.185545,"time":6,"is_transit":true,"station_name":"Tanah Abang","line":1},{"distance":2029,"i_lat":-6.20132,"transit":false,"line":1,"time":5,"i_long":106.816351,"station_id":"KAT","station_name":"Karet","is_transit":false},{"time":1,"transit":false,"line":1,"is_transit":false,"distance":471,"station_id":"SUDB","i_long":106.819881,"station_name":"Sudirman Baru","i_lat":-6.201433},{"i_long":106.822649,"station_name":"Sudirman","distance":280,"transit":false,"station_id":"SUD","is_transit":false,"time":1,"i_lat":-6.202263,"line":1},{"i_lat":-6.209883,"transit":false,"distance":3186,"station_id":"MRI","time":4,"station_name":"Manggarai","line":2,"i_long":106.84912,"is_transit":false},{"i_lat":-6.212485,"i_long":106.858896,"station_id":"MTR","time":2,"transit":false,"is_transit":false,"distance":1275,"line":1,"station_name":"Matraman"},{"station_id":"JNG","line":1,"is_transit":true,"distance":1377,"i_lat":-6.215091,"time":8,"transit":true,"i_long":106.86807400000001,"station_name":"Jatinegara"},{"line":11,"transit":false,"station_id":"POK","is_transit":false,"time":2,"i_long":106.861737,"i_lat":-6.209188,"station_name":"Pondok Jati","distance":1236},{"distance":1829,"i_lat":-6.193792,"station_name":"Kramat","line":11,"i_long":106.855437,"time":2,"transit":false,"station_id":"KMT","is_transit":false},{"i_lat":-6.185975,"transit":false,"station_id":"GST","distance":973,"time":1,"i_long":106.850107,"line":11,"station_name":"Gang Sentiong","is_transit":false},{"i_lat":-6.174784,"is_transit":false,"transit":false,"line":11,"station_id":"PSE","i_long":106.84368,"station_name":"Pasar Senen","time":8,"distance":1567},{"i_long":106.839204,"station_name":"Kemayoran","station_id":"KMO","i_lat":-6.161728,"is_transit":false,"distance":1436,"line":11,"time":4,"transit":false},{"line":11,"distance":1901,"station_name":"Rajawali","time":5,"transit":false,"i_lat":-6.14505,"station_id":"RJW","i_long":106.836569,"is_transit":false},{"i_long":106.826365,"distance":1444,"is_transit":true,"transit":true,"time":3,"line":4,"station_id":"KPB","i_lat":-6.132549,"station_name":"Kampung Bandan"},{"station_name":"Jakarta Kota","i_lat":-6.137569,"is_transit":true,"distance":1364,"time":3,"line":2,"station_id":"JAKK","i_long":106.812439,"transit":true},{"distance":1264,"time":4,"i_long":106.820901,"transit":false,"station_name":"Jayakarta","station_id":"JAY","is_transit":false,"i_lat":-6.141205,"line":2},{"station_id":"MGB","distance":1080,"line":2,"transit":false,"station_name":"Manggabesar","i_long":106.82482,"is_transit":false,"i_lat":-6.149769,"time":2},{"transit":false,"station_id":"SW","distance":906,"i_long":106.827103,"time":2,"i_lat":-6.160725,"station_name":"Sawah Besar","line":2,"is_transit":false},{"line":2,"i_lat":-6.166716,"station_id":"JUA","time":2,"i_long":106.828284,"is_transit":false,"distance":1149,"transit":false,"station_name":"Juanda"},{"i_long":106.832183,"is_transit":false,"i_lat":-6.186295,"station_id":"GDD","transit":false,"distance":2015,"time":4,"line":2,"station_name":"Gondangdia"}]]}