{"data":[[{"station_name":"Sudimara","line":6,"i_long":106.712277,"i_lat":-6.296963,"time":0,"is_transit":false,"distance":0,"transit":false,"station_id":"SDM"},{"station_id":"JMU","is_transit":false,"time":4,"distance":1994,"i_lat":-6.288927,"station_name":"Jurangmangu","transit":false,"line":6,"i_long":106.728916},{"is_transit":false,"station_name":"Pondokranji","time":3,"station_id":"PDJ","i_lat":-6.276362,"distance":2179,"line":6,"transit":false,"i_long":106.74273},{"transit":false,"station_id":"KBY","time":8,"distance":6218,"i_long":106.780334,"line":6,"is_transit":false,"station_name":"Kebayoran","i_lat":-6.237242},{"station_id":"PLM","line":6,"is_transit":false,"station_name":"Palmerah","distance":3737,"i_long":106.79689,"transit":false,"i_lat":-6.207404,"time":7},{"station_name":"Tanah Abang","is_transit":true,"time":6,"line":1,"station_id":"THB","transit":true,"i_lat":-6.185545,"i_long":106.811091,"distance":3191},{"station_name":"Karet","distance":2029,"is_transit":false,"station_id":"KAT","i_long":106.816351,"i_lat":-6.20132,"time":5,"transit":false,"line":1},{"is_transit":false,"station_id":"SUDB","i_lat":-6.201433,"distance":471,"i_long":106.819881,"station_name":"Sudirman Baru","time":1,"transit":false,"line":1},{"line":1,"i_long":106.822649,"distance":280,"transit":false,"is_transit":false,"time":1,"station_id":"SUD","station_name":"Sudirman","i_lat":-6.202263},{"time":4,"station_name":"Manggarai","distance":3186,"is_transit":true,"i_lat":-6.209883,"i_long":106.84912,"line":2,"transit":true,"station_id":"MRI"},{"station_id":"TEB","station_name":"Tebet","time":4,"is_transit":false,"distance":2610,"i_lat":-6.226659,"i_long":106.857948,"transit":false,"line":2},{"transit":false,"time":2,"station_id":"CW","line":2,"station_name":"Cawang","is_transit":false,"i_lat":-6.242512,"i_long":106.856607,"distance":1230},{"distance":1546,"i_long":106.85449,"is_transit":false,"time":3,"transit":false,"station_name":"Duren Kalibata","i_lat":-6.255332,"station_id":"DRN","line":2},{"distance":824,"i_lat":-6.263214,"line":2,"station_id":"PSMB","station_name":"Pasar Minggu Baru","transit":false,"i_long":106.851577,"time":2,"is_transit":false},{"transit":false,"is_transit":false,"time":2,"station_name":"Pasar Minggu","distance":2380,"line":2,"station_id":"PSM","i_lat":-6.2842400000000005,"i_long":106.843999},{"is_transit":false,"transit":false,"i_lat":-6.3080680000000005,"station_name":"Tanjung Barat","distance":2820,"time":4,"i_long":106.838896,"station_id":"TNT","line":2},{"is_transit":false,"i_lat":-6.330363,"transit":false,"station_id":"LNA","distance":2671,"station_name":"Lenteng Agung","time":3,"i_long":106.832616,"line":2},{"station_name":"Univ. Pancasila","station_id":"UP","transit":false,"is_transit":false,"line":2,"time":2,"distance":1029,"i_long":106.834175,"i_lat":-6.339291},{"station_name":"Univ. Indonesia","time":3,"i_long":106.831474,"station_id":"UI","is_transit":false,"line":2,"transit":false,"distance":2264,"i_lat":-6.360749},{"i_long":106.831114,"line":2,"is_transit":false,"transit":false,"distance":1109,"time":2,"i_lat":-6.369073,"station_id":"POC","station_name":"Pondok Cina"},{"i_lat":-6.391065,"station_id":"DPB","station_name":"Depokbaru","is_transit":false,"line":2,"distance":2727,"transit":false,"time":4,"i_long":106.819451},{"station_name":"Depok","station_id":"DP","is_transit":false,"time":3,"distance":1584,"i_lat":-6.405256,"i_long":106.816926,"transit":false,"line":2},{"is_transit":false,"i_lat":-6.448811,"time":6,"transit":false,"line":2,"station_id":"CTA","station_name":"Citayam","i_long":106.800298,"distance":5084},{"is_transit":false,"line":2,"station_id":"BJD","time":5,"i_long":106.792719,"distance":5197,"i_lat":-6.493243,"station_name":"Bojonggede","transit":false}],[{"station_name":"Sudimara","is_transit":false,"i_long":106.712277,"line":6,"time":0,"i_lat":-6.296963,"transit":false,"distance":0,"station_id":"SDM"},{"transit":false,"i_lat":-6.288927,"is_transit":false,"distance":1994,"line":6,"i_long":106.728916,"time":4,"station_name":"Jurangmangu","station_id":"JMU"},{"time":3,"distance":2179,"line":6,"station_id":"PDJ","i_lat":-6.276362,"transit":false,"i_long":106.74273,"is_transit":false,"station_name":"Pondokranji"},{"time":8,"line":6,"is_transit":false,"i_long":106.780334,"transit":false,"i_lat":-6.237242,"station_name":"Kebayoran","station_id":"KBY","distance":6218},{"is_transit":false,"line":6,"station_name":"Palmerah","i_long":106.79689,"distance":3737,"i_lat":-6.207404,"station_id":"PLM","time":7,"transit":false},{"station_name":"Tanah Abang","line":1,"distance":3191,"station_id":"THB","transit":true,"is_transit":true,"i_lat":-6.185545,"i_long":106.811091,"time":6},{"i_lat":-6.155215,"station_name":"Duri","station_id":"DU","time":8,"distance":3632,"is_transit":false,"line":1,"transit":false,"i_long":106.800832},{"time":4,"distance":1230,"transit":false,"station_name":"Angke","station_id":"AK","i_lat":-6.144674,"is_transit":false,"line":1,"i_long":106.79867},{"i_lat":-6.132549,"distance":4102,"is_transit":true,"time":9,"station_id":"KPB","station_name":"Kampung Bandan","line":4,"i_long":106.826365,"transit":true},{"transit":true,"station_name":"Jakarta Kota","i_lat":-6.137569,"i_long":106.812439,"station_id":"JAKK","time":3,"distance":1364,"line":2,"is_transit":true},{"station_id":"JAY","station_name":"Jayakarta","distance":1264,"i_long":106.820901,"is_transit":false,"transit":false,"time":4,"line":2,"i_lat":-6.141205},{"distance":1080,"transit":false,"line":2,"station_name":"Manggabesar","i_lat":-6.149769,"station_id":"MGB","i_long":106.82482,"time":2,"is_transit":false},{"is_transit":false,"time":2,"transit":false,"station_name":"Sawah Besar","i_long":106.827103,"distance":906,"i_lat":-6.160725,"line":2,"station_id":"SW"},{"time":2,"transit":false,"i_lat":-6.166716,"station_id":"JUA","is_transit":false,"line":2,"station_name":"Juanda","i_long":106.828284,"distance":1149},{"time":4,"transit":false,"station_id":"GDD","distance":2015,"station_name":"Gondangdia","is_transit":false,"i_lat":-6.186295,"i_long":106.832183,"line":2},{"distance":1750,"station_name":"Cikini","station_id":"CKI","is_transit":false,"i_lat":-6.198556,"line":2,"transit":false,"time":3,"i_long":106.840169},{"is_transit":false,"time":4,"i_lat":-6.209883,"i_long":106.84912,"line":2,"transit":false,"station_name":"Manggarai","station_id":"MRI","distance":1590},{"time":4,"station_name":"Tebet","station_id":"TEB","distance":2610,"i_lat":-6.226659,"i_long":106.857948,"line":2,"transit":false,"is_transit":false},{"is_transit":false,"station_name":"Cawang","transit":false,"i_long":106.856607,"line":2,"station_id":"CW","distance":1230,"time":2,"i_lat":-6.242512},{"time":3,"line":2,"distance":1546,"i_lat":-6.255332,"is_transit":false,"station_id":"DRN","transit":false,"station_name":"Duren Kalibata","i_long":106.85449},{"transit":false,"line":2,"distance":824,"i_long":106.851577,"station_id":"PSMB","station_name":"Pasar Minggu Baru","is_transit":false,"time":2,"i_lat":-6.263214},{"station_name":"Pasar Minggu","distance":2380,"time":2,"transit":false,"is_transit":false,"station_id":"PSM","i_lat":-6.2842400000000005,"i_long":106.843999,"line":2},{"line":2,"is_transit":false,"distance":2820,"transit":false,"time":4,"station_id":"TNT","station_name":"Tanjung Barat","i_lat":-6.3080680000000005,"i_long":106.838896},{"is_transit":false,"distance":2671,"i_lat":-6.330363,"station_name":"Lenteng Agung","station_id":"LNA","time":3,"line":2,"transit":false,"i_long":106.832616},{"line":2,"station_name":"Univ. Pancasila","is_transit":false,"station_id":"UP","time":2,"transit":false,"i_lat":-6.339291,"distance":1029,"i_long":106.834175},{"station_id":"UI","line":2,"is_transit":false,"i_long":106.831474,"station_name":"Univ. Indonesia","i_lat":-6.360749,"transit":false,"time":3,"distance":2264},{"i_long":106.831114,"transit":false,"line":2,"station_id":"POC","time":2,"is_transit":false,"station_name":"Pondok Cina","i_lat":-6.369073,"distance":1109},{"is_transit":false,"line":2,"distance":2727,"station_name":"Depokbaru","station_id":"DPB","i_lat":-6.391065,"i_long":106.819451,"time":4,"transit":false},{"transit":false,"station_name":"Depok","i_lat":-6.405256,"i_long":106.816926,"line":2,"station_id":"DP","distance":1584,"is_transit":false,"time":3},{"line":2,"time":6,"i_long":106.800298,"is_transit":false,"station_id":"CTA","station_name":"Citayam","distance":5084,"i_lat":-6.448811,"transit":false},{"distance":5197,"transit":false,"is_transit":false,"i_lat":-6.493243,"i_long":106.792719,"station_name":"Bojonggede","line":2,"time":5,"station_id":"BJD"}],[{"distance":0,"is_transit":false,"i_lat":-6.296963,"station_id":"SDM","i_long":106.712277,"line":6,"transit":false,"time":0,"station_name":"Sudimara"},{"time":4,"station_name":"Jurangmangu","distance":1994,"i_lat":-6.288927,"i_long":106.728916,"station_id":"JMU","transit":false,"line":6,"is_transit":false},{"is_transit":false,"distance":2179,"i_long":106.74273,"station_name":"Pondokranji","line":6,"transit":false,"station_id":"PDJ","time":3,"i_lat":-6.276362},{"distance":6218,"time":8,"line":6,"station_name":"Kebayoran","i_lat":-6.237242,"i_long":106.780334,"is_transit":false,"transit":false,"station_id":"KBY"},{"transit":false,"station_name":"Palmerah","distance":3737,"i_lat":-6.207404,"i_long":106.79689,"line":6,"station_id":"PLM","time":7,"is_transit":false},{"is_transit":true,"distance":3191,"i_lat":-6.185545,"station_id":"THB","station_name":"Tanah Abang","i_long":106.811091,"line":1,"time":6,"transit":true},{"transit":false,"time":8,"is_transit":false,"distance":3632,"i_lat":-6.155215,"station_name":"Duri","station_id":"DU","i_long":106.800832,"line":1},{"line":1,"transit":false,"distance":1230,"station_id":"AK","station_name":"Angke","i_lat":-6.144674,"i_long":106.79867,"is_transit":false,"time":4},{"station_name":"Kampung Bandan","i_long":106.826365,"time":9,"transit":true,"station_id":"KPB","i_lat":-6.132549,"line":4,"distance":4102,"is_transit":true},{"distance":1444,"time":3,"i_lat":-6.14505,"station_name":"Rajawali","transit":false,"station_id":"RJW","is_transit":false,"i_long":106.836569,"line":11},{"transit":false,"station_id":"KMO","time":5,"distance":1901,"i_lat":-6.161728,"i_long":106.839204,"line":11,"station_name":"Kemayoran","is_transit":false},{"transit":false,"station_id":"PSE","time":4,"i_lat":-6.174784,"i_long":106.84368,"is_transit":false,"line":11,"station_name":"Pasar Senen","distance":1436},{"transit":false,"line":11,"i_lat":-6.185975,"station_name":"Gang Sentiong","time":8,"station_id":"GST","distance":1567,"is_transit":false,"i_long":106.850107},{"i_long":106.855437,"is_transit":false,"distance":973,"line":11,"transit":false,"station_name":"Kramat","time":1,"i_lat":-6.193792,"station_id":"KMT"},{"i_long":106.861737,"transit":false,"station_id":"POK","station_name":"Pondok Jati","is_transit":false,"time":2,"distance":1829,"i_lat":-6.209188,"line":11},{"station_name":"Jatinegara","station_id":"JNG","is_transit":true,"time":9,"line":1,"i_lat":-6.215091,"transit":true,"distance":1236,"i_long":106.86807400000001},{"is_transit":false,"transit":false,"i_long":106.858896,"distance":1377,"station_name":"Matraman","station_id":"MTR","i_lat":-6.212485,"line":1,"time":2},{"line":2,"i_long":106.84912,"transit":true,"station_name":"Manggarai","is_transit":true,"i_lat":-6.209883,"distance":1275,"station_id":"MRI","time":2},{"i_long":106.857948,"is_transit":false,"time":4,"station_name":"Tebet","station_id":"TEB","transit":false,"distance":2610,"line":2,"i_lat":-6.226659},{"time":2,"station_name":"Cawang","i_lat":-6.242512,"distance":1230,"is_transit":false,"line":2,"station_id":"CW","transit":false,"i_long":106.856607},{"i_lat":-6.255332,"i_long":106.85449,"time":3,"is_transit":false,"station_name":"Duren Kalibata","distance":1546,"transit":false,"station_id":"DRN","line":2},{"time":2,"station_id":"PSMB","distance":824,"i_lat":-6.263214,"station_name":"Pasar Minggu Baru","transit":false,"i_long":106.851577,"line":2,"is_transit":false},{"is_transit":false,"station_id":"PSM","time":2,"distance":2380,"i_long":106.843999,"line":2,"i_lat":-6.2842400000000005,"transit":false,"station_name":"Pasar Minggu"},{"station_id":"TNT","i_long":106.838896,"line":2,"transit":false,"distance":2820,"i_lat":-6.3080680000000005,"time":4,"is_transit":false,"station_name":"Tanjung Barat"},{"distance":2671,"transit":false,"station_name":"Lenteng Agung","station_id":"LNA","is_transit":false,"time":3,"i_lat":-6.330363,"line":2,"i_long":106.832616},{"line":2,"i_lat":-6.339291,"is_transit":false,"distance":1029,"i_long":106.834175,"station_id":"UP","transit":false,"time":2,"station_name":"Univ. Pancasila"},{"transit":false,"i_long":106.831474,"station_id":"UI","time":3,"i_lat":-6.360749,"line":2,"is_transit":false,"distance":2264,"station_name":"Univ. Indonesia"},{"station_id":"POC","time":2,"line":2,"is_transit":false,"i_long":106.831114,"transit":false,"station_name":"Pondok Cina","distance":1109,"i_lat":-6.369073},{"line":2,"station_name":"Depokbaru","distance":2727,"i_long":106.819451,"station_id":"DPB","is_transit":false,"transit":false,"time":4,"i_lat":-6.391065},{"line":2,"station_id":"DP","i_long":106.816926,"is_transit":false,"transit":false,"i_lat":-6.405256,"station_name":"Depok","time":3,"distance":1584},{"distance":5084,"station_id":"CTA","i_lat":-6.448811,"i_long":106.800298,"time":6,"transit":false,"line":2,"is_transit":false,"station_name":"Citayam"},{"station_id":"BJD","line":2,"distance":5197,"time":5,"station_name":"Bojonggede","i_long":106.792719,"transit":false,"i_lat":-6.493243,"is_transit":false}]]}