{"data":[[{"i_long":106.712277,"station_id":"SDM","station_name":"Sudimara","distance":0,"transit":false,"is_transit":false,"line":6,"i_lat":-6.296963,"time":0},{"station_id":"JMU","station_name":"Jurangmangu","line":6,"i_long":106.728916,"transit":false,"i_lat":-6.288927,"time":4,"is_transit":false,"distance":1994},{"is_transit":false,"distance":2179,"i_long":106.74273,"transit":false,"time":3,"station_name":"Pondokranji","station_id":"PDJ","i_lat":-6.276362,"line":6},{"transit":false,"i_lat":-6.237242,"station_name":"Kebayoran","is_transit":false,"line":6,"station_id":"KBY","i_long":106.780334,"time":8,"distance":6218},{"station_name":"Palmerah","i_lat":-6.207404,"i_long":106.79689,"distance":3737,"time":7,"line":6,"station_id":"PLM","is_transit":false,"transit":false},{"distance":3191,"i_long":106.811091,"line":1,"station_name":"Tanah Abang","i_lat":-6.185545,"transit":false,"time":6,"station_id":"THB","is_transit":false}]]}