{"data":[[{"time":0,"distance":0,"transit":false,"line":6,"station_name":"Sudimara","i_lat":-6.296963,"i_long":106.712277,"station_id":"SDM","is_transit":false},{"i_long":106.728916,"distance":1994,"station_name":"Jurangmangu","line":6,"is_transit":false,"station_id":"JMU","i_lat":-6.288927,"transit":false,"time":4},{"i_lat":-6.276362,"line":6,"station_name":"Pondokranji","is_transit":false,"i_long":106.74273,"transit":false,"station_id":"PDJ","distance":2179,"time":3},{"is_transit":false,"line":6,"distance":6218,"transit":false,"i_long":106.780334,"time":8,"station_name":"Kebayoran","i_lat":-6.237242,"station_id":"KBY"},{"transit":false,"station_name":"Palmerah","i_lat":-6.207404,"time":7,"station_id":"PLM","i_long":106.79689,"line":6,"is_transit":false,"distance":3737},{"time":6,"station_name":"Tanah Abang","line":1,"i_long":106.811091,"station_id":"THB","i_lat":-6.185545,"is_transit":true,"distance":3191,"transit":true},{"is_transit":true,"station_id":"DU","distance":3632,"i_long":106.800832,"transit":true,"time":8,"station_name":"Duri","i_lat":-6.155215,"line":1},{"distance":1700,"station_id":"GGL","transit":false,"station_name":"Grogol","time":3,"i_long":106.788277,"i_lat":-6.162021,"line":5,"is_transit":false},{"station_name":"Pesing","time":2,"transit":false,"station_id":"PSG","distance":2036,"i_long":106.771379,"line":5,"is_transit":false,"i_lat":-6.161433},{"time":2,"station_id":"TKO","is_transit":false,"distance":1614,"station_name":"Taman Kota","i_lat":-6.1587309999999995,"i_long":106.756522,"transit":false,"line":5},{"is_transit":false,"transit":false,"line":5,"station_id":"BOI","station_name":"Bojongindah","distance":2334,"time":2,"i_lat":-6.159876,"i_long":106.737035},{"line":5,"i_long":106.723064,"station_id":"RW","station_name":"Rawa Buaya","is_transit":false,"transit":false,"i_lat":-6.162758,"distance":1152,"time":4},{"line":5,"transit":false,"station_id":"KDS","station_name":"Kalideres","i_lat":-6.166068,"time":3,"is_transit":false,"i_long":106.701612,"distance":2504},{"station_id":"PI","i_lat":-6.169933,"transit":false,"i_long":106.679458,"is_transit":false,"time":3,"station_name":"Poris","line":5,"distance":2548},{"i_long":106.665036,"station_name":"Batuceper","distance":1834,"is_transit":false,"time":3,"transit":false,"i_lat":-6.171811,"line":5,"station_id":"BPR"}],[{"is_transit":false,"transit":false,"time":0,"i_long":106.712277,"line":6,"station_name":"Sudimara","distance":0,"i_lat":-6.296963,"station_id":"SDM"},{"station_id":"JMU","i_lat":-6.288927,"station_name":"Jurangmangu","line":6,"distance":1994,"i_long":106.728916,"time":4,"is_transit":false,"transit":false},{"station_id":"PDJ","distance":2179,"transit":false,"i_long":106.74273,"line":6,"station_name":"Pondokranji","is_transit":false,"time":3,"i_lat":-6.276362},{"station_id":"KBY","distance":6218,"transit":false,"station_name":"Kebayoran","i_lat":-6.237242,"line":6,"i_long":106.780334,"is_transit":false,"time":8},{"station_id":"PLM","time":7,"is_transit":false,"distance":3737,"station_name":"Palmerah","i_long":106.79689,"i_lat":-6.207404,"line":6,"transit":false},{"is_transit":true,"line":1,"distance":3191,"time":6,"station_id":"THB","i_lat":-6.185545,"transit":true,"i_long":106.811091,"station_name":"Tanah Abang"},{"i_lat":-6.20132,"line":1,"station_id":"KAT","i_long":106.816351,"transit":false,"time":5,"is_transit":false,"distance":2029,"station_name":"Karet"},{"line":1,"i_long":106.819881,"i_lat":-6.201433,"time":1,"station_name":"Sudirman Baru","station_id":"SUDB","transit":false,"is_transit":false,"distance":471},{"line":1,"distance":280,"station_name":"Sudirman","station_id":"SUD","is_transit":false,"i_lat":-6.202263,"transit":false,"time":1,"i_long":106.822649},{"i_lat":-6.209883,"station_name":"Manggarai","is_transit":true,"time":4,"distance":3186,"i_long":106.84912,"line":2,"station_id":"MRI","transit":true},{"station_name":"Cikini","time":4,"distance":1590,"i_lat":-6.198556,"i_long":106.840169,"transit":false,"line":2,"is_transit":false,"station_id":"CKI"},{"station_id":"GDD","i_lat":-6.186295,"distance":1750,"i_long":106.832183,"transit":false,"is_transit":false,"time":3,"line":2,"station_name":"Gondangdia"},{"time":4,"distance":2015,"i_lat":-6.166716,"i_long":106.828284,"transit":false,"station_name":"Juanda","station_id":"JUA","is_transit":false,"line":2},{"i_long":106.827103,"time":2,"distance":1149,"transit":false,"line":2,"is_transit":false,"station_name":"Sawah Besar","station_id":"SW","i_lat":-6.160725},{"time":2,"station_id":"MGB","i_long":106.82482,"line":2,"transit":false,"station_name":"Manggabesar","distance":906,"is_transit":false,"i_lat":-6.149769},{"station_name":"Jayakarta","distance":1080,"transit":false,"line":2,"is_transit":false,"time":2,"i_long":106.820901,"station_id":"JAY","i_lat":-6.141205},{"is_transit":true,"time":4,"transit":true,"station_name":"Jakarta Kota","i_long":106.812439,"i_lat":-6.137569,"station_id":"JAKK","line":2,"distance":1264},{"i_lat":-6.132549,"station_id":"KPB","time":3,"distance":1364,"i_long":106.826365,"station_name":"Kampung Bandan","is_transit":true,"line":4,"transit":true},{"station_name":"Angke","station_id":"AK","i_lat":-6.144674,"i_long":106.79867,"is_transit":false,"time":9,"transit":false,"distance":4102,"line":1},{"is_transit":true,"station_id":"DU","transit":true,"distance":1230,"station_name":"Duri","time":4,"i_lat":-6.155215,"line":1,"i_long":106.800832},{"distance":1700,"station_name":"Grogol","is_transit":false,"i_lat":-6.162021,"station_id":"GGL","line":5,"i_long":106.788277,"transit":false,"time":3},{"distance":2036,"transit":false,"line":5,"i_lat":-6.161433,"station_id":"PSG","is_transit":false,"time":2,"i_long":106.771379,"station_name":"Pesing"},{"transit":false,"i_long":106.756522,"time":2,"line":5,"station_name":"Taman Kota","distance":1614,"station_id":"TKO","is_transit":false,"i_lat":-6.1587309999999995},{"station_name":"Bojongindah","is_transit":false,"transit":false,"station_id":"BOI","i_lat":-6.159876,"line":5,"time":2,"i_long":106.737035,"distance":2334},{"is_transit":false,"distance":1152,"time":4,"i_long":106.723064,"transit":false,"line":5,"station_id":"RW","i_lat":-6.162758,"station_name":"Rawa Buaya"},{"i_lat":-6.166068,"is_transit":false,"line":5,"transit":false,"station_name":"Kalideres","i_long":106.701612,"distance":2504,"station_id":"KDS","time":3},{"distance":2548,"i_lat":-6.169933,"line":5,"is_transit":false,"station_id":"PI","transit":false,"station_name":"Poris","i_long":106.679458,"time":3},{"is_transit":false,"line":5,"distance":1834,"transit":false,"station_id":"BPR","station_name":"Batuceper","time":3,"i_lat":-6.171811,"i_long":106.665036}],[{"time":0,"station_id":"SDM","distance":0,"station_name":"Sudimara","i_long":106.712277,"line":6,"is_transit":false,"transit":false,"i_lat":-6.296963},{"i_lat":-6.288927,"time":4,"station_id":"JMU","i_long":106.728916,"distance":1994,"line":6,"is_transit":false,"transit":false,"station_name":"Jurangmangu"},{"distance":2179,"transit":false,"i_long":106.74273,"time":3,"i_lat":-6.276362,"line":6,"station_id":"PDJ","is_transit":false,"station_name":"Pondokranji"},{"station_id":"KBY","time":8,"distance":6218,"station_name":"Kebayoran","transit":false,"line":6,"i_lat":-6.237242,"i_long":106.780334,"is_transit":false},{"transit":false,"station_id":"PLM","distance":3737,"station_name":"Palmerah","i_lat":-6.207404,"time":7,"is_transit":false,"i_long":106.79689,"line":6},{"line":1,"time":6,"transit":true,"distance":3191,"station_id":"THB","i_long":106.811091,"is_transit":true,"station_name":"Tanah Abang","i_lat":-6.185545},{"station_name":"Karet","distance":2029,"is_transit":false,"station_id":"KAT","i_long":106.816351,"line":1,"i_lat":-6.20132,"time":5,"transit":false},{"time":1,"station_id":"SUDB","transit":false,"station_name":"Sudirman Baru","i_lat":-6.201433,"distance":471,"line":1,"is_transit":false,"i_long":106.819881},{"i_lat":-6.202263,"is_transit":false,"distance":280,"line":1,"station_name":"Sudirman","i_long":106.822649,"station_id":"SUD","time":1,"transit":false},{"station_name":"Manggarai","time":4,"transit":false,"i_lat":-6.209883,"i_long":106.84912,"station_id":"MRI","is_transit":false,"distance":3186,"line":2},{"station_id":"MTR","line":1,"time":2,"station_name":"Matraman","i_lat":-6.212485,"distance":1275,"i_long":106.858896,"is_transit":false,"transit":false},{"i_long":106.86807400000001,"is_transit":true,"transit":true,"station_id":"JNG","station_name":"Jatinegara","time":8,"i_lat":-6.215091,"line":1,"distance":1377},{"i_long":106.861737,"station_name":"Pondok Jati","transit":false,"time":2,"is_transit":false,"i_lat":-6.209188,"line":11,"station_id":"POK","distance":1236},{"is_transit":false,"distance":1829,"station_name":"Kramat","time":2,"i_lat":-6.193792,"i_long":106.855437,"transit":false,"station_id":"KMT","line":11},{"i_lat":-6.185975,"distance":973,"i_long":106.850107,"station_id":"GST","line":11,"station_name":"Gang Sentiong","is_transit":false,"transit":false,"time":1},{"distance":1567,"line":11,"is_transit":false,"i_lat":-6.174784,"station_id":"PSE","station_name":"Pasar Senen","time":8,"transit":false,"i_long":106.84368},{"transit":false,"station_name":"Kemayoran","is_transit":false,"i_long":106.839204,"line":11,"station_id":"KMO","distance":1436,"i_lat":-6.161728,"time":4},{"transit":false,"distance":1901,"i_lat":-6.14505,"is_transit":false,"station_name":"Rajawali","line":11,"time":5,"station_id":"RJW","i_long":106.836569},{"station_name":"Kampung Bandan","time":3,"station_id":"KPB","line":4,"is_transit":true,"transit":true,"i_long":106.826365,"i_lat":-6.132549,"distance":1444},{"i_lat":-6.144674,"is_transit":false,"i_long":106.79867,"time":9,"line":1,"transit":false,"station_id":"AK","distance":4102,"station_name":"Angke"},{"time":4,"station_id":"DU","i_lat":-6.155215,"transit":true,"station_name":"Duri","line":1,"distance":1230,"i_long":106.800832,"is_transit":true},{"i_lat":-6.162021,"station_id":"GGL","is_transit":false,"transit":false,"i_long":106.788277,"distance":1700,"time":3,"station_name":"Grogol","line":5},{"is_transit":false,"i_lat":-6.161433,"i_long":106.771379,"time":2,"distance":2036,"station_name":"Pesing","transit":false,"station_id":"PSG","line":5},{"transit":false,"i_long":106.756522,"time":2,"i_lat":-6.1587309999999995,"distance":1614,"station_name":"Taman Kota","line":5,"is_transit":false,"station_id":"TKO"},{"station_name":"Bojongindah","is_transit":false,"i_lat":-6.159876,"transit":false,"station_id":"BOI","line":5,"distance":2334,"time":2,"i_long":106.737035},{"is_transit":false,"time":4,"transit":false,"i_long":106.723064,"station_name":"Rawa Buaya","line":5,"i_lat":-6.162758,"station_id":"RW","distance":1152},{"line":5,"i_lat":-6.166068,"is_transit":false,"i_long":106.701612,"station_name":"Kalideres","time":3,"station_id":"KDS","distance":2504,"transit":false},{"i_lat":-6.169933,"transit":false,"is_transit":false,"time":3,"line":5,"station_name":"Poris","distance":2548,"i_long":106.679458,"station_id":"PI"},{"time":3,"is_transit":false,"station_name":"Batuceper","distance":1834,"i_long":106.665036,"station_id":"BPR","line":5,"i_lat":-6.171811,"transit":false}]]}