{"data":[[{"time":0,"station_name":"Sudimara","transit":false,"distance":0,"line":6,"is_transit":false,"station_id":"SDM","i_long":106.712277,"i_lat":-6.296963},{"i_long":106.728916,"time":4,"is_transit":false,"line":6,"station_id":"JMU","transit":false,"distance":1994,"i_lat":-6.288927,"station_name":"Jurangmangu"},{"station_name":"Pondokranji","is_transit":false,"time":3,"station_id":"PDJ","distance":2179,"i_long":106.74273,"line":6,"i_lat":-6.276362,"transit":false},{"time":8,"is_transit":false,"station_id":"KBY","distance":6218,"i_long":106.780334,"line":6,"transit":false,"station_name":"Kebayoran","i_lat":-6.237242},{"station_id":"PLM","transit":false,"time":7,"distance":3737,"i_lat":-6.207404,"line":6,"i_long":106.79689,"station_name":"Palmerah","is_transit":false},{"transit":true,"time":6,"i_long":106.811091,"i_lat":-6.185545,"is_transit":true,"station_id":"THB","station_name":"Tanah Abang","distance":3191,"line":1},{"distance":2029,"station_id":"KAT","is_transit":false,"time":5,"transit":false,"i_lat":-6.20132,"i_long":106.816351,"line":1,"station_name":"Karet"},{"time":1,"station_id":"SUDB","transit":false,"i_long":106.819881,"line":1,"distance":471,"station_name":"Sudirman Baru","is_transit":false,"i_lat":-6.201433},{"i_lat":-6.202263,"station_id":"SUD","station_name":"Sudirman","is_transit":false,"time":1,"distance":280,"i_long":106.822649,"line":1,"transit":false},{"transit":false,"distance":3186,"station_id":"MRI","is_transit":false,"i_long":106.84912,"time":4,"station_name":"Manggarai","line":2,"i_lat":-6.209883},{"distance":1275,"i_long":106.858896,"time":2,"i_lat":-6.212485,"station_id":"MTR","transit":false,"station_name":"Matraman","is_transit":false,"line":1},{"station_id":"JNG","i_lat":-6.215091,"is_transit":false,"station_name":"Jatinegara","time":8,"distance":1377,"i_long":106.86807400000001,"line":1,"transit":false},{"station_name":"Klender","i_lat":-6.2135,"is_transit":false,"time":3,"i_long":106.899548,"distance":3395,"transit":false,"line":1,"station_id":"KLD"},{"distance":3100,"i_lat":-6.215568,"time":2,"line":1,"i_long":106.922662,"station_name":"Buaran","transit":false,"station_id":"BUA","is_transit":false},{"station_id":"KLDB","is_transit":false,"transit":false,"i_lat":-6.217455,"line":1,"time":1,"i_long":106.939679,"station_name":"Klenderbaru","distance":1305},{"distance":1385,"line":1,"i_long":106.951283,"station_name":"Cakung","i_lat":-6.219053,"transit":false,"time":8,"station_id":"CUK","is_transit":false},{"line":1,"i_lat":-6.224515,"distance":3097,"station_name":"Kranji","time":3,"is_transit":false,"station_id":"KRI","transit":false,"i_long":106.977657},{"i_lat":-6.236616,"line":1,"transit":false,"station_id":"BKS","distance":2520,"is_transit":false,"time":4,"station_name":"Bekasi","i_long":106.997013},{"distance":2368,"line":1,"station_id":"BKST","transit":false,"i_lat":-6.248029,"i_long":107.016735,"time":2,"is_transit":false,"station_name":"Bekasi Timur"},{"i_lat":-6.258864,"i_long":107.055722,"time":7,"is_transit":false,"transit":false,"distance":4460,"station_name":"Tambun","station_id":"TB","line":1},{"station_id":"CIT","i_lat":-6.261877,"transit":false,"time":3,"station_name":"Cibitung","is_transit":false,"i_long":107.083084,"line":1,"distance":3420},{"line":1,"time":2,"distance":2800,"is_transit":false,"station_id":"TLM","transit":false,"station_name":"Metland Telaga Murni","i_lat":-6.262938,"i_long":107.093313}],[{"line":6,"distance":0,"station_id":"SDM","station_name":"Sudimara","time":0,"is_transit":false,"i_long":106.712277,"transit":false,"i_lat":-6.296963},{"is_transit":false,"i_lat":-6.288927,"time":4,"station_id":"JMU","station_name":"Jurangmangu","i_long":106.728916,"line":6,"distance":1994,"transit":false},{"i_long":106.74273,"distance":2179,"station_id":"PDJ","is_transit":false,"i_lat":-6.276362,"line":6,"transit":false,"station_name":"Pondokranji","time":3},{"i_lat":-6.237242,"distance":6218,"station_name":"Kebayoran","time":8,"transit":false,"station_id":"KBY","is_transit":false,"line":6,"i_long":106.780334},{"station_id":"PLM","station_name":"Palmerah","distance":3737,"is_transit":false,"line":6,"i_lat":-6.207404,"time":7,"i_long":106.79689,"transit":false},{"i_long":106.811091,"line":1,"transit":true,"time":6,"station_name":"Tanah Abang","distance":3191,"is_transit":true,"station_id":"THB","i_lat":-6.185545},{"transit":false,"station_name":"Duri","line":1,"i_lat":-6.155215,"distance":3632,"is_transit":false,"station_id":"DU","time":8,"i_long":106.800832},{"i_lat":-6.144674,"station_id":"AK","station_name":"Angke","is_transit":false,"i_long":106.79867,"line":1,"distance":1230,"time":4,"transit":false},{"distance":4102,"line":4,"i_long":106.826365,"time":9,"is_transit":true,"i_lat":-6.132549,"station_id":"KPB","transit":true,"station_name":"Kampung Bandan"},{"transit":false,"distance":1444,"is_transit":false,"i_lat":-6.14505,"station_id":"RJW","time":3,"line":11,"i_long":106.836569,"station_name":"Rajawali"},{"station_name":"Kemayoran","is_transit":false,"station_id":"KMO","distance":1901,"i_lat":-6.161728,"i_long":106.839204,"transit":false,"line":11,"time":5},{"is_transit":false,"i_lat":-6.174784,"station_id":"PSE","i_long":106.84368,"time":4,"transit":false,"line":11,"distance":1436,"station_name":"Pasar Senen"},{"station_id":"GST","transit":false,"distance":1567,"is_transit":false,"i_lat":-6.185975,"i_long":106.850107,"station_name":"Gang Sentiong","time":8,"line":11},{"transit":false,"time":1,"station_id":"KMT","distance":973,"i_long":106.855437,"is_transit":false,"i_lat":-6.193792,"line":11,"station_name":"Kramat"},{"time":2,"transit":false,"is_transit":false,"line":11,"distance":1829,"station_name":"Pondok Jati","station_id":"POK","i_long":106.861737,"i_lat":-6.209188},{"station_name":"Jatinegara","i_long":106.86807400000001,"transit":true,"time":9,"line":1,"station_id":"JNG","is_transit":true,"i_lat":-6.215091,"distance":1236},{"line":1,"i_lat":-6.2135,"distance":3395,"is_transit":false,"station_name":"Klender","i_long":106.899548,"station_id":"KLD","transit":false,"time":3},{"i_lat":-6.215568,"is_transit":false,"time":2,"line":1,"distance":3100,"transit":false,"station_name":"Buaran","station_id":"BUA","i_long":106.922662},{"transit":false,"time":1,"station_name":"Klenderbaru","station_id":"KLDB","distance":1305,"is_transit":false,"i_lat":-6.217455,"line":1,"i_long":106.939679},{"distance":1385,"i_lat":-6.219053,"station_id":"CUK","transit":false,"i_long":106.951283,"station_name":"Cakung","line":1,"time":8,"is_transit":false},{"is_transit":false,"i_lat":-6.224515,"transit":false,"station_name":"Kranji","distance":3097,"time":3,"station_id":"KRI","line":1,"i_long":106.977657},{"transit":false,"time":4,"i_lat":-6.236616,"i_long":106.997013,"line":1,"station_id":"BKS","distance":2520,"station_name":"Bekasi","is_transit":false},{"i_long":107.016735,"station_id":"BKST","station_name":"Bekasi Timur","line":1,"transit":false,"is_transit":false,"time":2,"distance":2368,"i_lat":-6.248029},{"is_transit":false,"station_name":"Tambun","i_long":107.055722,"station_id":"TB","i_lat":-6.258864,"time":7,"line":1,"transit":false,"distance":4460},{"station_id":"CIT","is_transit":false,"station_name":"Cibitung","i_long":107.083084,"line":1,"distance":3420,"i_lat":-6.261877,"transit":false,"time":3},{"i_long":107.093313,"time":2,"is_transit":false,"i_lat":-6.262938,"station_id":"TLM","distance":2800,"line":1,"transit":false,"station_name":"Metland Telaga Murni"}],[{"time":0,"station_name":"Sudimara","is_transit":false,"i_lat":-6.296963,"station_id":"SDM","i_long":106.712277,"transit":false,"distance":0,"line":6},{"station_id":"JMU","station_name":"Jurangmangu","time":4,"i_lat":-6.288927,"line":6,"distance":1994,"is_transit":false,"i_long":106.728916,"transit":false},{"station_name":"Pondokranji","transit":false,"time":3,"i_long":106.74273,"line":6,"station_id":"PDJ","is_transit":false,"distance":2179,"i_lat":-6.276362},{"is_transit":false,"i_lat":-6.237242,"distance":6218,"time":8,"line":6,"transit":false,"station_name":"Kebayoran","station_id":"KBY","i_long":106.780334},{"i_long":106.79689,"line":6,"distance":3737,"station_id":"PLM","time":7,"station_name":"Palmerah","i_lat":-6.207404,"transit":false,"is_transit":false},{"i_lat":-6.185545,"transit":true,"distance":3191,"station_name":"Tanah Abang","station_id":"THB","time":6,"is_transit":true,"i_long":106.811091,"line":1},{"transit":false,"station_name":"Duri","time":8,"i_lat":-6.155215,"line":1,"station_id":"DU","is_transit":false,"distance":3632,"i_long":106.800832},{"station_id":"AK","station_name":"Angke","transit":false,"i_lat":-6.144674,"line":1,"time":4,"distance":1230,"i_long":106.79867,"is_transit":false},{"transit":true,"distance":4102,"station_name":"Kampung Bandan","i_long":106.826365,"station_id":"KPB","time":9,"i_lat":-6.132549,"line":4,"is_transit":true},{"station_id":"JAKK","station_name":"Jakarta Kota","transit":true,"is_transit":true,"i_long":106.812439,"distance":1364,"i_lat":-6.137569,"time":3,"line":2},{"i_lat":-6.141205,"time":4,"transit":false,"i_long":106.820901,"distance":1264,"station_name":"Jayakarta","line":2,"is_transit":false,"station_id":"JAY"},{"is_transit":false,"station_name":"Manggabesar","i_lat":-6.149769,"line":2,"i_long":106.82482,"station_id":"MGB","distance":1080,"transit":false,"time":2},{"i_lat":-6.160725,"line":2,"time":2,"station_name":"Sawah Besar","station_id":"SW","i_long":106.827103,"is_transit":false,"distance":906,"transit":false},{"time":2,"is_transit":false,"line":2,"station_name":"Juanda","i_long":106.828284,"distance":1149,"transit":false,"i_lat":-6.166716,"station_id":"JUA"},{"transit":false,"time":4,"distance":2015,"station_id":"GDD","station_name":"Gondangdia","line":2,"is_transit":false,"i_lat":-6.186295,"i_long":106.832183},{"station_id":"CKI","distance":1750,"i_lat":-6.198556,"is_transit":false,"time":3,"station_name":"Cikini","i_long":106.840169,"transit":false,"line":2},{"is_transit":true,"distance":1590,"time":4,"i_lat":-6.209883,"transit":true,"station_id":"MRI","i_long":106.84912,"line":2,"station_name":"Manggarai"},{"i_lat":-6.212485,"distance":1275,"is_transit":false,"i_long":106.858896,"station_name":"Matraman","transit":false,"line":1,"time":2,"station_id":"MTR"},{"line":1,"transit":false,"station_id":"JNG","time":8,"i_long":106.86807400000001,"i_lat":-6.215091,"is_transit":false,"station_name":"Jatinegara","distance":1377},{"i_lat":-6.2135,"time":3,"distance":3395,"station_id":"KLD","transit":false,"line":1,"i_long":106.899548,"station_name":"Klender","is_transit":false},{"distance":3100,"station_id":"BUA","transit":false,"station_name":"Buaran","is_transit":false,"i_long":106.922662,"i_lat":-6.215568,"line":1,"time":2},{"i_lat":-6.217455,"station_id":"KLDB","is_transit":false,"i_long":106.939679,"line":1,"transit":false,"distance":1305,"time":1,"station_name":"Klenderbaru"},{"station_id":"CUK","i_long":106.951283,"transit":false,"line":1,"station_name":"Cakung","is_transit":false,"time":8,"distance":1385,"i_lat":-6.219053},{"is_transit":false,"line":1,"time":3,"i_long":106.977657,"i_lat":-6.224515,"station_id":"KRI","transit":false,"distance":3097,"station_name":"Kranji"},{"distance":2520,"transit":false,"station_id":"BKS","i_long":106.997013,"i_lat":-6.236616,"line":1,"time":4,"station_name":"Bekasi","is_transit":false},{"i_long":107.016735,"station_id":"BKST","distance":2368,"is_transit":false,"transit":false,"i_lat":-6.248029,"line":1,"time":2,"station_name":"Bekasi Timur"},{"i_lat":-6.258864,"i_long":107.055722,"distance":4460,"transit":false,"station_name":"Tambun","time":7,"station_id":"TB","line":1,"is_transit":false},{"distance":3420,"i_lat":-6.261877,"i_long":107.083084,"transit":false,"line":1,"station_id":"CIT","time":3,"station_name":"Cibitung","is_transit":false},{"station_id":"TLM","transit":false,"station_name":"Metland Telaga Murni","is_transit":false,"i_lat":-6.262938,"i_long":107.093313,"time":2,"distance":2800,"line":1}],[{"transit":false,"distance":0,"line":6,"is_transit":false,"i_lat":-6.296963,"time":0,"station_id":"SDM","station_name":"Sudimara","i_long":106.712277},{"transit":false,"station_id":"JMU","station_name":"Jurangmangu","is_transit":false,"i_lat":-6.288927,"i_long":106.728916,"line":6,"time":4,"distance":1994},{"distance":2179,"station_id":"PDJ","station_name":"Pondokranji","is_transit":false,"transit":false,"i_lat":-6.276362,"time":3,"i_long":106.74273,"line":6},{"transit":false,"is_transit":false,"i_lat":-6.237242,"station_name":"Kebayoran","i_long":106.780334,"distance":6218,"line":6,"time":8,"station_id":"KBY"},{"line":6,"time":7,"station_id":"PLM","distance":3737,"station_name":"Palmerah","is_transit":false,"i_long":106.79689,"i_lat":-6.207404,"transit":false},{"line":1,"transit":true,"station_id":"THB","distance":3191,"time":6,"station_name":"Tanah Abang","is_transit":true,"i_lat":-6.185545,"i_long":106.811091},{"station_name":"Karet","time":5,"line":1,"station_id":"KAT","i_lat":-6.20132,"i_long":106.816351,"is_transit":false,"distance":2029,"transit":false},{"transit":false,"time":1,"is_transit":false,"distance":471,"station_name":"Sudirman Baru","i_lat":-6.201433,"i_long":106.819881,"line":1,"station_id":"SUDB"},{"line":1,"station_id":"SUD","i_long":106.822649,"station_name":"Sudirman","distance":280,"i_lat":-6.202263,"is_transit":false,"transit":false,"time":1},{"i_lat":-6.209883,"time":4,"station_name":"Manggarai","line":2,"distance":3186,"is_transit":true,"i_long":106.84912,"transit":true,"station_id":"MRI"},{"i_long":106.840169,"station_id":"CKI","distance":1590,"time":4,"line":2,"is_transit":false,"i_lat":-6.198556,"transit":false,"station_name":"Cikini"},{"i_long":106.832183,"station_name":"Gondangdia","is_transit":false,"transit":false,"time":3,"station_id":"GDD","distance":1750,"line":2,"i_lat":-6.186295},{"station_name":"Juanda","time":4,"line":2,"station_id":"JUA","distance":2015,"is_transit":false,"i_lat":-6.166716,"i_long":106.828284,"transit":false},{"distance":1149,"station_name":"Sawah Besar","i_lat":-6.160725,"time":2,"i_long":106.827103,"station_id":"SW","is_transit":false,"line":2,"transit":false},{"station_name":"Manggabesar","time":2,"station_id":"MGB","distance":906,"line":2,"i_lat":-6.149769,"is_transit":false,"i_long":106.82482,"transit":false},{"time":2,"distance":1080,"i_lat":-6.141205,"station_name":"Jayakarta","i_long":106.820901,"station_id":"JAY","transit":false,"is_transit":false,"line":2},{"time":4,"transit":true,"station_name":"Jakarta Kota","i_lat":-6.137569,"distance":1264,"line":2,"station_id":"JAKK","is_transit":true,"i_long":106.812439},{"i_lat":-6.132549,"i_long":106.826365,"time":3,"line":4,"transit":true,"distance":1364,"station_name":"Kampung Bandan","is_transit":true,"station_id":"KPB"},{"time":3,"transit":false,"i_long":106.836569,"station_name":"Rajawali","is_transit":false,"distance":1444,"i_lat":-6.14505,"line":11,"station_id":"RJW"},{"line":11,"is_transit":false,"station_name":"Kemayoran","station_id":"KMO","i_lat":-6.161728,"transit":false,"i_long":106.839204,"distance":1901,"time":5},{"i_long":106.84368,"line":11,"transit":false,"time":4,"is_transit":false,"i_lat":-6.174784,"distance":1436,"station_id":"PSE","station_name":"Pasar Senen"},{"transit":false,"distance":1567,"station_name":"Gang Sentiong","time":8,"is_transit":false,"i_lat":-6.185975,"line":11,"station_id":"GST","i_long":106.850107},{"i_lat":-6.193792,"is_transit":false,"station_id":"KMT","transit":false,"i_long":106.855437,"time":1,"distance":973,"station_name":"Kramat","line":11},{"i_long":106.861737,"line":11,"i_lat":-6.209188,"is_transit":false,"station_name":"Pondok Jati","distance":1829,"time":2,"transit":false,"station_id":"POK"},{"line":1,"transit":true,"is_transit":true,"station_name":"Jatinegara","i_lat":-6.215091,"distance":1236,"station_id":"JNG","time":9,"i_long":106.86807400000001},{"station_name":"Klender","distance":3395,"time":3,"is_transit":false,"i_lat":-6.2135,"line":1,"station_id":"KLD","i_long":106.899548,"transit":false},{"time":2,"station_name":"Buaran","is_transit":false,"i_long":106.922662,"station_id":"BUA","i_lat":-6.215568,"distance":3100,"line":1,"transit":false},{"i_lat":-6.217455,"is_transit":false,"i_long":106.939679,"time":1,"transit":false,"distance":1305,"station_name":"Klenderbaru","station_id":"KLDB","line":1},{"station_id":"CUK","transit":false,"is_transit":false,"i_lat":-6.219053,"time":8,"i_long":106.951283,"distance":1385,"line":1,"station_name":"Cakung"},{"station_name":"Kranji","line":1,"is_transit":false,"i_lat":-6.224515,"station_id":"KRI","distance":3097,"transit":false,"i_long":106.977657,"time":3},{"station_id":"BKS","is_transit":false,"line":1,"i_lat":-6.236616,"distance":2520,"transit":false,"station_name":"Bekasi","time":4,"i_long":106.997013},{"transit":false,"line":1,"i_long":107.016735,"i_lat":-6.248029,"distance":2368,"is_transit":false,"time":2,"station_name":"Bekasi Timur","station_id":"BKST"},{"time":7,"line":1,"station_name":"Tambun","i_lat":-6.258864,"is_transit":false,"distance":4460,"station_id":"TB","i_long":107.055722,"transit":false},{"time":3,"station_id":"CIT","station_name":"Cibitung","i_long":107.083084,"distance":3420,"i_lat":-6.261877,"is_transit":false,"line":1,"transit":false},{"is_transit":false,"i_lat":-6.262938,"i_long":107.093313,"transit":false,"time":2,"distance":2800,"line":1,"station_id":"TLM","station_name":"Metland Telaga Murni"}]]}