{"data":[[{"station_id":"SDM","is_transit":false,"distance":0,"transit":false,"time":0,"line":6,"i_lat":-6.296963,"station_name":"Sudimara","i_long":106.712277},{"is_transit":false,"i_long":106.728916,"time":4,"station_name":"Jurangmangu","line":6,"i_lat":-6.288927,"station_id":"JMU","transit":false,"distance":1994},{"i_long":106.74273,"station_name":"Pondokranji","time":3,"distance":2179,"station_id":"PDJ","transit":false,"i_lat":-6.276362,"line":6,"is_transit":false},{"i_lat":-6.237242,"time":8,"is_transit":false,"line":6,"station_name":"Kebayoran","i_long":106.780334,"station_id":"KBY","distance":6218,"transit":false},{"distance":3737,"is_transit":false,"transit":false,"station_id":"PLM","station_name":"Palmerah","time":7,"i_long":106.79689,"i_lat":-6.207404,"line":6},{"time":6,"i_long":106.811091,"line":1,"i_lat":-6.185545,"is_transit":true,"station_id":"THB","station_name":"Tanah Abang","transit":true,"distance":3191},{"time":8,"line":1,"i_long":106.800832,"station_id":"DU","i_lat":-6.155215,"station_name":"Duri","is_transit":true,"distance":3632,"transit":true},{"station_name":"Grogol","is_transit":false,"i_lat":-6.162021,"station_id":"GGL","distance":1700,"transit":false,"time":3,"i_long":106.788277,"line":5},{"transit":false,"is_transit":false,"time":2,"station_id":"PSG","distance":2036,"i_long":106.771379,"line":5,"station_name":"Pesing","i_lat":-6.161433},{"i_long":106.756522,"station_id":"TKO","station_name":"Taman Kota","line":5,"distance":1614,"transit":false,"i_lat":-6.1587309999999995,"is_transit":false,"time":2},{"transit":false,"i_long":106.737035,"time":2,"i_lat":-6.159876,"station_id":"BOI","distance":2334,"line":0,"is_transit":false,"station_name":"Bojongindah"},{"i_long":106.723064,"i_lat":-6.162758,"station_name":"Rawa Buaya","distance":1152,"is_transit":false,"time":4,"station_id":"RW","transit":false,"line":5},{"station_id":"KDS","line":5,"is_transit":false,"i_long":106.701612,"distance":2504,"transit":false,"i_lat":-6.166068,"station_name":"Kalideres","time":3}],[{"station_name":"Sudimara","station_id":"SDM","time":0,"transit":false,"distance":0,"i_lat":-6.296963,"i_long":106.712277,"is_transit":false,"line":6},{"transit":false,"i_long":106.728916,"time":4,"station_name":"Jurangmangu","distance":1994,"station_id":"JMU","i_lat":-6.288927,"is_transit":false,"line":6},{"distance":2179,"is_transit":false,"station_name":"Pondokranji","time":3,"i_lat":-6.276362,"station_id":"PDJ","transit":false,"i_long":106.74273,"line":6},{"station_name":"Kebayoran","station_id":"KBY","time":8,"distance":6218,"is_transit":false,"i_lat":-6.237242,"i_long":106.780334,"line":6,"transit":false},{"is_transit":false,"distance":3737,"transit":false,"i_long":106.79689,"line":6,"station_name":"Palmerah","i_lat":-6.207404,"time":7,"station_id":"PLM"},{"distance":3191,"station_name":"Tanah Abang","time":6,"station_id":"THB","i_lat":-6.185545,"i_long":106.811091,"transit":true,"is_transit":true,"line":1},{"distance":2029,"station_id":"KAT","time":5,"transit":false,"i_lat":-6.20132,"is_transit":false,"line":1,"station_name":"Karet","i_long":106.816351},{"is_transit":false,"time":1,"transit":false,"i_long":106.819881,"line":1,"distance":471,"station_name":"Sudirman Baru","i_lat":-6.201433,"station_id":"SUDB"},{"station_name":"Sudirman","i_long":106.822649,"time":1,"line":1,"is_transit":false,"station_id":"SUD","i_lat":-6.202263,"distance":280,"transit":false},{"station_id":"MRI","distance":3186,"is_transit":true,"station_name":"Manggarai","transit":true,"time":4,"i_long":106.84912,"line":0,"i_lat":-6.209883},{"station_id":"CKI","time":4,"transit":false,"is_transit":false,"i_lat":-6.198556,"i_long":106.840169,"distance":1590,"line":0,"station_name":"Cikini"},{"station_id":"GDD","transit":false,"i_lat":-6.186295,"station_name":"Gondangdia","time":3,"line":2,"is_transit":false,"i_long":106.832183,"distance":1750},{"i_lat":-6.166716,"is_transit":false,"distance":2015,"station_id":"JUA","i_long":106.828284,"line":2,"time":4,"station_name":"Juanda","transit":false},{"transit":false,"line":2,"station_name":"Sawah Besar","station_id":"SW","is_transit":false,"i_long":106.827103,"time":2,"i_lat":-6.160725,"distance":1149},{"station_name":"Manggabesar","line":2,"i_lat":-6.149769,"station_id":"MGB","is_transit":false,"transit":false,"time":2,"i_long":106.82482,"distance":906},{"i_long":106.820901,"station_id":"JAY","line":7,"distance":1080,"transit":false,"is_transit":false,"time":2,"station_name":"Jayakarta","i_lat":-6.141205},{"station_id":"JAKK","distance":1264,"transit":true,"is_transit":true,"station_name":"Jakarta Kota","time":4,"i_long":106.812439,"i_lat":-6.137569,"line":0},{"station_name":"Kampung Bandan","is_transit":true,"station_id":"KPB","transit":false,"time":3,"i_lat":-6.132549,"i_long":106.826365,"line":0,"distance":1364},{"is_transit":false,"station_id":"AK","line":0,"i_long":106.79867,"transit":false,"time":9,"distance":4102,"station_name":"Angke","i_lat":-6.144674},{"station_id":"DU","distance":1230,"transit":true,"i_lat":-6.155215,"is_transit":true,"time":4,"line":1,"station_name":"Duri","i_long":106.800832},{"is_transit":false,"time":3,"i_lat":-6.162021,"distance":1700,"station_id":"GGL","station_name":"Grogol","transit":false,"i_long":106.788277,"line":5},{"line":5,"is_transit":false,"station_name":"Pesing","distance":2036,"i_long":106.771379,"i_lat":-6.161433,"station_id":"PSG","transit":false,"time":2},{"time":2,"distance":1614,"station_name":"Taman Kota","station_id":"TKO","i_long":106.756522,"is_transit":false,"line":5,"transit":false,"i_lat":-6.1587309999999995},{"is_transit":false,"i_long":106.737035,"i_lat":-6.159876,"distance":2334,"station_id":"BOI","station_name":"Bojongindah","time":2,"transit":false,"line":0},{"line":5,"distance":1152,"i_long":106.723064,"is_transit":false,"transit":false,"station_id":"RW","station_name":"Rawa Buaya","time":4,"i_lat":-6.162758},{"time":3,"i_lat":-6.166068,"transit":false,"station_name":"Kalideres","i_long":106.701612,"distance":2504,"station_id":"KDS","line":5,"is_transit":false}],[{"station_id":"SDM","transit":false,"i_lat":-6.296963,"distance":0,"station_name":"Sudimara","time":0,"is_transit":false,"i_long":106.712277,"line":6},{"station_name":"Jurangmangu","station_id":"JMU","is_transit":false,"transit":false,"i_lat":-6.288927,"distance":1994,"time":4,"i_long":106.728916,"line":6},{"station_name":"Pondokranji","i_lat":-6.276362,"transit":false,"distance":2179,"i_long":106.74273,"line":6,"time":3,"station_id":"PDJ","is_transit":false},{"station_name":"Kebayoran","station_id":"KBY","time":8,"i_long":106.780334,"transit":false,"line":6,"is_transit":false,"i_lat":-6.237242,"distance":6218},{"time":7,"i_long":106.79689,"station_name":"Palmerah","transit":false,"line":6,"is_transit":false,"i_lat":-6.207404,"distance":3737,"station_id":"PLM"},{"distance":3191,"station_id":"THB","transit":true,"time":6,"i_lat":-6.185545,"i_long":106.811091,"is_transit":true,"station_name":"Tanah Abang","line":1},{"station_id":"KAT","transit":false,"distance":2029,"station_name":"Karet","is_transit":false,"i_lat":-6.20132,"time":5,"i_long":106.816351,"line":1},{"transit":false,"line":1,"station_name":"Sudirman Baru","station_id":"SUDB","distance":471,"time":1,"i_lat":-6.201433,"is_transit":false,"i_long":106.819881},{"i_long":106.822649,"is_transit":false,"station_id":"SUD","i_lat":-6.202263,"time":1,"station_name":"Sudirman","distance":280,"line":1,"transit":false},{"distance":3186,"i_long":106.84912,"is_transit":true,"transit":false,"line":0,"time":4,"i_lat":-6.209883,"station_id":"MRI","station_name":"Manggarai"},{"i_long":106.858896,"line":1,"distance":1275,"station_id":"MTR","transit":false,"time":2,"i_lat":-6.212485,"station_name":"Matraman","is_transit":false},{"i_lat":-6.215091,"station_name":"Jatinegara","i_long":106.86807400000001,"transit":true,"time":8,"line":0,"distance":1377,"is_transit":true,"station_id":"JNG"},{"distance":1236,"time":2,"transit":false,"i_lat":-6.209188,"line":11,"station_name":"Pondok Jati","is_transit":false,"station_id":"POK","i_long":106.861737},{"station_name":"Kramat","distance":1829,"line":11,"station_id":"KMT","transit":false,"time":2,"i_lat":-6.193792,"i_long":106.855437,"is_transit":false},{"i_lat":-6.185975,"i_long":106.850107,"time":1,"line":11,"transit":false,"distance":973,"is_transit":false,"station_name":"Gang Sentiong","station_id":"GST"},{"line":11,"distance":1567,"time":8,"transit":false,"station_id":"PSE","station_name":"Pasar Senen","i_lat":-6.174784,"is_transit":false,"i_long":106.84368},{"distance":1436,"station_name":"Kemayoran","transit":false,"i_lat":-6.161728,"i_long":106.839204,"time":4,"line":11,"station_id":"KMO","is_transit":false},{"station_id":"RJW","distance":1901,"time":5,"i_long":106.836569,"i_lat":-6.14505,"station_name":"Rajawali","line":11,"transit":false,"is_transit":false},{"transit":true,"i_long":106.826365,"is_transit":true,"line":0,"i_lat":-6.132549,"distance":1444,"station_name":"Kampung Bandan","station_id":"KPB","time":3},{"is_transit":false,"station_id":"AK","transit":false,"station_name":"Angke","i_long":106.79867,"distance":4102,"time":9,"line":0,"i_lat":-6.144674},{"i_long":106.800832,"line":1,"is_transit":true,"station_name":"Duri","station_id":"DU","distance":1230,"transit":true,"i_lat":-6.155215,"time":4},{"i_lat":-6.162021,"line":5,"station_id":"GGL","i_long":106.788277,"is_transit":false,"transit":false,"distance":1700,"time":3,"station_name":"Grogol"},{"station_id":"PSG","i_lat":-6.161433,"distance":2036,"line":5,"transit":false,"station_name":"Pesing","is_transit":false,"i_long":106.771379,"time":2},{"time":2,"station_id":"TKO","line":5,"distance":1614,"i_lat":-6.1587309999999995,"station_name":"Taman Kota","is_transit":false,"i_long":106.756522,"transit":false},{"station_name":"Bojongindah","i_long":106.737035,"station_id":"BOI","line":0,"time":2,"transit":false,"is_transit":false,"i_lat":-6.159876,"distance":2334},{"is_transit":false,"line":5,"station_id":"RW","transit":false,"i_lat":-6.162758,"i_long":106.723064,"time":4,"station_name":"Rawa Buaya","distance":1152},{"distance":2504,"is_transit":false,"transit":false,"time":3,"i_long":106.701612,"station_id":"KDS","i_lat":-6.166068,"station_name":"Kalideres","line":5}]]}