{"data":[[{"time":0,"i_lat":-6.296963,"i_long":106.712277,"line":6,"station_name":"Sudimara","transit":false,"is_transit":false,"distance":0,"station_id":"SDM"},{"station_id":"RU","i_long":106.675475,"line":6,"is_transit":false,"i_lat":-6.314823,"transit":false,"distance":4566,"station_name":"Rawa Buntu","time":6},{"time":4,"i_long":106.66566,"distance":2413,"station_name":"Serpong","station_id":"SRP","i_lat":-6.319871,"line":6,"is_transit":false,"transit":false},{"station_id":"CSK","i_lat":-6.32484,"time":4,"distance":1784,"line":3,"station_name":"Cisauk","transit":false,"i_long":106.640411,"is_transit":false},{"station_name":"Cicayur","i_lat":-6.329547,"is_transit":false,"time":4,"transit":false,"distance":2519,"i_long":106.617853,"line":3,"station_id":"CC"},{"i_long":106.568863,"distance":5968,"line":6,"station_name":"Parung Panjang","station_id":"PRP","is_transit":false,"transit":false,"time":8,"i_lat":-6.3441410000000005},{"i_lat":-6.354349,"is_transit":false,"i_long":106.508482,"station_id":"CJT","transit":false,"distance":7025,"station_name":"Cilejit","time":9,"line":3},{"station_id":"DAR","is_transit":false,"time":6,"i_long":106.491338,"i_lat":-6.338021,"station_name":"Daru","transit":false,"distance":2675,"line":0},{"i_long":106.460812,"is_transit":false,"time":5,"i_lat":-6.327251,"station_name":"Tenjo","station_id":"TEJ","distance":3902,"transit":false,"line":6},{"line":6,"i_lat":-6.328533,"station_id":"TGS","i_long":106.425991,"station_name":"Tigaraksa","distance":2974,"is_transit":false,"transit":false,"time":5}]]}