{"data":[[{"time":0,"transit":false,"distance":0,"station_id":"SDM","station_name":"Sudimara","i_lat":-6.296963,"is_transit":false,"i_long":106.712277,"line":6},{"transit":false,"station_name":"Jurangmangu","i_lat":-6.288927,"line":6,"station_id":"JMU","is_transit":false,"i_long":106.728916,"distance":1994,"time":4},{"station_id":"PDJ","line":6,"i_lat":-6.276362,"station_name":"Pondokranji","transit":false,"distance":2179,"time":3,"i_long":106.74273,"is_transit":false},{"station_id":"KBY","is_transit":false,"i_lat":-6.237242,"transit":false,"time":8,"i_long":106.780334,"line":6,"station_name":"Kebayoran","distance":6218},{"transit":false,"line":6,"is_transit":false,"i_long":106.79689,"time":7,"station_id":"PLM","i_lat":-6.207404,"distance":3737,"station_name":"Palmerah"},{"is_transit":true,"transit":true,"i_long":106.811091,"line":1,"station_id":"THB","i_lat":-6.185545,"time":6,"station_name":"Tanah Abang","distance":3191},{"line":1,"transit":false,"time":5,"i_long":106.816351,"is_transit":false,"station_name":"Karet","i_lat":-6.20132,"distance":2029,"station_id":"KAT"},{"transit":false,"time":1,"line":1,"distance":471,"i_lat":-6.201433,"i_long":106.819881,"is_transit":false,"station_id":"SUDB","station_name":"Sudirman Baru"},{"line":1,"is_transit":false,"distance":280,"transit":false,"station_id":"SUD","time":1,"station_name":"Sudirman","i_long":106.822649,"i_lat":-6.202263},{"line":0,"transit":true,"time":4,"i_lat":-6.209883,"i_long":106.84912,"station_id":"MRI","is_transit":true,"station_name":"Manggarai","distance":3186},{"transit":false,"i_lat":-6.226659,"distance":2610,"is_transit":false,"station_name":"Tebet","line":2,"time":4,"i_long":106.857948,"station_id":"TEB"},{"distance":1230,"station_id":"CW","transit":false,"time":2,"is_transit":false,"line":0,"station_name":"Cawang","i_long":106.856607,"i_lat":-6.242512},{"station_name":"Duren Kalibata","i_lat":-6.255332,"transit":false,"line":0,"is_transit":false,"station_id":"DRN","distance":1546,"i_long":106.85449,"time":3},{"is_transit":false,"line":2,"transit":false,"i_long":106.851577,"i_lat":-6.263214,"distance":824,"station_name":"Pasar Minggu Baru","station_id":"PSMB","time":2}],[{"is_transit":false,"distance":0,"time":0,"i_long":106.712277,"transit":false,"station_id":"SDM","station_name":"Sudimara","i_lat":-6.296963,"line":6},{"i_long":106.728916,"distance":1994,"is_transit":false,"line":6,"transit":false,"time":4,"station_id":"JMU","i_lat":-6.288927,"station_name":"Jurangmangu"},{"is_transit":false,"station_name":"Pondokranji","i_lat":-6.276362,"i_long":106.74273,"station_id":"PDJ","time":3,"transit":false,"line":6,"distance":2179},{"station_id":"KBY","i_lat":-6.237242,"i_long":106.780334,"time":8,"transit":false,"line":6,"distance":6218,"is_transit":false,"station_name":"Kebayoran"},{"time":7,"is_transit":false,"i_lat":-6.207404,"i_long":106.79689,"line":6,"station_name":"Palmerah","distance":3737,"station_id":"PLM","transit":false},{"line":1,"is_transit":true,"distance":3191,"time":6,"station_name":"Tanah Abang","i_long":106.811091,"station_id":"THB","transit":true,"i_lat":-6.185545},{"i_lat":-6.155215,"is_transit":true,"transit":true,"distance":3632,"line":1,"station_name":"Duri","time":8,"i_long":106.800832,"station_id":"DU"},{"is_transit":false,"i_lat":-6.144674,"line":0,"station_id":"AK","station_name":"Angke","i_long":106.79867,"distance":1230,"time":4,"transit":false},{"station_id":"KPB","i_lat":-6.132549,"line":0,"is_transit":true,"transit":false,"i_long":106.826365,"station_name":"Kampung Bandan","time":9,"distance":4102},{"line":0,"is_transit":true,"station_name":"Jakarta Kota","distance":1364,"station_id":"JAKK","time":3,"i_lat":-6.137569,"i_long":106.812439,"transit":true},{"is_transit":false,"i_lat":-6.141205,"distance":1264,"transit":false,"station_id":"JAY","station_name":"Jayakarta","time":4,"i_long":106.820901,"line":7},{"station_id":"MGB","transit":false,"distance":1080,"time":2,"station_name":"Manggabesar","i_lat":-6.149769,"i_long":106.82482,"is_transit":false,"line":2},{"station_name":"Sawah Besar","i_lat":-6.160725,"i_long":106.827103,"line":2,"distance":906,"transit":false,"time":2,"station_id":"SW","is_transit":false},{"distance":1149,"time":2,"transit":false,"is_transit":false,"station_id":"JUA","i_lat":-6.166716,"station_name":"Juanda","line":2,"i_long":106.828284},{"distance":2015,"i_long":106.832183,"station_id":"GDD","time":4,"i_lat":-6.186295,"transit":false,"line":2,"station_name":"Gondangdia","is_transit":false},{"line":0,"distance":1750,"i_lat":-6.198556,"station_name":"Cikini","station_id":"CKI","time":3,"i_long":106.840169,"is_transit":false,"transit":false},{"distance":1590,"is_transit":true,"line":0,"station_name":"Manggarai","transit":true,"station_id":"MRI","time":4,"i_lat":-6.209883,"i_long":106.84912},{"time":4,"i_lat":-6.226659,"transit":false,"is_transit":false,"station_name":"Tebet","distance":2610,"station_id":"TEB","i_long":106.857948,"line":2},{"line":0,"i_lat":-6.242512,"station_id":"CW","i_long":106.856607,"is_transit":false,"distance":1230,"time":2,"transit":false,"station_name":"Cawang"},{"i_long":106.85449,"transit":false,"station_id":"DRN","i_lat":-6.255332,"line":0,"distance":1546,"station_name":"Duren Kalibata","time":3,"is_transit":false},{"station_name":"Pasar Minggu Baru","transit":false,"is_transit":false,"distance":824,"line":2,"time":2,"station_id":"PSMB","i_long":106.851577,"i_lat":-6.263214}],[{"transit":false,"station_name":"Sudimara","distance":0,"station_id":"SDM","time":0,"is_transit":false,"i_lat":-6.296963,"i_long":106.712277,"line":6},{"transit":false,"i_lat":-6.288927,"i_long":106.728916,"is_transit":false,"time":4,"line":6,"distance":1994,"station_name":"Jurangmangu","station_id":"JMU"},{"i_lat":-6.276362,"distance":2179,"is_transit":false,"transit":false,"line":6,"station_id":"PDJ","i_long":106.74273,"time":3,"station_name":"Pondokranji"},{"line":6,"distance":6218,"station_id":"KBY","i_lat":-6.237242,"station_name":"Kebayoran","time":8,"is_transit":false,"i_long":106.780334,"transit":false},{"time":7,"station_id":"PLM","is_transit":false,"station_name":"Palmerah","transit":false,"i_long":106.79689,"line":6,"i_lat":-6.207404,"distance":3737},{"line":1,"distance":3191,"station_id":"THB","station_name":"Tanah Abang","time":6,"i_lat":-6.185545,"transit":true,"i_long":106.811091,"is_transit":true},{"transit":true,"station_name":"Duri","i_lat":-6.155215,"line":1,"time":8,"is_transit":true,"station_id":"DU","distance":3632,"i_long":106.800832},{"i_long":106.79867,"time":4,"station_id":"AK","distance":1230,"i_lat":-6.144674,"station_name":"Angke","transit":false,"line":0,"is_transit":false},{"is_transit":true,"transit":true,"i_long":106.826365,"i_lat":-6.132549,"line":0,"time":9,"station_id":"KPB","station_name":"Kampung Bandan","distance":4102},{"time":3,"i_lat":-6.14505,"distance":1444,"transit":false,"line":11,"station_id":"RJW","is_transit":false,"i_long":106.836569,"station_name":"Rajawali"},{"transit":false,"is_transit":false,"line":11,"station_name":"Kemayoran","i_lat":-6.161728,"time":5,"distance":1901,"station_id":"KMO","i_long":106.839204},{"distance":1436,"i_long":106.84368,"is_transit":false,"station_id":"PSE","station_name":"Pasar Senen","line":11,"time":4,"i_lat":-6.174784,"transit":false},{"station_name":"Gang Sentiong","i_long":106.850107,"is_transit":false,"transit":false,"time":8,"distance":1567,"station_id":"GST","line":11,"i_lat":-6.185975},{"i_long":106.855437,"is_transit":false,"transit":false,"distance":973,"station_id":"KMT","time":1,"line":11,"station_name":"Kramat","i_lat":-6.193792},{"is_transit":false,"station_name":"Pondok Jati","i_long":106.861737,"time":2,"line":11,"distance":1829,"i_lat":-6.209188,"transit":false,"station_id":"POK"},{"station_id":"JNG","i_long":106.86807400000001,"is_transit":true,"station_name":"Jatinegara","distance":1236,"time":9,"i_lat":-6.215091,"transit":true,"line":0},{"i_lat":-6.212485,"is_transit":false,"i_long":106.858896,"line":1,"station_name":"Matraman","distance":1377,"station_id":"MTR","transit":false,"time":2},{"time":2,"i_lat":-6.209883,"i_long":106.84912,"distance":1275,"station_id":"MRI","line":0,"station_name":"Manggarai","is_transit":true,"transit":true},{"distance":2610,"is_transit":false,"i_lat":-6.226659,"i_long":106.857948,"time":4,"station_name":"Tebet","transit":false,"station_id":"TEB","line":2},{"is_transit":false,"station_name":"Cawang","transit":false,"time":2,"i_lat":-6.242512,"i_long":106.856607,"distance":1230,"line":0,"station_id":"CW"},{"line":0,"transit":false,"time":3,"distance":1546,"i_long":106.85449,"station_name":"Duren Kalibata","station_id":"DRN","i_lat":-6.255332,"is_transit":false},{"distance":824,"i_lat":-6.263214,"time":2,"station_id":"PSMB","line":2,"transit":false,"station_name":"Pasar Minggu Baru","i_long":106.851577,"is_transit":false}]]}