{"data":[[{"is_transit":false,"time":0,"i_long":106.712277,"line":6,"distance":0,"i_lat":-6.296963,"station_id":"SDM","transit":false,"station_name":"Sudimara"},{"distance":1994,"station_id":"JMU","transit":false,"station_name":"Jurangmangu","is_transit":false,"line":6,"i_lat":-6.288927,"time":4,"i_long":106.728916},{"station_name":"Pondokranji","is_transit":false,"i_long":106.74273,"distance":2179,"time":3,"station_id":"PDJ","i_lat":-6.276362,"line":6,"transit":false},{"distance":6218,"line":6,"station_id":"KBY","i_long":106.780334,"time":8,"is_transit":false,"station_name":"Kebayoran","i_lat":-6.237242,"transit":false},{"i_lat":-6.207404,"i_long":106.79689,"transit":false,"is_transit":false,"station_name":"Palmerah","distance":3737,"line":6,"station_id":"PLM","time":7},{"time":6,"i_long":106.811091,"distance":3191,"station_name":"Tanah Abang","is_transit":true,"transit":true,"station_id":"THB","line":1,"i_lat":-6.185545},{"distance":3632,"transit":true,"time":8,"i_lat":-6.155215,"station_id":"DU","station_name":"Duri","is_transit":true,"i_long":106.800832,"line":1},{"time":3,"is_transit":false,"station_id":"GRG","line":5,"transit":false,"i_long":106.788277,"i_lat":-6.162021,"station_name":"Grogol","distance":1700},{"is_transit":false,"station_id":"PSG","distance":2036,"station_name":"Pesing","time":2,"transit":false,"i_lat":-6.161433,"i_long":106.771379,"line":5},{"station_id":"TKO","i_lat":-6.1587309999999995,"i_long":106.756522,"time":2,"transit":false,"line":5,"distance":1614,"station_name":"Taman Kota","is_transit":false},{"time":2,"i_long":106.737035,"distance":2334,"transit":false,"is_transit":false,"station_name":"Bojongindah","line":5,"station_id":"BOI","i_lat":-6.159876},{"station_name":"Rawa Buaya","line":5,"is_transit":false,"i_long":106.723064,"i_lat":-6.162758,"time":4,"distance":1152,"station_id":"RW","transit":false},{"time":3,"i_lat":-6.166068,"is_transit":false,"transit":false,"station_name":"Kalideres","distance":2504,"i_long":106.701612,"line":5,"station_id":"KDS"}],[{"is_transit":false,"station_id":"SDM","i_lat":-6.296963,"i_long":106.712277,"distance":0,"transit":false,"station_name":"Sudimara","time":0,"line":6},{"distance":1994,"station_id":"JMU","transit":false,"is_transit":false,"time":4,"i_lat":-6.288927,"i_long":106.728916,"station_name":"Jurangmangu","line":6},{"transit":false,"is_transit":false,"i_long":106.74273,"station_name":"Pondokranji","station_id":"PDJ","time":3,"distance":2179,"i_lat":-6.276362,"line":6},{"i_long":106.780334,"is_transit":false,"time":8,"transit":false,"distance":6218,"station_name":"Kebayoran","i_lat":-6.237242,"line":6,"station_id":"KBY"},{"station_name":"Palmerah","distance":3737,"i_lat":-6.207404,"is_transit":false,"time":7,"i_long":106.79689,"transit":false,"line":6,"station_id":"PLM"},{"station_id":"THB","is_transit":true,"time":6,"i_long":106.811091,"station_name":"Tanah Abang","distance":3191,"transit":true,"i_lat":-6.185545,"line":1},{"station_name":"Karet","line":1,"is_transit":false,"time":5,"i_lat":-6.20132,"transit":false,"i_long":106.816351,"distance":2029,"station_id":"KAT"},{"time":1,"station_name":"Sudirman Baru","transit":false,"station_id":"SUDB","i_long":106.819881,"line":1,"is_transit":false,"i_lat":-6.201433,"distance":471},{"transit":false,"time":1,"distance":280,"i_lat":-6.202263,"i_long":106.822649,"is_transit":false,"station_id":"SUD","station_name":"Sudirman","line":1},{"time":4,"station_id":"MRI","transit":true,"is_transit":true,"distance":3186,"station_name":"Manggarai","i_long":106.84912,"i_lat":-6.209883,"line":2},{"line":2,"transit":false,"i_lat":-6.198556,"station_id":"CKI","distance":1590,"is_transit":false,"time":4,"i_long":106.840169,"station_name":"Cikini"},{"line":2,"i_long":106.832183,"i_lat":-6.186295,"station_id":"GDD","transit":false,"is_transit":false,"station_name":"Gondangdia","time":3,"distance":1750},{"transit":false,"station_name":"Juanda","i_long":106.828284,"line":2,"distance":2015,"station_id":"JUA","i_lat":-6.166716,"time":4,"is_transit":false},{"distance":1149,"i_long":106.827103,"line":2,"i_lat":-6.160725,"is_transit":false,"station_name":"Sawah Besar","station_id":"SW","transit":false,"time":2},{"transit":false,"time":2,"i_lat":-6.149769,"distance":906,"station_id":"MGB","line":2,"station_name":"Manggabesar","i_long":106.82482,"is_transit":false},{"i_long":106.820901,"time":2,"distance":1080,"is_transit":false,"station_name":"Jayakarta","line":2,"station_id":"JAY","i_lat":-6.141205,"transit":false},{"time":4,"is_transit":true,"i_lat":-6.137569,"i_long":106.812439,"distance":1264,"station_id":"JAKK","station_name":"Jakarta Kota","line":2,"transit":true},{"station_name":"Kampung Bandan","time":3,"station_id":"KPB","i_long":106.826365,"line":4,"transit":true,"distance":1364,"is_transit":true,"i_lat":-6.132549},{"transit":false,"i_lat":-6.144674,"time":9,"is_transit":false,"station_id":"AK","station_name":"Angke","i_long":106.79867,"distance":4102,"line":1},{"is_transit":true,"transit":true,"distance":1230,"station_id":"DU","line":1,"station_name":"Duri","i_long":106.800832,"time":4,"i_lat":-6.155215},{"i_lat":-6.162021,"i_long":106.788277,"line":5,"transit":false,"station_id":"GRG","time":3,"distance":1700,"is_transit":false,"station_name":"Grogol"},{"station_id":"PSG","time":2,"i_lat":-6.161433,"i_long":106.771379,"distance":2036,"station_name":"Pesing","line":5,"is_transit":false,"transit":false},{"transit":false,"station_id":"TKO","distance":1614,"time":2,"station_name":"Taman Kota","i_lat":-6.1587309999999995,"i_long":106.756522,"is_transit":false,"line":5},{"transit":false,"line":5,"station_name":"Bojongindah","station_id":"BOI","time":2,"distance":2334,"i_lat":-6.159876,"is_transit":false,"i_long":106.737035},{"station_id":"RW","i_lat":-6.162758,"distance":1152,"is_transit":false,"time":4,"station_name":"Rawa Buaya","i_long":106.723064,"line":5,"transit":false},{"i_lat":-6.166068,"station_id":"KDS","is_transit":false,"line":5,"i_long":106.701612,"transit":false,"station_name":"Kalideres","distance":2504,"time":3}],[{"station_id":"SDM","i_long":106.712277,"time":0,"transit":false,"i_lat":-6.296963,"line":6,"is_transit":false,"station_name":"Sudimara","distance":0},{"transit":false,"station_id":"JMU","line":6,"station_name":"Jurangmangu","is_transit":false,"i_long":106.728916,"time":4,"i_lat":-6.288927,"distance":1994},{"station_name":"Pondokranji","i_long":106.74273,"time":3,"is_transit":false,"distance":2179,"station_id":"PDJ","line":6,"transit":false,"i_lat":-6.276362},{"transit":false,"distance":6218,"i_long":106.780334,"time":8,"line":6,"is_transit":false,"station_name":"Kebayoran","station_id":"KBY","i_lat":-6.237242},{"station_name":"Palmerah","station_id":"PLM","i_lat":-6.207404,"distance":3737,"i_long":106.79689,"line":6,"is_transit":false,"transit":false,"time":7},{"is_transit":true,"station_id":"THB","transit":true,"distance":3191,"station_name":"Tanah Abang","time":6,"i_long":106.811091,"i_lat":-6.185545,"line":1},{"station_name":"Karet","time":5,"distance":2029,"is_transit":false,"i_lat":-6.20132,"i_long":106.816351,"transit":false,"line":1,"station_id":"KAT"},{"station_name":"Sudirman Baru","i_lat":-6.201433,"time":1,"transit":false,"station_id":"SUDB","distance":471,"line":1,"is_transit":false,"i_long":106.819881},{"time":1,"line":1,"distance":280,"is_transit":false,"transit":false,"station_name":"Sudirman","i_long":106.822649,"i_lat":-6.202263,"station_id":"SUD"},{"line":2,"time":4,"station_id":"MRI","station_name":"Manggarai","i_lat":-6.209883,"i_long":106.84912,"distance":3186,"is_transit":false,"transit":false},{"station_id":"MTR","transit":false,"distance":1275,"time":2,"i_lat":-6.212485,"station_name":"Matraman","i_long":106.858896,"line":1,"is_transit":false},{"is_transit":true,"time":8,"i_lat":-6.215091,"i_long":106.86807400000001,"distance":1377,"transit":true,"line":1,"station_id":"JNG","station_name":"Jatinegara"},{"i_long":106.861737,"line":11,"time":2,"is_transit":false,"station_name":"Pondok Jati","distance":1236,"station_id":"POK","i_lat":-6.209188,"transit":false},{"transit":false,"i_long":106.855437,"line":11,"time":2,"is_transit":false,"distance":1829,"station_name":"Kramat","station_id":"KMT","i_lat":-6.193792},{"distance":973,"transit":false,"is_transit":false,"station_name":"Gang Sentiong","i_lat":-6.185975,"i_long":106.850107,"time":1,"line":11,"station_id":"GST"},{"i_lat":-6.174784,"distance":1567,"station_name":"Pasar Senen","line":11,"station_id":"PSE","time":8,"transit":false,"i_long":106.84368,"is_transit":false},{"distance":1436,"transit":false,"station_name":"Kemayoran","station_id":"KMO","i_long":106.839204,"is_transit":false,"i_lat":-6.161728,"line":11,"time":4},{"is_transit":false,"transit":false,"station_name":"Rajawali","i_lat":-6.14505,"time":5,"line":11,"station_id":"RJW","distance":1901,"i_long":106.836569},{"transit":true,"station_name":"Kampung Bandan","distance":1444,"is_transit":true,"i_lat":-6.132549,"line":4,"station_id":"KPB","i_long":106.826365,"time":3},{"station_id":"AK","is_transit":false,"distance":4102,"station_name":"Angke","i_lat":-6.144674,"i_long":106.79867,"line":1,"time":9,"transit":false},{"transit":true,"i_long":106.800832,"time":4,"distance":1230,"is_transit":true,"station_id":"DU","line":1,"station_name":"Duri","i_lat":-6.155215},{"station_id":"GRG","time":3,"transit":false,"is_transit":false,"station_name":"Grogol","i_long":106.788277,"line":5,"i_lat":-6.162021,"distance":1700},{"station_name":"Pesing","station_id":"PSG","is_transit":false,"i_long":106.771379,"time":2,"distance":2036,"transit":false,"i_lat":-6.161433,"line":5},{"time":2,"transit":false,"is_transit":false,"i_lat":-6.1587309999999995,"i_long":106.756522,"line":5,"distance":1614,"station_id":"TKO","station_name":"Taman Kota"},{"is_transit":false,"transit":false,"station_id":"BOI","distance":2334,"time":2,"i_lat":-6.159876,"i_long":106.737035,"station_name":"Bojongindah","line":5},{"i_long":106.723064,"time":4,"transit":false,"station_id":"RW","i_lat":-6.162758,"distance":1152,"station_name":"Rawa Buaya","is_transit":false,"line":5},{"station_name":"Kalideres","line":5,"station_id":"KDS","i_lat":-6.166068,"transit":false,"time":3,"is_transit":false,"i_long":106.701612,"distance":2504}]]}