{"data":[[{"time":0,"i_lat":-6.296963,"station_id":"SDM","line":6,"station_name":"Sudimara","distance":0,"is_transit":false,"transit":false,"i_long":106.712277},{"distance":1994,"station_id":"JMU","is_transit":false,"station_name":"Jurangmangu","transit":false,"i_long":106.728916,"line":6,"time":4,"i_lat":-6.288927},{"time":3,"station_name":"Pondokranji","i_long":106.74273,"line":6,"is_transit":false,"distance":2179,"station_id":"PDJ","i_lat":-6.276362,"transit":false},{"distance":6218,"i_long":106.780334,"station_id":"KBY","i_lat":-6.237242,"transit":false,"station_name":"Kebayoran","time":8,"line":6,"is_transit":false},{"time":7,"i_long":106.79689,"station_id":"PLM","line":6,"is_transit":false,"distance":3737,"i_lat":-6.207404,"transit":false,"station_name":"Palmerah"},{"station_id":"THB","station_name":"Tanah Abang","is_transit":true,"distance":3191,"time":6,"i_lat":-6.185545,"transit":true,"i_long":106.811091,"line":1},{"distance":2029,"i_lat":-6.20132,"station_name":"Karet","time":5,"i_long":106.816351,"transit":false,"line":1,"is_transit":false,"station_id":"KAT"},{"distance":471,"i_long":106.819881,"line":1,"station_id":"SUDB","station_name":"Sudirman Baru","transit":false,"i_lat":-6.201433,"time":1,"is_transit":false},{"line":1,"transit":false,"i_lat":-6.202263,"i_long":106.822649,"is_transit":false,"station_id":"SUD","distance":280,"time":1,"station_name":"Sudirman"},{"time":4,"i_long":106.84912,"is_transit":true,"station_id":"MRI","transit":false,"station_name":"Manggarai","i_lat":-6.209883,"line":0,"distance":3186},{"transit":false,"i_long":106.858896,"distance":1275,"station_id":"MTR","line":1,"is_transit":false,"station_name":"Matraman","i_lat":-6.212485,"time":2},{"station_id":"JNG","transit":false,"time":8,"is_transit":true,"distance":1377,"i_lat":-6.215091,"i_long":106.86807400000001,"station_name":"Jatinegara","line":0},{"station_id":"KLD","station_name":"Klender","transit":false,"line":1,"time":3,"i_lat":-6.2135,"distance":3395,"is_transit":false,"i_long":106.899548},{"distance":3100,"station_id":"BUA","time":2,"line":0,"is_transit":false,"i_lat":-6.215568,"station_name":"Buaran","transit":false,"i_long":106.922662},{"time":1,"is_transit":false,"i_long":106.939679,"line":1,"i_lat":-6.217455,"distance":1305,"station_id":"KLDB","station_name":"Klenderbaru","transit":false},{"station_id":"CUK","i_long":106.951283,"station_name":"Cakung","distance":1385,"is_transit":false,"transit":false,"time":8,"i_lat":-6.219053,"line":0},{"time":3,"is_transit":false,"station_id":"KRI","line":1,"i_lat":-6.224515,"transit":false,"i_long":106.977657,"distance":3097,"station_name":"Kranji"},{"time":4,"i_long":106.997013,"station_id":"BKS","i_lat":-6.236616,"is_transit":false,"distance":2520,"line":0,"transit":false,"station_name":"Bekasi"},{"i_long":107.016735,"distance":2368,"transit":false,"station_id":"BKST","is_transit":false,"i_lat":-6.248029,"station_name":"Bekasi Timur","line":0,"time":2},{"is_transit":false,"time":7,"i_long":107.055722,"transit":false,"distance":4460,"i_lat":-6.258864,"line":1,"station_id":"TB","station_name":"Tambun"}],[{"line":6,"distance":0,"time":0,"i_lat":-6.296963,"station_id":"SDM","is_transit":false,"transit":false,"station_name":"Sudimara","i_long":106.712277},{"station_name":"Jurangmangu","line":6,"distance":1994,"i_lat":-6.288927,"time":4,"station_id":"JMU","transit":false,"i_long":106.728916,"is_transit":false},{"station_id":"PDJ","transit":false,"time":3,"line":6,"distance":2179,"station_name":"Pondokranji","i_long":106.74273,"i_lat":-6.276362,"is_transit":false},{"station_name":"Kebayoran","line":6,"i_long":106.780334,"transit":false,"distance":6218,"is_transit":false,"station_id":"KBY","time":8,"i_lat":-6.237242},{"line":6,"station_id":"PLM","i_long":106.79689,"is_transit":false,"i_lat":-6.207404,"station_name":"Palmerah","transit":false,"time":7,"distance":3737},{"station_id":"THB","station_name":"Tanah Abang","i_lat":-6.185545,"i_long":106.811091,"distance":3191,"line":1,"is_transit":true,"transit":true,"time":6},{"transit":true,"i_lat":-6.155215,"is_transit":true,"i_long":106.800832,"station_id":"DU","distance":3632,"line":1,"time":8,"station_name":"Duri"},{"line":0,"is_transit":false,"station_id":"AK","distance":1230,"i_lat":-6.144674,"i_long":106.79867,"transit":false,"station_name":"Angke","time":4},{"i_long":106.826365,"station_id":"KPB","station_name":"Kampung Bandan","distance":4102,"is_transit":true,"time":9,"i_lat":-6.132549,"line":0,"transit":true},{"i_lat":-6.14505,"distance":1444,"line":11,"time":3,"is_transit":false,"i_long":106.836569,"transit":false,"station_name":"Rajawali","station_id":"RJW"},{"transit":false,"time":5,"station_id":"KMO","i_long":106.839204,"line":11,"i_lat":-6.161728,"is_transit":false,"station_name":"Kemayoran","distance":1901},{"is_transit":false,"transit":false,"distance":1436,"line":11,"i_long":106.84368,"station_id":"PSE","station_name":"Pasar Senen","time":4,"i_lat":-6.174784},{"transit":false,"time":8,"station_id":"GST","i_lat":-6.185975,"i_long":106.850107,"station_name":"Gang Sentiong","is_transit":false,"distance":1567,"line":11},{"line":11,"time":1,"is_transit":false,"station_name":"Kramat","station_id":"KMT","distance":973,"transit":false,"i_long":106.855437,"i_lat":-6.193792},{"i_lat":-6.209188,"transit":false,"time":2,"station_name":"Pondok Jati","distance":1829,"station_id":"POK","is_transit":false,"i_long":106.861737,"line":11},{"i_long":106.86807400000001,"station_id":"JNG","distance":1236,"i_lat":-6.215091,"time":9,"line":0,"transit":true,"is_transit":true,"station_name":"Jatinegara"},{"station_id":"KLD","i_lat":-6.2135,"distance":3395,"station_name":"Klender","transit":false,"time":3,"line":1,"i_long":106.899548,"is_transit":false},{"is_transit":false,"station_name":"Buaran","time":2,"i_long":106.922662,"i_lat":-6.215568,"station_id":"BUA","line":0,"distance":3100,"transit":false},{"line":1,"is_transit":false,"distance":1305,"station_name":"Klenderbaru","transit":false,"station_id":"KLDB","i_long":106.939679,"i_lat":-6.217455,"time":1},{"i_long":106.951283,"transit":false,"station_name":"Cakung","distance":1385,"line":0,"is_transit":false,"time":8,"station_id":"CUK","i_lat":-6.219053},{"i_lat":-6.224515,"i_long":106.977657,"station_id":"KRI","line":1,"distance":3097,"is_transit":false,"transit":false,"time":3,"station_name":"Kranji"},{"is_transit":false,"station_id":"BKS","i_lat":-6.236616,"distance":2520,"station_name":"Bekasi","transit":false,"i_long":106.997013,"line":0,"time":4},{"station_id":"BKST","i_lat":-6.248029,"transit":false,"station_name":"Bekasi Timur","time":2,"is_transit":false,"i_long":107.016735,"distance":2368,"line":0},{"i_long":107.055722,"line":1,"time":7,"station_id":"TB","station_name":"Tambun","distance":4460,"is_transit":false,"transit":false,"i_lat":-6.258864}],[{"distance":0,"transit":false,"is_transit":false,"time":0,"station_name":"Sudimara","i_lat":-6.296963,"i_long":106.712277,"line":6,"station_id":"SDM"},{"time":4,"i_long":106.728916,"line":6,"transit":false,"distance":1994,"is_transit":false,"station_name":"Jurangmangu","i_lat":-6.288927,"station_id":"JMU"},{"station_id":"PDJ","time":3,"i_lat":-6.276362,"is_transit":false,"transit":false,"distance":2179,"i_long":106.74273,"line":6,"station_name":"Pondokranji"},{"time":8,"station_id":"KBY","distance":6218,"is_transit":false,"station_name":"Kebayoran","i_long":106.780334,"i_lat":-6.237242,"transit":false,"line":6},{"distance":3737,"line":6,"is_transit":false,"i_lat":-6.207404,"time":7,"station_id":"PLM","i_long":106.79689,"transit":false,"station_name":"Palmerah"},{"is_transit":true,"station_id":"THB","i_long":106.811091,"distance":3191,"station_name":"Tanah Abang","transit":true,"i_lat":-6.185545,"time":6,"line":1},{"time":8,"station_id":"DU","transit":true,"i_long":106.800832,"distance":3632,"station_name":"Duri","line":1,"i_lat":-6.155215,"is_transit":true},{"distance":1230,"time":4,"station_id":"AK","line":0,"transit":false,"is_transit":false,"i_long":106.79867,"station_name":"Angke","i_lat":-6.144674},{"i_long":106.826365,"i_lat":-6.132549,"transit":false,"distance":4102,"is_transit":true,"station_id":"KPB","station_name":"Kampung Bandan","line":0,"time":9},{"i_long":106.812439,"line":0,"station_id":"JAKK","distance":1364,"time":3,"i_lat":-6.137569,"station_name":"Jakarta Kota","is_transit":true,"transit":true},{"time":4,"distance":1264,"station_id":"JAY","is_transit":false,"station_name":"Jayakarta","transit":false,"i_long":106.820901,"i_lat":-6.141205,"line":7},{"transit":false,"station_id":"MGB","i_long":106.82482,"time":2,"line":2,"is_transit":false,"distance":1080,"station_name":"Manggabesar","i_lat":-6.149769},{"station_id":"SW","i_long":106.827103,"transit":false,"line":2,"is_transit":false,"station_name":"Sawah Besar","time":2,"i_lat":-6.160725,"distance":906},{"station_id":"JUA","station_name":"Juanda","distance":1149,"time":2,"is_transit":false,"i_lat":-6.166716,"line":2,"i_long":106.828284,"transit":false},{"i_long":106.832183,"station_id":"GDD","station_name":"Gondangdia","is_transit":false,"line":2,"i_lat":-6.186295,"distance":2015,"transit":false,"time":4},{"station_id":"CKI","is_transit":false,"i_long":106.840169,"line":0,"transit":false,"distance":1750,"time":3,"station_name":"Cikini","i_lat":-6.198556},{"transit":true,"distance":1590,"time":4,"i_lat":-6.209883,"station_id":"MRI","station_name":"Manggarai","line":0,"i_long":106.84912,"is_transit":true},{"distance":1275,"is_transit":false,"transit":false,"i_lat":-6.212485,"time":2,"i_long":106.858896,"line":1,"station_id":"MTR","station_name":"Matraman"},{"line":0,"time":8,"station_id":"JNG","i_long":106.86807400000001,"distance":1377,"transit":false,"i_lat":-6.215091,"station_name":"Jatinegara","is_transit":true},{"line":1,"i_long":106.899548,"station_id":"KLD","i_lat":-6.2135,"station_name":"Klender","transit":false,"distance":3395,"is_transit":false,"time":3},{"i_lat":-6.215568,"i_long":106.922662,"line":0,"station_id":"BUA","time":2,"station_name":"Buaran","distance":3100,"is_transit":false,"transit":false},{"transit":false,"i_long":106.939679,"line":1,"distance":1305,"station_id":"KLDB","i_lat":-6.217455,"time":1,"station_name":"Klenderbaru","is_transit":false},{"i_long":106.951283,"line":0,"is_transit":false,"time":8,"distance":1385,"i_lat":-6.219053,"transit":false,"station_id":"CUK","station_name":"Cakung"},{"i_lat":-6.224515,"i_long":106.977657,"time":3,"distance":3097,"station_id":"KRI","station_name":"Kranji","transit":false,"is_transit":false,"line":1},{"is_transit":false,"station_name":"Bekasi","station_id":"BKS","transit":false,"distance":2520,"time":4,"i_lat":-6.236616,"i_long":106.997013,"line":0},{"station_id":"BKST","i_lat":-6.248029,"distance":2368,"is_transit":false,"i_long":107.016735,"line":0,"station_name":"Bekasi Timur","time":2,"transit":false},{"i_long":107.055722,"distance":4460,"time":7,"line":1,"station_name":"Tambun","i_lat":-6.258864,"is_transit":false,"station_id":"TB","transit":false}],[{"is_transit":false,"transit":false,"i_lat":-6.296963,"distance":0,"station_id":"SDM","time":0,"station_name":"Sudimara","i_long":106.712277,"line":6},{"is_transit":false,"i_long":106.728916,"distance":1994,"transit":false,"station_id":"JMU","time":4,"station_name":"Jurangmangu","line":6,"i_lat":-6.288927},{"is_transit":false,"line":6,"station_name":"Pondokranji","distance":2179,"time":3,"transit":false,"station_id":"PDJ","i_lat":-6.276362,"i_long":106.74273},{"is_transit":false,"time":8,"distance":6218,"line":6,"station_id":"KBY","i_long":106.780334,"transit":false,"i_lat":-6.237242,"station_name":"Kebayoran"},{"line":6,"transit":false,"i_lat":-6.207404,"i_long":106.79689,"station_name":"Palmerah","distance":3737,"is_transit":false,"time":7,"station_id":"PLM"},{"time":6,"i_long":106.811091,"is_transit":true,"transit":true,"line":1,"distance":3191,"station_id":"THB","station_name":"Tanah Abang","i_lat":-6.185545},{"transit":false,"distance":2029,"i_long":106.816351,"station_name":"Karet","station_id":"KAT","time":5,"i_lat":-6.20132,"line":1,"is_transit":false},{"time":1,"i_lat":-6.201433,"is_transit":false,"line":1,"i_long":106.819881,"distance":471,"station_id":"SUDB","station_name":"Sudirman Baru","transit":false},{"i_long":106.822649,"i_lat":-6.202263,"distance":280,"transit":false,"time":1,"station_name":"Sudirman","line":1,"station_id":"SUD","is_transit":false},{"line":0,"time":4,"is_transit":true,"i_long":106.84912,"station_id":"MRI","station_name":"Manggarai","transit":true,"distance":3186,"i_lat":-6.209883},{"station_id":"CKI","i_lat":-6.198556,"time":4,"station_name":"Cikini","i_long":106.840169,"line":0,"is_transit":false,"transit":false,"distance":1590},{"time":3,"line":2,"station_id":"GDD","distance":1750,"i_lat":-6.186295,"is_transit":false,"station_name":"Gondangdia","i_long":106.832183,"transit":false},{"transit":false,"line":2,"is_transit":false,"station_id":"JUA","station_name":"Juanda","time":4,"distance":2015,"i_lat":-6.166716,"i_long":106.828284},{"station_name":"Sawah Besar","i_lat":-6.160725,"time":2,"line":2,"i_long":106.827103,"is_transit":false,"transit":false,"distance":1149,"station_id":"SW"},{"time":2,"station_name":"Manggabesar","i_lat":-6.149769,"is_transit":false,"station_id":"MGB","transit":false,"i_long":106.82482,"line":2,"distance":906},{"distance":1080,"is_transit":false,"i_long":106.820901,"station_id":"JAY","station_name":"Jayakarta","line":7,"transit":false,"time":2,"i_lat":-6.141205},{"i_lat":-6.137569,"station_id":"JAKK","line":0,"i_long":106.812439,"transit":true,"is_transit":true,"distance":1264,"time":4,"station_name":"Jakarta Kota"},{"i_lat":-6.132549,"i_long":106.826365,"line":0,"is_transit":true,"distance":1364,"transit":true,"station_name":"Kampung Bandan","station_id":"KPB","time":3},{"station_name":"Rajawali","distance":1444,"station_id":"RJW","transit":false,"time":3,"i_lat":-6.14505,"is_transit":false,"i_long":106.836569,"line":11},{"i_lat":-6.161728,"transit":false,"distance":1901,"station_id":"KMO","time":5,"station_name":"Kemayoran","line":11,"is_transit":false,"i_long":106.839204},{"line":11,"is_transit":false,"station_id":"PSE","transit":false,"time":4,"station_name":"Pasar Senen","distance":1436,"i_lat":-6.174784,"i_long":106.84368},{"transit":false,"distance":1567,"is_transit":false,"station_name":"Gang Sentiong","i_lat":-6.185975,"station_id":"GST","line":11,"i_long":106.850107,"time":8},{"is_transit":false,"distance":973,"transit":false,"i_lat":-6.193792,"station_id":"KMT","i_long":106.855437,"station_name":"Kramat","time":1,"line":11},{"distance":1829,"station_name":"Pondok Jati","time":2,"transit":false,"i_long":106.861737,"line":11,"station_id":"POK","i_lat":-6.209188,"is_transit":false},{"i_lat":-6.215091,"i_long":106.86807400000001,"line":0,"distance":1236,"transit":true,"station_id":"JNG","station_name":"Jatinegara","time":9,"is_transit":true},{"line":1,"time":3,"distance":3395,"is_transit":false,"i_lat":-6.2135,"i_long":106.899548,"station_name":"Klender","transit":false,"station_id":"KLD"},{"distance":3100,"transit":false,"station_name":"Buaran","time":2,"i_long":106.922662,"i_lat":-6.215568,"is_transit":false,"line":0,"station_id":"BUA"},{"i_long":106.939679,"line":1,"distance":1305,"transit":false,"i_lat":-6.217455,"station_name":"Klenderbaru","is_transit":false,"station_id":"KLDB","time":1},{"is_transit":false,"time":8,"transit":false,"line":0,"station_id":"CUK","i_lat":-6.219053,"station_name":"Cakung","i_long":106.951283,"distance":1385},{"is_transit":false,"i_long":106.977657,"station_name":"Kranji","transit":false,"station_id":"KRI","line":1,"distance":3097,"time":3,"i_lat":-6.224515},{"station_name":"Bekasi","i_long":106.997013,"line":0,"distance":2520,"i_lat":-6.236616,"transit":false,"is_transit":false,"station_id":"BKS","time":4},{"station_id":"BKST","i_long":107.016735,"distance":2368,"line":0,"is_transit":false,"transit":false,"time":2,"station_name":"Bekasi Timur","i_lat":-6.248029},{"line":1,"distance":4460,"time":7,"station_id":"TB","transit":false,"station_name":"Tambun","i_long":107.055722,"i_lat":-6.258864,"is_transit":false}]]}