{"data":[[{"is_transit":false,"transit":false,"station_name":"Sudimara","time":0,"distance":0,"i_lat":-6.296963,"station_id":"SDM","i_long":106.712277,"line":6},{"i_long":106.675475,"distance":4566,"transit":false,"i_lat":-6.314823,"line":6,"is_transit":false,"station_name":"Rawa Buntu","time":6,"station_id":"RU"},{"distance":2413,"transit":false,"time":4,"i_lat":-6.319871,"i_long":106.66566,"line":6,"station_name":"Serpong","is_transit":false,"station_id":"SRP"},{"is_transit":false,"line":3,"i_long":106.640411,"station_name":"Cisauk","station_id":"CSK","distance":1784,"i_lat":-6.32484,"time":4,"transit":false},{"station_id":"CC","line":3,"station_name":"Cicayur","distance":2519,"is_transit":false,"transit":false,"i_lat":-6.329547,"i_long":106.617853,"time":4},{"station_name":"Parung Panjang","line":6,"distance":5968,"station_id":"PRP","is_transit":false,"transit":false,"time":8,"i_long":106.568863,"i_lat":-6.3441410000000005},{"time":9,"i_long":106.508482,"distance":7025,"line":3,"station_id":"CJT","station_name":"Cilejit","is_transit":false,"transit":false,"i_lat":-6.354349},{"line":0,"i_lat":-6.338021,"station_name":"Daru","station_id":"DAR","distance":2675,"time":6,"i_long":106.491338,"is_transit":false,"transit":false},{"line":6,"is_transit":false,"transit":false,"distance":3902,"station_name":"Tenjo","i_lat":-6.327251,"i_long":106.460812,"station_id":"TEJ","time":5},{"i_long":106.425991,"transit":false,"line":6,"time":5,"station_id":"TGS","distance":2974,"station_name":"Tigaraksa","is_transit":false,"i_lat":-6.328533}]]}