{"data":[[{"station_id":"SDM","i_long":106.712277,"station_name":"Sudimara","is_transit":false,"transit":false,"distance":0,"time":0,"line":6,"i_lat":-6.296963},{"i_lat":-6.288927,"station_name":"Jurangmangu","station_id":"JMU","time":4,"i_long":106.728916,"line":6,"distance":1994,"is_transit":false,"transit":false},{"transit":false,"is_transit":false,"i_lat":-6.276362,"i_long":106.74273,"station_id":"PDJ","line":6,"station_name":"Pondokranji","time":3,"distance":2179},{"transit":false,"time":8,"i_lat":-6.237242,"i_long":106.780334,"station_id":"KBY","is_transit":false,"station_name":"Kebayoran","line":6,"distance":6218},{"station_id":"PLM","i_lat":-6.207404,"time":7,"distance":3737,"transit":false,"is_transit":false,"i_long":106.79689,"station_name":"Palmerah","line":6},{"line":1,"i_lat":-6.185545,"is_transit":true,"station_name":"Tanah Abang","distance":3191,"transit":true,"station_id":"THB","i_long":106.811091,"time":6},{"station_id":"DU","time":8,"transit":true,"i_lat":-6.155215,"i_long":106.800832,"is_transit":true,"distance":3632,"line":1,"station_name":"Duri"},{"station_id":"AK","time":4,"is_transit":false,"transit":false,"i_lat":-6.144674,"i_long":106.79867,"distance":1230,"line":0,"station_name":"Angke"},{"line":0,"time":9,"station_id":"KPB","distance":4102,"station_name":"Kampung Bandan","transit":false,"i_lat":-6.132549,"i_long":106.826365,"is_transit":true},{"transit":false,"time":3,"is_transit":true,"station_id":"JAKK","distance":1364,"station_name":"Jakarta Kota","i_long":106.812439,"line":0,"i_lat":-6.137569}],[{"station_name":"Sudimara","station_id":"SDM","is_transit":false,"distance":0,"time":0,"transit":false,"i_lat":-6.296963,"line":6,"i_long":106.712277},{"transit":false,"station_name":"Jurangmangu","i_long":106.728916,"line":6,"i_lat":-6.288927,"is_transit":false,"time":4,"distance":1994,"station_id":"JMU"},{"is_transit":false,"transit":false,"station_id":"PDJ","station_name":"Pondokranji","time":3,"i_long":106.74273,"line":6,"distance":2179,"i_lat":-6.276362},{"transit":false,"station_name":"Kebayoran","distance":6218,"line":6,"station_id":"KBY","is_transit":false,"time":8,"i_lat":-6.237242,"i_long":106.780334},{"i_long":106.79689,"time":7,"distance":3737,"line":6,"is_transit":false,"station_id":"PLM","station_name":"Palmerah","transit":false,"i_lat":-6.207404},{"transit":true,"time":6,"i_lat":-6.185545,"distance":3191,"i_long":106.811091,"line":1,"is_transit":true,"station_name":"Tanah Abang","station_id":"THB"},{"transit":false,"i_long":106.816351,"station_id":"KAT","station_name":"Karet","line":1,"distance":2029,"i_lat":-6.20132,"time":5,"is_transit":false},{"time":1,"station_id":"SUDB","is_transit":false,"line":1,"station_name":"Sudirman Baru","distance":471,"transit":false,"i_lat":-6.201433,"i_long":106.819881},{"i_lat":-6.202263,"station_id":"SUD","time":1,"distance":280,"line":1,"transit":false,"i_long":106.822649,"is_transit":false,"station_name":"Sudirman"},{"i_long":106.84912,"time":4,"station_name":"Manggarai","is_transit":true,"i_lat":-6.209883,"distance":3186,"line":0,"station_id":"MRI","transit":true},{"is_transit":false,"distance":1590,"station_name":"Cikini","transit":false,"i_lat":-6.198556,"time":4,"i_long":106.840169,"station_id":"CKI","line":0},{"line":2,"distance":1750,"station_id":"GDD","station_name":"Gondangdia","is_transit":false,"time":3,"transit":false,"i_lat":-6.186295,"i_long":106.832183},{"is_transit":false,"station_id":"JUA","transit":false,"i_lat":-6.166716,"station_name":"Juanda","line":2,"i_long":106.828284,"time":4,"distance":2015},{"transit":false,"is_transit":false,"station_id":"SW","i_long":106.827103,"line":2,"i_lat":-6.160725,"station_name":"Sawah Besar","distance":1149,"time":2},{"station_name":"Manggabesar","line":2,"i_long":106.82482,"is_transit":false,"transit":false,"time":2,"i_lat":-6.149769,"distance":906,"station_id":"MGB"},{"distance":1080,"time":2,"i_long":106.820901,"station_id":"JAY","line":7,"station_name":"Jayakarta","i_lat":-6.141205,"transit":false,"is_transit":false},{"i_lat":-6.137569,"distance":1264,"i_long":106.812439,"is_transit":true,"line":0,"transit":false,"station_name":"Jakarta Kota","time":4,"station_id":"JAKK"}],[{"i_lat":-6.296963,"line":6,"station_name":"Sudimara","time":0,"transit":false,"distance":0,"is_transit":false,"i_long":106.712277,"station_id":"SDM"},{"line":6,"distance":1994,"i_long":106.728916,"transit":false,"is_transit":false,"station_name":"Jurangmangu","time":4,"i_lat":-6.288927,"station_id":"JMU"},{"i_lat":-6.276362,"i_long":106.74273,"transit":false,"is_transit":false,"line":6,"time":3,"station_name":"Pondokranji","distance":2179,"station_id":"PDJ"},{"i_lat":-6.237242,"distance":6218,"transit":false,"i_long":106.780334,"is_transit":false,"station_id":"KBY","station_name":"Kebayoran","line":6,"time":8},{"station_name":"Palmerah","i_long":106.79689,"transit":false,"distance":3737,"station_id":"PLM","is_transit":false,"time":7,"i_lat":-6.207404,"line":6},{"time":6,"transit":true,"i_lat":-6.185545,"line":1,"is_transit":true,"distance":3191,"station_name":"Tanah Abang","i_long":106.811091,"station_id":"THB"},{"is_transit":false,"transit":false,"line":1,"i_long":106.816351,"station_id":"KAT","station_name":"Karet","distance":2029,"time":5,"i_lat":-6.20132},{"i_long":106.819881,"line":1,"is_transit":false,"time":1,"distance":471,"station_name":"Sudirman Baru","transit":false,"station_id":"SUDB","i_lat":-6.201433},{"station_name":"Sudirman","transit":false,"distance":280,"station_id":"SUD","line":1,"is_transit":false,"i_long":106.822649,"time":1,"i_lat":-6.202263},{"transit":false,"station_name":"Manggarai","time":4,"line":0,"distance":3186,"is_transit":true,"station_id":"MRI","i_long":106.84912,"i_lat":-6.209883},{"i_lat":-6.212485,"line":1,"distance":1275,"i_long":106.858896,"station_id":"MTR","transit":false,"is_transit":false,"station_name":"Matraman","time":2},{"station_id":"JNG","time":8,"i_long":106.86807400000001,"line":0,"distance":1377,"i_lat":-6.215091,"is_transit":true,"station_name":"Jatinegara","transit":true},{"is_transit":false,"time":2,"line":11,"i_lat":-6.209188,"station_id":"POK","i_long":106.861737,"distance":1236,"station_name":"Pondok Jati","transit":false},{"distance":1829,"time":2,"i_lat":-6.193792,"station_id":"KMT","line":11,"is_transit":false,"i_long":106.855437,"transit":false,"station_name":"Kramat"},{"distance":973,"i_long":106.850107,"station_name":"Gang Sentiong","is_transit":false,"station_id":"GST","i_lat":-6.185975,"line":11,"time":1,"transit":false},{"transit":false,"station_name":"Pasar Senen","distance":1567,"i_long":106.84368,"i_lat":-6.174784,"time":8,"is_transit":false,"station_id":"PSE","line":11},{"distance":1436,"i_long":106.839204,"line":11,"transit":false,"time":4,"station_name":"Kemayoran","is_transit":false,"i_lat":-6.161728,"station_id":"KMO"},{"station_id":"RJW","time":5,"i_long":106.836569,"i_lat":-6.14505,"line":11,"is_transit":false,"transit":false,"station_name":"Rajawali","distance":1901},{"distance":1444,"i_lat":-6.132549,"time":3,"station_id":"KPB","station_name":"Kampung Bandan","transit":true,"is_transit":true,"i_long":106.826365,"line":0},{"i_long":106.812439,"line":0,"distance":1364,"station_id":"JAKK","station_name":"Jakarta Kota","is_transit":true,"time":3,"i_lat":-6.137569,"transit":false}],[{"transit":false,"station_id":"SDM","is_transit":false,"time":0,"i_lat":-6.296963,"distance":0,"i_long":106.712277,"station_name":"Sudimara","line":6},{"i_long":106.728916,"distance":1994,"station_name":"Jurangmangu","i_lat":-6.288927,"station_id":"JMU","line":6,"is_transit":false,"transit":false,"time":4},{"is_transit":false,"station_name":"Pondokranji","i_long":106.74273,"line":6,"transit":false,"time":3,"station_id":"PDJ","distance":2179,"i_lat":-6.276362},{"line":6,"station_id":"KBY","distance":6218,"i_lat":-6.237242,"is_transit":false,"time":8,"transit":false,"station_name":"Kebayoran","i_long":106.780334},{"station_id":"PLM","transit":false,"time":7,"line":6,"is_transit":false,"i_long":106.79689,"distance":3737,"station_name":"Palmerah","i_lat":-6.207404},{"is_transit":true,"i_long":106.811091,"station_id":"THB","transit":true,"time":6,"line":1,"station_name":"Tanah Abang","distance":3191,"i_lat":-6.185545},{"station_id":"DU","station_name":"Duri","distance":3632,"time":8,"i_long":106.800832,"transit":true,"i_lat":-6.155215,"line":1,"is_transit":true},{"station_id":"AK","is_transit":false,"distance":1230,"station_name":"Angke","time":4,"i_lat":-6.144674,"i_long":106.79867,"transit":false,"line":0},{"time":9,"i_lat":-6.132549,"station_name":"Kampung Bandan","line":0,"distance":4102,"i_long":106.826365,"is_transit":true,"station_id":"KPB","transit":true},{"i_lat":-6.14505,"time":3,"line":11,"i_long":106.836569,"station_id":"RJW","is_transit":false,"distance":1444,"station_name":"Rajawali","transit":false},{"distance":1901,"station_id":"KMO","time":5,"i_long":106.839204,"transit":false,"is_transit":false,"i_lat":-6.161728,"station_name":"Kemayoran","line":11},{"station_id":"PSE","station_name":"Pasar Senen","time":4,"line":11,"i_lat":-6.174784,"is_transit":false,"distance":1436,"transit":false,"i_long":106.84368},{"i_lat":-6.185975,"station_name":"Gang Sentiong","distance":1567,"station_id":"GST","transit":false,"i_long":106.850107,"line":11,"is_transit":false,"time":8},{"line":11,"station_name":"Kramat","station_id":"KMT","distance":973,"transit":false,"time":1,"is_transit":false,"i_lat":-6.193792,"i_long":106.855437},{"transit":false,"station_name":"Pondok Jati","time":2,"distance":1829,"line":11,"i_lat":-6.209188,"station_id":"POK","is_transit":false,"i_long":106.861737},{"line":0,"is_transit":true,"station_id":"JNG","station_name":"Jatinegara","time":9,"transit":true,"i_lat":-6.215091,"distance":1236,"i_long":106.86807400000001},{"time":2,"station_name":"Matraman","station_id":"MTR","transit":false,"line":1,"i_long":106.858896,"is_transit":false,"distance":1377,"i_lat":-6.212485},{"i_long":106.84912,"line":0,"station_name":"Manggarai","i_lat":-6.209883,"time":2,"distance":1275,"transit":true,"is_transit":true,"station_id":"MRI"},{"is_transit":false,"distance":1590,"i_long":106.840169,"station_name":"Cikini","transit":false,"time":4,"line":0,"station_id":"CKI","i_lat":-6.198556},{"i_lat":-6.186295,"station_id":"GDD","transit":false,"distance":1750,"time":3,"i_long":106.832183,"line":2,"station_name":"Gondangdia","is_transit":false},{"i_long":106.828284,"time":4,"distance":2015,"i_lat":-6.166716,"transit":false,"station_name":"Juanda","is_transit":false,"station_id":"JUA","line":2},{"distance":1149,"i_lat":-6.160725,"station_id":"SW","time":2,"transit":false,"i_long":106.827103,"station_name":"Sawah Besar","line":2,"is_transit":false},{"station_id":"MGB","i_lat":-6.149769,"transit":false,"distance":906,"i_long":106.82482,"time":2,"station_name":"Manggabesar","line":2,"is_transit":false},{"distance":1080,"is_transit":false,"time":2,"line":7,"station_id":"JAY","i_long":106.820901,"station_name":"Jayakarta","transit":false,"i_lat":-6.141205},{"i_long":106.812439,"i_lat":-6.137569,"distance":1264,"is_transit":true,"station_id":"JAKK","station_name":"Jakarta Kota","transit":false,"time":4,"line":0}]]}