{"data":[[{"line":6,"distance":0,"i_lat":-6.296963,"i_long":106.712277,"transit":false,"station_name":"Sudimara","is_transit":false,"station_id":"SDM","time":0},{"is_transit":false,"distance":1994,"i_lat":-6.288927,"line":6,"station_name":"Jurangmangu","i_long":106.728916,"transit":false,"time":4,"station_id":"JMU"},{"transit":false,"i_long":106.74273,"distance":2179,"station_name":"Pondokranji","station_id":"PDJ","i_lat":-6.276362,"line":6,"time":3,"is_transit":false},{"line":6,"station_id":"KBY","distance":6218,"is_transit":false,"i_long":106.780334,"time":8,"station_name":"Kebayoran","i_lat":-6.237242,"transit":false},{"transit":false,"i_lat":-6.207404,"i_long":106.79689,"distance":3737,"station_id":"PLM","line":6,"station_name":"Palmerah","is_transit":false,"time":7},{"is_transit":true,"time":6,"distance":3191,"station_name":"Tanah Abang","i_lat":-6.185545,"i_long":106.811091,"transit":true,"line":1,"station_id":"THB"},{"i_long":106.816351,"line":1,"is_transit":false,"transit":false,"station_name":"Karet","time":5,"station_id":"KAT","distance":2029,"i_lat":-6.20132},{"station_name":"Sudirman Baru","is_transit":false,"time":1,"distance":471,"i_lat":-6.201433,"line":1,"i_long":106.819881,"transit":false,"station_id":"SUDB"},{"i_long":106.822649,"is_transit":false,"transit":false,"station_name":"Sudirman","distance":280,"station_id":"SUD","time":1,"line":1,"i_lat":-6.202263},{"line":2,"time":4,"station_name":"Manggarai","transit":true,"is_transit":true,"i_lat":-6.209883,"station_id":"MRI","i_long":106.84912,"distance":3186},{"transit":false,"i_long":106.857948,"station_id":"TEB","is_transit":false,"distance":2610,"time":4,"i_lat":-6.226659,"line":2,"station_name":"Tebet"},{"time":2,"is_transit":false,"i_long":106.856607,"transit":false,"station_id":"CW","station_name":"Cawang","i_lat":-6.242512,"distance":1230,"line":2},{"transit":false,"station_name":"Duren Kalibata","line":2,"is_transit":false,"i_lat":-6.255332,"time":3,"station_id":"DRN","distance":1546,"i_long":106.85449},{"i_lat":-6.263214,"transit":false,"is_transit":false,"time":2,"line":2,"i_long":106.851577,"distance":824,"station_id":"PSMB","station_name":"Pasar Minggu Baru"}],[{"station_name":"Sudimara","time":0,"i_lat":-6.296963,"distance":0,"is_transit":false,"i_long":106.712277,"station_id":"SDM","line":6,"transit":false},{"i_lat":-6.288927,"station_name":"Jurangmangu","is_transit":false,"i_long":106.728916,"distance":1994,"transit":false,"line":6,"time":4,"station_id":"JMU"},{"station_id":"PDJ","time":3,"i_lat":-6.276362,"is_transit":false,"line":6,"transit":false,"i_long":106.74273,"distance":2179,"station_name":"Pondokranji"},{"distance":6218,"i_long":106.780334,"i_lat":-6.237242,"station_id":"KBY","is_transit":false,"station_name":"Kebayoran","line":6,"transit":false,"time":8},{"is_transit":false,"time":7,"i_lat":-6.207404,"line":6,"station_name":"Palmerah","transit":false,"distance":3737,"station_id":"PLM","i_long":106.79689},{"line":1,"is_transit":true,"i_lat":-6.185545,"distance":3191,"time":6,"station_id":"THB","transit":true,"i_long":106.811091,"station_name":"Tanah Abang"},{"i_lat":-6.155215,"time":8,"line":1,"transit":false,"i_long":106.800832,"station_id":"DU","is_transit":false,"distance":3632,"station_name":"Duri"},{"transit":false,"station_id":"AK","is_transit":false,"i_lat":-6.144674,"distance":1230,"i_long":106.79867,"station_name":"Angke","time":4,"line":1},{"distance":4102,"i_long":106.826365,"time":9,"line":4,"transit":true,"station_id":"KPB","is_transit":true,"station_name":"Kampung Bandan","i_lat":-6.132549},{"is_transit":true,"transit":true,"distance":1364,"station_id":"JAKK","i_long":106.812439,"station_name":"Jakarta Kota","time":3,"i_lat":-6.137569,"line":2},{"line":2,"is_transit":false,"time":4,"distance":1264,"station_id":"JAY","i_long":106.820901,"transit":false,"station_name":"Jayakarta","i_lat":-6.141205},{"time":2,"transit":false,"distance":1080,"i_lat":-6.149769,"line":2,"station_name":"Manggabesar","station_id":"MGB","is_transit":false,"i_long":106.82482},{"station_name":"Sawah Besar","time":2,"line":2,"station_id":"SW","is_transit":false,"transit":false,"distance":906,"i_lat":-6.160725,"i_long":106.827103},{"i_long":106.828284,"time":2,"i_lat":-6.166716,"is_transit":false,"station_name":"Juanda","line":2,"station_id":"JUA","transit":false,"distance":1149},{"is_transit":false,"i_long":106.832183,"i_lat":-6.186295,"station_id":"GDD","line":2,"transit":false,"distance":2015,"station_name":"Gondangdia","time":4},{"distance":1750,"is_transit":false,"i_long":106.840169,"line":2,"station_name":"Cikini","transit":false,"station_id":"CKI","time":3,"i_lat":-6.198556},{"is_transit":false,"station_name":"Manggarai","i_long":106.84912,"line":2,"i_lat":-6.209883,"transit":false,"station_id":"MRI","distance":1590,"time":4},{"station_id":"TEB","i_long":106.857948,"station_name":"Tebet","time":4,"is_transit":false,"i_lat":-6.226659,"transit":false,"line":2,"distance":2610},{"i_long":106.856607,"time":2,"transit":false,"station_id":"CW","line":2,"i_lat":-6.242512,"distance":1230,"is_transit":false,"station_name":"Cawang"},{"station_id":"DRN","i_long":106.85449,"transit":false,"time":3,"is_transit":false,"station_name":"Duren Kalibata","distance":1546,"line":2,"i_lat":-6.255332},{"line":2,"distance":824,"is_transit":false,"station_name":"Pasar Minggu Baru","transit":false,"i_long":106.851577,"station_id":"PSMB","i_lat":-6.263214,"time":2}],[{"time":0,"distance":0,"station_name":"Sudimara","i_lat":-6.296963,"station_id":"SDM","is_transit":false,"i_long":106.712277,"transit":false,"line":6},{"i_long":106.728916,"i_lat":-6.288927,"time":4,"transit":false,"distance":1994,"station_id":"JMU","line":6,"is_transit":false,"station_name":"Jurangmangu"},{"time":3,"is_transit":false,"i_long":106.74273,"station_id":"PDJ","distance":2179,"i_lat":-6.276362,"line":6,"transit":false,"station_name":"Pondokranji"},{"i_long":106.780334,"station_name":"Kebayoran","station_id":"KBY","distance":6218,"i_lat":-6.237242,"line":6,"transit":false,"is_transit":false,"time":8},{"transit":false,"distance":3737,"station_name":"Palmerah","is_transit":false,"i_lat":-6.207404,"time":7,"i_long":106.79689,"line":6,"station_id":"PLM"},{"station_id":"THB","i_lat":-6.185545,"line":1,"is_transit":true,"station_name":"Tanah Abang","i_long":106.811091,"distance":3191,"transit":true,"time":6},{"station_id":"DU","line":1,"transit":false,"is_transit":false,"time":8,"station_name":"Duri","i_lat":-6.155215,"i_long":106.800832,"distance":3632},{"transit":false,"distance":1230,"station_id":"AK","station_name":"Angke","is_transit":false,"line":1,"i_long":106.79867,"time":4,"i_lat":-6.144674},{"station_name":"Kampung Bandan","distance":4102,"i_lat":-6.132549,"is_transit":true,"time":9,"station_id":"KPB","i_long":106.826365,"line":4,"transit":true},{"time":3,"is_transit":false,"station_name":"Rajawali","distance":1444,"transit":false,"i_lat":-6.14505,"line":11,"i_long":106.836569,"station_id":"RJW"},{"distance":1901,"station_id":"KMO","i_lat":-6.161728,"i_long":106.839204,"station_name":"Kemayoran","is_transit":false,"line":11,"transit":false,"time":5},{"station_name":"Pasar Senen","transit":false,"time":4,"i_long":106.84368,"line":11,"i_lat":-6.174784,"distance":1436,"is_transit":false,"station_id":"PSE"},{"distance":1567,"transit":false,"is_transit":false,"station_name":"Gang Sentiong","time":8,"i_long":106.850107,"i_lat":-6.185975,"station_id":"GST","line":11},{"station_name":"Kramat","transit":false,"i_lat":-6.193792,"distance":973,"time":1,"i_long":106.855437,"is_transit":false,"line":11,"station_id":"KMT"},{"distance":1829,"time":2,"line":11,"station_name":"Pondok Jati","is_transit":false,"i_lat":-6.209188,"station_id":"POK","i_long":106.861737,"transit":false},{"i_long":106.86807400000001,"is_transit":true,"distance":1236,"i_lat":-6.215091,"station_id":"JNG","time":9,"line":1,"station_name":"Jatinegara","transit":true},{"distance":1377,"i_long":106.858896,"time":2,"line":1,"station_name":"Matraman","transit":false,"i_lat":-6.212485,"station_id":"MTR","is_transit":false},{"distance":1275,"i_long":106.84912,"time":2,"station_id":"MRI","line":2,"is_transit":true,"transit":true,"station_name":"Manggarai","i_lat":-6.209883},{"station_id":"TEB","i_lat":-6.226659,"transit":false,"time":4,"station_name":"Tebet","line":2,"i_long":106.857948,"distance":2610,"is_transit":false},{"distance":1230,"transit":false,"line":2,"i_lat":-6.242512,"station_name":"Cawang","time":2,"station_id":"CW","is_transit":false,"i_long":106.856607},{"station_id":"DRN","station_name":"Duren Kalibata","line":2,"is_transit":false,"time":3,"i_long":106.85449,"transit":false,"distance":1546,"i_lat":-6.255332},{"station_id":"PSMB","line":2,"i_lat":-6.263214,"i_long":106.851577,"transit":false,"is_transit":false,"distance":824,"station_name":"Pasar Minggu Baru","time":2}]]}