{"data":[[{"i_lat":-6.296963,"i_long":106.712277,"station_name":"Sudimara","is_transit":false,"time":0,"distance":0,"station_id":"SDM","line":6,"transit":false},{"i_long":106.728916,"time":4,"is_transit":false,"distance":1994,"station_name":"Jurangmangu","i_lat":-6.288927,"line":6,"transit":false,"station_id":"JMU"},{"time":3,"transit":false,"is_transit":false,"station_name":"Pondokranji","station_id":"PDJ","line":6,"i_long":106.74273,"i_lat":-6.276362,"distance":2179},{"station_name":"Kebayoran","transit":false,"is_transit":false,"distance":6218,"i_lat":-6.237242,"i_long":106.780334,"line":6,"station_id":"KBY","time":8},{"time":7,"is_transit":false,"station_id":"PLM","station_name":"Palmerah","i_lat":-6.207404,"transit":false,"i_long":106.79689,"distance":3737,"line":6},{"time":6,"transit":true,"distance":3191,"line":1,"i_lat":-6.185545,"is_transit":true,"i_long":106.811091,"station_name":"Tanah Abang","station_id":"THB"},{"station_id":"KAT","time":5,"distance":2029,"i_lat":-6.20132,"i_long":106.816351,"line":1,"transit":false,"station_name":"Karet","is_transit":false},{"transit":false,"station_name":"Sudirman Baru","i_lat":-6.201433,"line":1,"i_long":106.819881,"is_transit":false,"time":1,"station_id":"SUDB","distance":471},{"transit":false,"station_name":"Sudirman","line":1,"time":1,"is_transit":false,"i_long":106.822649,"distance":280,"i_lat":-6.202263,"station_id":"SUD"},{"transit":false,"i_lat":-6.209883,"i_long":106.84912,"station_name":"Manggarai","line":2,"station_id":"MRI","distance":3186,"is_transit":false,"time":4},{"is_transit":false,"i_lat":-6.212485,"transit":false,"station_id":"MTR","distance":1275,"i_long":106.858896,"line":1,"station_name":"Matraman","time":2},{"station_id":"JNG","is_transit":false,"transit":false,"distance":1377,"time":8,"i_lat":-6.215091,"i_long":106.86807400000001,"station_name":"Jatinegara","line":1},{"is_transit":false,"i_long":106.899548,"line":1,"i_lat":-6.2135,"distance":3395,"station_name":"Klender","station_id":"KLD","time":3,"transit":false},{"is_transit":false,"station_name":"Buaran","line":1,"station_id":"BUA","distance":3100,"time":2,"transit":false,"i_long":106.922662,"i_lat":-6.215568},{"station_id":"KLDB","station_name":"Klenderbaru","i_lat":-6.217455,"is_transit":false,"i_long":106.939679,"transit":false,"line":1,"time":1,"distance":1305},{"is_transit":false,"time":8,"transit":false,"station_name":"Cakung","station_id":"CUK","distance":1385,"line":1,"i_long":106.951283,"i_lat":-6.219053},{"i_long":106.977657,"is_transit":false,"time":3,"station_name":"Kranji","distance":3097,"i_lat":-6.224515,"line":1,"station_id":"KRI","transit":false},{"i_long":106.997013,"station_id":"BKS","distance":2520,"line":1,"transit":false,"is_transit":false,"time":4,"i_lat":-6.236616,"station_name":"Bekasi"},{"station_id":"BKST","i_long":107.016735,"time":2,"is_transit":false,"distance":2368,"transit":false,"i_lat":-6.248029,"line":1,"station_name":"Bekasi Timur"},{"i_lat":-6.258864,"line":1,"station_name":"Tambun","i_long":107.055722,"time":7,"station_id":"TB","transit":false,"is_transit":false,"distance":4460}],[{"time":0,"station_name":"Sudimara","line":6,"transit":false,"is_transit":false,"station_id":"SDM","distance":0,"i_long":106.712277,"i_lat":-6.296963},{"transit":false,"station_id":"JMU","line":6,"time":4,"is_transit":false,"distance":1994,"station_name":"Jurangmangu","i_lat":-6.288927,"i_long":106.728916},{"is_transit":false,"i_long":106.74273,"time":3,"transit":false,"i_lat":-6.276362,"station_id":"PDJ","line":6,"station_name":"Pondokranji","distance":2179},{"distance":6218,"i_long":106.780334,"line":6,"station_id":"KBY","time":8,"is_transit":false,"station_name":"Kebayoran","i_lat":-6.237242,"transit":false},{"is_transit":false,"distance":3737,"time":7,"i_long":106.79689,"transit":false,"i_lat":-6.207404,"station_name":"Palmerah","station_id":"PLM","line":6},{"station_name":"Tanah Abang","i_long":106.811091,"transit":true,"time":6,"i_lat":-6.185545,"line":1,"distance":3191,"station_id":"THB","is_transit":true},{"is_transit":false,"i_lat":-6.155215,"line":1,"i_long":106.800832,"transit":false,"station_name":"Duri","station_id":"DU","distance":3632,"time":8},{"i_lat":-6.144674,"transit":false,"line":1,"station_name":"Angke","is_transit":false,"station_id":"AK","time":4,"distance":1230,"i_long":106.79867},{"is_transit":true,"station_id":"KPB","i_long":106.826365,"line":4,"i_lat":-6.132549,"station_name":"Kampung Bandan","time":9,"distance":4102,"transit":true},{"distance":1444,"is_transit":false,"i_lat":-6.14505,"station_id":"RJW","station_name":"Rajawali","i_long":106.836569,"time":3,"line":11,"transit":false},{"station_id":"KMO","station_name":"Kemayoran","is_transit":false,"i_long":106.839204,"time":5,"line":11,"distance":1901,"transit":false,"i_lat":-6.161728},{"station_id":"PSE","line":11,"transit":false,"distance":1436,"is_transit":false,"i_long":106.84368,"station_name":"Pasar Senen","i_lat":-6.174784,"time":4},{"time":8,"distance":1567,"station_name":"Gang Sentiong","transit":false,"i_long":106.850107,"line":11,"i_lat":-6.185975,"is_transit":false,"station_id":"GST"},{"station_id":"KMT","line":11,"transit":false,"is_transit":false,"station_name":"Kramat","distance":973,"i_long":106.855437,"i_lat":-6.193792,"time":1},{"distance":1829,"station_id":"POK","i_long":106.861737,"time":2,"line":11,"i_lat":-6.209188,"transit":false,"station_name":"Pondok Jati","is_transit":false},{"station_id":"JNG","time":9,"i_lat":-6.215091,"distance":1236,"transit":true,"station_name":"Jatinegara","is_transit":true,"i_long":106.86807400000001,"line":1},{"line":1,"is_transit":false,"transit":false,"i_lat":-6.2135,"station_id":"KLD","time":3,"distance":3395,"i_long":106.899548,"station_name":"Klender"},{"is_transit":false,"transit":false,"distance":3100,"i_long":106.922662,"station_name":"Buaran","i_lat":-6.215568,"time":2,"station_id":"BUA","line":1},{"line":1,"is_transit":false,"i_long":106.939679,"station_id":"KLDB","i_lat":-6.217455,"transit":false,"distance":1305,"station_name":"Klenderbaru","time":1},{"distance":1385,"station_name":"Cakung","time":8,"i_long":106.951283,"station_id":"CUK","transit":false,"is_transit":false,"i_lat":-6.219053,"line":1},{"distance":3097,"transit":false,"is_transit":false,"i_lat":-6.224515,"i_long":106.977657,"line":1,"station_name":"Kranji","station_id":"KRI","time":3},{"line":1,"is_transit":false,"time":4,"i_lat":-6.236616,"station_id":"BKS","i_long":106.997013,"station_name":"Bekasi","transit":false,"distance":2520},{"is_transit":false,"i_lat":-6.248029,"line":1,"station_name":"Bekasi Timur","transit":false,"station_id":"BKST","time":2,"i_long":107.016735,"distance":2368},{"station_name":"Tambun","transit":false,"is_transit":false,"i_long":107.055722,"station_id":"TB","line":1,"time":7,"i_lat":-6.258864,"distance":4460}],[{"station_name":"Sudimara","is_transit":false,"distance":0,"i_long":106.712277,"transit":false,"station_id":"SDM","time":0,"i_lat":-6.296963,"line":6},{"i_long":106.728916,"line":6,"is_transit":false,"time":4,"transit":false,"station_id":"JMU","i_lat":-6.288927,"distance":1994,"station_name":"Jurangmangu"},{"i_long":106.74273,"i_lat":-6.276362,"line":6,"is_transit":false,"distance":2179,"transit":false,"station_id":"PDJ","station_name":"Pondokranji","time":3},{"time":8,"transit":false,"is_transit":false,"distance":6218,"station_name":"Kebayoran","i_lat":-6.237242,"i_long":106.780334,"station_id":"KBY","line":6},{"station_id":"PLM","distance":3737,"transit":false,"time":7,"i_lat":-6.207404,"is_transit":false,"station_name":"Palmerah","i_long":106.79689,"line":6},{"time":6,"i_lat":-6.185545,"line":1,"station_id":"THB","transit":true,"is_transit":true,"station_name":"Tanah Abang","distance":3191,"i_long":106.811091},{"station_name":"Duri","i_long":106.800832,"station_id":"DU","is_transit":false,"i_lat":-6.155215,"time":8,"transit":false,"line":1,"distance":3632},{"distance":1230,"station_name":"Angke","transit":false,"i_long":106.79867,"i_lat":-6.144674,"line":1,"time":4,"station_id":"AK","is_transit":false},{"distance":4102,"transit":true,"is_transit":true,"station_name":"Kampung Bandan","time":9,"line":4,"i_long":106.826365,"station_id":"KPB","i_lat":-6.132549},{"is_transit":true,"line":2,"i_long":106.812439,"transit":true,"station_id":"JAKK","i_lat":-6.137569,"time":3,"distance":1364,"station_name":"Jakarta Kota"},{"i_lat":-6.141205,"is_transit":false,"i_long":106.820901,"station_name":"Jayakarta","time":4,"station_id":"JAY","distance":1264,"line":2,"transit":false},{"station_name":"Manggabesar","time":2,"line":2,"station_id":"MGB","transit":false,"i_lat":-6.149769,"i_long":106.82482,"distance":1080,"is_transit":false},{"i_lat":-6.160725,"station_id":"SW","time":2,"is_transit":false,"transit":false,"station_name":"Sawah Besar","distance":906,"i_long":106.827103,"line":2},{"line":2,"station_name":"Juanda","transit":false,"station_id":"JUA","is_transit":false,"time":2,"i_lat":-6.166716,"distance":1149,"i_long":106.828284},{"i_lat":-6.186295,"time":4,"station_name":"Gondangdia","transit":false,"is_transit":false,"station_id":"GDD","distance":2015,"i_long":106.832183,"line":2},{"line":2,"station_name":"Cikini","is_transit":false,"time":3,"i_lat":-6.198556,"distance":1750,"i_long":106.840169,"transit":false,"station_id":"CKI"},{"i_long":106.84912,"is_transit":true,"time":4,"station_id":"MRI","i_lat":-6.209883,"transit":true,"station_name":"Manggarai","distance":1590,"line":2},{"station_name":"Matraman","i_lat":-6.212485,"i_long":106.858896,"line":1,"is_transit":false,"transit":false,"distance":1275,"station_id":"MTR","time":2},{"transit":false,"time":8,"i_lat":-6.215091,"distance":1377,"i_long":106.86807400000001,"is_transit":false,"line":1,"station_id":"JNG","station_name":"Jatinegara"},{"is_transit":false,"i_long":106.899548,"line":1,"time":3,"i_lat":-6.2135,"station_name":"Klender","station_id":"KLD","transit":false,"distance":3395},{"transit":false,"time":2,"station_name":"Buaran","distance":3100,"line":1,"is_transit":false,"i_lat":-6.215568,"i_long":106.922662,"station_id":"BUA"},{"time":1,"i_lat":-6.217455,"distance":1305,"transit":false,"i_long":106.939679,"line":1,"station_name":"Klenderbaru","station_id":"KLDB","is_transit":false},{"distance":1385,"i_long":106.951283,"line":1,"is_transit":false,"time":8,"station_name":"Cakung","transit":false,"station_id":"CUK","i_lat":-6.219053},{"distance":3097,"station_id":"KRI","station_name":"Kranji","is_transit":false,"i_long":106.977657,"transit":false,"line":1,"i_lat":-6.224515,"time":3},{"distance":2520,"station_id":"BKS","time":4,"line":1,"station_name":"Bekasi","is_transit":false,"transit":false,"i_lat":-6.236616,"i_long":106.997013},{"is_transit":false,"transit":false,"i_long":107.016735,"i_lat":-6.248029,"station_name":"Bekasi Timur","time":2,"line":1,"distance":2368,"station_id":"BKST"},{"station_name":"Tambun","time":7,"distance":4460,"line":1,"transit":false,"i_long":107.055722,"station_id":"TB","i_lat":-6.258864,"is_transit":false}],[{"station_name":"Sudimara","distance":0,"i_lat":-6.296963,"i_long":106.712277,"line":6,"transit":false,"station_id":"SDM","is_transit":false,"time":0},{"time":4,"i_long":106.728916,"is_transit":false,"station_id":"JMU","line":6,"transit":false,"station_name":"Jurangmangu","i_lat":-6.288927,"distance":1994},{"station_id":"PDJ","time":3,"distance":2179,"line":6,"i_lat":-6.276362,"is_transit":false,"transit":false,"i_long":106.74273,"station_name":"Pondokranji"},{"i_lat":-6.237242,"transit":false,"is_transit":false,"i_long":106.780334,"line":6,"time":8,"station_id":"KBY","station_name":"Kebayoran","distance":6218},{"station_name":"Palmerah","distance":3737,"transit":false,"i_long":106.79689,"time":7,"line":6,"is_transit":false,"station_id":"PLM","i_lat":-6.207404},{"is_transit":true,"station_name":"Tanah Abang","i_long":106.811091,"distance":3191,"i_lat":-6.185545,"transit":true,"line":1,"station_id":"THB","time":6},{"is_transit":false,"i_lat":-6.20132,"distance":2029,"transit":false,"time":5,"station_id":"KAT","line":1,"i_long":106.816351,"station_name":"Karet"},{"station_id":"SUDB","time":1,"station_name":"Sudirman Baru","is_transit":false,"i_lat":-6.201433,"distance":471,"i_long":106.819881,"transit":false,"line":1},{"station_id":"SUD","distance":280,"station_name":"Sudirman","is_transit":false,"i_lat":-6.202263,"line":1,"time":1,"transit":false,"i_long":106.822649},{"line":2,"transit":true,"station_name":"Manggarai","station_id":"MRI","is_transit":true,"time":4,"distance":3186,"i_lat":-6.209883,"i_long":106.84912},{"line":2,"time":4,"transit":false,"station_id":"CKI","is_transit":false,"distance":1590,"i_long":106.840169,"station_name":"Cikini","i_lat":-6.198556},{"transit":false,"distance":1750,"i_long":106.832183,"station_name":"Gondangdia","line":2,"is_transit":false,"station_id":"GDD","time":3,"i_lat":-6.186295},{"station_id":"JUA","line":2,"is_transit":false,"station_name":"Juanda","i_long":106.828284,"i_lat":-6.166716,"distance":2015,"transit":false,"time":4},{"station_id":"SW","i_long":106.827103,"station_name":"Sawah Besar","line":2,"distance":1149,"time":2,"i_lat":-6.160725,"transit":false,"is_transit":false},{"station_id":"MGB","station_name":"Manggabesar","transit":false,"is_transit":false,"distance":906,"i_lat":-6.149769,"line":2,"time":2,"i_long":106.82482},{"transit":false,"station_id":"JAY","line":2,"i_long":106.820901,"distance":1080,"i_lat":-6.141205,"station_name":"Jayakarta","is_transit":false,"time":2},{"i_lat":-6.137569,"is_transit":true,"i_long":106.812439,"station_id":"JAKK","line":2,"time":4,"station_name":"Jakarta Kota","transit":true,"distance":1264},{"station_id":"KPB","is_transit":true,"time":3,"i_long":106.826365,"line":4,"i_lat":-6.132549,"station_name":"Kampung Bandan","transit":true,"distance":1364},{"i_long":106.836569,"transit":false,"line":11,"distance":1444,"station_name":"Rajawali","is_transit":false,"i_lat":-6.14505,"station_id":"RJW","time":3},{"time":5,"station_id":"KMO","line":11,"station_name":"Kemayoran","distance":1901,"transit":false,"is_transit":false,"i_lat":-6.161728,"i_long":106.839204},{"time":4,"transit":false,"station_name":"Pasar Senen","distance":1436,"i_lat":-6.174784,"i_long":106.84368,"is_transit":false,"line":11,"station_id":"PSE"},{"distance":1567,"i_long":106.850107,"line":11,"station_name":"Gang Sentiong","station_id":"GST","is_transit":false,"time":8,"transit":false,"i_lat":-6.185975},{"i_lat":-6.193792,"line":11,"time":1,"transit":false,"station_name":"Kramat","is_transit":false,"distance":973,"i_long":106.855437,"station_id":"KMT"},{"time":2,"i_lat":-6.209188,"line":11,"station_name":"Pondok Jati","transit":false,"station_id":"POK","distance":1829,"i_long":106.861737,"is_transit":false},{"station_id":"JNG","i_long":106.86807400000001,"is_transit":true,"distance":1236,"i_lat":-6.215091,"station_name":"Jatinegara","line":1,"time":9,"transit":true},{"transit":false,"line":1,"time":3,"i_long":106.899548,"station_name":"Klender","is_transit":false,"i_lat":-6.2135,"distance":3395,"station_id":"KLD"},{"i_long":106.922662,"distance":3100,"is_transit":false,"station_id":"BUA","transit":false,"line":1,"station_name":"Buaran","time":2,"i_lat":-6.215568},{"station_id":"KLDB","i_long":106.939679,"line":1,"station_name":"Klenderbaru","time":1,"distance":1305,"is_transit":false,"i_lat":-6.217455,"transit":false},{"transit":false,"station_id":"CUK","i_lat":-6.219053,"station_name":"Cakung","i_long":106.951283,"distance":1385,"is_transit":false,"time":8,"line":1},{"station_id":"KRI","distance":3097,"i_long":106.977657,"transit":false,"is_transit":false,"station_name":"Kranji","time":3,"line":1,"i_lat":-6.224515},{"station_id":"BKS","i_lat":-6.236616,"is_transit":false,"i_long":106.997013,"line":1,"transit":false,"time":4,"distance":2520,"station_name":"Bekasi"},{"transit":false,"station_id":"BKST","time":2,"i_lat":-6.248029,"is_transit":false,"distance":2368,"station_name":"Bekasi Timur","i_long":107.016735,"line":1},{"is_transit":false,"distance":4460,"station_name":"Tambun","station_id":"TB","i_lat":-6.258864,"i_long":107.055722,"line":1,"time":7,"transit":false}]]}