{"data":[[{"station_name":"Sudimara","distance":0,"transit":false,"station_id":"SDM","time":0,"line":6,"is_transit":false,"i_lat":-6.296963,"i_long":106.712277},{"distance":1994,"time":4,"i_long":106.728916,"is_transit":false,"station_name":"Jurangmangu","station_id":"JMU","transit":false,"i_lat":-6.288927,"line":6},{"is_transit":false,"line":6,"transit":false,"time":3,"i_lat":-6.276362,"i_long":106.74273,"station_id":"PDJ","distance":2179,"station_name":"Pondokranji"},{"i_lat":-6.237242,"station_name":"Kebayoran","distance":6218,"station_id":"KBY","line":6,"transit":false,"time":8,"is_transit":false,"i_long":106.780334},{"distance":3737,"station_name":"Palmerah","i_lat":-6.207404,"transit":false,"time":7,"is_transit":false,"station_id":"PLM","i_long":106.79689,"line":6},{"station_name":"Tanah Abang","i_lat":-6.185545,"transit":false,"is_transit":true,"i_long":106.811091,"line":1,"distance":3191,"station_id":"THB","time":6}]]}