{"data":[[{"transit":false,"station_id":"SDM","is_transit":false,"station_name":"Sudimara","line":6,"i_lat":-6.296963,"i_long":106.712277,"time":0,"distance":0},{"i_long":106.728916,"transit":false,"is_transit":false,"station_id":"JMU","time":4,"line":6,"station_name":"Jurangmangu","i_lat":-6.288927,"distance":1994},{"station_name":"Pondokranji","transit":false,"time":3,"i_lat":-6.276362,"is_transit":false,"distance":2179,"i_long":106.74273,"line":6,"station_id":"PDJ"},{"time":8,"distance":6218,"i_lat":-6.237242,"station_name":"Kebayoran","is_transit":false,"transit":false,"station_id":"KBY","i_long":106.780334,"line":6},{"time":7,"distance":3737,"i_long":106.79689,"line":6,"transit":false,"is_transit":false,"station_id":"PLM","i_lat":-6.207404,"station_name":"Palmerah"},{"is_transit":true,"i_lat":-6.185545,"line":1,"transit":true,"i_long":106.811091,"distance":3191,"time":6,"station_id":"THB","station_name":"Tanah Abang"},{"station_id":"KAT","is_transit":false,"transit":false,"i_lat":-6.20132,"distance":2029,"station_name":"Karet","line":1,"time":5,"i_long":106.816351},{"station_name":"Sudirman Baru","distance":471,"i_lat":-6.201433,"transit":false,"is_transit":false,"line":1,"i_long":106.819881,"station_id":"SUDB","time":1},{"station_name":"Sudirman","station_id":"SUD","i_lat":-6.202263,"time":1,"line":1,"i_long":106.822649,"distance":280,"is_transit":false,"transit":false},{"is_transit":true,"i_long":106.84912,"time":4,"station_id":"MRI","line":2,"station_name":"Manggarai","i_lat":-6.209883,"distance":3186,"transit":true},{"i_lat":-6.198556,"distance":1590,"line":2,"transit":false,"station_id":"CKI","station_name":"Cikini","is_transit":false,"i_long":106.840169,"time":4},{"distance":1750,"i_lat":-6.186295,"station_name":"Gondangdia","i_long":106.832183,"transit":false,"station_id":"GDD","time":3,"line":2,"is_transit":false}],[{"i_lat":-6.296963,"station_id":"SDM","transit":false,"distance":0,"is_transit":false,"time":0,"line":6,"i_long":106.712277,"station_name":"Sudimara"},{"line":6,"station_id":"JMU","time":4,"i_lat":-6.288927,"is_transit":false,"distance":1994,"i_long":106.728916,"transit":false,"station_name":"Jurangmangu"},{"transit":false,"station_name":"Pondokranji","distance":2179,"i_long":106.74273,"is_transit":false,"station_id":"PDJ","time":3,"line":6,"i_lat":-6.276362},{"is_transit":false,"station_id":"KBY","time":8,"line":6,"transit":false,"station_name":"Kebayoran","i_long":106.780334,"distance":6218,"i_lat":-6.237242},{"i_lat":-6.207404,"distance":3737,"i_long":106.79689,"line":6,"time":7,"station_name":"Palmerah","is_transit":false,"transit":false,"station_id":"PLM"},{"i_lat":-6.185545,"transit":true,"time":6,"station_name":"Tanah Abang","i_long":106.811091,"is_transit":true,"line":1,"distance":3191,"station_id":"THB"},{"i_lat":-6.155215,"station_id":"DU","is_transit":false,"i_long":106.800832,"station_name":"Duri","line":1,"distance":3632,"time":8,"transit":false},{"i_lat":-6.144674,"time":4,"is_transit":false,"station_name":"Angke","line":1,"transit":false,"distance":1230,"station_id":"AK","i_long":106.79867},{"transit":true,"time":9,"station_id":"KPB","is_transit":true,"station_name":"Kampung Bandan","distance":4102,"i_long":106.826365,"line":4,"i_lat":-6.132549},{"line":2,"i_lat":-6.137569,"transit":true,"station_name":"Jakarta Kota","time":3,"station_id":"JAKK","distance":1364,"i_long":106.812439,"is_transit":true},{"time":4,"station_name":"Jayakarta","distance":1264,"is_transit":false,"station_id":"JAY","transit":false,"i_lat":-6.141205,"i_long":106.820901,"line":2},{"line":2,"transit":false,"time":2,"is_transit":false,"i_lat":-6.149769,"station_id":"MGB","distance":1080,"station_name":"Manggabesar","i_long":106.82482},{"station_name":"Sawah Besar","station_id":"SW","is_transit":false,"i_long":106.827103,"line":2,"time":2,"distance":906,"transit":false,"i_lat":-6.160725},{"distance":1149,"is_transit":false,"time":2,"i_lat":-6.166716,"line":2,"transit":false,"station_name":"Juanda","station_id":"JUA","i_long":106.828284},{"i_lat":-6.186295,"station_name":"Gondangdia","line":2,"transit":false,"distance":2015,"is_transit":false,"station_id":"GDD","time":4,"i_long":106.832183}],[{"line":6,"station_name":"Sudimara","i_lat":-6.296963,"distance":0,"transit":false,"is_transit":false,"station_id":"SDM","time":0,"i_long":106.712277},{"is_transit":false,"i_lat":-6.288927,"time":4,"i_long":106.728916,"station_name":"Jurangmangu","station_id":"JMU","distance":1994,"line":6,"transit":false},{"transit":false,"distance":2179,"i_lat":-6.276362,"time":3,"i_long":106.74273,"station_id":"PDJ","line":6,"station_name":"Pondokranji","is_transit":false},{"transit":false,"station_id":"KBY","i_lat":-6.237242,"station_name":"Kebayoran","i_long":106.780334,"line":6,"is_transit":false,"time":8,"distance":6218},{"i_long":106.79689,"line":6,"time":7,"distance":3737,"station_id":"PLM","transit":false,"station_name":"Palmerah","is_transit":false,"i_lat":-6.207404},{"station_name":"Tanah Abang","is_transit":true,"transit":true,"distance":3191,"i_lat":-6.185545,"i_long":106.811091,"station_id":"THB","time":6,"line":1},{"station_id":"DU","is_transit":false,"station_name":"Duri","i_long":106.800832,"i_lat":-6.155215,"transit":false,"time":8,"distance":3632,"line":1},{"transit":false,"i_lat":-6.144674,"line":1,"station_name":"Angke","time":4,"is_transit":false,"station_id":"AK","distance":1230,"i_long":106.79867},{"time":9,"i_long":106.826365,"station_name":"Kampung Bandan","transit":true,"distance":4102,"station_id":"KPB","line":4,"i_lat":-6.132549,"is_transit":true},{"i_long":106.836569,"station_name":"Rajawali","i_lat":-6.14505,"is_transit":false,"transit":false,"distance":1444,"time":3,"line":11,"station_id":"RJW"},{"i_long":106.839204,"station_id":"KMO","distance":1901,"station_name":"Kemayoran","line":11,"time":5,"i_lat":-6.161728,"transit":false,"is_transit":false},{"station_name":"Pasar Senen","i_long":106.84368,"is_transit":false,"i_lat":-6.174784,"time":4,"station_id":"PSE","line":11,"distance":1436,"transit":false},{"station_id":"GST","station_name":"Gang Sentiong","is_transit":false,"distance":1567,"i_lat":-6.185975,"time":8,"i_long":106.850107,"line":11,"transit":false},{"distance":973,"transit":false,"station_id":"KMT","station_name":"Kramat","is_transit":false,"time":1,"i_lat":-6.193792,"line":11,"i_long":106.855437},{"station_name":"Pondok Jati","transit":false,"time":2,"is_transit":false,"distance":1829,"i_long":106.861737,"line":11,"i_lat":-6.209188,"station_id":"POK"},{"line":1,"time":9,"i_long":106.86807400000001,"i_lat":-6.215091,"transit":true,"distance":1236,"station_name":"Jatinegara","is_transit":true,"station_id":"JNG"},{"time":2,"line":1,"i_lat":-6.212485,"transit":false,"station_name":"Matraman","station_id":"MTR","is_transit":false,"distance":1377,"i_long":106.858896},{"station_name":"Manggarai","i_lat":-6.209883,"is_transit":true,"time":2,"i_long":106.84912,"distance":1275,"transit":true,"line":2,"station_id":"MRI"},{"distance":1590,"i_lat":-6.198556,"time":4,"line":2,"i_long":106.840169,"station_name":"Cikini","transit":false,"station_id":"CKI","is_transit":false},{"is_transit":false,"station_id":"GDD","transit":false,"i_lat":-6.186295,"line":2,"time":3,"i_long":106.832183,"distance":1750,"station_name":"Gondangdia"}],[{"time":0,"line":6,"i_long":106.712277,"station_name":"Sudimara","i_lat":-6.296963,"transit":false,"distance":0,"station_id":"SDM","is_transit":false},{"line":6,"i_lat":-6.288927,"distance":1994,"station_name":"Jurangmangu","time":4,"is_transit":false,"station_id":"JMU","transit":false,"i_long":106.728916},{"transit":false,"station_name":"Pondokranji","line":6,"station_id":"PDJ","time":3,"i_lat":-6.276362,"distance":2179,"is_transit":false,"i_long":106.74273},{"i_lat":-6.237242,"distance":6218,"i_long":106.780334,"station_name":"Kebayoran","line":6,"transit":false,"station_id":"KBY","is_transit":false,"time":8},{"i_long":106.79689,"line":6,"time":7,"transit":false,"is_transit":false,"distance":3737,"station_name":"Palmerah","station_id":"PLM","i_lat":-6.207404},{"is_transit":true,"line":1,"distance":3191,"i_long":106.811091,"i_lat":-6.185545,"station_name":"Tanah Abang","transit":true,"station_id":"THB","time":6},{"line":1,"transit":false,"station_id":"KAT","time":5,"i_lat":-6.20132,"station_name":"Karet","i_long":106.816351,"is_transit":false,"distance":2029},{"transit":false,"time":1,"station_name":"Sudirman Baru","is_transit":false,"line":1,"i_long":106.819881,"distance":471,"station_id":"SUDB","i_lat":-6.201433},{"i_long":106.822649,"time":1,"transit":false,"is_transit":false,"i_lat":-6.202263,"distance":280,"line":1,"station_name":"Sudirman","station_id":"SUD"},{"transit":false,"distance":3186,"station_id":"MRI","i_lat":-6.209883,"station_name":"Manggarai","line":2,"time":4,"i_long":106.84912,"is_transit":false},{"i_long":106.858896,"station_name":"Matraman","i_lat":-6.212485,"is_transit":false,"station_id":"MTR","line":1,"time":2,"distance":1275,"transit":false},{"time":8,"is_transit":true,"station_name":"Jatinegara","distance":1377,"transit":true,"station_id":"JNG","i_lat":-6.215091,"i_long":106.86807400000001,"line":1},{"transit":false,"station_id":"POK","time":2,"is_transit":false,"station_name":"Pondok Jati","i_long":106.861737,"line":11,"distance":1236,"i_lat":-6.209188},{"i_lat":-6.193792,"i_long":106.855437,"is_transit":false,"station_name":"Kramat","station_id":"KMT","line":11,"transit":false,"distance":1829,"time":2},{"is_transit":false,"i_lat":-6.185975,"distance":973,"line":11,"station_name":"Gang Sentiong","time":1,"i_long":106.850107,"transit":false,"station_id":"GST"},{"distance":1567,"station_name":"Pasar Senen","i_lat":-6.174784,"time":8,"i_long":106.84368,"line":11,"station_id":"PSE","is_transit":false,"transit":false},{"is_transit":false,"station_id":"KMO","transit":false,"time":4,"station_name":"Kemayoran","distance":1436,"i_long":106.839204,"i_lat":-6.161728,"line":11},{"line":11,"time":5,"transit":false,"i_long":106.836569,"is_transit":false,"i_lat":-6.14505,"station_id":"RJW","distance":1901,"station_name":"Rajawali"},{"distance":1444,"station_id":"KPB","transit":true,"i_lat":-6.132549,"time":3,"i_long":106.826365,"station_name":"Kampung Bandan","is_transit":true,"line":4},{"station_id":"JAKK","i_long":106.812439,"line":2,"distance":1364,"is_transit":true,"time":3,"transit":true,"station_name":"Jakarta Kota","i_lat":-6.137569},{"is_transit":false,"distance":1264,"transit":false,"i_long":106.820901,"line":2,"station_name":"Jayakarta","station_id":"JAY","time":4,"i_lat":-6.141205},{"time":2,"distance":1080,"line":2,"transit":false,"station_id":"MGB","station_name":"Manggabesar","is_transit":false,"i_lat":-6.149769,"i_long":106.82482},{"i_lat":-6.160725,"time":2,"i_long":106.827103,"transit":false,"station_name":"Sawah Besar","station_id":"SW","is_transit":false,"line":2,"distance":906},{"time":2,"distance":1149,"is_transit":false,"transit":false,"station_id":"JUA","i_lat":-6.166716,"line":2,"station_name":"Juanda","i_long":106.828284},{"time":4,"i_lat":-6.186295,"i_long":106.832183,"is_transit":false,"line":2,"station_name":"Gondangdia","distance":2015,"transit":false,"station_id":"GDD"}]]}