{"data":[[{"i_long":106.712277,"station_id":"SDM","station_name":"Sudimara","transit":false,"is_transit":false,"distance":0,"time":0,"i_lat":-6.296963,"line":6},{"station_name":"Jurangmangu","time":4,"transit":false,"station_id":"JMU","is_transit":false,"i_lat":-6.288927,"i_long":106.728916,"line":6,"distance":1994},{"i_lat":-6.276362,"is_transit":false,"line":6,"transit":false,"station_id":"PDJ","i_long":106.74273,"distance":2179,"time":3,"station_name":"Pondokranji"},{"time":8,"line":6,"i_long":106.780334,"i_lat":-6.237242,"is_transit":false,"transit":false,"distance":6218,"station_name":"Kebayoran","station_id":"KBY"},{"time":7,"station_id":"PLM","distance":3737,"i_long":106.79689,"line":6,"station_name":"Palmerah","i_lat":-6.207404,"transit":false,"is_transit":false},{"line":1,"is_transit":true,"time":6,"station_id":"THB","i_long":106.811091,"station_name":"Tanah Abang","transit":true,"distance":3191,"i_lat":-6.185545},{"is_transit":false,"i_long":106.816351,"station_name":"Karet","station_id":"KAT","transit":false,"i_lat":-6.20132,"time":5,"line":1,"distance":2029},{"i_lat":-6.201433,"station_name":"Sudirman Baru","station_id":"SUDB","distance":471,"transit":false,"is_transit":false,"time":1,"i_long":106.819881,"line":1},{"distance":280,"i_lat":-6.202263,"i_long":106.822649,"station_id":"SUD","time":1,"line":1,"transit":false,"is_transit":false,"station_name":"Sudirman"},{"time":4,"distance":3186,"station_id":"MRI","transit":false,"i_lat":-6.209883,"i_long":106.84912,"is_transit":false,"station_name":"Manggarai","line":2},{"distance":1275,"station_name":"Matraman","is_transit":false,"line":1,"station_id":"MTR","time":2,"transit":false,"i_lat":-6.212485,"i_long":106.858896},{"distance":1377,"time":8,"i_lat":-6.215091,"transit":false,"station_id":"JNG","is_transit":false,"i_long":106.86807400000001,"station_name":"Jatinegara","line":1},{"station_id":"KLD","i_lat":-6.2135,"station_name":"Klender","is_transit":false,"line":1,"transit":false,"i_long":106.899548,"time":3,"distance":3395},{"time":2,"transit":false,"station_name":"Buaran","is_transit":false,"distance":3100,"i_long":106.922662,"line":1,"i_lat":-6.215568,"station_id":"BUA"},{"station_id":"KLDB","station_name":"Klenderbaru","i_lat":-6.217455,"time":1,"transit":false,"is_transit":false,"distance":1305,"i_long":106.939679,"line":1}],[{"station_id":"SDM","is_transit":false,"distance":0,"transit":false,"i_lat":-6.296963,"i_long":106.712277,"station_name":"Sudimara","time":0,"line":6},{"transit":false,"time":4,"station_id":"JMU","distance":1994,"line":6,"is_transit":false,"i_lat":-6.288927,"i_long":106.728916,"station_name":"Jurangmangu"},{"transit":false,"time":3,"station_name":"Pondokranji","i_lat":-6.276362,"distance":2179,"i_long":106.74273,"line":6,"station_id":"PDJ","is_transit":false},{"is_transit":false,"i_lat":-6.237242,"i_long":106.780334,"station_id":"KBY","line":6,"station_name":"Kebayoran","transit":false,"distance":6218,"time":8},{"station_name":"Palmerah","line":6,"is_transit":false,"time":7,"distance":3737,"i_long":106.79689,"transit":false,"station_id":"PLM","i_lat":-6.207404},{"transit":true,"station_id":"THB","is_transit":true,"distance":3191,"i_long":106.811091,"station_name":"Tanah Abang","line":1,"time":6,"i_lat":-6.185545},{"line":1,"transit":false,"station_name":"Duri","station_id":"DU","i_lat":-6.155215,"is_transit":false,"distance":3632,"i_long":106.800832,"time":8},{"line":1,"is_transit":false,"station_id":"AK","time":4,"distance":1230,"i_lat":-6.144674,"i_long":106.79867,"transit":false,"station_name":"Angke"},{"time":9,"line":4,"i_lat":-6.132549,"station_id":"KPB","distance":4102,"station_name":"Kampung Bandan","i_long":106.826365,"transit":true,"is_transit":true},{"i_lat":-6.14505,"station_id":"RJW","distance":1444,"station_name":"Rajawali","is_transit":false,"time":3,"transit":false,"i_long":106.836569,"line":11},{"time":5,"station_id":"KMO","i_lat":-6.161728,"line":11,"is_transit":false,"distance":1901,"station_name":"Kemayoran","transit":false,"i_long":106.839204},{"line":11,"i_long":106.84368,"distance":1436,"i_lat":-6.174784,"time":4,"transit":false,"station_id":"PSE","station_name":"Pasar Senen","is_transit":false},{"station_id":"GST","transit":false,"time":8,"i_lat":-6.185975,"station_name":"Gang Sentiong","is_transit":false,"line":11,"distance":1567,"i_long":106.850107},{"transit":false,"time":1,"distance":973,"i_lat":-6.193792,"i_long":106.855437,"line":11,"station_id":"KMT","is_transit":false,"station_name":"Kramat"},{"station_id":"POK","is_transit":false,"time":2,"line":11,"distance":1829,"transit":false,"station_name":"Pondok Jati","i_lat":-6.209188,"i_long":106.861737},{"is_transit":true,"station_name":"Jatinegara","time":9,"distance":1236,"i_lat":-6.215091,"transit":true,"i_long":106.86807400000001,"line":1,"station_id":"JNG"},{"i_long":106.899548,"station_id":"KLD","distance":3395,"i_lat":-6.2135,"time":3,"is_transit":false,"line":1,"transit":false,"station_name":"Klender"},{"station_name":"Buaran","distance":3100,"line":1,"station_id":"BUA","is_transit":false,"transit":false,"i_long":106.922662,"time":2,"i_lat":-6.215568},{"distance":1305,"line":1,"station_name":"Klenderbaru","station_id":"KLDB","i_long":106.939679,"is_transit":false,"transit":false,"time":1,"i_lat":-6.217455}],[{"distance":0,"is_transit":false,"transit":false,"station_name":"Sudimara","station_id":"SDM","i_lat":-6.296963,"i_long":106.712277,"line":6,"time":0},{"is_transit":false,"station_id":"JMU","distance":1994,"i_lat":-6.288927,"station_name":"Jurangmangu","line":6,"transit":false,"time":4,"i_long":106.728916},{"distance":2179,"i_lat":-6.276362,"transit":false,"station_id":"PDJ","station_name":"Pondokranji","time":3,"i_long":106.74273,"line":6,"is_transit":false},{"station_name":"Kebayoran","is_transit":false,"distance":6218,"line":6,"i_lat":-6.237242,"time":8,"i_long":106.780334,"transit":false,"station_id":"KBY"},{"transit":false,"line":6,"station_name":"Palmerah","time":7,"i_lat":-6.207404,"is_transit":false,"distance":3737,"station_id":"PLM","i_long":106.79689},{"time":6,"station_id":"THB","i_lat":-6.185545,"is_transit":true,"station_name":"Tanah Abang","i_long":106.811091,"transit":true,"distance":3191,"line":1},{"time":8,"station_name":"Duri","station_id":"DU","is_transit":false,"i_long":106.800832,"transit":false,"i_lat":-6.155215,"line":1,"distance":3632},{"transit":false,"i_long":106.79867,"time":4,"line":1,"is_transit":false,"station_id":"AK","i_lat":-6.144674,"station_name":"Angke","distance":1230},{"station_name":"Kampung Bandan","station_id":"KPB","i_lat":-6.132549,"distance":4102,"is_transit":true,"i_long":106.826365,"line":4,"time":9,"transit":true},{"is_transit":true,"station_id":"JAKK","transit":true,"time":3,"distance":1364,"i_lat":-6.137569,"i_long":106.812439,"line":2,"station_name":"Jakarta Kota"},{"station_id":"JAY","i_lat":-6.141205,"time":4,"transit":false,"distance":1264,"line":2,"is_transit":false,"i_long":106.820901,"station_name":"Jayakarta"},{"line":2,"station_id":"MGB","station_name":"Manggabesar","is_transit":false,"transit":false,"time":2,"i_lat":-6.149769,"distance":1080,"i_long":106.82482},{"line":2,"distance":906,"station_name":"Sawah Besar","time":2,"transit":false,"i_lat":-6.160725,"station_id":"SW","i_long":106.827103,"is_transit":false},{"i_long":106.828284,"distance":1149,"is_transit":false,"transit":false,"time":2,"line":2,"station_id":"JUA","i_lat":-6.166716,"station_name":"Juanda"},{"station_name":"Gondangdia","i_lat":-6.186295,"is_transit":false,"distance":2015,"time":4,"line":2,"station_id":"GDD","i_long":106.832183,"transit":false},{"distance":1750,"time":3,"i_long":106.840169,"transit":false,"station_name":"Cikini","station_id":"CKI","is_transit":false,"i_lat":-6.198556,"line":2},{"station_id":"MRI","distance":1590,"line":2,"transit":true,"station_name":"Manggarai","i_long":106.84912,"is_transit":true,"i_lat":-6.209883,"time":4},{"is_transit":false,"time":2,"transit":false,"station_name":"Matraman","station_id":"MTR","distance":1275,"line":1,"i_long":106.858896,"i_lat":-6.212485},{"i_long":106.86807400000001,"is_transit":false,"time":8,"station_name":"Jatinegara","distance":1377,"i_lat":-6.215091,"line":1,"station_id":"JNG","transit":false},{"distance":3395,"station_name":"Klender","station_id":"KLD","i_lat":-6.2135,"line":1,"time":3,"i_long":106.899548,"is_transit":false,"transit":false},{"distance":3100,"is_transit":false,"i_long":106.922662,"i_lat":-6.215568,"time":2,"transit":false,"line":1,"station_name":"Buaran","station_id":"BUA"},{"station_name":"Klenderbaru","time":1,"station_id":"KLDB","i_lat":-6.217455,"i_long":106.939679,"is_transit":false,"distance":1305,"line":1,"transit":false}],[{"i_long":106.712277,"i_lat":-6.296963,"station_name":"Sudimara","station_id":"SDM","line":6,"is_transit":false,"transit":false,"time":0,"distance":0},{"line":6,"i_long":106.728916,"time":4,"station_id":"JMU","distance":1994,"i_lat":-6.288927,"station_name":"Jurangmangu","transit":false,"is_transit":false},{"station_name":"Pondokranji","line":6,"station_id":"PDJ","distance":2179,"time":3,"transit":false,"i_lat":-6.276362,"i_long":106.74273,"is_transit":false},{"i_lat":-6.237242,"i_long":106.780334,"line":6,"is_transit":false,"time":8,"distance":6218,"transit":false,"station_id":"KBY","station_name":"Kebayoran"},{"distance":3737,"station_id":"PLM","is_transit":false,"time":7,"line":6,"i_long":106.79689,"i_lat":-6.207404,"station_name":"Palmerah","transit":false},{"station_name":"Tanah Abang","distance":3191,"i_lat":-6.185545,"i_long":106.811091,"line":1,"is_transit":true,"station_id":"THB","time":6,"transit":true},{"distance":2029,"line":1,"is_transit":false,"station_id":"KAT","time":5,"transit":false,"station_name":"Karet","i_long":106.816351,"i_lat":-6.20132},{"time":1,"station_name":"Sudirman Baru","transit":false,"i_long":106.819881,"line":1,"distance":471,"station_id":"SUDB","is_transit":false,"i_lat":-6.201433},{"line":1,"time":1,"distance":280,"station_name":"Sudirman","station_id":"SUD","is_transit":false,"transit":false,"i_lat":-6.202263,"i_long":106.822649},{"line":2,"station_id":"MRI","i_long":106.84912,"station_name":"Manggarai","is_transit":true,"transit":true,"distance":3186,"time":4,"i_lat":-6.209883},{"transit":false,"station_id":"CKI","i_lat":-6.198556,"is_transit":false,"time":4,"i_long":106.840169,"line":2,"station_name":"Cikini","distance":1590},{"station_id":"GDD","i_long":106.832183,"line":2,"transit":false,"distance":1750,"time":3,"i_lat":-6.186295,"station_name":"Gondangdia","is_transit":false},{"station_id":"JUA","time":4,"i_lat":-6.166716,"line":2,"i_long":106.828284,"transit":false,"distance":2015,"is_transit":false,"station_name":"Juanda"},{"line":2,"i_lat":-6.160725,"time":2,"station_name":"Sawah Besar","transit":false,"i_long":106.827103,"is_transit":false,"distance":1149,"station_id":"SW"},{"station_name":"Manggabesar","transit":false,"station_id":"MGB","line":2,"distance":906,"i_long":106.82482,"time":2,"is_transit":false,"i_lat":-6.149769},{"i_lat":-6.141205,"transit":false,"is_transit":false,"line":2,"station_name":"Jayakarta","distance":1080,"station_id":"JAY","time":2,"i_long":106.820901},{"line":2,"station_id":"JAKK","i_lat":-6.137569,"time":4,"transit":true,"station_name":"Jakarta Kota","is_transit":true,"distance":1264,"i_long":106.812439},{"line":4,"transit":true,"station_id":"KPB","i_lat":-6.132549,"time":3,"station_name":"Kampung Bandan","is_transit":true,"i_long":106.826365,"distance":1364},{"distance":1444,"transit":false,"i_long":106.836569,"is_transit":false,"time":3,"i_lat":-6.14505,"line":11,"station_id":"RJW","station_name":"Rajawali"},{"is_transit":false,"i_long":106.839204,"station_id":"KMO","time":5,"distance":1901,"i_lat":-6.161728,"transit":false,"line":11,"station_name":"Kemayoran"},{"station_id":"PSE","transit":false,"station_name":"Pasar Senen","is_transit":false,"distance":1436,"time":4,"i_lat":-6.174784,"i_long":106.84368,"line":11},{"transit":false,"i_long":106.850107,"station_id":"GST","time":8,"line":11,"is_transit":false,"distance":1567,"i_lat":-6.185975,"station_name":"Gang Sentiong"},{"station_name":"Kramat","i_lat":-6.193792,"i_long":106.855437,"transit":false,"station_id":"KMT","is_transit":false,"line":11,"distance":973,"time":1},{"is_transit":false,"distance":1829,"time":2,"line":11,"transit":false,"station_id":"POK","i_lat":-6.209188,"station_name":"Pondok Jati","i_long":106.861737},{"i_long":106.86807400000001,"station_id":"JNG","station_name":"Jatinegara","is_transit":true,"distance":1236,"time":9,"transit":true,"i_lat":-6.215091,"line":1},{"transit":false,"station_name":"Klender","i_long":106.899548,"i_lat":-6.2135,"line":1,"distance":3395,"time":3,"station_id":"KLD","is_transit":false},{"time":2,"transit":false,"station_name":"Buaran","is_transit":false,"i_lat":-6.215568,"i_long":106.922662,"line":1,"distance":3100,"station_id":"BUA"},{"is_transit":false,"i_long":106.939679,"distance":1305,"i_lat":-6.217455,"line":1,"station_id":"KLDB","transit":false,"time":1,"station_name":"Klenderbaru"}]]}