{"data":[[{"time":0,"line":6,"station_name":"Sudimara","station_id":"SDM","i_lat":-6.296963,"i_long":106.712277,"distance":0,"is_transit":false,"transit":false},{"i_long":106.728916,"time":4,"line":6,"distance":1994,"station_id":"JMU","i_lat":-6.288927,"is_transit":false,"station_name":"Jurangmangu","transit":false},{"station_name":"Pondokranji","is_transit":false,"time":3,"i_lat":-6.276362,"transit":false,"distance":2179,"i_long":106.74273,"station_id":"PDJ","line":6},{"distance":6218,"station_name":"Kebayoran","transit":false,"time":8,"i_long":106.780334,"is_transit":false,"i_lat":-6.237242,"station_id":"KBY","line":6},{"transit":false,"station_name":"Palmerah","time":7,"i_long":106.79689,"station_id":"PLM","distance":3737,"i_lat":-6.207404,"line":6,"is_transit":false},{"station_name":"Tanah Abang","station_id":"THB","time":6,"distance":3191,"line":1,"i_long":106.811091,"transit":true,"i_lat":-6.185545,"is_transit":true},{"transit":false,"station_id":"KAT","time":5,"station_name":"Karet","distance":2029,"line":1,"i_lat":-6.20132,"i_long":106.816351,"is_transit":false},{"i_long":106.819881,"i_lat":-6.201433,"line":1,"station_name":"Sudirman Baru","transit":false,"time":1,"distance":471,"is_transit":false,"station_id":"SUDB"},{"i_lat":-6.202263,"transit":false,"station_name":"Sudirman","distance":280,"station_id":"SUD","i_long":106.822649,"time":1,"line":1,"is_transit":false},{"i_long":106.84912,"station_id":"MRI","distance":3186,"station_name":"Manggarai","time":4,"i_lat":-6.209883,"line":2,"is_transit":true,"transit":true},{"station_id":"TEB","time":4,"line":2,"distance":2610,"i_long":106.857948,"i_lat":-6.226659,"station_name":"Tebet","transit":false,"is_transit":false},{"distance":1230,"transit":false,"station_name":"Cawang","i_long":106.856607,"line":2,"is_transit":false,"time":2,"i_lat":-6.242512,"station_id":"CW"},{"is_transit":false,"distance":1546,"i_long":106.85449,"station_id":"DRN","line":2,"time":3,"station_name":"Duren Kalibata","i_lat":-6.255332,"transit":false},{"i_long":106.851577,"station_name":"Pasar Minggu Baru","line":2,"transit":false,"is_transit":false,"time":2,"station_id":"PSMB","i_lat":-6.263214,"distance":824},{"station_id":"PSM","line":2,"i_long":106.843999,"i_lat":-6.2842400000000005,"transit":false,"time":2,"is_transit":false,"distance":2380,"station_name":"Pasar Minggu"},{"line":2,"i_long":106.838896,"is_transit":false,"transit":false,"i_lat":-6.3080680000000005,"station_id":"TNT","distance":2820,"time":4,"station_name":"Tanjung Barat"},{"distance":2671,"time":3,"transit":false,"line":2,"station_id":"LNA","i_lat":-6.330363,"i_long":106.832616,"station_name":"Lenteng Agung","is_transit":false},{"time":2,"transit":false,"line":2,"i_long":106.834175,"station_name":"Univ. Pancasila","station_id":"UP","is_transit":false,"distance":1029,"i_lat":-6.339291},{"distance":2264,"i_long":106.831474,"line":2,"transit":false,"i_lat":-6.360749,"station_id":"UI","is_transit":false,"time":3,"station_name":"Univ. Indonesia"},{"distance":1109,"is_transit":false,"station_id":"POC","time":2,"i_lat":-6.369073,"line":2,"transit":false,"station_name":"Pondok Cina","i_long":106.831114},{"is_transit":false,"station_name":"Depokbaru","transit":false,"time":4,"station_id":"DPB","i_long":106.819451,"line":2,"distance":2727,"i_lat":-6.391065},{"i_long":106.816926,"i_lat":-6.405256,"line":2,"time":3,"transit":false,"station_name":"Depok","is_transit":false,"station_id":"DP","distance":1584},{"station_id":"CTA","is_transit":true,"line":2,"transit":true,"station_name":"Citayam","time":6,"i_lat":-6.448811,"i_long":106.800298,"distance":5084},{"time":0,"line":21,"station_id":"PDRG","transit":false,"station_name":"Pondok Rajeg","is_transit":false,"distance":0,"i_lat":-6.460735,"i_long":106.824374},{"line":21,"time":0,"station_name":"Cibinong","distance":0,"is_transit":false,"i_long":106.851978,"i_lat":-6.46424,"station_id":"CBN","transit":false},{"transit":false,"i_lat":-6.466285,"station_name":"Nambo","distance":6527,"i_long":106.905196,"time":10,"line":21,"station_id":"NMO","is_transit":false}],[{"i_long":106.712277,"station_name":"Sudimara","line":6,"is_transit":false,"station_id":"SDM","transit":false,"time":0,"distance":0,"i_lat":-6.296963},{"transit":false,"station_id":"JMU","i_lat":-6.288927,"station_name":"Jurangmangu","line":6,"i_long":106.728916,"is_transit":false,"time":4,"distance":1994},{"distance":2179,"time":3,"transit":false,"i_lat":-6.276362,"line":6,"is_transit":false,"station_id":"PDJ","i_long":106.74273,"station_name":"Pondokranji"},{"i_long":106.780334,"distance":6218,"station_id":"KBY","line":6,"transit":false,"time":8,"i_lat":-6.237242,"is_transit":false,"station_name":"Kebayoran"},{"time":7,"i_lat":-6.207404,"line":6,"transit":false,"distance":3737,"is_transit":false,"station_name":"Palmerah","i_long":106.79689,"station_id":"PLM"},{"i_long":106.811091,"station_name":"Tanah Abang","distance":3191,"line":1,"transit":true,"station_id":"THB","time":6,"i_lat":-6.185545,"is_transit":true},{"station_name":"Duri","line":1,"i_long":106.800832,"station_id":"DU","time":8,"distance":3632,"i_lat":-6.155215,"transit":false,"is_transit":false},{"time":4,"is_transit":false,"i_lat":-6.144674,"transit":false,"station_id":"AK","station_name":"Angke","distance":1230,"i_long":106.79867,"line":1},{"distance":4102,"station_id":"KPB","line":4,"station_name":"Kampung Bandan","is_transit":true,"transit":true,"time":9,"i_lat":-6.132549,"i_long":106.826365},{"i_lat":-6.137569,"is_transit":true,"time":3,"i_long":106.812439,"transit":true,"station_name":"Jakarta Kota","station_id":"JAKK","distance":1364,"line":2},{"distance":1264,"transit":false,"station_name":"Jayakarta","i_lat":-6.141205,"station_id":"JAY","time":4,"line":2,"is_transit":false,"i_long":106.820901},{"transit":false,"station_id":"MGB","time":2,"distance":1080,"i_lat":-6.149769,"line":2,"is_transit":false,"i_long":106.82482,"station_name":"Manggabesar"},{"is_transit":false,"station_name":"Sawah Besar","time":2,"station_id":"SW","distance":906,"transit":false,"i_long":106.827103,"line":2,"i_lat":-6.160725},{"station_id":"JUA","transit":false,"i_long":106.828284,"line":2,"station_name":"Juanda","time":2,"distance":1149,"is_transit":false,"i_lat":-6.166716},{"distance":2015,"i_long":106.832183,"line":2,"station_name":"Gondangdia","i_lat":-6.186295,"transit":false,"station_id":"GDD","is_transit":false,"time":4},{"line":2,"time":3,"transit":false,"is_transit":false,"i_long":106.840169,"distance":1750,"i_lat":-6.198556,"station_name":"Cikini","station_id":"CKI"},{"transit":false,"i_long":106.84912,"station_id":"MRI","station_name":"Manggarai","line":2,"is_transit":false,"i_lat":-6.209883,"time":4,"distance":1590},{"is_transit":false,"distance":2610,"station_id":"TEB","time":4,"transit":false,"i_lat":-6.226659,"i_long":106.857948,"station_name":"Tebet","line":2},{"i_long":106.856607,"station_name":"Cawang","transit":false,"distance":1230,"is_transit":false,"line":2,"i_lat":-6.242512,"station_id":"CW","time":2},{"station_id":"DRN","station_name":"Duren Kalibata","transit":false,"i_lat":-6.255332,"is_transit":false,"i_long":106.85449,"line":2,"distance":1546,"time":3},{"line":2,"station_id":"PSMB","transit":false,"is_transit":false,"time":2,"station_name":"Pasar Minggu Baru","distance":824,"i_lat":-6.263214,"i_long":106.851577},{"station_name":"Pasar Minggu","distance":2380,"station_id":"PSM","transit":false,"is_transit":false,"i_lat":-6.2842400000000005,"i_long":106.843999,"line":2,"time":2},{"time":4,"station_name":"Tanjung Barat","i_lat":-6.3080680000000005,"is_transit":false,"i_long":106.838896,"transit":false,"distance":2820,"line":2,"station_id":"TNT"},{"line":2,"distance":2671,"transit":false,"i_long":106.832616,"station_name":"Lenteng Agung","station_id":"LNA","time":3,"is_transit":false,"i_lat":-6.330363},{"i_lat":-6.339291,"i_long":106.834175,"distance":1029,"transit":false,"time":2,"line":2,"is_transit":false,"station_id":"UP","station_name":"Univ. Pancasila"},{"transit":false,"time":3,"distance":2264,"i_lat":-6.360749,"i_long":106.831474,"line":2,"station_id":"UI","station_name":"Univ. Indonesia","is_transit":false},{"transit":false,"station_id":"POC","distance":1109,"i_long":106.831114,"is_transit":false,"time":2,"i_lat":-6.369073,"line":2,"station_name":"Pondok Cina"},{"i_long":106.819451,"i_lat":-6.391065,"distance":2727,"station_name":"Depokbaru","station_id":"DPB","is_transit":false,"line":2,"transit":false,"time":4},{"transit":false,"is_transit":false,"distance":1584,"station_id":"DP","line":2,"station_name":"Depok","time":3,"i_lat":-6.405256,"i_long":106.816926},{"i_long":106.800298,"station_name":"Citayam","line":2,"time":6,"is_transit":true,"station_id":"CTA","transit":true,"distance":5084,"i_lat":-6.448811},{"is_transit":false,"i_lat":-6.460735,"station_id":"PDRG","line":21,"time":0,"transit":false,"station_name":"Pondok Rajeg","distance":0,"i_long":106.824374},{"transit":false,"is_transit":false,"i_lat":-6.46424,"station_name":"Cibinong","i_long":106.851978,"line":21,"time":0,"distance":0,"station_id":"CBN"},{"time":10,"i_long":106.905196,"station_name":"Nambo","transit":false,"station_id":"NMO","line":21,"is_transit":false,"distance":6527,"i_lat":-6.466285}],[{"station_name":"Sudimara","line":6,"time":0,"station_id":"SDM","transit":false,"distance":0,"i_long":106.712277,"is_transit":false,"i_lat":-6.296963},{"is_transit":false,"distance":1994,"station_name":"Jurangmangu","station_id":"JMU","line":6,"i_long":106.728916,"i_lat":-6.288927,"time":4,"transit":false},{"station_name":"Pondokranji","line":6,"i_lat":-6.276362,"transit":false,"i_long":106.74273,"time":3,"distance":2179,"station_id":"PDJ","is_transit":false},{"station_name":"Kebayoran","is_transit":false,"i_long":106.780334,"transit":false,"station_id":"KBY","distance":6218,"line":6,"i_lat":-6.237242,"time":8},{"line":6,"is_transit":false,"distance":3737,"station_name":"Palmerah","station_id":"PLM","i_long":106.79689,"time":7,"i_lat":-6.207404,"transit":false},{"is_transit":true,"station_id":"THB","i_lat":-6.185545,"distance":3191,"station_name":"Tanah Abang","time":6,"line":1,"i_long":106.811091,"transit":true},{"is_transit":false,"station_id":"DU","time":8,"distance":3632,"i_lat":-6.155215,"line":1,"transit":false,"i_long":106.800832,"station_name":"Duri"},{"station_name":"Angke","station_id":"AK","is_transit":false,"transit":false,"time":4,"line":1,"i_long":106.79867,"i_lat":-6.144674,"distance":1230},{"station_id":"KPB","is_transit":true,"station_name":"Kampung Bandan","transit":true,"line":4,"i_lat":-6.132549,"time":9,"distance":4102,"i_long":106.826365},{"is_transit":false,"transit":false,"station_id":"RJW","line":11,"i_long":106.836569,"i_lat":-6.14505,"time":3,"distance":1444,"station_name":"Rajawali"},{"transit":false,"station_id":"KMO","station_name":"Kemayoran","is_transit":false,"distance":1901,"time":5,"i_lat":-6.161728,"line":11,"i_long":106.839204},{"i_long":106.84368,"i_lat":-6.174784,"line":11,"transit":false,"time":4,"is_transit":false,"station_name":"Pasar Senen","station_id":"PSE","distance":1436},{"i_long":106.850107,"line":11,"station_id":"GST","time":8,"i_lat":-6.185975,"transit":false,"is_transit":false,"distance":1567,"station_name":"Gang Sentiong"},{"time":1,"distance":973,"station_id":"KMT","i_lat":-6.193792,"line":11,"i_long":106.855437,"station_name":"Kramat","is_transit":false,"transit":false},{"i_lat":-6.209188,"time":2,"station_id":"POK","line":11,"transit":false,"station_name":"Pondok Jati","i_long":106.861737,"distance":1829,"is_transit":false},{"line":1,"station_name":"Jatinegara","station_id":"JNG","transit":true,"time":9,"distance":1236,"is_transit":true,"i_lat":-6.215091,"i_long":106.86807400000001},{"station_name":"Matraman","station_id":"MTR","time":2,"transit":false,"i_lat":-6.212485,"i_long":106.858896,"is_transit":false,"line":1,"distance":1377},{"line":2,"station_id":"MRI","i_long":106.84912,"transit":true,"is_transit":true,"station_name":"Manggarai","distance":1275,"time":2,"i_lat":-6.209883},{"i_long":106.857948,"distance":2610,"line":2,"is_transit":false,"time":4,"transit":false,"i_lat":-6.226659,"station_name":"Tebet","station_id":"TEB"},{"time":2,"i_long":106.856607,"is_transit":false,"transit":false,"station_name":"Cawang","i_lat":-6.242512,"station_id":"CW","line":2,"distance":1230},{"is_transit":false,"time":3,"distance":1546,"transit":false,"station_id":"DRN","i_lat":-6.255332,"station_name":"Duren Kalibata","i_long":106.85449,"line":2},{"i_lat":-6.263214,"is_transit":false,"i_long":106.851577,"time":2,"distance":824,"transit":false,"station_id":"PSMB","station_name":"Pasar Minggu Baru","line":2},{"station_id":"PSM","i_long":106.843999,"transit":false,"is_transit":false,"station_name":"Pasar Minggu","time":2,"line":2,"distance":2380,"i_lat":-6.2842400000000005},{"line":2,"distance":2820,"i_long":106.838896,"station_id":"TNT","station_name":"Tanjung Barat","time":4,"transit":false,"i_lat":-6.3080680000000005,"is_transit":false},{"transit":false,"is_transit":false,"station_id":"LNA","time":3,"station_name":"Lenteng Agung","distance":2671,"i_lat":-6.330363,"i_long":106.832616,"line":2},{"transit":false,"line":2,"station_name":"Univ. Pancasila","time":2,"distance":1029,"i_lat":-6.339291,"station_id":"UP","is_transit":false,"i_long":106.834175},{"is_transit":false,"line":2,"station_name":"Univ. Indonesia","station_id":"UI","transit":false,"i_lat":-6.360749,"i_long":106.831474,"time":3,"distance":2264},{"i_lat":-6.369073,"line":2,"distance":1109,"i_long":106.831114,"time":2,"station_name":"Pondok Cina","station_id":"POC","is_transit":false,"transit":false},{"distance":2727,"is_transit":false,"line":2,"station_name":"Depokbaru","station_id":"DPB","time":4,"transit":false,"i_long":106.819451,"i_lat":-6.391065},{"time":3,"line":2,"is_transit":false,"distance":1584,"i_long":106.816926,"transit":false,"i_lat":-6.405256,"station_id":"DP","station_name":"Depok"},{"station_id":"CTA","i_long":106.800298,"distance":5084,"line":2,"time":6,"is_transit":true,"transit":true,"station_name":"Citayam","i_lat":-6.448811},{"station_name":"Pondok Rajeg","line":21,"i_long":106.824374,"i_lat":-6.460735,"station_id":"PDRG","time":0,"is_transit":false,"distance":0,"transit":false},{"i_lat":-6.46424,"transit":false,"i_long":106.851978,"line":21,"is_transit":false,"time":0,"distance":0,"station_name":"Cibinong","station_id":"CBN"},{"time":10,"i_long":106.905196,"is_transit":false,"station_id":"NMO","line":21,"transit":false,"station_name":"Nambo","i_lat":-6.466285,"distance":6527}]]}