{"data":[[{"time":0,"line":6,"transit":false,"i_long":106.712277,"is_transit":false,"station_name":"Sudimara","station_id":"SDM","distance":0,"i_lat":-6.296963},{"i_lat":-6.288927,"distance":1994,"station_id":"JMU","station_name":"Jurangmangu","time":4,"line":6,"i_long":106.728916,"is_transit":false,"transit":false},{"i_lat":-6.276362,"transit":false,"station_name":"Pondokranji","time":3,"is_transit":false,"i_long":106.74273,"station_id":"PDJ","line":6,"distance":2179},{"transit":false,"distance":6218,"station_name":"Kebayoran","i_lat":-6.237242,"i_long":106.780334,"time":8,"line":6,"station_id":"KBY","is_transit":false},{"station_id":"PLM","transit":false,"station_name":"Palmerah","is_transit":false,"time":7,"distance":3737,"i_lat":-6.207404,"i_long":106.79689,"line":6},{"transit":true,"line":1,"is_transit":true,"time":6,"station_name":"Tanah Abang","station_id":"THB","distance":3191,"i_lat":-6.185545,"i_long":106.811091},{"is_transit":false,"i_lat":-6.20132,"transit":false,"time":5,"station_name":"Karet","line":1,"distance":2029,"i_long":106.816351,"station_id":"KAT"},{"time":1,"line":1,"i_lat":-6.201433,"distance":471,"station_id":"SUDB","i_long":106.819881,"is_transit":false,"transit":false,"station_name":"Sudirman Baru"},{"transit":false,"distance":280,"station_name":"Sudirman","station_id":"SUD","is_transit":false,"i_long":106.822649,"line":1,"i_lat":-6.202263,"time":1},{"i_long":106.84912,"station_name":"Manggarai","i_lat":-6.209883,"time":4,"station_id":"MRI","line":2,"is_transit":true,"distance":3186,"transit":true},{"line":2,"station_name":"Tebet","is_transit":false,"time":4,"transit":false,"station_id":"TEB","distance":2610,"i_long":106.857948,"i_lat":-6.226659},{"transit":false,"time":2,"i_long":106.856607,"station_name":"Cawang","line":2,"station_id":"CW","i_lat":-6.242512,"is_transit":false,"distance":1230},{"station_name":"Duren Kalibata","i_lat":-6.255332,"i_long":106.85449,"is_transit":false,"time":3,"distance":1546,"transit":false,"station_id":"DRN","line":2},{"i_long":106.851577,"transit":false,"time":2,"is_transit":false,"station_name":"Pasar Minggu Baru","distance":824,"i_lat":-6.263214,"line":2,"station_id":"PSMB"},{"time":2,"station_id":"PSM","is_transit":false,"distance":2380,"i_long":106.843999,"station_name":"Pasar Minggu","line":2,"transit":false,"i_lat":-6.2842400000000005},{"i_long":106.838896,"station_id":"TNT","station_name":"Tanjung Barat","is_transit":false,"time":4,"transit":false,"i_lat":-6.3080680000000005,"line":2,"distance":2820},{"station_name":"Lenteng Agung","line":2,"station_id":"LNA","distance":2671,"time":3,"i_lat":-6.330363,"transit":false,"is_transit":false,"i_long":106.832616},{"distance":1029,"i_lat":-6.339291,"line":2,"transit":false,"i_long":106.834175,"is_transit":false,"station_name":"Univ. Pancasila","time":2,"station_id":"UP"},{"time":3,"i_lat":-6.360749,"line":2,"i_long":106.831474,"is_transit":false,"station_id":"UI","station_name":"Univ. Indonesia","distance":2264,"transit":false},{"time":2,"i_long":106.831114,"is_transit":false,"transit":false,"station_name":"Pondok Cina","station_id":"POC","i_lat":-6.369073,"line":2,"distance":1109},{"time":4,"is_transit":false,"i_long":106.819451,"distance":2727,"station_name":"Depokbaru","station_id":"DPB","i_lat":-6.391065,"line":2,"transit":false},{"is_transit":false,"line":2,"transit":false,"distance":1584,"station_id":"DP","station_name":"Depok","time":3,"i_lat":-6.405256,"i_long":106.816926},{"line":2,"time":6,"i_lat":-6.448811,"transit":true,"distance":5084,"is_transit":true,"station_name":"Citayam","station_id":"CTA","i_long":106.800298},{"distance":0,"i_long":106.824374,"line":21,"station_name":"Pondok Rajeg","is_transit":false,"transit":false,"time":0,"station_id":"PDRG","i_lat":-6.460735},{"i_long":106.851978,"is_transit":false,"station_name":"Cibinong","i_lat":-6.46424,"distance":0,"transit":false,"line":21,"station_id":"CBN","time":0},{"i_long":106.905196,"is_transit":false,"station_name":"Nambo","line":21,"station_id":"NMO","transit":false,"time":10,"i_lat":-6.466285,"distance":6527}],[{"time":0,"i_long":106.712277,"station_name":"Sudimara","station_id":"SDM","i_lat":-6.296963,"line":6,"is_transit":false,"transit":false,"distance":0},{"is_transit":false,"i_long":106.728916,"station_name":"Jurangmangu","line":6,"transit":false,"station_id":"JMU","i_lat":-6.288927,"time":4,"distance":1994},{"transit":false,"i_lat":-6.276362,"i_long":106.74273,"is_transit":false,"line":6,"distance":2179,"time":3,"station_name":"Pondokranji","station_id":"PDJ"},{"transit":false,"i_long":106.780334,"distance":6218,"time":8,"i_lat":-6.237242,"station_name":"Kebayoran","station_id":"KBY","line":6,"is_transit":false},{"line":6,"transit":false,"time":7,"station_name":"Palmerah","i_long":106.79689,"station_id":"PLM","i_lat":-6.207404,"distance":3737,"is_transit":false},{"is_transit":true,"transit":true,"time":6,"distance":3191,"station_name":"Tanah Abang","station_id":"THB","i_lat":-6.185545,"line":1,"i_long":106.811091},{"distance":3632,"transit":false,"station_id":"DU","station_name":"Duri","i_lat":-6.155215,"i_long":106.800832,"line":1,"time":8,"is_transit":false},{"i_lat":-6.144674,"station_name":"Angke","transit":false,"line":1,"is_transit":false,"time":4,"station_id":"AK","distance":1230,"i_long":106.79867},{"is_transit":true,"time":9,"line":4,"distance":4102,"i_lat":-6.132549,"transit":true,"i_long":106.826365,"station_id":"KPB","station_name":"Kampung Bandan"},{"time":3,"station_id":"JAKK","station_name":"Jakarta Kota","i_long":106.812439,"is_transit":true,"transit":true,"distance":1364,"line":2,"i_lat":-6.137569},{"transit":false,"station_id":"JAY","i_long":106.820901,"is_transit":false,"station_name":"Jayakarta","time":4,"i_lat":-6.141205,"line":2,"distance":1264},{"time":2,"is_transit":false,"transit":false,"i_lat":-6.149769,"line":2,"i_long":106.82482,"station_id":"MGB","station_name":"Manggabesar","distance":1080},{"is_transit":false,"transit":false,"station_name":"Sawah Besar","i_lat":-6.160725,"time":2,"line":2,"station_id":"SW","distance":906,"i_long":106.827103},{"transit":false,"station_name":"Juanda","distance":1149,"is_transit":false,"i_lat":-6.166716,"line":2,"station_id":"JUA","i_long":106.828284,"time":2},{"station_id":"GDD","is_transit":false,"distance":2015,"station_name":"Gondangdia","i_lat":-6.186295,"i_long":106.832183,"line":2,"time":4,"transit":false},{"transit":false,"i_long":106.840169,"distance":1750,"is_transit":false,"time":3,"station_id":"CKI","line":2,"station_name":"Cikini","i_lat":-6.198556},{"station_id":"MRI","transit":false,"time":4,"is_transit":false,"station_name":"Manggarai","i_long":106.84912,"line":2,"i_lat":-6.209883,"distance":1590},{"time":4,"transit":false,"is_transit":false,"distance":2610,"station_name":"Tebet","station_id":"TEB","i_lat":-6.226659,"line":2,"i_long":106.857948},{"station_id":"CW","i_long":106.856607,"time":2,"transit":false,"i_lat":-6.242512,"is_transit":false,"line":2,"distance":1230,"station_name":"Cawang"},{"i_long":106.85449,"distance":1546,"station_name":"Duren Kalibata","is_transit":false,"station_id":"DRN","line":2,"time":3,"transit":false,"i_lat":-6.255332},{"distance":824,"transit":false,"station_name":"Pasar Minggu Baru","station_id":"PSMB","time":2,"i_lat":-6.263214,"i_long":106.851577,"line":2,"is_transit":false},{"is_transit":false,"transit":false,"time":2,"station_name":"Pasar Minggu","i_long":106.843999,"i_lat":-6.2842400000000005,"line":2,"distance":2380,"station_id":"PSM"},{"time":4,"transit":false,"i_lat":-6.3080680000000005,"line":2,"station_id":"TNT","distance":2820,"station_name":"Tanjung Barat","i_long":106.838896,"is_transit":false},{"time":3,"is_transit":false,"i_long":106.832616,"transit":false,"i_lat":-6.330363,"station_id":"LNA","distance":2671,"line":2,"station_name":"Lenteng Agung"},{"time":2,"line":2,"station_id":"UP","station_name":"Univ. Pancasila","is_transit":false,"transit":false,"i_long":106.834175,"distance":1029,"i_lat":-6.339291},{"station_id":"UI","distance":2264,"station_name":"Univ. Indonesia","line":2,"transit":false,"i_lat":-6.360749,"is_transit":false,"i_long":106.831474,"time":3},{"is_transit":false,"transit":false,"station_id":"POC","station_name":"Pondok Cina","time":2,"i_lat":-6.369073,"distance":1109,"i_long":106.831114,"line":2},{"i_long":106.819451,"distance":2727,"time":4,"is_transit":false,"line":2,"i_lat":-6.391065,"transit":false,"station_id":"DPB","station_name":"Depokbaru"},{"station_name":"Depok","distance":1584,"is_transit":false,"transit":false,"time":3,"station_id":"DP","i_long":106.816926,"line":2,"i_lat":-6.405256},{"station_name":"Citayam","i_lat":-6.448811,"distance":5084,"is_transit":true,"time":6,"transit":true,"i_long":106.800298,"station_id":"CTA","line":2},{"station_id":"PDRG","i_long":106.824374,"line":21,"i_lat":-6.460735,"is_transit":false,"transit":false,"station_name":"Pondok Rajeg","time":0,"distance":0},{"distance":0,"i_long":106.851978,"station_id":"CBN","transit":false,"is_transit":false,"station_name":"Cibinong","time":0,"i_lat":-6.46424,"line":21},{"line":21,"is_transit":false,"i_lat":-6.466285,"transit":false,"station_id":"NMO","i_long":106.905196,"distance":6527,"time":10,"station_name":"Nambo"}],[{"station_name":"Sudimara","transit":false,"distance":0,"is_transit":false,"time":0,"station_id":"SDM","i_long":106.712277,"i_lat":-6.296963,"line":6},{"station_id":"JMU","time":4,"line":6,"transit":false,"distance":1994,"station_name":"Jurangmangu","is_transit":false,"i_lat":-6.288927,"i_long":106.728916},{"is_transit":false,"time":3,"station_id":"PDJ","transit":false,"distance":2179,"i_long":106.74273,"station_name":"Pondokranji","i_lat":-6.276362,"line":6},{"time":8,"i_long":106.780334,"station_id":"KBY","transit":false,"i_lat":-6.237242,"station_name":"Kebayoran","line":6,"is_transit":false,"distance":6218},{"i_long":106.79689,"line":6,"distance":3737,"i_lat":-6.207404,"is_transit":false,"transit":false,"station_id":"PLM","station_name":"Palmerah","time":7},{"time":6,"station_id":"THB","line":1,"station_name":"Tanah Abang","i_long":106.811091,"transit":true,"i_lat":-6.185545,"distance":3191,"is_transit":true},{"line":1,"distance":3632,"time":8,"is_transit":false,"station_name":"Duri","i_long":106.800832,"i_lat":-6.155215,"station_id":"DU","transit":false},{"i_long":106.79867,"distance":1230,"line":1,"time":4,"transit":false,"is_transit":false,"i_lat":-6.144674,"station_name":"Angke","station_id":"AK"},{"i_lat":-6.132549,"distance":4102,"transit":true,"line":4,"time":9,"i_long":106.826365,"is_transit":true,"station_id":"KPB","station_name":"Kampung Bandan"},{"transit":false,"line":11,"i_lat":-6.14505,"station_name":"Rajawali","distance":1444,"is_transit":false,"time":3,"station_id":"RJW","i_long":106.836569},{"i_long":106.839204,"line":11,"distance":1901,"i_lat":-6.161728,"is_transit":false,"station_id":"KMO","time":5,"station_name":"Kemayoran","transit":false},{"i_long":106.84368,"line":11,"is_transit":false,"station_name":"Pasar Senen","distance":1436,"station_id":"PSE","transit":false,"time":4,"i_lat":-6.174784},{"distance":1567,"station_name":"Gang Sentiong","i_lat":-6.185975,"line":11,"station_id":"GST","is_transit":false,"transit":false,"i_long":106.850107,"time":8},{"distance":973,"i_long":106.855437,"station_id":"KMT","line":11,"is_transit":false,"i_lat":-6.193792,"time":1,"station_name":"Kramat","transit":false},{"is_transit":false,"distance":1829,"station_id":"POK","i_lat":-6.209188,"i_long":106.861737,"line":11,"transit":false,"station_name":"Pondok Jati","time":2},{"is_transit":true,"line":1,"time":9,"i_long":106.86807400000001,"station_id":"JNG","transit":true,"distance":1236,"station_name":"Jatinegara","i_lat":-6.215091},{"distance":1377,"station_id":"MTR","i_lat":-6.212485,"line":1,"station_name":"Matraman","i_long":106.858896,"time":2,"transit":false,"is_transit":false},{"i_lat":-6.209883,"i_long":106.84912,"distance":1275,"station_name":"Manggarai","station_id":"MRI","transit":true,"is_transit":true,"time":2,"line":2},{"distance":2610,"is_transit":false,"transit":false,"i_lat":-6.226659,"time":4,"i_long":106.857948,"station_name":"Tebet","station_id":"TEB","line":2},{"time":2,"i_lat":-6.242512,"station_name":"Cawang","i_long":106.856607,"line":2,"is_transit":false,"transit":false,"station_id":"CW","distance":1230},{"station_name":"Duren Kalibata","station_id":"DRN","transit":false,"i_long":106.85449,"line":2,"is_transit":false,"time":3,"i_lat":-6.255332,"distance":1546},{"transit":false,"line":2,"station_name":"Pasar Minggu Baru","station_id":"PSMB","time":2,"is_transit":false,"distance":824,"i_long":106.851577,"i_lat":-6.263214},{"transit":false,"line":2,"i_lat":-6.2842400000000005,"time":2,"is_transit":false,"distance":2380,"i_long":106.843999,"station_id":"PSM","station_name":"Pasar Minggu"},{"station_name":"Tanjung Barat","station_id":"TNT","transit":false,"i_long":106.838896,"line":2,"is_transit":false,"time":4,"i_lat":-6.3080680000000005,"distance":2820},{"transit":false,"is_transit":false,"station_id":"LNA","station_name":"Lenteng Agung","line":2,"time":3,"distance":2671,"i_lat":-6.330363,"i_long":106.832616},{"station_id":"UP","station_name":"Univ. Pancasila","i_long":106.834175,"is_transit":false,"distance":1029,"i_lat":-6.339291,"time":2,"line":2,"transit":false},{"station_id":"UI","i_lat":-6.360749,"time":3,"station_name":"Univ. Indonesia","line":2,"transit":false,"is_transit":false,"distance":2264,"i_long":106.831474},{"i_long":106.831114,"line":2,"is_transit":false,"station_id":"POC","time":2,"transit":false,"station_name":"Pondok Cina","i_lat":-6.369073,"distance":1109},{"is_transit":false,"line":2,"i_long":106.819451,"i_lat":-6.391065,"station_name":"Depokbaru","time":4,"distance":2727,"station_id":"DPB","transit":false},{"is_transit":false,"station_name":"Depok","i_long":106.816926,"line":2,"i_lat":-6.405256,"transit":false,"station_id":"DP","time":3,"distance":1584},{"line":2,"transit":true,"station_id":"CTA","time":6,"i_lat":-6.448811,"i_long":106.800298,"station_name":"Citayam","distance":5084,"is_transit":true},{"transit":false,"distance":0,"time":0,"line":21,"is_transit":false,"station_name":"Pondok Rajeg","station_id":"PDRG","i_lat":-6.460735,"i_long":106.824374},{"station_id":"CBN","line":21,"time":0,"station_name":"Cibinong","i_lat":-6.46424,"is_transit":false,"distance":0,"i_long":106.851978,"transit":false},{"i_lat":-6.466285,"time":10,"distance":6527,"line":21,"station_name":"Nambo","transit":false,"station_id":"NMO","i_long":106.905196,"is_transit":false}]]}