{"data":[[{"station_id":"SDM","i_long":106.712277,"transit":false,"i_lat":-6.296963,"distance":0,"is_transit":false,"time":0,"line":6,"station_name":"Sudimara"},{"distance":4566,"i_lat":-6.314823,"time":6,"station_id":"RU","i_long":106.675475,"line":6,"station_name":"Rawa Buntu","is_transit":false,"transit":false},{"distance":2413,"i_lat":-6.319871,"station_id":"SRP","station_name":"Serpong","is_transit":false,"transit":false,"time":4,"i_long":106.66566,"line":6},{"i_long":106.640411,"station_name":"Cisauk","transit":false,"station_id":"CSK","i_lat":-6.32484,"distance":1784,"time":4,"line":0,"is_transit":false},{"station_name":"Cicayur","station_id":"CC","i_lat":-6.329547,"distance":2519,"transit":false,"time":4,"i_long":106.617853,"line":0,"is_transit":false},{"line":6,"station_id":"PRP","distance":5968,"is_transit":false,"i_lat":-6.3441410000000005,"i_long":106.568863,"station_name":"Parung Panjang","transit":false,"time":8},{"transit":false,"station_id":"CJT","station_name":"Cilejit","is_transit":false,"time":9,"i_lat":-6.354349,"i_long":106.508482,"distance":7025,"line":0},{"station_name":"Daru","is_transit":false,"station_id":"DAR","transit":false,"i_lat":-6.338021,"distance":2675,"line":0,"time":6,"i_long":106.491338},{"i_long":106.460812,"station_id":"TEJ","time":5,"i_lat":-6.327251,"line":6,"transit":false,"distance":3902,"station_name":"Tenjo","is_transit":false},{"distance":2974,"line":6,"is_transit":false,"i_long":106.425991,"station_id":"TGS","time":5,"transit":false,"station_name":"Tigaraksa","i_lat":-6.328533}]]}