{"data":[[{"station_name":"Sudimara","time":0,"station_id":"SDM","i_lat":-6.296963,"transit":false,"line":6,"is_transit":false,"i_long":106.712277,"distance":0},{"station_name":"Jurangmangu","time":4,"is_transit":false,"i_lat":-6.288927,"line":6,"station_id":"JMU","i_long":106.728916,"transit":false,"distance":1994},{"line":6,"station_name":"Pondokranji","time":3,"station_id":"PDJ","transit":false,"is_transit":false,"i_long":106.74273,"distance":2179,"i_lat":-6.276362},{"station_name":"Kebayoran","distance":6218,"is_transit":false,"line":6,"i_long":106.780334,"i_lat":-6.237242,"station_id":"KBY","transit":false,"time":8},{"transit":false,"i_lat":-6.207404,"is_transit":false,"i_long":106.79689,"line":6,"distance":3737,"station_name":"Palmerah","time":7,"station_id":"PLM"},{"time":6,"transit":true,"is_transit":true,"i_long":106.811091,"line":1,"station_name":"Tanah Abang","i_lat":-6.185545,"distance":3191,"station_id":"THB"},{"is_transit":false,"transit":false,"time":5,"i_lat":-6.20132,"station_name":"Karet","i_long":106.816351,"station_id":"KAT","line":1,"distance":2029},{"i_long":106.819881,"line":1,"transit":false,"i_lat":-6.201433,"time":1,"distance":471,"station_id":"SUDB","station_name":"Sudirman Baru","is_transit":false},{"station_name":"Sudirman","line":1,"station_id":"SUD","distance":280,"i_lat":-6.202263,"i_long":106.822649,"is_transit":false,"time":1,"transit":false},{"i_long":106.84912,"time":4,"distance":3186,"station_id":"MRI","transit":false,"is_transit":true,"line":0,"station_name":"Manggarai","i_lat":-6.209883},{"transit":false,"line":1,"i_long":106.858896,"station_id":"MTR","distance":1275,"is_transit":false,"time":2,"station_name":"Matraman","i_lat":-6.212485},{"time":8,"distance":1377,"i_long":106.86807400000001,"station_id":"JNG","i_lat":-6.215091,"line":0,"station_name":"Jatinegara","transit":false,"is_transit":true},{"station_id":"KLD","i_long":106.899548,"station_name":"Klender","is_transit":false,"distance":3395,"time":3,"i_lat":-6.2135,"transit":false,"line":1},{"i_long":106.922662,"i_lat":-6.215568,"time":2,"is_transit":false,"line":0,"station_id":"BUA","distance":3100,"transit":false,"station_name":"Buaran"},{"distance":1305,"station_id":"KLDB","line":1,"station_name":"Klenderbaru","transit":false,"is_transit":false,"time":1,"i_lat":-6.217455,"i_long":106.939679},{"is_transit":false,"station_name":"Cakung","transit":false,"distance":1385,"i_long":106.951283,"i_lat":-6.219053,"line":0,"station_id":"CUK","time":8},{"time":3,"station_id":"KRI","transit":false,"i_long":106.977657,"distance":3097,"i_lat":-6.224515,"line":1,"is_transit":false,"station_name":"Kranji"},{"i_lat":-6.236616,"station_name":"Bekasi","station_id":"BKS","line":0,"time":4,"distance":2520,"i_long":106.997013,"transit":false,"is_transit":false},{"i_long":107.016735,"station_name":"Bekasi Timur","line":0,"time":2,"distance":2368,"transit":false,"is_transit":false,"i_lat":-6.248029,"station_id":"BKST"},{"is_transit":false,"distance":4460,"station_id":"TB","station_name":"Tambun","time":7,"i_lat":-6.258864,"line":1,"transit":false,"i_long":107.055722},{"line":0,"time":3,"is_transit":false,"i_lat":-6.261877,"distance":3420,"transit":false,"i_long":107.083084,"station_name":"Cibitung","station_id":"CIT"},{"station_id":"TLM","distance":2800,"is_transit":false,"time":2,"station_name":"Metland Telaga Murni","transit":false,"i_lat":-6.262938,"i_long":107.093313,"line":1}],[{"station_name":"Sudimara","transit":false,"time":0,"distance":0,"i_long":106.712277,"line":6,"is_transit":false,"station_id":"SDM","i_lat":-6.296963},{"transit":false,"distance":1994,"time":4,"i_lat":-6.288927,"station_id":"JMU","line":6,"i_long":106.728916,"station_name":"Jurangmangu","is_transit":false},{"station_name":"Pondokranji","line":6,"distance":2179,"is_transit":false,"i_lat":-6.276362,"transit":false,"time":3,"station_id":"PDJ","i_long":106.74273},{"is_transit":false,"distance":6218,"transit":false,"station_name":"Kebayoran","station_id":"KBY","i_lat":-6.237242,"line":6,"time":8,"i_long":106.780334},{"i_long":106.79689,"i_lat":-6.207404,"is_transit":false,"distance":3737,"station_name":"Palmerah","time":7,"line":6,"station_id":"PLM","transit":false},{"transit":true,"line":1,"station_id":"THB","time":6,"station_name":"Tanah Abang","i_lat":-6.185545,"distance":3191,"i_long":106.811091,"is_transit":true},{"line":1,"distance":3632,"is_transit":true,"time":8,"transit":true,"i_lat":-6.155215,"i_long":106.800832,"station_id":"DU","station_name":"Duri"},{"i_lat":-6.144674,"i_long":106.79867,"time":4,"station_id":"AK","distance":1230,"line":0,"is_transit":false,"station_name":"Angke","transit":false},{"is_transit":true,"time":9,"transit":true,"i_long":106.826365,"station_name":"Kampung Bandan","line":0,"i_lat":-6.132549,"distance":4102,"station_id":"KPB"},{"i_long":106.836569,"time":3,"line":11,"distance":1444,"station_id":"RJW","is_transit":false,"station_name":"Rajawali","transit":false,"i_lat":-6.14505},{"line":11,"i_lat":-6.161728,"station_name":"Kemayoran","i_long":106.839204,"is_transit":false,"station_id":"KMO","time":5,"transit":false,"distance":1901},{"station_name":"Pasar Senen","station_id":"PSE","distance":1436,"line":11,"transit":false,"is_transit":false,"i_lat":-6.174784,"time":4,"i_long":106.84368},{"station_id":"GST","transit":false,"distance":1567,"is_transit":false,"i_long":106.850107,"time":8,"i_lat":-6.185975,"station_name":"Gang Sentiong","line":11},{"line":11,"station_name":"Kramat","i_long":106.855437,"distance":973,"time":1,"station_id":"KMT","is_transit":false,"transit":false,"i_lat":-6.193792},{"station_id":"POK","is_transit":false,"i_long":106.861737,"line":11,"station_name":"Pondok Jati","transit":false,"i_lat":-6.209188,"time":2,"distance":1829},{"i_long":106.86807400000001,"line":0,"transit":true,"distance":1236,"station_name":"Jatinegara","station_id":"JNG","time":9,"is_transit":true,"i_lat":-6.215091},{"line":1,"i_lat":-6.2135,"is_transit":false,"i_long":106.899548,"distance":3395,"station_id":"KLD","transit":false,"station_name":"Klender","time":3},{"distance":3100,"line":0,"i_long":106.922662,"transit":false,"time":2,"is_transit":false,"station_name":"Buaran","station_id":"BUA","i_lat":-6.215568},{"transit":false,"time":1,"station_id":"KLDB","i_long":106.939679,"distance":1305,"i_lat":-6.217455,"is_transit":false,"station_name":"Klenderbaru","line":1},{"time":8,"distance":1385,"is_transit":false,"line":0,"i_long":106.951283,"station_name":"Cakung","transit":false,"station_id":"CUK","i_lat":-6.219053},{"distance":3097,"time":3,"transit":false,"is_transit":false,"line":1,"i_long":106.977657,"i_lat":-6.224515,"station_name":"Kranji","station_id":"KRI"},{"transit":false,"station_id":"BKS","distance":2520,"line":0,"i_lat":-6.236616,"is_transit":false,"station_name":"Bekasi","time":4,"i_long":106.997013},{"line":0,"distance":2368,"time":2,"i_long":107.016735,"station_id":"BKST","transit":false,"is_transit":false,"station_name":"Bekasi Timur","i_lat":-6.248029},{"i_lat":-6.258864,"time":7,"distance":4460,"station_id":"TB","i_long":107.055722,"is_transit":false,"line":1,"station_name":"Tambun","transit":false},{"distance":3420,"station_name":"Cibitung","i_lat":-6.261877,"time":3,"line":0,"transit":false,"is_transit":false,"i_long":107.083084,"station_id":"CIT"},{"i_long":107.093313,"is_transit":false,"station_name":"Metland Telaga Murni","i_lat":-6.262938,"station_id":"TLM","time":2,"transit":false,"distance":2800,"line":1}],[{"station_id":"SDM","transit":false,"i_lat":-6.296963,"time":0,"is_transit":false,"i_long":106.712277,"line":6,"distance":0,"station_name":"Sudimara"},{"time":4,"station_id":"JMU","is_transit":false,"i_lat":-6.288927,"station_name":"Jurangmangu","transit":false,"line":6,"i_long":106.728916,"distance":1994},{"transit":false,"i_long":106.74273,"line":6,"i_lat":-6.276362,"station_id":"PDJ","time":3,"distance":2179,"is_transit":false,"station_name":"Pondokranji"},{"distance":6218,"station_name":"Kebayoran","i_lat":-6.237242,"i_long":106.780334,"is_transit":false,"transit":false,"time":8,"line":6,"station_id":"KBY"},{"i_long":106.79689,"line":6,"station_id":"PLM","i_lat":-6.207404,"station_name":"Palmerah","time":7,"distance":3737,"is_transit":false,"transit":false},{"line":1,"i_long":106.811091,"transit":true,"station_id":"THB","station_name":"Tanah Abang","distance":3191,"i_lat":-6.185545,"is_transit":true,"time":6},{"distance":3632,"is_transit":true,"time":8,"i_long":106.800832,"station_name":"Duri","transit":true,"station_id":"DU","i_lat":-6.155215,"line":1},{"time":4,"station_id":"AK","i_lat":-6.144674,"i_long":106.79867,"distance":1230,"is_transit":false,"line":0,"station_name":"Angke","transit":false},{"time":9,"distance":4102,"i_lat":-6.132549,"station_id":"KPB","transit":false,"i_long":106.826365,"line":0,"is_transit":true,"station_name":"Kampung Bandan"},{"distance":1364,"station_id":"JAKK","transit":true,"is_transit":true,"time":3,"i_lat":-6.137569,"i_long":106.812439,"station_name":"Jakarta Kota","line":0},{"transit":false,"is_transit":false,"station_name":"Jayakarta","time":4,"distance":1264,"i_long":106.820901,"line":7,"station_id":"JAY","i_lat":-6.141205},{"distance":1080,"time":2,"line":2,"station_id":"MGB","station_name":"Manggabesar","is_transit":false,"i_long":106.82482,"transit":false,"i_lat":-6.149769},{"i_long":106.827103,"station_name":"Sawah Besar","station_id":"SW","is_transit":false,"distance":906,"transit":false,"i_lat":-6.160725,"line":2,"time":2},{"station_id":"JUA","transit":false,"line":2,"i_long":106.828284,"distance":1149,"is_transit":false,"station_name":"Juanda","i_lat":-6.166716,"time":2},{"time":4,"distance":2015,"station_id":"GDD","line":2,"is_transit":false,"i_lat":-6.186295,"station_name":"Gondangdia","i_long":106.832183,"transit":false},{"i_long":106.840169,"is_transit":false,"distance":1750,"station_name":"Cikini","line":0,"station_id":"CKI","transit":false,"time":3,"i_lat":-6.198556},{"transit":true,"line":0,"is_transit":true,"distance":1590,"time":4,"station_name":"Manggarai","i_long":106.84912,"station_id":"MRI","i_lat":-6.209883},{"distance":1275,"transit":false,"line":1,"is_transit":false,"time":2,"station_name":"Matraman","i_long":106.858896,"station_id":"MTR","i_lat":-6.212485},{"i_long":106.86807400000001,"line":0,"transit":false,"i_lat":-6.215091,"is_transit":true,"station_name":"Jatinegara","station_id":"JNG","time":8,"distance":1377},{"station_name":"Klender","time":3,"distance":3395,"station_id":"KLD","i_long":106.899548,"i_lat":-6.2135,"line":1,"transit":false,"is_transit":false},{"station_id":"BUA","time":2,"i_long":106.922662,"line":0,"distance":3100,"station_name":"Buaran","i_lat":-6.215568,"transit":false,"is_transit":false},{"station_id":"KLDB","is_transit":false,"station_name":"Klenderbaru","distance":1305,"i_lat":-6.217455,"i_long":106.939679,"line":1,"time":1,"transit":false},{"station_id":"CUK","station_name":"Cakung","line":0,"time":8,"i_long":106.951283,"i_lat":-6.219053,"transit":false,"distance":1385,"is_transit":false},{"distance":3097,"is_transit":false,"station_name":"Kranji","time":3,"i_lat":-6.224515,"i_long":106.977657,"station_id":"KRI","line":1,"transit":false},{"is_transit":false,"i_lat":-6.236616,"i_long":106.997013,"line":0,"time":4,"station_id":"BKS","station_name":"Bekasi","transit":false,"distance":2520},{"station_id":"BKST","station_name":"Bekasi Timur","time":2,"i_lat":-6.248029,"transit":false,"distance":2368,"i_long":107.016735,"line":0,"is_transit":false},{"i_lat":-6.258864,"station_id":"TB","i_long":107.055722,"line":1,"distance":4460,"time":7,"is_transit":false,"transit":false,"station_name":"Tambun"},{"time":3,"station_name":"Cibitung","station_id":"CIT","line":0,"distance":3420,"is_transit":false,"i_long":107.083084,"transit":false,"i_lat":-6.261877},{"time":2,"i_long":107.093313,"station_name":"Metland Telaga Murni","is_transit":false,"line":1,"station_id":"TLM","distance":2800,"i_lat":-6.262938,"transit":false}],[{"i_long":106.712277,"station_id":"SDM","station_name":"Sudimara","i_lat":-6.296963,"line":6,"time":0,"transit":false,"distance":0,"is_transit":false},{"station_id":"JMU","time":4,"i_lat":-6.288927,"transit":false,"i_long":106.728916,"distance":1994,"is_transit":false,"line":6,"station_name":"Jurangmangu"},{"time":3,"distance":2179,"line":6,"i_long":106.74273,"station_id":"PDJ","i_lat":-6.276362,"is_transit":false,"station_name":"Pondokranji","transit":false},{"distance":6218,"time":8,"station_id":"KBY","station_name":"Kebayoran","is_transit":false,"transit":false,"i_lat":-6.237242,"i_long":106.780334,"line":6},{"station_name":"Palmerah","time":7,"transit":false,"i_lat":-6.207404,"is_transit":false,"i_long":106.79689,"line":6,"station_id":"PLM","distance":3737},{"transit":true,"time":6,"line":1,"station_name":"Tanah Abang","is_transit":true,"distance":3191,"i_lat":-6.185545,"i_long":106.811091,"station_id":"THB"},{"i_long":106.816351,"station_name":"Karet","is_transit":false,"line":1,"station_id":"KAT","time":5,"i_lat":-6.20132,"distance":2029,"transit":false},{"is_transit":false,"station_name":"Sudirman Baru","transit":false,"station_id":"SUDB","line":1,"time":1,"distance":471,"i_lat":-6.201433,"i_long":106.819881},{"distance":280,"line":1,"is_transit":false,"transit":false,"i_long":106.822649,"i_lat":-6.202263,"time":1,"station_id":"SUD","station_name":"Sudirman"},{"distance":3186,"station_id":"MRI","i_lat":-6.209883,"i_long":106.84912,"line":0,"transit":true,"time":4,"station_name":"Manggarai","is_transit":true},{"transit":false,"i_lat":-6.198556,"time":4,"distance":1590,"station_id":"CKI","i_long":106.840169,"line":0,"is_transit":false,"station_name":"Cikini"},{"station_name":"Gondangdia","i_lat":-6.186295,"line":2,"is_transit":false,"station_id":"GDD","distance":1750,"transit":false,"time":3,"i_long":106.832183},{"time":4,"is_transit":false,"station_id":"JUA","i_lat":-6.166716,"station_name":"Juanda","i_long":106.828284,"distance":2015,"transit":false,"line":2},{"transit":false,"time":2,"station_id":"SW","is_transit":false,"i_long":106.827103,"station_name":"Sawah Besar","i_lat":-6.160725,"line":2,"distance":1149},{"time":2,"is_transit":false,"i_long":106.82482,"station_name":"Manggabesar","line":2,"i_lat":-6.149769,"station_id":"MGB","distance":906,"transit":false},{"i_lat":-6.141205,"transit":false,"station_id":"JAY","line":7,"distance":1080,"is_transit":false,"station_name":"Jayakarta","time":2,"i_long":106.820901},{"i_long":106.812439,"i_lat":-6.137569,"distance":1264,"station_name":"Jakarta Kota","transit":true,"station_id":"JAKK","line":0,"is_transit":true,"time":4},{"time":3,"transit":true,"station_name":"Kampung Bandan","distance":1364,"station_id":"KPB","i_lat":-6.132549,"line":0,"i_long":106.826365,"is_transit":true},{"distance":1444,"station_id":"RJW","station_name":"Rajawali","is_transit":false,"time":3,"i_long":106.836569,"line":11,"i_lat":-6.14505,"transit":false},{"i_long":106.839204,"station_name":"Kemayoran","distance":1901,"time":5,"i_lat":-6.161728,"is_transit":false,"line":11,"station_id":"KMO","transit":false},{"time":4,"i_long":106.84368,"is_transit":false,"distance":1436,"station_name":"Pasar Senen","line":11,"station_id":"PSE","i_lat":-6.174784,"transit":false},{"distance":1567,"time":8,"station_id":"GST","line":11,"i_long":106.850107,"transit":false,"is_transit":false,"station_name":"Gang Sentiong","i_lat":-6.185975},{"time":1,"i_lat":-6.193792,"line":11,"i_long":106.855437,"is_transit":false,"station_id":"KMT","station_name":"Kramat","transit":false,"distance":973},{"transit":false,"time":2,"station_name":"Pondok Jati","is_transit":false,"distance":1829,"station_id":"POK","i_lat":-6.209188,"line":11,"i_long":106.861737},{"transit":true,"i_long":106.86807400000001,"station_name":"Jatinegara","is_transit":true,"station_id":"JNG","i_lat":-6.215091,"distance":1236,"line":0,"time":9},{"station_name":"Klender","i_lat":-6.2135,"time":3,"station_id":"KLD","transit":false,"i_long":106.899548,"distance":3395,"is_transit":false,"line":1},{"distance":3100,"station_id":"BUA","time":2,"station_name":"Buaran","i_long":106.922662,"transit":false,"line":0,"is_transit":false,"i_lat":-6.215568},{"is_transit":false,"transit":false,"line":1,"i_lat":-6.217455,"i_long":106.939679,"distance":1305,"station_id":"KLDB","time":1,"station_name":"Klenderbaru"},{"station_id":"CUK","i_long":106.951283,"station_name":"Cakung","is_transit":false,"transit":false,"time":8,"distance":1385,"i_lat":-6.219053,"line":0},{"line":1,"distance":3097,"is_transit":false,"station_id":"KRI","station_name":"Kranji","transit":false,"time":3,"i_long":106.977657,"i_lat":-6.224515},{"i_long":106.997013,"station_id":"BKS","time":4,"is_transit":false,"transit":false,"i_lat":-6.236616,"station_name":"Bekasi","line":0,"distance":2520},{"time":2,"distance":2368,"station_name":"Bekasi Timur","i_lat":-6.248029,"is_transit":false,"i_long":107.016735,"line":0,"station_id":"BKST","transit":false},{"transit":false,"station_id":"TB","distance":4460,"time":7,"i_long":107.055722,"line":1,"is_transit":false,"i_lat":-6.258864,"station_name":"Tambun"},{"time":3,"station_name":"Cibitung","transit":false,"is_transit":false,"distance":3420,"station_id":"CIT","i_lat":-6.261877,"line":0,"i_long":107.083084},{"is_transit":false,"line":1,"i_lat":-6.262938,"station_name":"Metland Telaga Murni","station_id":"TLM","distance":2800,"transit":false,"time":2,"i_long":107.093313}]]}