{"data":[[{"time":0,"transit":false,"station_name":"Sudimara","i_lat":-6.296963,"distance":0,"station_id":"SDM","line":6,"i_long":106.712277,"is_transit":false},{"time":4,"distance":1994,"station_id":"JMU","is_transit":false,"i_long":106.728916,"station_name":"Jurangmangu","transit":false,"i_lat":-6.288927,"line":6},{"line":6,"station_id":"PDJ","time":3,"transit":false,"i_lat":-6.276362,"station_name":"Pondokranji","is_transit":false,"distance":2179,"i_long":106.74273},{"time":8,"station_id":"KBY","is_transit":false,"i_long":106.780334,"distance":6218,"transit":false,"station_name":"Kebayoran","i_lat":-6.237242,"line":6},{"station_name":"Palmerah","line":6,"i_lat":-6.207404,"is_transit":false,"i_long":106.79689,"distance":3737,"transit":false,"time":7,"station_id":"PLM"},{"transit":true,"line":1,"distance":3191,"i_lat":-6.185545,"station_id":"THB","time":6,"i_long":106.811091,"station_name":"Tanah Abang","is_transit":true},{"i_long":106.800832,"distance":3632,"transit":true,"line":1,"station_id":"DU","station_name":"Duri","time":8,"is_transit":true,"i_lat":-6.155215},{"station_id":"GGL","distance":1700,"time":3,"i_lat":-6.162021,"station_name":"Grogol","line":5,"i_long":106.788277,"is_transit":false,"transit":false},{"line":5,"is_transit":false,"transit":false,"time":2,"station_id":"PSG","i_lat":-6.161433,"i_long":106.771379,"distance":2036,"station_name":"Pesing"},{"distance":1614,"transit":false,"line":5,"is_transit":false,"i_lat":-6.1587309999999995,"station_name":"Taman Kota","time":2,"station_id":"TKO","i_long":106.756522},{"time":2,"station_id":"BOI","i_long":106.737035,"transit":false,"distance":2334,"is_transit":false,"line":5,"station_name":"Bojongindah","i_lat":-6.159876},{"is_transit":false,"station_name":"Rawa Buaya","station_id":"RW","transit":false,"time":4,"i_lat":-6.162758,"distance":1152,"i_long":106.723064,"line":5},{"time":3,"station_id":"KDS","station_name":"Kalideres","is_transit":false,"line":5,"i_lat":-6.166068,"i_long":106.701612,"transit":false,"distance":2504},{"time":3,"is_transit":false,"i_lat":-6.169933,"i_long":106.679458,"transit":false,"station_id":"PI","distance":2548,"line":5,"station_name":"Poris"},{"time":3,"station_id":"BPR","i_lat":-6.171811,"line":5,"station_name":"Batuceper","i_long":106.665036,"distance":1834,"is_transit":false,"transit":false},{"line":5,"transit":false,"station_name":"Tanah Tinggi","time":3,"i_long":106.64657,"i_lat":-6.17331,"distance":2028,"station_id":"TTI","is_transit":false},{"is_transit":false,"station_id":"TNG","transit":false,"i_lat":-6.176583,"line":5,"i_long":106.632761,"time":3,"station_name":"Tangerang","distance":1547}],[{"station_name":"Sudimara","transit":false,"station_id":"SDM","i_long":106.712277,"is_transit":false,"i_lat":-6.296963,"distance":0,"time":0,"line":6},{"i_lat":-6.288927,"station_id":"JMU","station_name":"Jurangmangu","is_transit":false,"line":6,"i_long":106.728916,"distance":1994,"time":4,"transit":false},{"transit":false,"i_long":106.74273,"is_transit":false,"line":6,"distance":2179,"i_lat":-6.276362,"time":3,"station_name":"Pondokranji","station_id":"PDJ"},{"transit":false,"station_name":"Kebayoran","distance":6218,"station_id":"KBY","is_transit":false,"time":8,"i_lat":-6.237242,"i_long":106.780334,"line":6},{"line":6,"i_long":106.79689,"time":7,"distance":3737,"is_transit":false,"transit":false,"i_lat":-6.207404,"station_name":"Palmerah","station_id":"PLM"},{"distance":3191,"time":6,"station_id":"THB","transit":true,"i_long":106.811091,"station_name":"Tanah Abang","is_transit":true,"i_lat":-6.185545,"line":1},{"is_transit":false,"distance":2029,"station_name":"Karet","station_id":"KAT","line":1,"i_lat":-6.20132,"time":5,"transit":false,"i_long":106.816351},{"time":1,"distance":471,"is_transit":false,"station_id":"SUDB","transit":false,"i_lat":-6.201433,"i_long":106.819881,"line":1,"station_name":"Sudirman Baru"},{"time":1,"station_id":"SUD","i_long":106.822649,"station_name":"Sudirman","line":1,"transit":false,"i_lat":-6.202263,"is_transit":false,"distance":280},{"i_long":106.84912,"i_lat":-6.209883,"station_id":"MRI","time":4,"station_name":"Manggarai","distance":3186,"transit":true,"is_transit":true,"line":2},{"transit":false,"is_transit":false,"distance":1590,"time":4,"station_name":"Cikini","i_lat":-6.198556,"i_long":106.840169,"line":2,"station_id":"CKI"},{"transit":false,"distance":1750,"line":2,"station_name":"Gondangdia","i_lat":-6.186295,"time":3,"is_transit":false,"station_id":"GDD","i_long":106.832183},{"i_lat":-6.166716,"i_long":106.828284,"is_transit":false,"line":2,"station_name":"Juanda","time":4,"distance":2015,"transit":false,"station_id":"JUA"},{"transit":false,"is_transit":false,"station_id":"SW","line":2,"distance":1149,"time":2,"i_lat":-6.160725,"station_name":"Sawah Besar","i_long":106.827103},{"i_long":106.82482,"is_transit":false,"time":2,"distance":906,"i_lat":-6.149769,"station_id":"MGB","station_name":"Manggabesar","transit":false,"line":2},{"line":2,"station_name":"Jayakarta","transit":false,"is_transit":false,"station_id":"JAY","i_lat":-6.141205,"i_long":106.820901,"time":2,"distance":1080},{"is_transit":true,"station_name":"Jakarta Kota","station_id":"JAKK","i_long":106.812439,"time":4,"i_lat":-6.137569,"transit":true,"distance":1264,"line":2},{"time":3,"i_lat":-6.132549,"station_name":"Kampung Bandan","is_transit":true,"transit":true,"station_id":"KPB","distance":1364,"i_long":106.826365,"line":4},{"station_id":"AK","transit":false,"line":1,"station_name":"Angke","distance":4102,"is_transit":false,"i_lat":-6.144674,"i_long":106.79867,"time":9},{"station_name":"Duri","time":4,"station_id":"DU","is_transit":true,"i_long":106.800832,"i_lat":-6.155215,"line":1,"transit":true,"distance":1230},{"time":3,"station_id":"GGL","transit":false,"station_name":"Grogol","is_transit":false,"distance":1700,"line":5,"i_lat":-6.162021,"i_long":106.788277},{"station_id":"PSG","is_transit":false,"time":2,"station_name":"Pesing","i_lat":-6.161433,"transit":false,"i_long":106.771379,"distance":2036,"line":5},{"i_long":106.756522,"station_name":"Taman Kota","station_id":"TKO","i_lat":-6.1587309999999995,"line":5,"is_transit":false,"transit":false,"distance":1614,"time":2},{"line":5,"distance":2334,"station_id":"BOI","transit":false,"i_lat":-6.159876,"station_name":"Bojongindah","time":2,"i_long":106.737035,"is_transit":false},{"transit":false,"distance":1152,"i_lat":-6.162758,"line":5,"time":4,"station_id":"RW","station_name":"Rawa Buaya","i_long":106.723064,"is_transit":false},{"time":3,"station_id":"KDS","i_lat":-6.166068,"is_transit":false,"distance":2504,"line":5,"transit":false,"station_name":"Kalideres","i_long":106.701612},{"i_long":106.679458,"station_id":"PI","is_transit":false,"line":5,"transit":false,"station_name":"Poris","time":3,"distance":2548,"i_lat":-6.169933},{"distance":1834,"station_id":"BPR","station_name":"Batuceper","i_long":106.665036,"line":5,"transit":false,"is_transit":false,"i_lat":-6.171811,"time":3},{"transit":false,"i_lat":-6.17331,"time":3,"station_id":"TTI","distance":2028,"station_name":"Tanah Tinggi","is_transit":false,"line":5,"i_long":106.64657},{"is_transit":false,"transit":false,"distance":1547,"time":3,"i_lat":-6.176583,"station_id":"TNG","i_long":106.632761,"station_name":"Tangerang","line":5}],[{"station_id":"SDM","i_long":106.712277,"line":6,"station_name":"Sudimara","transit":false,"distance":0,"i_lat":-6.296963,"time":0,"is_transit":false},{"station_name":"Jurangmangu","station_id":"JMU","is_transit":false,"i_long":106.728916,"line":6,"time":4,"i_lat":-6.288927,"transit":false,"distance":1994},{"i_lat":-6.276362,"station_name":"Pondokranji","transit":false,"distance":2179,"i_long":106.74273,"is_transit":false,"line":6,"station_id":"PDJ","time":3},{"distance":6218,"station_id":"KBY","transit":false,"is_transit":false,"time":8,"line":6,"i_long":106.780334,"i_lat":-6.237242,"station_name":"Kebayoran"},{"transit":false,"station_id":"PLM","time":7,"i_long":106.79689,"distance":3737,"i_lat":-6.207404,"station_name":"Palmerah","line":6,"is_transit":false},{"transit":true,"station_id":"THB","time":6,"i_long":106.811091,"line":1,"distance":3191,"i_lat":-6.185545,"is_transit":true,"station_name":"Tanah Abang"},{"station_id":"KAT","i_lat":-6.20132,"line":1,"station_name":"Karet","transit":false,"i_long":106.816351,"is_transit":false,"distance":2029,"time":5},{"line":1,"i_long":106.819881,"distance":471,"i_lat":-6.201433,"is_transit":false,"transit":false,"time":1,"station_id":"SUDB","station_name":"Sudirman Baru"},{"i_lat":-6.202263,"line":1,"time":1,"is_transit":false,"distance":280,"i_long":106.822649,"station_name":"Sudirman","transit":false,"station_id":"SUD"},{"time":4,"line":2,"station_name":"Manggarai","transit":false,"is_transit":false,"distance":3186,"i_lat":-6.209883,"i_long":106.84912,"station_id":"MRI"},{"station_name":"Matraman","i_long":106.858896,"is_transit":false,"distance":1275,"time":2,"station_id":"MTR","i_lat":-6.212485,"line":1,"transit":false},{"station_name":"Jatinegara","i_long":106.86807400000001,"i_lat":-6.215091,"time":8,"line":1,"station_id":"JNG","transit":true,"is_transit":true,"distance":1377},{"i_long":106.861737,"is_transit":false,"time":2,"line":11,"distance":1236,"i_lat":-6.209188,"transit":false,"station_name":"Pondok Jati","station_id":"POK"},{"is_transit":false,"station_id":"KMT","transit":false,"i_lat":-6.193792,"distance":1829,"i_long":106.855437,"station_name":"Kramat","time":2,"line":11},{"distance":973,"station_name":"Gang Sentiong","i_lat":-6.185975,"i_long":106.850107,"line":11,"is_transit":false,"transit":false,"station_id":"GST","time":1},{"distance":1567,"transit":false,"station_id":"PSE","station_name":"Pasar Senen","time":8,"i_long":106.84368,"line":11,"is_transit":false,"i_lat":-6.174784},{"time":4,"transit":false,"i_long":106.839204,"distance":1436,"station_id":"KMO","is_transit":false,"line":11,"i_lat":-6.161728,"station_name":"Kemayoran"},{"i_long":106.836569,"i_lat":-6.14505,"distance":1901,"time":5,"station_name":"Rajawali","station_id":"RJW","transit":false,"line":11,"is_transit":false},{"station_id":"KPB","transit":true,"time":3,"distance":1444,"is_transit":true,"station_name":"Kampung Bandan","line":4,"i_lat":-6.132549,"i_long":106.826365},{"i_lat":-6.144674,"line":1,"station_name":"Angke","i_long":106.79867,"station_id":"AK","distance":4102,"transit":false,"is_transit":false,"time":9},{"i_long":106.800832,"transit":true,"station_name":"Duri","distance":1230,"is_transit":true,"station_id":"DU","line":1,"time":4,"i_lat":-6.155215},{"time":3,"is_transit":false,"i_long":106.788277,"line":5,"i_lat":-6.162021,"transit":false,"distance":1700,"station_id":"GGL","station_name":"Grogol"},{"station_name":"Pesing","i_long":106.771379,"station_id":"PSG","time":2,"is_transit":false,"i_lat":-6.161433,"line":5,"transit":false,"distance":2036},{"line":5,"i_long":106.756522,"time":2,"station_id":"TKO","is_transit":false,"i_lat":-6.1587309999999995,"transit":false,"distance":1614,"station_name":"Taman Kota"},{"station_id":"BOI","line":5,"transit":false,"i_long":106.737035,"distance":2334,"station_name":"Bojongindah","i_lat":-6.159876,"is_transit":false,"time":2},{"time":4,"i_long":106.723064,"i_lat":-6.162758,"transit":false,"is_transit":false,"station_id":"RW","line":5,"station_name":"Rawa Buaya","distance":1152},{"time":3,"is_transit":false,"distance":2504,"line":5,"i_long":106.701612,"station_id":"KDS","i_lat":-6.166068,"transit":false,"station_name":"Kalideres"},{"station_name":"Poris","station_id":"PI","i_long":106.679458,"transit":false,"is_transit":false,"distance":2548,"line":5,"time":3,"i_lat":-6.169933},{"distance":1834,"i_lat":-6.171811,"is_transit":false,"transit":false,"time":3,"station_id":"BPR","line":5,"i_long":106.665036,"station_name":"Batuceper"},{"station_id":"TTI","time":3,"transit":false,"station_name":"Tanah Tinggi","is_transit":false,"distance":2028,"line":5,"i_lat":-6.17331,"i_long":106.64657},{"time":3,"i_long":106.632761,"distance":1547,"i_lat":-6.176583,"is_transit":false,"station_name":"Tangerang","transit":false,"line":5,"station_id":"TNG"}]]}