{"data":[[{"distance":0,"line":6,"i_long":106.712277,"transit":false,"station_name":"Sudimara","is_transit":false,"station_id":"SDM","i_lat":-6.296963,"time":0},{"station_name":"Jurangmangu","i_long":106.728916,"time":4,"is_transit":false,"line":6,"station_id":"JMU","i_lat":-6.288927,"distance":1994,"transit":false},{"time":3,"i_long":106.74273,"line":6,"station_name":"Pondokranji","is_transit":false,"distance":2179,"station_id":"PDJ","i_lat":-6.276362,"transit":false},{"station_name":"Kebayoran","time":8,"station_id":"KBY","line":6,"transit":false,"distance":6218,"i_lat":-6.237242,"is_transit":false,"i_long":106.780334},{"is_transit":false,"distance":3737,"line":6,"time":7,"transit":false,"station_id":"PLM","station_name":"Palmerah","i_lat":-6.207404,"i_long":106.79689},{"line":1,"is_transit":true,"time":6,"station_name":"Tanah Abang","i_long":106.811091,"distance":3191,"transit":true,"station_id":"THB","i_lat":-6.185545},{"i_lat":-6.20132,"station_name":"Karet","time":5,"transit":false,"distance":2029,"i_long":106.816351,"is_transit":false,"station_id":"KAT","line":1},{"station_id":"SUDB","distance":471,"line":1,"transit":false,"is_transit":false,"time":1,"i_long":106.819881,"station_name":"Sudirman Baru","i_lat":-6.201433},{"station_name":"Sudirman","i_lat":-6.202263,"transit":false,"station_id":"SUD","distance":280,"i_long":106.822649,"time":1,"line":1,"is_transit":false},{"transit":false,"station_id":"MRI","is_transit":false,"i_lat":-6.209883,"line":2,"station_name":"Manggarai","time":4,"i_long":106.84912,"distance":3186},{"station_id":"MTR","i_lat":-6.212485,"distance":1275,"is_transit":false,"station_name":"Matraman","time":2,"i_long":106.858896,"transit":false,"line":1},{"transit":false,"is_transit":false,"station_name":"Jatinegara","time":8,"i_long":106.86807400000001,"station_id":"JNG","line":1,"i_lat":-6.215091,"distance":1377},{"transit":false,"time":3,"station_id":"KLD","line":1,"i_long":106.899548,"is_transit":false,"distance":3395,"i_lat":-6.2135,"station_name":"Klender"},{"is_transit":false,"line":1,"station_name":"Buaran","time":2,"transit":false,"i_long":106.922662,"station_id":"BUA","distance":3100,"i_lat":-6.215568},{"transit":false,"line":1,"station_id":"KLDB","i_lat":-6.217455,"is_transit":false,"distance":1305,"station_name":"Klenderbaru","time":1,"i_long":106.939679},{"line":1,"i_long":106.951283,"station_id":"CUK","transit":false,"is_transit":false,"time":8,"i_lat":-6.219053,"station_name":"Cakung","distance":1385},{"transit":false,"distance":3097,"i_long":106.977657,"i_lat":-6.224515,"station_id":"KRI","is_transit":false,"station_name":"Kranji","time":3,"line":1},{"is_transit":false,"station_name":"Bekasi","i_long":106.997013,"line":1,"i_lat":-6.236616,"station_id":"BKS","transit":false,"distance":2520,"time":4},{"transit":false,"i_long":107.016735,"is_transit":false,"station_id":"BKST","line":1,"time":2,"distance":2368,"station_name":"Bekasi Timur","i_lat":-6.248029},{"transit":false,"i_long":107.055722,"station_name":"Tambun","distance":4460,"is_transit":false,"time":7,"i_lat":-6.258864,"line":1,"station_id":"TB"}],[{"i_long":106.712277,"station_name":"Sudimara","is_transit":false,"time":0,"i_lat":-6.296963,"distance":0,"line":6,"station_id":"SDM","transit":false},{"time":4,"distance":1994,"transit":false,"i_long":106.728916,"station_id":"JMU","is_transit":false,"i_lat":-6.288927,"station_name":"Jurangmangu","line":6},{"transit":false,"i_long":106.74273,"station_id":"PDJ","station_name":"Pondokranji","distance":2179,"is_transit":false,"i_lat":-6.276362,"time":3,"line":6},{"time":8,"i_lat":-6.237242,"distance":6218,"line":6,"i_long":106.780334,"station_name":"Kebayoran","is_transit":false,"transit":false,"station_id":"KBY"},{"line":6,"transit":false,"i_lat":-6.207404,"station_id":"PLM","distance":3737,"is_transit":false,"time":7,"i_long":106.79689,"station_name":"Palmerah"},{"station_name":"Tanah Abang","transit":true,"time":6,"i_lat":-6.185545,"line":1,"i_long":106.811091,"distance":3191,"is_transit":true,"station_id":"THB"},{"i_lat":-6.155215,"station_id":"DU","is_transit":false,"distance":3632,"station_name":"Duri","line":1,"transit":false,"i_long":106.800832,"time":8},{"i_long":106.79867,"distance":1230,"station_id":"AK","station_name":"Angke","is_transit":false,"transit":false,"time":4,"i_lat":-6.144674,"line":1},{"station_id":"KPB","is_transit":true,"time":9,"distance":4102,"line":4,"i_lat":-6.132549,"station_name":"Kampung Bandan","transit":true,"i_long":106.826365},{"station_id":"RJW","i_long":106.836569,"distance":1444,"is_transit":false,"transit":false,"i_lat":-6.14505,"line":11,"time":3,"station_name":"Rajawali"},{"i_lat":-6.161728,"is_transit":false,"station_name":"Kemayoran","transit":false,"i_long":106.839204,"distance":1901,"time":5,"line":11,"station_id":"KMO"},{"is_transit":false,"transit":false,"distance":1436,"station_id":"PSE","station_name":"Pasar Senen","time":4,"i_lat":-6.174784,"line":11,"i_long":106.84368},{"station_id":"GST","line":11,"is_transit":false,"i_lat":-6.185975,"i_long":106.850107,"time":8,"transit":false,"station_name":"Gang Sentiong","distance":1567},{"station_name":"Kramat","i_lat":-6.193792,"transit":false,"i_long":106.855437,"time":1,"distance":973,"station_id":"KMT","line":11,"is_transit":false},{"transit":false,"station_id":"POK","distance":1829,"time":2,"is_transit":false,"i_lat":-6.209188,"station_name":"Pondok Jati","i_long":106.861737,"line":11},{"station_name":"Jatinegara","station_id":"JNG","i_lat":-6.215091,"line":1,"distance":1236,"is_transit":true,"transit":true,"i_long":106.86807400000001,"time":9},{"i_long":106.899548,"line":1,"station_name":"Klender","distance":3395,"is_transit":false,"transit":false,"time":3,"station_id":"KLD","i_lat":-6.2135},{"station_name":"Buaran","i_long":106.922662,"station_id":"BUA","line":1,"time":2,"i_lat":-6.215568,"transit":false,"distance":3100,"is_transit":false},{"distance":1305,"transit":false,"i_long":106.939679,"line":1,"i_lat":-6.217455,"station_id":"KLDB","station_name":"Klenderbaru","time":1,"is_transit":false},{"line":1,"station_name":"Cakung","i_lat":-6.219053,"station_id":"CUK","i_long":106.951283,"time":8,"transit":false,"distance":1385,"is_transit":false},{"distance":3097,"is_transit":false,"station_name":"Kranji","i_lat":-6.224515,"station_id":"KRI","line":1,"transit":false,"time":3,"i_long":106.977657},{"is_transit":false,"transit":false,"time":4,"station_id":"BKS","i_lat":-6.236616,"i_long":106.997013,"station_name":"Bekasi","distance":2520,"line":1},{"is_transit":false,"station_id":"BKST","station_name":"Bekasi Timur","time":2,"i_lat":-6.248029,"i_long":107.016735,"transit":false,"distance":2368,"line":1},{"time":7,"i_long":107.055722,"i_lat":-6.258864,"is_transit":false,"station_id":"TB","transit":false,"line":1,"station_name":"Tambun","distance":4460}],[{"transit":false,"station_name":"Sudimara","i_long":106.712277,"i_lat":-6.296963,"line":6,"time":0,"is_transit":false,"distance":0,"station_id":"SDM"},{"distance":1994,"is_transit":false,"station_id":"JMU","station_name":"Jurangmangu","time":4,"transit":false,"i_long":106.728916,"i_lat":-6.288927,"line":6},{"time":3,"transit":false,"station_id":"PDJ","station_name":"Pondokranji","is_transit":false,"i_long":106.74273,"line":6,"distance":2179,"i_lat":-6.276362},{"line":6,"transit":false,"station_name":"Kebayoran","distance":6218,"is_transit":false,"i_lat":-6.237242,"station_id":"KBY","i_long":106.780334,"time":8},{"i_lat":-6.207404,"is_transit":false,"i_long":106.79689,"station_id":"PLM","station_name":"Palmerah","distance":3737,"time":7,"transit":false,"line":6},{"transit":true,"time":6,"is_transit":true,"line":1,"station_id":"THB","i_lat":-6.185545,"i_long":106.811091,"station_name":"Tanah Abang","distance":3191},{"transit":false,"station_name":"Duri","station_id":"DU","distance":3632,"is_transit":false,"time":8,"i_lat":-6.155215,"line":1,"i_long":106.800832},{"station_id":"AK","transit":false,"i_lat":-6.144674,"station_name":"Angke","is_transit":false,"line":1,"time":4,"distance":1230,"i_long":106.79867},{"transit":true,"line":4,"i_lat":-6.132549,"i_long":106.826365,"station_name":"Kampung Bandan","is_transit":true,"time":9,"station_id":"KPB","distance":4102},{"time":3,"station_id":"JAKK","line":2,"distance":1364,"i_lat":-6.137569,"station_name":"Jakarta Kota","transit":true,"i_long":106.812439,"is_transit":true},{"transit":false,"is_transit":false,"station_id":"JAY","station_name":"Jayakarta","time":4,"i_lat":-6.141205,"i_long":106.820901,"line":2,"distance":1264},{"is_transit":false,"line":2,"station_name":"Manggabesar","station_id":"MGB","distance":1080,"transit":false,"i_long":106.82482,"i_lat":-6.149769,"time":2},{"transit":false,"station_id":"SW","station_name":"Sawah Besar","time":2,"is_transit":false,"i_lat":-6.160725,"i_long":106.827103,"distance":906,"line":2},{"time":2,"i_long":106.828284,"i_lat":-6.166716,"is_transit":false,"station_name":"Juanda","station_id":"JUA","line":2,"distance":1149,"transit":false},{"is_transit":false,"transit":false,"station_id":"GDD","time":4,"line":2,"i_lat":-6.186295,"distance":2015,"station_name":"Gondangdia","i_long":106.832183},{"line":2,"distance":1750,"time":3,"station_name":"Cikini","station_id":"CKI","is_transit":false,"transit":false,"i_long":106.840169,"i_lat":-6.198556},{"line":2,"time":4,"i_lat":-6.209883,"station_name":"Manggarai","is_transit":true,"transit":true,"distance":1590,"station_id":"MRI","i_long":106.84912},{"time":2,"station_id":"MTR","is_transit":false,"distance":1275,"transit":false,"i_lat":-6.212485,"i_long":106.858896,"station_name":"Matraman","line":1},{"i_lat":-6.215091,"station_id":"JNG","is_transit":false,"station_name":"Jatinegara","transit":false,"time":8,"line":1,"distance":1377,"i_long":106.86807400000001},{"station_id":"KLD","distance":3395,"i_lat":-6.2135,"line":1,"time":3,"station_name":"Klender","transit":false,"i_long":106.899548,"is_transit":false},{"i_lat":-6.215568,"distance":3100,"is_transit":false,"transit":false,"station_id":"BUA","i_long":106.922662,"time":2,"station_name":"Buaran","line":1},{"station_id":"KLDB","is_transit":false,"distance":1305,"time":1,"line":1,"station_name":"Klenderbaru","i_lat":-6.217455,"i_long":106.939679,"transit":false},{"station_id":"CUK","i_long":106.951283,"distance":1385,"line":1,"station_name":"Cakung","i_lat":-6.219053,"transit":false,"time":8,"is_transit":false},{"line":1,"distance":3097,"i_long":106.977657,"time":3,"is_transit":false,"station_id":"KRI","transit":false,"i_lat":-6.224515,"station_name":"Kranji"},{"line":1,"transit":false,"time":4,"distance":2520,"station_name":"Bekasi","is_transit":false,"i_lat":-6.236616,"i_long":106.997013,"station_id":"BKS"},{"station_id":"BKST","i_lat":-6.248029,"station_name":"Bekasi Timur","i_long":107.016735,"transit":false,"line":1,"distance":2368,"is_transit":false,"time":2},{"station_id":"TB","time":7,"line":1,"i_lat":-6.258864,"distance":4460,"i_long":107.055722,"transit":false,"station_name":"Tambun","is_transit":false}],[{"transit":false,"station_name":"Sudimara","distance":0,"is_transit":false,"i_lat":-6.296963,"i_long":106.712277,"time":0,"station_id":"SDM","line":6},{"line":6,"i_lat":-6.288927,"i_long":106.728916,"is_transit":false,"station_name":"Jurangmangu","station_id":"JMU","distance":1994,"time":4,"transit":false},{"i_lat":-6.276362,"i_long":106.74273,"is_transit":false,"station_name":"Pondokranji","transit":false,"time":3,"station_id":"PDJ","distance":2179,"line":6},{"is_transit":false,"station_name":"Kebayoran","transit":false,"i_long":106.780334,"station_id":"KBY","time":8,"i_lat":-6.237242,"line":6,"distance":6218},{"station_name":"Palmerah","line":6,"i_lat":-6.207404,"distance":3737,"time":7,"transit":false,"i_long":106.79689,"station_id":"PLM","is_transit":false},{"station_name":"Tanah Abang","station_id":"THB","line":1,"is_transit":true,"i_lat":-6.185545,"time":6,"transit":true,"i_long":106.811091,"distance":3191},{"distance":2029,"line":1,"transit":false,"station_id":"KAT","time":5,"is_transit":false,"i_lat":-6.20132,"station_name":"Karet","i_long":106.816351},{"time":1,"line":1,"is_transit":false,"distance":471,"i_lat":-6.201433,"i_long":106.819881,"station_name":"Sudirman Baru","station_id":"SUDB","transit":false},{"transit":false,"distance":280,"i_lat":-6.202263,"line":1,"i_long":106.822649,"is_transit":false,"station_id":"SUD","station_name":"Sudirman","time":1},{"station_id":"MRI","distance":3186,"transit":true,"i_lat":-6.209883,"line":2,"i_long":106.84912,"station_name":"Manggarai","time":4,"is_transit":true},{"transit":false,"time":4,"i_lat":-6.198556,"i_long":106.840169,"distance":1590,"is_transit":false,"station_id":"CKI","line":2,"station_name":"Cikini"},{"i_lat":-6.186295,"transit":false,"station_name":"Gondangdia","distance":1750,"is_transit":false,"station_id":"GDD","i_long":106.832183,"line":2,"time":3},{"distance":2015,"transit":false,"is_transit":false,"station_name":"Juanda","time":4,"i_long":106.828284,"i_lat":-6.166716,"line":2,"station_id":"JUA"},{"i_lat":-6.160725,"time":2,"station_id":"SW","i_long":106.827103,"transit":false,"distance":1149,"is_transit":false,"line":2,"station_name":"Sawah Besar"},{"i_long":106.82482,"line":2,"i_lat":-6.149769,"station_id":"MGB","distance":906,"station_name":"Manggabesar","is_transit":false,"transit":false,"time":2},{"station_id":"JAY","transit":false,"line":2,"distance":1080,"station_name":"Jayakarta","time":2,"is_transit":false,"i_long":106.820901,"i_lat":-6.141205},{"transit":true,"i_long":106.812439,"i_lat":-6.137569,"is_transit":true,"station_id":"JAKK","distance":1264,"line":2,"station_name":"Jakarta Kota","time":4},{"time":3,"is_transit":true,"station_id":"KPB","distance":1364,"i_lat":-6.132549,"line":4,"i_long":106.826365,"station_name":"Kampung Bandan","transit":true},{"station_name":"Rajawali","station_id":"RJW","line":11,"time":3,"distance":1444,"i_lat":-6.14505,"i_long":106.836569,"is_transit":false,"transit":false},{"line":11,"i_long":106.839204,"station_name":"Kemayoran","time":5,"is_transit":false,"transit":false,"distance":1901,"station_id":"KMO","i_lat":-6.161728},{"i_lat":-6.174784,"i_long":106.84368,"station_name":"Pasar Senen","distance":1436,"is_transit":false,"station_id":"PSE","transit":false,"time":4,"line":11},{"distance":1567,"transit":false,"i_long":106.850107,"i_lat":-6.185975,"is_transit":false,"time":8,"line":11,"station_id":"GST","station_name":"Gang Sentiong"},{"is_transit":false,"station_id":"KMT","distance":973,"i_lat":-6.193792,"i_long":106.855437,"transit":false,"line":11,"time":1,"station_name":"Kramat"},{"station_id":"POK","time":2,"i_long":106.861737,"transit":false,"station_name":"Pondok Jati","line":11,"is_transit":false,"i_lat":-6.209188,"distance":1829},{"time":9,"station_id":"JNG","distance":1236,"i_lat":-6.215091,"transit":true,"station_name":"Jatinegara","is_transit":true,"line":1,"i_long":106.86807400000001},{"station_id":"KLD","time":3,"line":1,"distance":3395,"is_transit":false,"transit":false,"i_lat":-6.2135,"i_long":106.899548,"station_name":"Klender"},{"time":2,"transit":false,"i_long":106.922662,"i_lat":-6.215568,"station_id":"BUA","distance":3100,"is_transit":false,"station_name":"Buaran","line":1},{"station_id":"KLDB","distance":1305,"transit":false,"is_transit":false,"i_lat":-6.217455,"station_name":"Klenderbaru","i_long":106.939679,"time":1,"line":1},{"time":8,"distance":1385,"is_transit":false,"station_id":"CUK","transit":false,"i_lat":-6.219053,"line":1,"station_name":"Cakung","i_long":106.951283},{"time":3,"line":1,"station_name":"Kranji","is_transit":false,"station_id":"KRI","transit":false,"distance":3097,"i_lat":-6.224515,"i_long":106.977657},{"i_lat":-6.236616,"is_transit":false,"station_id":"BKS","time":4,"station_name":"Bekasi","transit":false,"i_long":106.997013,"line":1,"distance":2520},{"station_name":"Bekasi Timur","is_transit":false,"station_id":"BKST","time":2,"distance":2368,"i_lat":-6.248029,"transit":false,"i_long":107.016735,"line":1},{"i_long":107.055722,"station_id":"TB","transit":false,"station_name":"Tambun","i_lat":-6.258864,"line":1,"distance":4460,"is_transit":false,"time":7}]]}