{"data":[[{"transit":false,"i_lat":-6.296963,"line":6,"i_long":106.712277,"time":0,"distance":0,"station_name":"Sudimara","is_transit":false,"station_id":"SDM"},{"i_lat":-6.288927,"distance":1994,"station_name":"Jurangmangu","transit":false,"i_long":106.728916,"line":6,"station_id":"JMU","is_transit":false,"time":4},{"i_lat":-6.276362,"i_long":106.74273,"distance":2179,"transit":false,"station_name":"Pondokranji","time":3,"is_transit":false,"line":6,"station_id":"PDJ"},{"i_lat":-6.237242,"transit":false,"time":8,"line":6,"is_transit":false,"i_long":106.780334,"station_id":"KBY","station_name":"Kebayoran","distance":6218},{"station_name":"Palmerah","distance":3737,"i_lat":-6.207404,"transit":false,"i_long":106.79689,"time":7,"line":6,"is_transit":false,"station_id":"PLM"},{"line":1,"distance":3191,"time":6,"is_transit":true,"i_lat":-6.185545,"station_id":"THB","transit":true,"station_name":"Tanah Abang","i_long":106.811091},{"i_long":106.816351,"distance":2029,"i_lat":-6.20132,"transit":false,"station_id":"KAT","is_transit":false,"line":1,"station_name":"Karet","time":5},{"transit":false,"station_id":"SUDB","time":1,"is_transit":false,"distance":471,"i_lat":-6.201433,"station_name":"Sudirman Baru","i_long":106.819881,"line":1},{"i_long":106.822649,"station_name":"Sudirman","time":1,"line":1,"station_id":"SUD","i_lat":-6.202263,"is_transit":false,"transit":false,"distance":280},{"time":4,"i_lat":-6.209883,"i_long":106.84912,"is_transit":true,"line":2,"transit":true,"distance":3186,"station_name":"Manggarai","station_id":"MRI"},{"station_id":"TEB","is_transit":false,"time":4,"i_lat":-6.226659,"i_long":106.857948,"line":2,"transit":false,"distance":2610,"station_name":"Tebet"},{"distance":1230,"line":2,"station_id":"CW","transit":false,"i_long":106.856607,"time":2,"i_lat":-6.242512,"station_name":"Cawang","is_transit":false},{"is_transit":false,"line":2,"transit":false,"station_id":"DRN","i_lat":-6.255332,"station_name":"Duren Kalibata","time":3,"distance":1546,"i_long":106.85449},{"station_id":"PSMB","i_lat":-6.263214,"time":2,"transit":false,"i_long":106.851577,"line":2,"is_transit":false,"station_name":"Pasar Minggu Baru","distance":824},{"station_name":"Pasar Minggu","distance":2380,"i_lat":-6.2842400000000005,"i_long":106.843999,"is_transit":false,"line":2,"time":2,"transit":false,"station_id":"PSM"},{"is_transit":false,"transit":false,"station_id":"TNT","station_name":"Tanjung Barat","distance":2820,"time":4,"i_lat":-6.3080680000000005,"line":2,"i_long":106.838896},{"is_transit":false,"station_id":"LNA","time":3,"transit":false,"i_long":106.832616,"i_lat":-6.330363,"distance":2671,"line":2,"station_name":"Lenteng Agung"},{"i_long":106.834175,"station_name":"Univ. Pancasila","is_transit":false,"time":2,"i_lat":-6.339291,"transit":false,"distance":1029,"station_id":"UP","line":2},{"distance":2264,"i_long":106.831474,"line":2,"station_id":"UI","station_name":"Univ. Indonesia","transit":false,"time":3,"is_transit":false,"i_lat":-6.360749},{"distance":1109,"time":2,"i_long":106.831114,"station_name":"Pondok Cina","i_lat":-6.369073,"transit":false,"station_id":"POC","is_transit":false,"line":2},{"is_transit":false,"i_long":106.819451,"line":2,"distance":2727,"station_id":"DPB","time":4,"transit":false,"station_name":"Depokbaru","i_lat":-6.391065},{"time":3,"station_name":"Depok","i_lat":-6.405256,"i_long":106.816926,"is_transit":false,"station_id":"DP","distance":1584,"line":2,"transit":false},{"distance":5084,"is_transit":false,"time":6,"i_long":106.800298,"station_name":"Citayam","transit":false,"station_id":"CTA","i_lat":-6.448811,"line":2},{"station_id":"BJD","line":2,"transit":false,"time":5,"i_long":106.792719,"i_lat":-6.493243,"is_transit":false,"distance":5197,"station_name":"Bojonggede"}],[{"i_lat":-6.296963,"time":0,"is_transit":false,"i_long":106.712277,"line":6,"transit":false,"station_name":"Sudimara","distance":0,"station_id":"SDM"},{"distance":1994,"is_transit":false,"i_lat":-6.288927,"line":6,"i_long":106.728916,"time":4,"station_id":"JMU","transit":false,"station_name":"Jurangmangu"},{"i_lat":-6.276362,"i_long":106.74273,"station_id":"PDJ","transit":false,"time":3,"station_name":"Pondokranji","line":6,"is_transit":false,"distance":2179},{"transit":false,"i_lat":-6.237242,"station_id":"KBY","time":8,"distance":6218,"i_long":106.780334,"is_transit":false,"station_name":"Kebayoran","line":6},{"time":7,"station_name":"Palmerah","i_long":106.79689,"transit":false,"station_id":"PLM","distance":3737,"is_transit":false,"i_lat":-6.207404,"line":6},{"station_id":"THB","line":1,"station_name":"Tanah Abang","i_long":106.811091,"i_lat":-6.185545,"transit":true,"is_transit":true,"distance":3191,"time":6},{"i_long":106.800832,"line":1,"transit":false,"distance":3632,"is_transit":false,"station_name":"Duri","time":8,"station_id":"DU","i_lat":-6.155215},{"i_lat":-6.144674,"distance":1230,"station_name":"Angke","transit":false,"station_id":"AK","time":4,"i_long":106.79867,"is_transit":false,"line":1},{"line":4,"i_lat":-6.132549,"i_long":106.826365,"transit":true,"time":9,"station_name":"Kampung Bandan","distance":4102,"station_id":"KPB","is_transit":true},{"station_name":"Jakarta Kota","i_lat":-6.137569,"distance":1364,"time":3,"transit":true,"station_id":"JAKK","i_long":106.812439,"is_transit":true,"line":2},{"i_lat":-6.141205,"station_id":"JAY","distance":1264,"is_transit":false,"line":2,"transit":false,"time":4,"i_long":106.820901,"station_name":"Jayakarta"},{"i_lat":-6.149769,"station_id":"MGB","line":2,"distance":1080,"transit":false,"time":2,"i_long":106.82482,"station_name":"Manggabesar","is_transit":false},{"i_long":106.827103,"transit":false,"time":2,"distance":906,"i_lat":-6.160725,"station_id":"SW","station_name":"Sawah Besar","is_transit":false,"line":2},{"station_id":"JUA","i_long":106.828284,"line":2,"time":2,"is_transit":false,"i_lat":-6.166716,"station_name":"Juanda","transit":false,"distance":1149},{"time":4,"is_transit":false,"station_name":"Gondangdia","station_id":"GDD","i_long":106.832183,"line":2,"transit":false,"i_lat":-6.186295,"distance":2015},{"transit":false,"i_long":106.840169,"distance":1750,"station_id":"CKI","is_transit":false,"station_name":"Cikini","time":3,"i_lat":-6.198556,"line":2},{"station_id":"MRI","time":4,"is_transit":false,"station_name":"Manggarai","i_long":106.84912,"transit":false,"line":2,"i_lat":-6.209883,"distance":1590},{"i_long":106.857948,"distance":2610,"line":2,"is_transit":false,"station_name":"Tebet","station_id":"TEB","time":4,"i_lat":-6.226659,"transit":false},{"i_long":106.856607,"distance":1230,"line":2,"station_id":"CW","is_transit":false,"station_name":"Cawang","time":2,"i_lat":-6.242512,"transit":false},{"line":2,"transit":false,"station_id":"DRN","is_transit":false,"station_name":"Duren Kalibata","i_long":106.85449,"distance":1546,"time":3,"i_lat":-6.255332},{"station_name":"Pasar Minggu Baru","distance":824,"transit":false,"i_long":106.851577,"station_id":"PSMB","line":2,"time":2,"is_transit":false,"i_lat":-6.263214},{"station_id":"PSM","time":2,"i_long":106.843999,"i_lat":-6.2842400000000005,"transit":false,"line":2,"station_name":"Pasar Minggu","is_transit":false,"distance":2380},{"is_transit":false,"distance":2820,"i_lat":-6.3080680000000005,"i_long":106.838896,"station_name":"Tanjung Barat","station_id":"TNT","transit":false,"time":4,"line":2},{"line":2,"station_id":"LNA","is_transit":false,"time":3,"i_lat":-6.330363,"i_long":106.832616,"station_name":"Lenteng Agung","transit":false,"distance":2671},{"station_id":"UP","time":2,"line":2,"transit":false,"distance":1029,"i_long":106.834175,"station_name":"Univ. Pancasila","is_transit":false,"i_lat":-6.339291},{"transit":false,"distance":2264,"station_id":"UI","station_name":"Univ. Indonesia","time":3,"i_lat":-6.360749,"i_long":106.831474,"line":2,"is_transit":false},{"line":2,"transit":false,"distance":1109,"station_id":"POC","is_transit":false,"i_lat":-6.369073,"i_long":106.831114,"time":2,"station_name":"Pondok Cina"},{"time":4,"is_transit":false,"i_long":106.819451,"line":2,"transit":false,"station_id":"DPB","distance":2727,"i_lat":-6.391065,"station_name":"Depokbaru"},{"station_name":"Depok","line":2,"i_lat":-6.405256,"time":3,"transit":false,"i_long":106.816926,"station_id":"DP","is_transit":false,"distance":1584},{"transit":false,"distance":5084,"station_id":"CTA","station_name":"Citayam","line":2,"i_lat":-6.448811,"is_transit":false,"i_long":106.800298,"time":6},{"transit":false,"station_name":"Bojonggede","time":5,"i_lat":-6.493243,"distance":5197,"station_id":"BJD","is_transit":false,"line":2,"i_long":106.792719}],[{"distance":0,"is_transit":false,"i_long":106.712277,"line":6,"transit":false,"station_name":"Sudimara","station_id":"SDM","time":0,"i_lat":-6.296963},{"transit":false,"distance":1994,"i_lat":-6.288927,"station_name":"Jurangmangu","time":4,"station_id":"JMU","line":6,"i_long":106.728916,"is_transit":false},{"distance":2179,"time":3,"station_id":"PDJ","is_transit":false,"i_lat":-6.276362,"i_long":106.74273,"line":6,"station_name":"Pondokranji","transit":false},{"is_transit":false,"i_long":106.780334,"transit":false,"station_id":"KBY","line":6,"distance":6218,"time":8,"station_name":"Kebayoran","i_lat":-6.237242},{"line":6,"distance":3737,"station_id":"PLM","time":7,"i_lat":-6.207404,"is_transit":false,"station_name":"Palmerah","transit":false,"i_long":106.79689},{"distance":3191,"time":6,"i_lat":-6.185545,"line":1,"is_transit":true,"station_id":"THB","transit":true,"i_long":106.811091,"station_name":"Tanah Abang"},{"line":1,"station_id":"DU","distance":3632,"i_lat":-6.155215,"i_long":106.800832,"transit":false,"time":8,"station_name":"Duri","is_transit":false},{"i_long":106.79867,"transit":false,"line":1,"is_transit":false,"i_lat":-6.144674,"station_name":"Angke","distance":1230,"station_id":"AK","time":4},{"i_long":106.826365,"distance":4102,"station_id":"KPB","transit":true,"line":4,"is_transit":true,"i_lat":-6.132549,"time":9,"station_name":"Kampung Bandan"},{"line":11,"i_lat":-6.14505,"transit":false,"station_id":"RJW","station_name":"Rajawali","distance":1444,"time":3,"is_transit":false,"i_long":106.836569},{"station_id":"KMO","i_lat":-6.161728,"line":11,"transit":false,"is_transit":false,"station_name":"Kemayoran","i_long":106.839204,"time":5,"distance":1901},{"i_long":106.84368,"line":11,"i_lat":-6.174784,"time":4,"station_name":"Pasar Senen","transit":false,"distance":1436,"is_transit":false,"station_id":"PSE"},{"line":11,"station_id":"GST","station_name":"Gang Sentiong","transit":false,"i_lat":-6.185975,"is_transit":false,"i_long":106.850107,"distance":1567,"time":8},{"is_transit":false,"i_lat":-6.193792,"time":1,"distance":973,"i_long":106.855437,"line":11,"station_id":"KMT","transit":false,"station_name":"Kramat"},{"is_transit":false,"line":11,"station_name":"Pondok Jati","i_lat":-6.209188,"i_long":106.861737,"station_id":"POK","transit":false,"time":2,"distance":1829},{"time":9,"line":1,"i_lat":-6.215091,"is_transit":true,"distance":1236,"transit":true,"station_id":"JNG","i_long":106.86807400000001,"station_name":"Jatinegara"},{"i_long":106.858896,"is_transit":false,"line":1,"distance":1377,"transit":false,"station_id":"MTR","station_name":"Matraman","time":2,"i_lat":-6.212485},{"i_long":106.84912,"station_name":"Manggarai","station_id":"MRI","time":2,"is_transit":true,"distance":1275,"transit":true,"i_lat":-6.209883,"line":2},{"time":4,"i_long":106.857948,"station_name":"Tebet","transit":false,"distance":2610,"i_lat":-6.226659,"is_transit":false,"line":2,"station_id":"TEB"},{"transit":false,"line":2,"station_name":"Cawang","i_lat":-6.242512,"is_transit":false,"distance":1230,"station_id":"CW","i_long":106.856607,"time":2},{"i_lat":-6.255332,"i_long":106.85449,"time":3,"transit":false,"station_name":"Duren Kalibata","distance":1546,"is_transit":false,"line":2,"station_id":"DRN"},{"i_lat":-6.263214,"transit":false,"time":2,"line":2,"i_long":106.851577,"distance":824,"station_id":"PSMB","station_name":"Pasar Minggu Baru","is_transit":false},{"line":2,"transit":false,"time":2,"i_long":106.843999,"is_transit":false,"station_id":"PSM","distance":2380,"station_name":"Pasar Minggu","i_lat":-6.2842400000000005},{"transit":false,"station_id":"TNT","is_transit":false,"line":2,"distance":2820,"station_name":"Tanjung Barat","time":4,"i_lat":-6.3080680000000005,"i_long":106.838896},{"i_long":106.832616,"time":3,"station_id":"LNA","distance":2671,"is_transit":false,"transit":false,"station_name":"Lenteng Agung","i_lat":-6.330363,"line":2},{"transit":false,"distance":1029,"time":2,"is_transit":false,"i_lat":-6.339291,"line":2,"station_id":"UP","station_name":"Univ. Pancasila","i_long":106.834175},{"line":2,"distance":2264,"i_long":106.831474,"is_transit":false,"station_name":"Univ. Indonesia","i_lat":-6.360749,"time":3,"transit":false,"station_id":"UI"},{"station_name":"Pondok Cina","line":2,"transit":false,"i_long":106.831114,"distance":1109,"is_transit":false,"station_id":"POC","time":2,"i_lat":-6.369073},{"is_transit":false,"transit":false,"i_long":106.819451,"station_name":"Depokbaru","time":4,"line":2,"station_id":"DPB","distance":2727,"i_lat":-6.391065},{"distance":1584,"transit":false,"line":2,"is_transit":false,"i_lat":-6.405256,"time":3,"i_long":106.816926,"station_id":"DP","station_name":"Depok"},{"station_id":"CTA","station_name":"Citayam","line":2,"is_transit":false,"time":6,"i_lat":-6.448811,"i_long":106.800298,"transit":false,"distance":5084},{"station_id":"BJD","transit":false,"station_name":"Bojonggede","time":5,"distance":5197,"is_transit":false,"i_lat":-6.493243,"i_long":106.792719,"line":2}]]}