{"data":[[{"distance":0,"i_lat":-6.296963,"line":6,"transit":false,"station_id":"SDM","station_name":"Sudimara","is_transit":false,"i_long":106.712277,"time":0},{"line":6,"i_lat":-6.288927,"station_name":"Jurangmangu","time":4,"i_long":106.728916,"station_id":"JMU","is_transit":false,"transit":false,"distance":1994},{"station_id":"PDJ","transit":false,"station_name":"Pondokranji","i_lat":-6.276362,"is_transit":false,"time":3,"distance":2179,"i_long":106.74273,"line":6},{"station_name":"Kebayoran","distance":6218,"time":8,"station_id":"KBY","i_long":106.780334,"line":6,"transit":false,"i_lat":-6.237242,"is_transit":false},{"line":6,"station_id":"PLM","time":7,"distance":3737,"is_transit":false,"transit":false,"station_name":"Palmerah","i_lat":-6.207404,"i_long":106.79689},{"i_long":106.811091,"line":1,"station_name":"Tanah Abang","time":6,"station_id":"THB","transit":false,"i_lat":-6.185545,"is_transit":false,"distance":3191}]]}