{"data":[[{"i_long":106.712277,"is_transit":false,"transit":false,"time":0,"station_id":"SDM","distance":0,"i_lat":-6.296963,"line":6,"station_name":"Sudimara"},{"station_id":"JMU","is_transit":false,"i_lat":-6.288927,"i_long":106.728916,"transit":false,"distance":1994,"line":6,"time":4,"station_name":"Jurangmangu"},{"station_name":"Pondokranji","i_long":106.74273,"transit":false,"is_transit":false,"distance":2179,"station_id":"PDJ","line":6,"time":3,"i_lat":-6.276362},{"i_long":106.780334,"is_transit":false,"station_id":"KBY","station_name":"Kebayoran","distance":6218,"i_lat":-6.237242,"line":6,"time":8,"transit":false},{"line":6,"time":7,"transit":false,"station_id":"PLM","is_transit":false,"distance":3737,"i_lat":-6.207404,"station_name":"Palmerah","i_long":106.79689},{"is_transit":true,"station_id":"THB","time":6,"station_name":"Tanah Abang","distance":3191,"i_lat":-6.185545,"transit":true,"i_long":106.811091,"line":1},{"transit":true,"station_id":"DU","time":8,"distance":3632,"station_name":"Duri","is_transit":true,"i_long":106.800832,"line":1,"i_lat":-6.155215},{"station_name":"Grogol","i_long":106.788277,"time":3,"station_id":"GGL","distance":1700,"line":5,"i_lat":-6.162021,"transit":false,"is_transit":false},{"distance":2036,"i_lat":-6.161433,"station_name":"Pesing","time":2,"station_id":"PSG","i_long":106.771379,"line":5,"is_transit":false,"transit":false},{"distance":1614,"time":2,"i_long":106.756522,"transit":false,"station_id":"TKO","is_transit":false,"station_name":"Taman Kota","i_lat":-6.1587309999999995,"line":5},{"i_long":106.737035,"station_name":"Bojongindah","i_lat":-6.159876,"line":5,"is_transit":false,"station_id":"BOI","transit":false,"distance":2334,"time":2},{"line":5,"station_name":"Rawa Buaya","station_id":"RW","i_lat":-6.162758,"transit":false,"is_transit":false,"i_long":106.723064,"distance":1152,"time":4},{"distance":2504,"i_long":106.701612,"i_lat":-6.166068,"station_id":"KDS","station_name":"Kalideres","is_transit":false,"transit":false,"line":5,"time":3}],[{"distance":0,"is_transit":false,"i_long":106.712277,"line":6,"station_id":"SDM","transit":false,"i_lat":-6.296963,"time":0,"station_name":"Sudimara"},{"time":4,"transit":false,"station_id":"JMU","i_long":106.728916,"i_lat":-6.288927,"distance":1994,"line":6,"station_name":"Jurangmangu","is_transit":false},{"line":6,"time":3,"distance":2179,"i_lat":-6.276362,"is_transit":false,"i_long":106.74273,"station_name":"Pondokranji","station_id":"PDJ","transit":false},{"i_long":106.780334,"line":6,"transit":false,"station_id":"KBY","is_transit":false,"i_lat":-6.237242,"distance":6218,"station_name":"Kebayoran","time":8},{"line":6,"i_long":106.79689,"station_id":"PLM","is_transit":false,"transit":false,"station_name":"Palmerah","time":7,"i_lat":-6.207404,"distance":3737},{"distance":3191,"i_lat":-6.185545,"i_long":106.811091,"line":1,"time":6,"station_id":"THB","station_name":"Tanah Abang","transit":true,"is_transit":true},{"time":5,"station_name":"Karet","is_transit":false,"line":1,"transit":false,"station_id":"KAT","i_lat":-6.20132,"distance":2029,"i_long":106.816351},{"station_name":"Sudirman Baru","transit":false,"i_lat":-6.201433,"station_id":"SUDB","is_transit":false,"time":1,"distance":471,"i_long":106.819881,"line":1},{"time":1,"i_long":106.822649,"transit":false,"station_name":"Sudirman","station_id":"SUD","is_transit":false,"distance":280,"i_lat":-6.202263,"line":1},{"i_long":106.84912,"station_id":"MRI","station_name":"Manggarai","time":4,"i_lat":-6.209883,"transit":true,"distance":3186,"line":2,"is_transit":true},{"station_name":"Cikini","i_long":106.840169,"time":4,"line":2,"i_lat":-6.198556,"is_transit":false,"station_id":"CKI","distance":1590,"transit":false},{"is_transit":false,"i_lat":-6.186295,"station_name":"Gondangdia","transit":false,"station_id":"GDD","time":3,"distance":1750,"i_long":106.832183,"line":2},{"i_long":106.828284,"transit":false,"station_id":"JUA","is_transit":false,"i_lat":-6.166716,"line":2,"time":4,"station_name":"Juanda","distance":2015},{"i_long":106.827103,"line":2,"distance":1149,"station_name":"Sawah Besar","station_id":"SW","time":2,"transit":false,"i_lat":-6.160725,"is_transit":false},{"i_long":106.82482,"line":2,"distance":906,"station_name":"Manggabesar","is_transit":false,"i_lat":-6.149769,"transit":false,"station_id":"MGB","time":2},{"distance":1080,"transit":false,"time":2,"i_lat":-6.141205,"is_transit":false,"station_name":"Jayakarta","i_long":106.820901,"line":2,"station_id":"JAY"},{"distance":1264,"station_id":"JAKK","station_name":"Jakarta Kota","i_lat":-6.137569,"i_long":106.812439,"time":4,"transit":true,"is_transit":true,"line":2},{"is_transit":true,"distance":1364,"i_long":106.826365,"station_id":"KPB","line":4,"time":3,"station_name":"Kampung Bandan","i_lat":-6.132549,"transit":true},{"i_long":106.79867,"station_name":"Angke","line":1,"transit":false,"is_transit":false,"time":9,"station_id":"AK","i_lat":-6.144674,"distance":4102},{"station_id":"DU","line":1,"i_long":106.800832,"i_lat":-6.155215,"transit":true,"time":4,"is_transit":true,"distance":1230,"station_name":"Duri"},{"line":5,"i_long":106.788277,"is_transit":false,"transit":false,"i_lat":-6.162021,"station_id":"GGL","distance":1700,"time":3,"station_name":"Grogol"},{"distance":2036,"time":2,"transit":false,"line":5,"station_id":"PSG","i_lat":-6.161433,"i_long":106.771379,"station_name":"Pesing","is_transit":false},{"distance":1614,"i_lat":-6.1587309999999995,"line":5,"time":2,"station_id":"TKO","station_name":"Taman Kota","is_transit":false,"i_long":106.756522,"transit":false},{"is_transit":false,"i_lat":-6.159876,"transit":false,"station_id":"BOI","time":2,"station_name":"Bojongindah","distance":2334,"i_long":106.737035,"line":5},{"distance":1152,"line":5,"is_transit":false,"transit":false,"station_name":"Rawa Buaya","i_lat":-6.162758,"i_long":106.723064,"station_id":"RW","time":4},{"i_long":106.701612,"station_name":"Kalideres","is_transit":false,"time":3,"line":5,"transit":false,"distance":2504,"station_id":"KDS","i_lat":-6.166068}],[{"station_name":"Sudimara","distance":0,"transit":false,"station_id":"SDM","line":6,"i_long":106.712277,"i_lat":-6.296963,"is_transit":false,"time":0},{"station_name":"Jurangmangu","station_id":"JMU","time":4,"distance":1994,"line":6,"i_long":106.728916,"is_transit":false,"i_lat":-6.288927,"transit":false},{"i_lat":-6.276362,"is_transit":false,"i_long":106.74273,"station_id":"PDJ","transit":false,"station_name":"Pondokranji","distance":2179,"line":6,"time":3},{"station_id":"KBY","is_transit":false,"station_name":"Kebayoran","distance":6218,"line":6,"i_long":106.780334,"transit":false,"i_lat":-6.237242,"time":8},{"distance":3737,"line":6,"station_name":"Palmerah","is_transit":false,"transit":false,"time":7,"i_long":106.79689,"i_lat":-6.207404,"station_id":"PLM"},{"transit":true,"i_long":106.811091,"station_id":"THB","is_transit":true,"station_name":"Tanah Abang","time":6,"line":1,"distance":3191,"i_lat":-6.185545},{"time":5,"station_id":"KAT","line":1,"i_lat":-6.20132,"distance":2029,"is_transit":false,"i_long":106.816351,"station_name":"Karet","transit":false},{"transit":false,"station_name":"Sudirman Baru","station_id":"SUDB","time":1,"distance":471,"i_lat":-6.201433,"is_transit":false,"i_long":106.819881,"line":1},{"distance":280,"i_lat":-6.202263,"i_long":106.822649,"line":1,"station_id":"SUD","time":1,"transit":false,"station_name":"Sudirman","is_transit":false},{"i_long":106.84912,"time":4,"i_lat":-6.209883,"line":2,"distance":3186,"station_name":"Manggarai","is_transit":false,"station_id":"MRI","transit":false},{"is_transit":false,"distance":1275,"transit":false,"i_lat":-6.212485,"station_id":"MTR","i_long":106.858896,"time":2,"station_name":"Matraman","line":1},{"time":8,"distance":1377,"i_lat":-6.215091,"station_name":"Jatinegara","station_id":"JNG","transit":true,"line":1,"is_transit":true,"i_long":106.86807400000001},{"station_name":"Pondok Jati","distance":1236,"transit":false,"is_transit":false,"i_lat":-6.209188,"i_long":106.861737,"line":11,"time":2,"station_id":"POK"},{"time":2,"station_id":"KMT","i_long":106.855437,"distance":1829,"station_name":"Kramat","transit":false,"is_transit":false,"i_lat":-6.193792,"line":11},{"transit":false,"time":1,"line":11,"station_id":"GST","station_name":"Gang Sentiong","is_transit":false,"distance":973,"i_lat":-6.185975,"i_long":106.850107},{"station_name":"Pasar Senen","line":11,"is_transit":false,"transit":false,"i_lat":-6.174784,"station_id":"PSE","time":8,"distance":1567,"i_long":106.84368},{"time":4,"is_transit":false,"i_lat":-6.161728,"i_long":106.839204,"line":11,"transit":false,"station_id":"KMO","distance":1436,"station_name":"Kemayoran"},{"is_transit":false,"station_name":"Rajawali","time":5,"station_id":"RJW","distance":1901,"transit":false,"i_long":106.836569,"line":11,"i_lat":-6.14505},{"station_id":"KPB","transit":true,"i_long":106.826365,"line":4,"station_name":"Kampung Bandan","time":3,"distance":1444,"is_transit":true,"i_lat":-6.132549},{"distance":4102,"i_long":106.79867,"line":1,"station_name":"Angke","i_lat":-6.144674,"transit":false,"station_id":"AK","is_transit":false,"time":9},{"line":1,"time":4,"transit":true,"is_transit":true,"i_long":106.800832,"distance":1230,"i_lat":-6.155215,"station_name":"Duri","station_id":"DU"},{"transit":false,"i_long":106.788277,"station_id":"GGL","station_name":"Grogol","line":5,"is_transit":false,"i_lat":-6.162021,"time":3,"distance":1700},{"distance":2036,"i_lat":-6.161433,"i_long":106.771379,"station_name":"Pesing","transit":false,"time":2,"is_transit":false,"station_id":"PSG","line":5},{"is_transit":false,"distance":1614,"station_id":"TKO","line":5,"time":2,"i_long":106.756522,"transit":false,"station_name":"Taman Kota","i_lat":-6.1587309999999995},{"i_long":106.737035,"time":2,"is_transit":false,"distance":2334,"station_name":"Bojongindah","i_lat":-6.159876,"station_id":"BOI","line":5,"transit":false},{"i_long":106.723064,"i_lat":-6.162758,"station_name":"Rawa Buaya","time":4,"transit":false,"distance":1152,"station_id":"RW","is_transit":false,"line":5},{"is_transit":false,"i_lat":-6.166068,"line":5,"distance":2504,"station_name":"Kalideres","station_id":"KDS","time":3,"transit":false,"i_long":106.701612}]]}