{"data":[[{"time":0,"transit":false,"station_name":"Sudimara","i_long":106.712277,"i_lat":-6.296963,"station_id":"SDM","is_transit":false,"line":6,"distance":0},{"station_id":"JMU","i_lat":-6.288927,"time":4,"station_name":"Jurangmangu","i_long":106.728916,"line":6,"distance":1994,"transit":false,"is_transit":false},{"station_id":"PDJ","i_long":106.74273,"i_lat":-6.276362,"is_transit":false,"transit":false,"line":6,"time":3,"distance":2179,"station_name":"Pondokranji"},{"station_id":"KBY","distance":6218,"line":6,"is_transit":false,"i_lat":-6.237242,"i_long":106.780334,"station_name":"Kebayoran","time":8,"transit":false},{"i_lat":-6.207404,"station_id":"PLM","time":7,"line":6,"i_long":106.79689,"is_transit":false,"distance":3737,"station_name":"Palmerah","transit":false},{"time":6,"line":1,"is_transit":true,"station_name":"Tanah Abang","distance":3191,"i_lat":-6.185545,"station_id":"THB","i_long":106.811091,"transit":true},{"i_lat":-6.20132,"time":5,"is_transit":false,"station_id":"KAT","distance":2029,"i_long":106.816351,"line":1,"station_name":"Karet","transit":false},{"time":1,"station_id":"SUDB","transit":false,"is_transit":false,"i_lat":-6.201433,"distance":471,"station_name":"Sudirman Baru","i_long":106.819881,"line":1},{"i_long":106.822649,"station_name":"Sudirman","line":1,"i_lat":-6.202263,"transit":false,"distance":280,"time":1,"station_id":"SUD","is_transit":false},{"time":4,"station_name":"Manggarai","i_long":106.84912,"is_transit":false,"i_lat":-6.209883,"station_id":"MRI","line":2,"transit":false,"distance":3186},{"distance":1275,"line":1,"i_long":106.858896,"station_id":"MTR","time":2,"is_transit":false,"station_name":"Matraman","transit":false,"i_lat":-6.212485},{"line":1,"i_lat":-6.215091,"station_name":"Jatinegara","station_id":"JNG","transit":false,"distance":1377,"time":8,"i_long":106.86807400000001,"is_transit":false},{"i_long":106.899548,"i_lat":-6.2135,"is_transit":false,"time":3,"distance":3395,"transit":false,"station_name":"Klender","station_id":"KLD","line":1},{"distance":3100,"transit":false,"station_name":"Buaran","i_long":106.922662,"station_id":"BUA","time":2,"i_lat":-6.215568,"line":1,"is_transit":false},{"line":1,"distance":1305,"is_transit":false,"transit":false,"i_lat":-6.217455,"station_id":"KLDB","i_long":106.939679,"time":1,"station_name":"Klenderbaru"},{"i_long":106.951283,"distance":1385,"time":8,"station_id":"CUK","is_transit":false,"station_name":"Cakung","i_lat":-6.219053,"line":1,"transit":false},{"distance":3097,"time":3,"station_name":"Kranji","transit":false,"line":1,"is_transit":false,"i_lat":-6.224515,"i_long":106.977657,"station_id":"KRI"},{"i_long":106.997013,"line":1,"station_id":"BKS","transit":false,"distance":2520,"station_name":"Bekasi","time":4,"is_transit":false,"i_lat":-6.236616},{"i_lat":-6.248029,"station_name":"Bekasi Timur","distance":2368,"i_long":107.016735,"time":2,"line":1,"is_transit":false,"transit":false,"station_id":"BKST"},{"station_name":"Tambun","time":7,"station_id":"TB","i_lat":-6.258864,"line":1,"transit":false,"distance":4460,"i_long":107.055722,"is_transit":false}],[{"station_id":"SDM","time":0,"is_transit":false,"station_name":"Sudimara","transit":false,"i_lat":-6.296963,"i_long":106.712277,"line":6,"distance":0},{"station_name":"Jurangmangu","transit":false,"station_id":"JMU","distance":1994,"time":4,"line":6,"is_transit":false,"i_long":106.728916,"i_lat":-6.288927},{"distance":2179,"i_lat":-6.276362,"station_id":"PDJ","station_name":"Pondokranji","i_long":106.74273,"time":3,"line":6,"is_transit":false,"transit":false},{"time":8,"transit":false,"i_long":106.780334,"line":6,"station_name":"Kebayoran","i_lat":-6.237242,"is_transit":false,"station_id":"KBY","distance":6218},{"distance":3737,"i_long":106.79689,"line":6,"transit":false,"time":7,"is_transit":false,"station_id":"PLM","station_name":"Palmerah","i_lat":-6.207404},{"transit":true,"i_lat":-6.185545,"line":1,"is_transit":true,"time":6,"station_name":"Tanah Abang","distance":3191,"station_id":"THB","i_long":106.811091},{"i_long":106.800832,"i_lat":-6.155215,"time":8,"transit":false,"station_id":"DU","distance":3632,"line":1,"station_name":"Duri","is_transit":false},{"i_lat":-6.144674,"distance":1230,"transit":false,"station_name":"Angke","line":1,"is_transit":false,"time":4,"station_id":"AK","i_long":106.79867},{"transit":true,"time":9,"i_lat":-6.132549,"line":4,"station_name":"Kampung Bandan","station_id":"KPB","is_transit":true,"i_long":106.826365,"distance":4102},{"is_transit":false,"distance":1444,"i_lat":-6.14505,"station_id":"RJW","time":3,"transit":false,"station_name":"Rajawali","line":11,"i_long":106.836569},{"i_long":106.839204,"station_name":"Kemayoran","is_transit":false,"time":5,"transit":false,"distance":1901,"i_lat":-6.161728,"line":11,"station_id":"KMO"},{"station_id":"PSE","i_long":106.84368,"transit":false,"time":4,"i_lat":-6.174784,"is_transit":false,"station_name":"Pasar Senen","line":11,"distance":1436},{"is_transit":false,"i_long":106.850107,"distance":1567,"i_lat":-6.185975,"station_id":"GST","time":8,"station_name":"Gang Sentiong","transit":false,"line":11},{"is_transit":false,"time":1,"station_name":"Kramat","line":11,"i_long":106.855437,"distance":973,"i_lat":-6.193792,"station_id":"KMT","transit":false},{"time":2,"transit":false,"i_long":106.861737,"line":11,"is_transit":false,"station_name":"Pondok Jati","distance":1829,"i_lat":-6.209188,"station_id":"POK"},{"station_id":"JNG","is_transit":true,"time":9,"transit":true,"line":1,"i_long":106.86807400000001,"station_name":"Jatinegara","i_lat":-6.215091,"distance":1236},{"is_transit":false,"station_name":"Klender","station_id":"KLD","i_long":106.899548,"distance":3395,"transit":false,"line":1,"i_lat":-6.2135,"time":3},{"time":2,"i_lat":-6.215568,"is_transit":false,"station_name":"Buaran","transit":false,"i_long":106.922662,"line":1,"station_id":"BUA","distance":3100},{"station_id":"KLDB","station_name":"Klenderbaru","line":1,"i_lat":-6.217455,"is_transit":false,"distance":1305,"time":1,"transit":false,"i_long":106.939679},{"station_id":"CUK","station_name":"Cakung","i_long":106.951283,"distance":1385,"transit":false,"time":8,"i_lat":-6.219053,"line":1,"is_transit":false},{"is_transit":false,"line":1,"distance":3097,"station_name":"Kranji","i_lat":-6.224515,"transit":false,"i_long":106.977657,"time":3,"station_id":"KRI"},{"station_id":"BKS","station_name":"Bekasi","transit":false,"i_long":106.997013,"time":4,"distance":2520,"i_lat":-6.236616,"is_transit":false,"line":1},{"transit":false,"distance":2368,"station_id":"BKST","i_lat":-6.248029,"time":2,"is_transit":false,"station_name":"Bekasi Timur","line":1,"i_long":107.016735},{"distance":4460,"is_transit":false,"i_long":107.055722,"time":7,"line":1,"station_id":"TB","station_name":"Tambun","transit":false,"i_lat":-6.258864}],[{"time":0,"station_id":"SDM","distance":0,"transit":false,"station_name":"Sudimara","is_transit":false,"i_long":106.712277,"line":6,"i_lat":-6.296963},{"line":6,"station_name":"Jurangmangu","i_lat":-6.288927,"station_id":"JMU","time":4,"transit":false,"i_long":106.728916,"distance":1994,"is_transit":false},{"transit":false,"i_lat":-6.276362,"i_long":106.74273,"station_id":"PDJ","is_transit":false,"distance":2179,"station_name":"Pondokranji","line":6,"time":3},{"i_lat":-6.237242,"is_transit":false,"i_long":106.780334,"transit":false,"station_name":"Kebayoran","line":6,"station_id":"KBY","distance":6218,"time":8},{"station_id":"PLM","station_name":"Palmerah","line":6,"time":7,"distance":3737,"i_lat":-6.207404,"is_transit":false,"i_long":106.79689,"transit":false},{"station_id":"THB","is_transit":true,"distance":3191,"transit":true,"time":6,"line":1,"i_lat":-6.185545,"i_long":106.811091,"station_name":"Tanah Abang"},{"line":1,"station_id":"DU","is_transit":false,"i_lat":-6.155215,"station_name":"Duri","time":8,"transit":false,"distance":3632,"i_long":106.800832},{"time":4,"station_name":"Angke","i_lat":-6.144674,"transit":false,"distance":1230,"station_id":"AK","i_long":106.79867,"line":1,"is_transit":false},{"station_id":"KPB","is_transit":true,"time":9,"station_name":"Kampung Bandan","transit":true,"distance":4102,"i_lat":-6.132549,"i_long":106.826365,"line":4},{"is_transit":true,"i_lat":-6.137569,"transit":true,"i_long":106.812439,"line":2,"station_name":"Jakarta Kota","distance":1364,"time":3,"station_id":"JAKK"},{"distance":1264,"transit":false,"i_lat":-6.141205,"is_transit":false,"time":4,"station_id":"JAY","station_name":"Jayakarta","i_long":106.820901,"line":2},{"i_long":106.82482,"transit":false,"line":2,"station_name":"Manggabesar","time":2,"is_transit":false,"distance":1080,"i_lat":-6.149769,"station_id":"MGB"},{"time":2,"station_id":"SW","distance":906,"line":2,"i_long":106.827103,"station_name":"Sawah Besar","transit":false,"i_lat":-6.160725,"is_transit":false},{"station_name":"Juanda","time":2,"station_id":"JUA","transit":false,"distance":1149,"i_lat":-6.166716,"line":2,"is_transit":false,"i_long":106.828284},{"transit":false,"distance":2015,"time":4,"line":2,"is_transit":false,"i_long":106.832183,"station_name":"Gondangdia","i_lat":-6.186295,"station_id":"GDD"},{"line":2,"i_long":106.840169,"is_transit":false,"i_lat":-6.198556,"station_id":"CKI","distance":1750,"station_name":"Cikini","transit":false,"time":3},{"i_long":106.84912,"line":2,"station_id":"MRI","transit":true,"time":4,"station_name":"Manggarai","distance":1590,"is_transit":true,"i_lat":-6.209883},{"station_name":"Matraman","transit":false,"i_long":106.858896,"station_id":"MTR","is_transit":false,"i_lat":-6.212485,"line":1,"distance":1275,"time":2},{"distance":1377,"time":8,"i_long":106.86807400000001,"station_name":"Jatinegara","line":1,"is_transit":false,"station_id":"JNG","transit":false,"i_lat":-6.215091},{"is_transit":false,"transit":false,"time":3,"station_name":"Klender","i_long":106.899548,"line":1,"distance":3395,"station_id":"KLD","i_lat":-6.2135},{"station_id":"BUA","distance":3100,"is_transit":false,"i_lat":-6.215568,"i_long":106.922662,"station_name":"Buaran","transit":false,"line":1,"time":2},{"station_id":"KLDB","is_transit":false,"i_lat":-6.217455,"station_name":"Klenderbaru","i_long":106.939679,"time":1,"line":1,"distance":1305,"transit":false},{"time":8,"distance":1385,"i_lat":-6.219053,"i_long":106.951283,"station_id":"CUK","is_transit":false,"station_name":"Cakung","transit":false,"line":1},{"i_long":106.977657,"distance":3097,"station_name":"Kranji","time":3,"transit":false,"i_lat":-6.224515,"station_id":"KRI","line":1,"is_transit":false},{"distance":2520,"i_lat":-6.236616,"transit":false,"station_id":"BKS","i_long":106.997013,"time":4,"line":1,"is_transit":false,"station_name":"Bekasi"},{"time":2,"station_name":"Bekasi Timur","transit":false,"is_transit":false,"i_lat":-6.248029,"line":1,"station_id":"BKST","distance":2368,"i_long":107.016735},{"is_transit":false,"i_long":107.055722,"line":1,"distance":4460,"station_name":"Tambun","time":7,"transit":false,"station_id":"TB","i_lat":-6.258864}],[{"i_long":106.712277,"station_name":"Sudimara","distance":0,"time":0,"station_id":"SDM","is_transit":false,"transit":false,"i_lat":-6.296963,"line":6},{"is_transit":false,"transit":false,"station_name":"Jurangmangu","distance":1994,"i_long":106.728916,"line":6,"time":4,"station_id":"JMU","i_lat":-6.288927},{"station_id":"PDJ","distance":2179,"station_name":"Pondokranji","transit":false,"i_long":106.74273,"time":3,"i_lat":-6.276362,"is_transit":false,"line":6},{"i_lat":-6.237242,"transit":false,"time":8,"station_name":"Kebayoran","station_id":"KBY","is_transit":false,"i_long":106.780334,"distance":6218,"line":6},{"i_lat":-6.207404,"station_id":"PLM","is_transit":false,"transit":false,"time":7,"i_long":106.79689,"line":6,"distance":3737,"station_name":"Palmerah"},{"i_lat":-6.185545,"station_name":"Tanah Abang","time":6,"i_long":106.811091,"distance":3191,"transit":true,"line":1,"station_id":"THB","is_transit":true},{"i_long":106.816351,"i_lat":-6.20132,"line":1,"is_transit":false,"station_name":"Karet","distance":2029,"station_id":"KAT","transit":false,"time":5},{"i_lat":-6.201433,"i_long":106.819881,"station_id":"SUDB","station_name":"Sudirman Baru","distance":471,"line":1,"time":1,"is_transit":false,"transit":false},{"station_name":"Sudirman","time":1,"station_id":"SUD","i_long":106.822649,"i_lat":-6.202263,"line":1,"distance":280,"is_transit":false,"transit":false},{"is_transit":true,"line":2,"station_name":"Manggarai","i_lat":-6.209883,"transit":true,"station_id":"MRI","time":4,"distance":3186,"i_long":106.84912},{"is_transit":false,"station_id":"CKI","distance":1590,"transit":false,"line":2,"station_name":"Cikini","time":4,"i_long":106.840169,"i_lat":-6.198556},{"is_transit":false,"i_long":106.832183,"station_name":"Gondangdia","station_id":"GDD","distance":1750,"time":3,"transit":false,"i_lat":-6.186295,"line":2},{"i_long":106.828284,"transit":false,"is_transit":false,"line":2,"time":4,"distance":2015,"station_name":"Juanda","i_lat":-6.166716,"station_id":"JUA"},{"station_name":"Sawah Besar","transit":false,"time":2,"is_transit":false,"i_long":106.827103,"i_lat":-6.160725,"line":2,"station_id":"SW","distance":1149},{"line":2,"station_id":"MGB","distance":906,"time":2,"station_name":"Manggabesar","transit":false,"is_transit":false,"i_lat":-6.149769,"i_long":106.82482},{"distance":1080,"transit":false,"i_lat":-6.141205,"is_transit":false,"i_long":106.820901,"time":2,"station_name":"Jayakarta","line":2,"station_id":"JAY"},{"is_transit":true,"time":4,"station_name":"Jakarta Kota","transit":true,"line":2,"distance":1264,"station_id":"JAKK","i_lat":-6.137569,"i_long":106.812439},{"i_lat":-6.132549,"i_long":106.826365,"line":4,"distance":1364,"station_name":"Kampung Bandan","station_id":"KPB","is_transit":true,"transit":true,"time":3},{"station_id":"RJW","transit":false,"line":11,"time":3,"distance":1444,"is_transit":false,"i_lat":-6.14505,"station_name":"Rajawali","i_long":106.836569},{"is_transit":false,"i_lat":-6.161728,"station_id":"KMO","distance":1901,"time":5,"station_name":"Kemayoran","transit":false,"line":11,"i_long":106.839204},{"i_lat":-6.174784,"time":4,"is_transit":false,"transit":false,"line":11,"station_id":"PSE","i_long":106.84368,"station_name":"Pasar Senen","distance":1436},{"time":8,"is_transit":false,"line":11,"station_id":"GST","distance":1567,"i_long":106.850107,"i_lat":-6.185975,"transit":false,"station_name":"Gang Sentiong"},{"time":1,"is_transit":false,"station_id":"KMT","station_name":"Kramat","i_long":106.855437,"i_lat":-6.193792,"distance":973,"transit":false,"line":11},{"i_long":106.861737,"station_name":"Pondok Jati","distance":1829,"station_id":"POK","transit":false,"i_lat":-6.209188,"line":11,"time":2,"is_transit":false},{"distance":1236,"line":1,"transit":true,"time":9,"is_transit":true,"station_id":"JNG","i_lat":-6.215091,"station_name":"Jatinegara","i_long":106.86807400000001},{"distance":3395,"station_id":"KLD","time":3,"is_transit":false,"transit":false,"i_lat":-6.2135,"station_name":"Klender","i_long":106.899548,"line":1},{"i_long":106.922662,"station_id":"BUA","distance":3100,"station_name":"Buaran","i_lat":-6.215568,"line":1,"time":2,"transit":false,"is_transit":false},{"i_lat":-6.217455,"station_name":"Klenderbaru","distance":1305,"transit":false,"station_id":"KLDB","time":1,"line":1,"is_transit":false,"i_long":106.939679},{"station_name":"Cakung","station_id":"CUK","i_long":106.951283,"transit":false,"is_transit":false,"line":1,"time":8,"distance":1385,"i_lat":-6.219053},{"i_lat":-6.224515,"line":1,"station_id":"KRI","i_long":106.977657,"time":3,"transit":false,"is_transit":false,"distance":3097,"station_name":"Kranji"},{"is_transit":false,"i_long":106.997013,"distance":2520,"time":4,"transit":false,"station_name":"Bekasi","station_id":"BKS","i_lat":-6.236616,"line":1},{"i_lat":-6.248029,"line":1,"station_id":"BKST","is_transit":false,"time":2,"distance":2368,"station_name":"Bekasi Timur","transit":false,"i_long":107.016735},{"distance":4460,"i_long":107.055722,"i_lat":-6.258864,"station_id":"TB","station_name":"Tambun","line":1,"is_transit":false,"time":7,"transit":false}]]}