{"data":[[{"i_lat":-6.296963,"is_transit":false,"station_id":"SDM","station_name":"Sudimara","time":0,"distance":0,"line":6,"i_long":106.712277,"transit":false},{"time":4,"transit":false,"line":6,"i_long":106.728916,"distance":1994,"is_transit":false,"station_id":"JMU","i_lat":-6.288927,"station_name":"Jurangmangu"},{"is_transit":false,"distance":2179,"station_name":"Pondokranji","time":3,"i_long":106.74273,"transit":false,"station_id":"PDJ","i_lat":-6.276362,"line":6},{"i_lat":-6.237242,"i_long":106.780334,"line":6,"time":8,"distance":6218,"station_name":"Kebayoran","station_id":"KBY","is_transit":false,"transit":false},{"i_lat":-6.207404,"station_id":"PLM","distance":3737,"is_transit":false,"i_long":106.79689,"line":6,"station_name":"Palmerah","time":7,"transit":false},{"time":6,"station_name":"Tanah Abang","transit":true,"station_id":"THB","distance":3191,"line":1,"i_lat":-6.185545,"i_long":106.811091,"is_transit":true},{"i_lat":-6.20132,"station_name":"Karet","transit":false,"i_long":106.816351,"time":5,"distance":2029,"station_id":"KAT","line":1,"is_transit":false},{"i_lat":-6.201433,"line":1,"is_transit":false,"time":1,"distance":471,"i_long":106.819881,"station_id":"SUDB","transit":false,"station_name":"Sudirman Baru"},{"station_name":"Sudirman","station_id":"SUD","line":1,"distance":280,"i_lat":-6.202263,"is_transit":false,"time":1,"transit":false,"i_long":106.822649},{"line":0,"station_name":"Manggarai","is_transit":true,"transit":true,"time":4,"i_long":106.84912,"distance":3186,"i_lat":-6.209883,"station_id":"MRI"},{"distance":1590,"station_name":"Cikini","transit":false,"i_long":106.840169,"line":0,"time":4,"is_transit":false,"station_id":"CKI","i_lat":-6.198556},{"i_lat":-6.186295,"is_transit":false,"distance":1750,"line":2,"i_long":106.832183,"station_name":"Gondangdia","time":3,"station_id":"GDD","transit":false}],[{"distance":0,"transit":false,"i_long":106.712277,"is_transit":false,"station_id":"SDM","time":0,"line":6,"i_lat":-6.296963,"station_name":"Sudimara"},{"i_long":106.728916,"i_lat":-6.288927,"line":6,"station_name":"Jurangmangu","transit":false,"is_transit":false,"station_id":"JMU","time":4,"distance":1994},{"line":6,"is_transit":false,"transit":false,"i_lat":-6.276362,"distance":2179,"station_id":"PDJ","station_name":"Pondokranji","time":3,"i_long":106.74273},{"distance":6218,"is_transit":false,"i_lat":-6.237242,"station_name":"Kebayoran","i_long":106.780334,"station_id":"KBY","transit":false,"time":8,"line":6},{"i_lat":-6.207404,"is_transit":false,"station_id":"PLM","station_name":"Palmerah","transit":false,"distance":3737,"time":7,"i_long":106.79689,"line":6},{"line":1,"is_transit":true,"distance":3191,"station_name":"Tanah Abang","transit":true,"time":6,"i_lat":-6.185545,"station_id":"THB","i_long":106.811091},{"station_id":"DU","i_long":106.800832,"station_name":"Duri","time":8,"i_lat":-6.155215,"line":1,"is_transit":true,"transit":true,"distance":3632},{"station_name":"Angke","time":4,"distance":1230,"line":0,"is_transit":false,"i_long":106.79867,"station_id":"AK","i_lat":-6.144674,"transit":false},{"i_lat":-6.132549,"station_name":"Kampung Bandan","distance":4102,"is_transit":true,"time":9,"line":0,"station_id":"KPB","i_long":106.826365,"transit":false},{"time":3,"is_transit":true,"transit":true,"i_lat":-6.137569,"i_long":106.812439,"line":0,"station_name":"Jakarta Kota","station_id":"JAKK","distance":1364},{"station_id":"JAY","station_name":"Jayakarta","transit":false,"i_long":106.820901,"distance":1264,"line":7,"is_transit":false,"i_lat":-6.141205,"time":4},{"distance":1080,"i_long":106.82482,"station_id":"MGB","i_lat":-6.149769,"is_transit":false,"time":2,"line":2,"station_name":"Manggabesar","transit":false},{"station_name":"Sawah Besar","distance":906,"station_id":"SW","time":2,"i_long":106.827103,"transit":false,"is_transit":false,"line":2,"i_lat":-6.160725},{"station_name":"Juanda","station_id":"JUA","i_lat":-6.166716,"is_transit":false,"i_long":106.828284,"line":2,"time":2,"distance":1149,"transit":false},{"transit":false,"is_transit":false,"station_id":"GDD","time":4,"line":2,"i_lat":-6.186295,"distance":2015,"station_name":"Gondangdia","i_long":106.832183}],[{"station_name":"Sudimara","station_id":"SDM","distance":0,"is_transit":false,"transit":false,"i_long":106.712277,"time":0,"i_lat":-6.296963,"line":6},{"i_lat":-6.288927,"time":4,"transit":false,"distance":1994,"line":6,"is_transit":false,"station_id":"JMU","station_name":"Jurangmangu","i_long":106.728916},{"time":3,"station_name":"Pondokranji","station_id":"PDJ","line":6,"transit":false,"i_lat":-6.276362,"i_long":106.74273,"is_transit":false,"distance":2179},{"distance":6218,"time":8,"station_name":"Kebayoran","i_long":106.780334,"line":6,"is_transit":false,"station_id":"KBY","i_lat":-6.237242,"transit":false},{"station_id":"PLM","station_name":"Palmerah","transit":false,"is_transit":false,"i_long":106.79689,"distance":3737,"line":6,"time":7,"i_lat":-6.207404},{"line":1,"is_transit":true,"station_id":"THB","transit":true,"time":6,"station_name":"Tanah Abang","distance":3191,"i_long":106.811091,"i_lat":-6.185545},{"i_lat":-6.155215,"is_transit":true,"station_id":"DU","station_name":"Duri","transit":true,"line":1,"time":8,"distance":3632,"i_long":106.800832},{"is_transit":false,"i_lat":-6.144674,"i_long":106.79867,"distance":1230,"station_id":"AK","station_name":"Angke","time":4,"line":0,"transit":false},{"transit":true,"time":9,"station_name":"Kampung Bandan","i_long":106.826365,"is_transit":true,"line":0,"distance":4102,"station_id":"KPB","i_lat":-6.132549},{"i_lat":-6.14505,"station_id":"RJW","is_transit":false,"station_name":"Rajawali","transit":false,"line":11,"distance":1444,"i_long":106.836569,"time":3},{"station_name":"Kemayoran","i_long":106.839204,"is_transit":false,"distance":1901,"i_lat":-6.161728,"time":5,"transit":false,"line":11,"station_id":"KMO"},{"line":11,"station_name":"Pasar Senen","i_long":106.84368,"distance":1436,"station_id":"PSE","is_transit":false,"time":4,"i_lat":-6.174784,"transit":false},{"time":8,"i_long":106.850107,"transit":false,"is_transit":false,"station_name":"Gang Sentiong","i_lat":-6.185975,"station_id":"GST","distance":1567,"line":11},{"distance":973,"is_transit":false,"station_id":"KMT","transit":false,"i_long":106.855437,"time":1,"i_lat":-6.193792,"station_name":"Kramat","line":11},{"station_id":"POK","station_name":"Pondok Jati","transit":false,"i_long":106.861737,"distance":1829,"i_lat":-6.209188,"time":2,"line":11,"is_transit":false},{"station_id":"JNG","time":9,"station_name":"Jatinegara","i_lat":-6.215091,"i_long":106.86807400000001,"distance":1236,"is_transit":true,"line":0,"transit":true},{"i_long":106.858896,"i_lat":-6.212485,"time":2,"transit":false,"is_transit":false,"distance":1377,"station_name":"Matraman","line":1,"station_id":"MTR"},{"station_name":"Manggarai","time":2,"distance":1275,"line":0,"is_transit":true,"transit":true,"station_id":"MRI","i_long":106.84912,"i_lat":-6.209883},{"transit":false,"i_lat":-6.198556,"i_long":106.840169,"station_id":"CKI","station_name":"Cikini","is_transit":false,"time":4,"distance":1590,"line":0},{"is_transit":false,"i_lat":-6.186295,"distance":1750,"transit":false,"station_id":"GDD","line":2,"station_name":"Gondangdia","time":3,"i_long":106.832183}],[{"line":6,"station_id":"SDM","transit":false,"i_lat":-6.296963,"station_name":"Sudimara","i_long":106.712277,"distance":0,"time":0,"is_transit":false},{"distance":1994,"time":4,"i_lat":-6.288927,"is_transit":false,"line":6,"i_long":106.728916,"transit":false,"station_name":"Jurangmangu","station_id":"JMU"},{"transit":false,"is_transit":false,"time":3,"i_long":106.74273,"station_name":"Pondokranji","i_lat":-6.276362,"distance":2179,"line":6,"station_id":"PDJ"},{"i_long":106.780334,"is_transit":false,"distance":6218,"time":8,"station_name":"Kebayoran","transit":false,"line":6,"station_id":"KBY","i_lat":-6.237242},{"i_long":106.79689,"line":6,"distance":3737,"station_id":"PLM","transit":false,"time":7,"i_lat":-6.207404,"is_transit":false,"station_name":"Palmerah"},{"is_transit":true,"i_lat":-6.185545,"distance":3191,"station_id":"THB","station_name":"Tanah Abang","i_long":106.811091,"transit":true,"time":6,"line":1},{"station_name":"Karet","station_id":"KAT","transit":false,"i_lat":-6.20132,"distance":2029,"time":5,"is_transit":false,"i_long":106.816351,"line":1},{"station_id":"SUDB","transit":false,"line":1,"is_transit":false,"distance":471,"station_name":"Sudirman Baru","i_lat":-6.201433,"time":1,"i_long":106.819881},{"distance":280,"i_lat":-6.202263,"station_id":"SUD","station_name":"Sudirman","transit":false,"time":1,"line":1,"i_long":106.822649,"is_transit":false},{"is_transit":true,"distance":3186,"transit":false,"i_long":106.84912,"time":4,"i_lat":-6.209883,"line":0,"station_id":"MRI","station_name":"Manggarai"},{"line":1,"transit":false,"station_name":"Matraman","time":2,"i_long":106.858896,"is_transit":false,"station_id":"MTR","distance":1275,"i_lat":-6.212485},{"distance":1377,"is_transit":true,"station_name":"Jatinegara","transit":true,"station_id":"JNG","i_long":106.86807400000001,"line":0,"i_lat":-6.215091,"time":8},{"is_transit":false,"station_id":"POK","station_name":"Pondok Jati","line":11,"time":2,"distance":1236,"i_lat":-6.209188,"i_long":106.861737,"transit":false},{"distance":1829,"is_transit":false,"station_name":"Kramat","station_id":"KMT","transit":false,"time":2,"line":11,"i_long":106.855437,"i_lat":-6.193792},{"i_lat":-6.185975,"is_transit":false,"line":11,"station_name":"Gang Sentiong","transit":false,"distance":973,"i_long":106.850107,"station_id":"GST","time":1},{"station_id":"PSE","line":11,"station_name":"Pasar Senen","i_lat":-6.174784,"i_long":106.84368,"distance":1567,"is_transit":false,"transit":false,"time":8},{"is_transit":false,"distance":1436,"station_id":"KMO","station_name":"Kemayoran","transit":false,"i_lat":-6.161728,"time":4,"line":11,"i_long":106.839204},{"distance":1901,"is_transit":false,"time":5,"line":11,"station_name":"Rajawali","station_id":"RJW","transit":false,"i_long":106.836569,"i_lat":-6.14505},{"i_lat":-6.132549,"distance":1444,"time":3,"station_id":"KPB","line":0,"is_transit":true,"station_name":"Kampung Bandan","transit":true,"i_long":106.826365},{"station_name":"Jakarta Kota","line":0,"distance":1364,"station_id":"JAKK","is_transit":true,"time":3,"i_lat":-6.137569,"i_long":106.812439,"transit":true},{"station_name":"Jayakarta","station_id":"JAY","time":4,"i_lat":-6.141205,"is_transit":false,"i_long":106.820901,"line":7,"distance":1264,"transit":false},{"is_transit":false,"station_name":"Manggabesar","i_lat":-6.149769,"distance":1080,"line":2,"station_id":"MGB","i_long":106.82482,"transit":false,"time":2},{"time":2,"i_long":106.827103,"is_transit":false,"line":2,"station_id":"SW","distance":906,"transit":false,"station_name":"Sawah Besar","i_lat":-6.160725},{"station_id":"JUA","is_transit":false,"distance":1149,"transit":false,"i_long":106.828284,"time":2,"station_name":"Juanda","line":2,"i_lat":-6.166716},{"is_transit":false,"station_id":"GDD","time":4,"i_long":106.832183,"station_name":"Gondangdia","i_lat":-6.186295,"line":2,"distance":2015,"transit":false}]]}