{"data":[[{"station_name":"Solo Jebres","is_transit":false,"time":0,"i_lat":-7.56197,"line":7,"station_id":"SK","distance":0,"transit":false,"i_long":110.839459},{"distance":2141,"i_long":110.821471,"station_id":"SLO","line":7,"time":10,"transit":false,"is_transit":false,"station_name":"Solo Balapan","i_lat":-7.556783},{"time":6,"transit":false,"i_lat":-7.561362,"station_name":"Purwosari","station_id":"PWS","line":7,"is_transit":false,"distance":2936,"i_long":110.796655},{"i_long":110.744432,"line":7,"station_name":"Gawok","time":7,"is_transit":false,"i_lat":-7.589036,"transit":false,"station_id":"GW","distance":6639},{"transit":false,"line":7,"distance":5543,"i_long":110.706679,"is_transit":false,"station_id":"DL","time":6,"station_name":"Delanggu","i_lat":-7.62181},{"line":7,"time":7,"i_lat":-7.668597,"distance":6271,"transit":false,"i_long":110.674861,"station_name":"Ceper","station_id":"CE","is_transit":false},{"transit":false,"i_lat":-7.712087,"i_long":110.602981,"distance":9279,"station_id":"KT","time":9,"station_name":"Klaten","line":7,"is_transit":false}]]}