{
  "data": [
    [
      {
        "distance": 0,
        "i_lat": -7.56197,
        "i_long": 110.839459,
        "is_transit": false,
        "line": 7,
        "station_id": "SK",
        "station_name": "Solo Jebres",
        "time": 0,
        "transit": false
      },
      {
        "distance": 2141,
        "i_lat": -7.556783,
        "i_long": 110.821471,
        "is_transit": false,
        "line": 7,
        "station_id": "SLO",
        "station_name": "Solo Balapan",
        "time": 10,
        "transit": false
      },
      {
        "distance": 2936,
        "i_lat": -7.561362,
        "i_long": 110.796655,
        "is_transit": false,
        "line": 7,
        "station_id": "PWS",
        "station_name": "Purwosari",
        "time": 6,
        "transit": false
      },
      {
        "distance": 6639,
        "i_lat": -7.589036,
        "i_long": 110.744432,
        "is_transit": false,
        "line": 7,
        "station_id": "GW",
        "station_name": "Gawok",
        "time": 7,
        "transit": false
      },
      {
        "distance": 5543,
        "i_lat": -7.62181,
        "i_long": 110.706679,
        "is_transit": false,
        "line": 7,
        "station_id": "DL",
        "station_name": "Delanggu",
        "time": 6,
        "transit": false
      },
      {
        "distance": 6271,
        "i_lat": -7.668597,
        "i_long": 110.674861,
        "is_transit": false,
        "line": 7,
        "station_id": "CE",
        "station_name": "Ceper",
        "time": 7,
        "transit": false
      },
      {
        "distance": 9279,
        "i_lat": -7.712087,
        "i_long": 110.602981,
        "is_transit": false,
        "line": 7,
        "station_id": "KT",
        "station_name": "Klaten",
        "time": 9,
        "transit": false
      }
    ]
  ]
}
