{"data":[[{"line":7,"distance":0,"i_lat":-7.56197,"station_name":"Solo Jebres","station_id":"SK","is_transit":false,"time":0,"transit":false,"i_long":110.839459},{"transit":false,"time":10,"i_long":110.821471,"station_name":"Solo Balapan","line":7,"i_lat":-7.556783,"distance":2141,"is_transit":false,"station_id":"SLO"},{"line":7,"station_id":"PWS","is_transit":false,"distance":2936,"transit":false,"i_lat":-7.561362,"i_long":110.796655,"station_name":"Purwosari","time":6},{"time":7,"station_id":"GW","station_name":"Gawok","distance":6639,"i_long":110.744432,"transit":false,"line":7,"is_transit":false,"i_lat":-7.589036},{"i_long":110.706679,"station_name":"Delanggu","time":6,"i_lat":-7.62181,"distance":5543,"transit":false,"is_transit":false,"line":7,"station_id":"DL"},{"i_lat":-7.668597,"transit":false,"station_name":"Ceper","station_id":"CE","distance":6271,"is_transit":false,"time":7,"i_long":110.674861,"line":7},{"station_id":"KT","line":7,"station_name":"Klaten","i_long":110.602981,"time":9,"is_transit":false,"distance":9279,"i_lat":-7.712087,"transit":false}]]}