{"data":[[{"line":7,"station_name":"Solo Jebres","distance":0,"time":0,"i_long":110.839459,"transit":false,"i_lat":-7.56197,"station_id":"SK","is_transit":false},{"is_transit":false,"transit":false,"line":7,"station_id":"SLO","station_name":"Solo Balapan","distance":2141,"time":10,"i_long":110.821471,"i_lat":-7.556783},{"i_long":110.796655,"line":7,"is_transit":false,"i_lat":-7.561362,"distance":2936,"station_name":"Purwosari","station_id":"PWS","transit":false,"time":6},{"line":7,"i_long":110.744432,"station_name":"Gawok","distance":6639,"station_id":"GW","transit":false,"time":7,"is_transit":false,"i_lat":-7.589036},{"i_lat":-7.62181,"i_long":110.706679,"station_name":"Delanggu","transit":false,"time":6,"distance":5543,"line":0,"is_transit":false,"station_id":"DL"},{"line":0,"is_transit":false,"i_lat":-7.668597,"distance":6271,"time":7,"i_long":110.674861,"station_id":"CE","transit":false,"station_name":"Ceper"},{"time":9,"transit":false,"i_long":110.602981,"distance":9279,"line":7,"station_id":"KT","i_lat":-7.712087,"is_transit":false,"station_name":"Klaten"}]]}