{"data":[[{"line":7,"transit":false,"station_id":"SK","is_transit":false,"station_name":"Solo Jebres","i_lat":-7.56197,"distance":0,"i_long":110.839459,"time":0},{"transit":false,"i_lat":-7.556783,"i_long":110.821471,"distance":2141,"is_transit":false,"station_name":"Solo Balapan","line":7,"time":10,"station_id":"SLO"},{"distance":2936,"i_lat":-7.561362,"station_name":"Purwosari","transit":false,"i_long":110.796655,"time":6,"is_transit":false,"station_id":"PWS","line":7},{"transit":false,"i_long":110.744432,"i_lat":-7.589036,"time":7,"distance":6639,"line":7,"station_id":"GW","station_name":"Gawok","is_transit":false},{"station_id":"DL","transit":false,"time":6,"line":7,"i_long":110.706679,"distance":5543,"station_name":"Delanggu","i_lat":-7.62181,"is_transit":false},{"time":7,"station_id":"CE","i_lat":-7.668597,"transit":false,"station_name":"Ceper","distance":6271,"i_long":110.674861,"line":7,"is_transit":false},{"transit":false,"station_id":"KT","i_lat":-7.712087,"station_name":"Klaten","is_transit":false,"time":9,"i_long":110.602981,"line":7,"distance":9279}]]}