{"data":[[{"station_id":"SK","time":0,"distance":0,"i_lat":-7.56197,"i_long":110.839459,"is_transit":false,"transit":false,"line":7,"station_name":"Solo Jebres"},{"is_transit":false,"time":10,"station_id":"SLO","transit":false,"line":7,"distance":2141,"station_name":"Solo Balapan","i_lat":-7.556783,"i_long":110.821471},{"time":6,"i_long":110.796655,"distance":2936,"station_id":"PWS","is_transit":false,"transit":false,"i_lat":-7.561362,"station_name":"Purwosari","line":7},{"i_lat":-7.589036,"station_id":"GW","station_name":"Gawok","time":7,"transit":false,"i_long":110.744432,"line":7,"distance":6639,"is_transit":false},{"line":0,"station_id":"DL","time":6,"is_transit":false,"i_lat":-7.62181,"i_long":110.706679,"station_name":"Delanggu","distance":5543,"transit":false},{"i_long":110.674861,"distance":6271,"station_name":"Ceper","is_transit":false,"transit":false,"line":0,"time":7,"i_lat":-7.668597,"station_id":"CE"},{"station_id":"KT","distance":9279,"transit":false,"i_long":110.602981,"time":9,"i_lat":-7.712087,"station_name":"Klaten","line":7,"is_transit":false},{"station_name":"Srowot","transit":false,"i_lat":-7.74111,"line":7,"i_long":110.548972,"time":8,"is_transit":false,"station_id":"SWT","distance":6738},{"i_long":110.500451,"station_id":"BBN","line":0,"distance":5850,"station_name":"Brambanan","transit":false,"i_lat":-7.756284,"is_transit":false,"time":7},{"station_id":"MGW","distance":7905,"station_name":"Maguwo","i_long":110.436791,"line":7,"is_transit":false,"time":8,"i_lat":-7.784476,"transit":false}]]}