{"data":[[{"station_id":"SK","time":0,"distance":0,"is_transit":false,"i_lat":-7.56197,"station_name":"Solo Jebres","i_long":110.839459,"line":7,"transit":false},{"station_name":"Solo Balapan","is_transit":false,"distance":2141,"line":7,"station_id":"SLO","transit":false,"time":10,"i_lat":-7.556783,"i_long":110.821471},{"line":7,"station_id":"PWS","i_lat":-7.561362,"distance":2936,"station_name":"Purwosari","transit":false,"is_transit":false,"i_long":110.796655,"time":6},{"transit":false,"line":7,"station_id":"GW","i_lat":-7.589036,"time":7,"i_long":110.744432,"station_name":"Gawok","distance":6639,"is_transit":false},{"time":6,"transit":false,"is_transit":false,"line":7,"distance":5543,"station_name":"Delanggu","i_long":110.706679,"i_lat":-7.62181,"station_id":"DL"},{"time":7,"i_lat":-7.668597,"is_transit":false,"line":7,"transit":false,"i_long":110.674861,"station_id":"CE","station_name":"Ceper","distance":6271},{"transit":false,"i_long":110.602981,"distance":9279,"is_transit":false,"time":9,"station_id":"KT","station_name":"Klaten","i_lat":-7.712087,"line":7},{"line":7,"i_lat":-7.74111,"i_long":110.548972,"transit":false,"is_transit":false,"station_name":"Srowot","time":8,"station_id":"SWT","distance":6738},{"i_lat":-7.756284,"distance":5850,"is_transit":false,"line":0,"time":7,"transit":false,"station_id":"BBN","station_name":"Brambanan","i_long":110.500451},{"station_name":"Maguwo","distance":7905,"i_long":110.436791,"is_transit":false,"line":7,"time":8,"transit":false,"i_lat":-7.784476,"station_id":"MGW"}]]}