{"data":[[{"station_id":"SK","time":0,"station_name":"Solo Jebres","is_transit":false,"i_long":110.839459,"line":7,"distance":0,"transit":false,"i_lat":-7.56197},{"time":10,"distance":2141,"station_id":"SLO","i_lat":-7.556783,"station_name":"Solo Balapan","line":7,"transit":false,"i_long":110.821471,"is_transit":false},{"line":7,"station_id":"PWS","is_transit":false,"transit":false,"station_name":"Purwosari","time":6,"distance":2936,"i_lat":-7.561362,"i_long":110.796655},{"station_name":"Gawok","station_id":"GW","distance":6639,"is_transit":false,"time":7,"transit":false,"i_lat":-7.589036,"line":7,"i_long":110.744432},{"i_lat":-7.62181,"station_name":"Delanggu","distance":5543,"is_transit":false,"transit":false,"i_long":110.706679,"station_id":"DL","line":7,"time":6},{"distance":6271,"is_transit":false,"station_id":"CE","transit":false,"time":7,"line":7,"station_name":"Ceper","i_lat":-7.668597,"i_long":110.674861},{"is_transit":false,"distance":9279,"i_long":110.602981,"line":7,"time":9,"station_name":"Klaten","station_id":"KT","transit":false,"i_lat":-7.712087},{"is_transit":false,"station_id":"SWT","i_long":110.548972,"time":8,"line":7,"i_lat":-7.74111,"transit":false,"station_name":"Srowot","distance":6738},{"time":7,"transit":false,"distance":5850,"i_long":110.500451,"line":0,"station_id":"BBN","station_name":"Brambanan","i_lat":-7.756284,"is_transit":false},{"line":7,"station_name":"Maguwo","time":8,"distance":7905,"is_transit":false,"i_lat":-7.784476,"i_long":110.436791,"station_id":"MGW","transit":false}]]}