{"data":[[{"line":7,"i_long":110.839459,"station_id":"SK","distance":0,"is_transit":false,"transit":false,"station_name":"Solo Jebres","time":0,"i_lat":-7.56197},{"transit":false,"i_lat":-7.556783,"time":10,"is_transit":false,"line":7,"station_name":"Solo Balapan","station_id":"SLO","distance":2141,"i_long":110.821471},{"time":6,"i_long":110.796655,"is_transit":false,"distance":2936,"i_lat":-7.561362,"station_name":"Purwosari","line":7,"transit":false,"station_id":"PWS"},{"distance":6639,"is_transit":false,"time":7,"i_lat":-7.589036,"station_name":"Gawok","i_long":110.744432,"station_id":"GW","transit":false,"line":7},{"i_long":110.706679,"station_id":"DL","station_name":"Delanggu","is_transit":false,"line":7,"time":6,"transit":false,"i_lat":-7.62181,"distance":5543},{"line":7,"is_transit":false,"station_name":"Ceper","i_long":110.674861,"time":7,"transit":false,"distance":6271,"station_id":"CE","i_lat":-7.668597},{"station_id":"KT","line":7,"is_transit":false,"i_lat":-7.712087,"transit":false,"distance":9279,"time":9,"station_name":"Klaten","i_long":110.602981},{"station_name":"Srowot","time":8,"is_transit":false,"transit":false,"i_long":110.548972,"distance":6738,"line":7,"station_id":"SWT","i_lat":-7.74111},{"transit":false,"time":7,"distance":5850,"station_name":"Brambanan","i_lat":-7.756284,"line":0,"station_id":"BBN","i_long":110.500451,"is_transit":false},{"i_long":110.436791,"station_name":"Maguwo","i_lat":-7.784476,"time":8,"line":7,"is_transit":false,"station_id":"MGW","distance":7905,"transit":false}]]}