{"data":[[{"time":0,"is_transit":false,"i_lat":-7.56197,"i_long":110.839459,"station_name":"Solo Jebres","distance":0,"station_id":"SK","transit":false,"line":7},{"time":10,"transit":false,"station_name":"Solo Balapan","i_lat":-7.556783,"line":7,"i_long":110.821471,"distance":2141,"is_transit":false,"station_id":"SLO"},{"distance":2936,"i_lat":-7.561362,"transit":false,"i_long":110.796655,"station_name":"Purwosari","station_id":"PWS","time":6,"line":7,"is_transit":false},{"time":7,"transit":false,"station_name":"Gawok","line":7,"i_lat":-7.589036,"station_id":"GW","distance":6639,"i_long":110.744432,"is_transit":false},{"i_lat":-7.62181,"is_transit":false,"time":6,"transit":false,"station_id":"DL","line":0,"distance":5543,"station_name":"Delanggu","i_long":110.706679},{"station_id":"CE","is_transit":false,"station_name":"Ceper","transit":false,"time":7,"i_long":110.674861,"distance":6271,"i_lat":-7.668597,"line":0},{"i_long":110.602981,"is_transit":false,"time":9,"station_name":"Klaten","transit":false,"i_lat":-7.712087,"line":7,"station_id":"KT","distance":9279},{"i_long":110.548972,"distance":6738,"is_transit":false,"station_id":"SWT","transit":false,"line":7,"i_lat":-7.74111,"station_name":"Srowot","time":8}]]}