{"data":[[{"distance":0,"station_name":"Solo Jebres","is_transit":false,"i_lat":-7.56197,"station_id":"SK","line":7,"transit":false,"i_long":110.839459,"time":0},{"i_long":110.821471,"transit":false,"distance":2141,"station_name":"Solo Balapan","station_id":"SLO","line":7,"is_transit":false,"time":10,"i_lat":-7.556783},{"time":6,"i_lat":-7.561362,"distance":2936,"line":7,"is_transit":false,"i_long":110.796655,"station_name":"Purwosari","transit":false,"station_id":"PWS"},{"distance":6639,"i_lat":-7.589036,"transit":false,"station_name":"Gawok","station_id":"GW","is_transit":false,"line":7,"time":7,"i_long":110.744432},{"time":6,"i_lat":-7.62181,"is_transit":false,"distance":5543,"line":7,"station_name":"Delanggu","station_id":"DL","i_long":110.706679,"transit":false},{"i_long":110.674861,"i_lat":-7.668597,"line":7,"station_name":"Ceper","is_transit":false,"transit":false,"station_id":"CE","time":7,"distance":6271},{"distance":9279,"station_name":"Klaten","line":7,"i_lat":-7.712087,"time":9,"i_long":110.602981,"transit":false,"station_id":"KT","is_transit":false},{"is_transit":false,"transit":false,"i_long":110.548972,"station_id":"SWT","i_lat":-7.74111,"station_name":"Srowot","line":7,"distance":6738,"time":8}]]}