{"data":[[{"transit":false,"station_id":"SK","distance":0,"time":0,"station_name":"Solo Jebres","i_lat":-7.56197,"i_long":110.839459,"line":7,"is_transit":false},{"i_long":110.821471,"station_id":"SLO","time":10,"transit":false,"i_lat":-7.556783,"line":7,"distance":2141,"station_name":"Solo Balapan","is_transit":false},{"transit":false,"distance":2936,"i_long":110.796655,"i_lat":-7.561362,"station_id":"PWS","station_name":"Purwosari","line":7,"time":6,"is_transit":false},{"line":7,"transit":false,"i_lat":-7.589036,"station_name":"Gawok","distance":6639,"i_long":110.744432,"station_id":"GW","time":7,"is_transit":false},{"time":6,"station_name":"Delanggu","i_lat":-7.62181,"distance":5543,"is_transit":false,"i_long":110.706679,"transit":false,"station_id":"DL","line":7},{"is_transit":false,"transit":false,"station_id":"CE","time":7,"i_long":110.674861,"i_lat":-7.668597,"line":7,"distance":6271,"station_name":"Ceper"},{"station_id":"KT","is_transit":false,"line":7,"station_name":"Klaten","transit":false,"i_long":110.602981,"distance":9279,"time":9,"i_lat":-7.712087},{"i_lat":-7.74111,"i_long":110.548972,"time":8,"transit":false,"station_name":"Srowot","is_transit":false,"line":7,"station_id":"SWT","distance":6738}]]}