{"data":[[{"station_id":"SK","distance":0,"time":0,"station_name":"Solo Jebres","transit":false,"i_lat":-7.56197,"i_long":110.839459,"is_transit":false,"line":7},{"time":10,"station_name":"Solo Balapan","i_lat":-7.556783,"is_transit":false,"transit":false,"line":7,"station_id":"SLO","i_long":110.821471,"distance":2141},{"is_transit":false,"station_id":"PWS","transit":false,"distance":2936,"time":6,"station_name":"Purwosari","i_lat":-7.561362,"i_long":110.796655,"line":7},{"i_lat":-7.589036,"station_name":"Gawok","is_transit":false,"line":7,"station_id":"GW","transit":false,"distance":6639,"i_long":110.744432,"time":7},{"i_lat":-7.62181,"line":7,"station_name":"Delanggu","distance":5543,"i_long":110.706679,"transit":false,"time":6,"is_transit":false,"station_id":"DL"},{"line":7,"station_name":"Ceper","is_transit":false,"transit":false,"i_lat":-7.668597,"time":7,"i_long":110.674861,"station_id":"CE","distance":6271},{"i_long":110.602981,"distance":9279,"time":9,"is_transit":false,"station_id":"KT","transit":false,"station_name":"Klaten","line":7,"i_lat":-7.712087},{"station_id":"SWT","transit":false,"line":7,"i_lat":-7.74111,"i_long":110.548972,"station_name":"Srowot","distance":6738,"time":8,"is_transit":false}]]}