{"data":[[{"is_transit":false,"time":0,"i_lat":-7.56197,"station_name":"Solo Jebres","station_id":"SK","line":7,"i_long":110.839459,"distance":0,"transit":false},{"station_id":"SLO","station_name":"Solo Balapan","i_long":110.821471,"transit":false,"time":10,"line":7,"is_transit":false,"i_lat":-7.556783,"distance":2141},{"i_long":110.796655,"distance":2936,"station_id":"PWS","is_transit":false,"station_name":"Purwosari","time":6,"line":7,"transit":false,"i_lat":-7.561362},{"station_name":"Gawok","is_transit":false,"i_lat":-7.589036,"transit":false,"distance":6639,"station_id":"GW","time":7,"i_long":110.744432,"line":7},{"is_transit":false,"station_id":"DL","i_lat":-7.62181,"line":7,"station_name":"Delanggu","transit":false,"i_long":110.706679,"distance":5543,"time":6},{"i_long":110.674861,"transit":false,"station_name":"Ceper","is_transit":false,"time":7,"station_id":"CE","i_lat":-7.668597,"line":7,"distance":6271},{"station_id":"KT","station_name":"Klaten","time":9,"distance":9279,"is_transit":false,"transit":false,"i_long":110.602981,"i_lat":-7.712087,"line":7},{"station_id":"SWT","i_long":110.548972,"time":8,"i_lat":-7.74111,"is_transit":false,"line":7,"station_name":"Srowot","transit":false,"distance":6738},{"is_transit":false,"time":7,"station_id":"BBN","station_name":"Brambanan","line":0,"i_long":110.500451,"transit":false,"i_lat":-7.756284,"distance":5850},{"i_lat":-7.784476,"i_long":110.436791,"is_transit":false,"line":7,"distance":7905,"transit":false,"station_name":"Maguwo","station_id":"MGW","time":8},{"is_transit":false,"i_lat":-7.790018,"distance":6799,"time":7,"transit":false,"i_long":110.375434,"station_name":"Lempuyangan","line":7,"station_id":"LPN"},{"transit":false,"station_name":"Yogyakarta","i_long":110.36345,"is_transit":false,"station_id":"YK","time":6,"i_lat":-7.788961,"line":7,"distance":1307},{"station_id":"PTN","is_transit":false,"i_lat":-7.790605,"time":5,"distance":4241,"line":7,"station_name":"Patukan","transit":false,"i_long":110.32542},{"is_transit":false,"station_name":"Rewulu","transit":false,"time":4,"station_id":"RWL","i_lat":-7.797702,"distance":4579,"i_long":110.279205,"line":7},{"i_lat":-7.832939,"i_long":110.220122,"time":8,"station_id":"STL","is_transit":false,"line":0,"station_name":"Sentolo","distance":9041,"transit":false},{"i_long":110.158003,"station_id":"WT","line":7,"is_transit":false,"i_lat":-7.859237,"time":25,"station_name":"Wates","transit":false,"distance":10145}]]}