{"data":[[{"station_name":"Solo Jebres","i_long":110.839459,"distance":0,"transit":false,"time":0,"is_transit":false,"line":7,"i_lat":-7.56197,"station_id":"SK"},{"transit":false,"is_transit":false,"i_lat":-7.556783,"i_long":110.821471,"line":7,"time":10,"station_id":"SLO","distance":2141,"station_name":"Solo Balapan"},{"station_name":"Purwosari","is_transit":false,"distance":2936,"time":6,"station_id":"PWS","i_lat":-7.561362,"transit":false,"line":7,"i_long":110.796655},{"i_long":110.744432,"distance":6639,"station_name":"Gawok","line":7,"station_id":"GW","is_transit":false,"i_lat":-7.589036,"transit":false,"time":7},{"is_transit":false,"transit":false,"i_long":110.706679,"time":6,"station_id":"DL","distance":5543,"station_name":"Delanggu","i_lat":-7.62181,"line":0},{"transit":false,"time":7,"i_long":110.674861,"station_name":"Ceper","station_id":"CE","line":0,"distance":6271,"i_lat":-7.668597,"is_transit":false},{"station_name":"Klaten","station_id":"KT","distance":9279,"time":9,"transit":false,"is_transit":false,"i_lat":-7.712087,"i_long":110.602981,"line":7},{"station_name":"Srowot","transit":false,"line":7,"station_id":"SWT","time":8,"i_long":110.548972,"is_transit":false,"distance":6738,"i_lat":-7.74111},{"time":7,"transit":false,"i_lat":-7.756284,"is_transit":false,"station_name":"Brambanan","i_long":110.500451,"line":0,"distance":5850,"station_id":"BBN"},{"station_id":"MGW","distance":7905,"is_transit":false,"time":8,"i_lat":-7.784476,"line":7,"i_long":110.436791,"transit":false,"station_name":"Maguwo"},{"station_id":"LPN","distance":6799,"station_name":"Lempuyangan","is_transit":false,"transit":false,"i_long":110.375434,"i_lat":-7.790018,"line":7,"time":7},{"is_transit":false,"distance":1307,"time":6,"transit":false,"station_name":"Yogyakarta","i_lat":-7.788961,"line":7,"station_id":"YK","i_long":110.36345},{"station_id":"PTN","station_name":"Patukan","is_transit":false,"distance":4241,"transit":false,"time":5,"i_lat":-7.790605,"i_long":110.32542,"line":7},{"is_transit":false,"distance":4579,"station_id":"RWL","i_lat":-7.797702,"i_long":110.279205,"line":7,"time":4,"station_name":"Rewulu","transit":false},{"distance":9041,"station_name":"Sentolo","i_lat":-7.832939,"transit":false,"time":8,"i_long":110.220122,"line":7,"is_transit":false,"station_id":"STL"},{"station_name":"Wates","station_id":"WT","transit":false,"line":7,"is_transit":false,"distance":10145,"i_lat":-7.859237,"i_long":110.158003,"time":25}]]}