{"data":[[{"transit":false,"time":0,"station_name":"Solo Jebres","is_transit":false,"distance":0,"i_lat":-7.56197,"station_id":"SK","i_long":110.839459,"line":7},{"station_id":"SLO","distance":2141,"transit":false,"is_transit":false,"station_name":"Solo Balapan","line":7,"i_lat":-7.556783,"i_long":110.821471,"time":10},{"station_name":"Purwosari","transit":false,"station_id":"PWS","is_transit":false,"distance":2936,"i_long":110.796655,"line":7,"time":6,"i_lat":-7.561362},{"station_id":"GW","is_transit":false,"time":7,"transit":false,"i_lat":-7.589036,"i_long":110.744432,"distance":6639,"line":7,"station_name":"Gawok"},{"i_long":110.706679,"distance":5543,"transit":false,"station_name":"Delanggu","time":6,"station_id":"DL","i_lat":-7.62181,"line":7,"is_transit":false},{"i_long":110.674861,"line":7,"transit":false,"time":7,"i_lat":-7.668597,"station_name":"Ceper","station_id":"CE","is_transit":false,"distance":6271},{"i_lat":-7.712087,"line":7,"is_transit":false,"station_name":"Klaten","distance":9279,"transit":false,"time":9,"i_long":110.602981,"station_id":"KT"},{"line":7,"station_name":"Srowot","distance":6738,"i_lat":-7.74111,"i_long":110.548972,"transit":false,"time":8,"station_id":"SWT","is_transit":false},{"station_name":"Brambanan","i_lat":-7.756284,"line":0,"distance":5850,"time":7,"transit":false,"i_long":110.500451,"station_id":"BBN","is_transit":false},{"transit":false,"time":8,"is_transit":false,"station_id":"MGW","station_name":"Maguwo","i_long":110.436791,"distance":7905,"line":7,"i_lat":-7.784476},{"i_long":110.375434,"distance":6799,"time":7,"station_id":"LPN","transit":false,"is_transit":false,"line":7,"i_lat":-7.790018,"station_name":"Lempuyangan"},{"distance":1307,"i_lat":-7.788961,"time":6,"is_transit":false,"station_name":"Yogyakarta","i_long":110.36345,"station_id":"YK","line":7,"transit":false},{"distance":4241,"station_id":"PTN","is_transit":false,"station_name":"Patukan","line":7,"time":5,"i_lat":-7.790605,"i_long":110.32542,"transit":false},{"i_long":110.279205,"transit":false,"line":7,"time":4,"station_name":"Rewulu","station_id":"RWL","is_transit":false,"distance":4579,"i_lat":-7.797702},{"transit":false,"i_long":110.220122,"time":8,"station_id":"STL","station_name":"Sentolo","i_lat":-7.832939,"line":0,"is_transit":false,"distance":9041},{"is_transit":false,"station_id":"WT","time":25,"station_name":"Wates","i_long":110.158003,"distance":10145,"line":7,"i_lat":-7.859237,"transit":false}]]}