{"data":[[{"transit":false,"station_id":"SK","distance":0,"i_lat":-7.56197,"station_name":"Solo Jebres","line":7,"is_transit":false,"time":0,"i_long":110.839459},{"time":10,"i_lat":-7.556783,"station_id":"SLO","distance":2141,"transit":false,"i_long":110.821471,"station_name":"Solo Balapan","is_transit":false,"line":7},{"time":6,"transit":false,"i_lat":-7.561362,"i_long":110.796655,"station_id":"PWS","station_name":"Purwosari","is_transit":false,"distance":2936,"line":7},{"is_transit":false,"i_lat":-7.589036,"line":7,"time":7,"transit":false,"station_name":"Gawok","station_id":"GW","distance":6639,"i_long":110.744432},{"time":6,"station_name":"Delanggu","i_long":110.706679,"line":7,"transit":false,"station_id":"DL","i_lat":-7.62181,"is_transit":false,"distance":5543},{"time":7,"station_name":"Ceper","line":7,"distance":6271,"transit":false,"is_transit":false,"station_id":"CE","i_lat":-7.668597,"i_long":110.674861},{"line":7,"i_lat":-7.712087,"station_id":"KT","station_name":"Klaten","transit":false,"is_transit":false,"distance":9279,"i_long":110.602981,"time":9},{"time":8,"is_transit":false,"i_long":110.548972,"transit":false,"station_id":"SWT","line":7,"distance":6738,"station_name":"Srowot","i_lat":-7.74111},{"i_lat":-7.756284,"i_long":110.500451,"station_name":"Brambanan","distance":5850,"station_id":"BBN","time":7,"line":0,"is_transit":false,"transit":false},{"station_name":"Maguwo","time":8,"line":7,"i_long":110.436791,"is_transit":false,"station_id":"MGW","transit":false,"distance":7905,"i_lat":-7.784476},{"transit":false,"distance":6799,"i_lat":-7.790018,"i_long":110.375434,"is_transit":false,"line":7,"station_name":"Lempuyangan","time":7,"station_id":"LPN"},{"distance":1307,"i_lat":-7.788961,"line":7,"i_long":110.36345,"transit":false,"station_name":"Yogyakarta","station_id":"YK","is_transit":false,"time":6},{"i_long":110.32542,"distance":4241,"i_lat":-7.790605,"time":5,"transit":false,"is_transit":false,"line":7,"station_id":"PTN","station_name":"Patukan"},{"distance":4579,"station_name":"Rewulu","station_id":"RWL","line":7,"time":4,"i_long":110.279205,"transit":false,"is_transit":false,"i_lat":-7.797702},{"i_long":110.220122,"station_id":"STL","time":8,"distance":9041,"line":0,"station_name":"Sentolo","i_lat":-7.832939,"transit":false,"is_transit":false},{"is_transit":false,"transit":false,"distance":10145,"i_long":110.158003,"i_lat":-7.859237,"line":7,"time":25,"station_id":"WT","station_name":"Wates"}]]}