{"data":[[{"distance":0,"transit":false,"i_long":110.821471,"time":0,"is_transit":false,"station_name":"Solo Balapan","i_lat":-7.556783,"line":7,"station_id":"SLO"},{"time":6,"distance":2936,"line":7,"station_name":"Purwosari","i_long":110.796655,"is_transit":false,"transit":false,"i_lat":-7.561362,"station_id":"PWS"},{"line":7,"is_transit":false,"distance":6639,"station_id":"GW","station_name":"Gawok","i_long":110.744432,"transit":false,"time":7,"i_lat":-7.589036},{"transit":false,"station_id":"DL","i_lat":-7.62181,"station_name":"Delanggu","time":6,"is_transit":false,"i_long":110.706679,"line":7,"distance":5543},{"is_transit":false,"transit":false,"distance":6271,"time":7,"station_name":"Ceper","i_long":110.674861,"line":7,"station_id":"CE","i_lat":-7.668597},{"station_name":"Klaten","i_long":110.602981,"distance":9279,"i_lat":-7.712087,"line":7,"time":9,"station_id":"KT","is_transit":false,"transit":false},{"time":8,"station_id":"SWT","distance":6738,"station_name":"Srowot","is_transit":false,"transit":false,"i_lat":-7.74111,"i_long":110.548972,"line":7},{"is_transit":false,"i_lat":-7.756284,"station_id":"BBN","i_long":110.500451,"distance":5850,"transit":false,"line":0,"time":7,"station_name":"Brambanan"},{"i_long":110.436791,"station_name":"Maguwo","station_id":"MGW","is_transit":false,"transit":false,"line":7,"i_lat":-7.784476,"time":8,"distance":7905}]]}