{"data":[[{"i_long":110.821471,"station_id":"SLO","is_transit":false,"station_name":"Solo Balapan","transit":false,"i_lat":-7.556783,"time":0,"distance":0,"line":7},{"distance":2936,"transit":false,"is_transit":false,"station_name":"Purwosari","time":6,"i_long":110.796655,"station_id":"PWS","i_lat":-7.561362,"line":7},{"i_lat":-7.589036,"station_name":"Gawok","station_id":"GW","distance":6639,"time":7,"line":7,"transit":false,"i_long":110.744432,"is_transit":false},{"station_name":"Delanggu","is_transit":false,"distance":5543,"station_id":"DL","i_lat":-7.62181,"time":6,"line":0,"transit":false,"i_long":110.706679},{"station_id":"CE","station_name":"Ceper","line":0,"distance":6271,"is_transit":false,"transit":false,"i_lat":-7.668597,"time":7,"i_long":110.674861},{"distance":9279,"station_name":"Klaten","transit":false,"line":7,"station_id":"KT","time":9,"i_long":110.602981,"i_lat":-7.712087,"is_transit":false},{"time":8,"distance":6738,"i_long":110.548972,"line":7,"transit":false,"is_transit":false,"station_name":"Srowot","station_id":"SWT","i_lat":-7.74111},{"station_id":"BBN","distance":5850,"is_transit":false,"i_long":110.500451,"transit":false,"time":7,"i_lat":-7.756284,"station_name":"Brambanan","line":0},{"time":8,"station_id":"MGW","i_long":110.436791,"transit":false,"i_lat":-7.784476,"station_name":"Maguwo","distance":7905,"is_transit":false,"line":7}]]}