{"data":[[{"time":0,"i_long":110.821471,"distance":0,"transit":false,"line":7,"station_name":"Solo Balapan","station_id":"SLO","is_transit":false,"i_lat":-7.556783},{"i_long":110.796655,"i_lat":-7.561362,"time":6,"is_transit":false,"transit":false,"distance":2936,"station_name":"Purwosari","line":7,"station_id":"PWS"},{"i_lat":-7.589036,"transit":false,"time":7,"station_name":"Gawok","is_transit":false,"distance":6639,"line":7,"i_long":110.744432,"station_id":"GW"},{"time":6,"station_name":"Delanggu","station_id":"DL","is_transit":false,"i_lat":-7.62181,"distance":5543,"transit":false,"i_long":110.706679,"line":7},{"i_long":110.674861,"transit":false,"line":7,"distance":6271,"station_name":"Ceper","station_id":"CE","time":7,"is_transit":false,"i_lat":-7.668597},{"station_id":"KT","station_name":"Klaten","time":9,"distance":9279,"i_long":110.602981,"line":7,"is_transit":false,"i_lat":-7.712087,"transit":false},{"time":8,"is_transit":false,"i_lat":-7.74111,"i_long":110.548972,"station_name":"Srowot","distance":6738,"transit":false,"line":7,"station_id":"SWT"},{"distance":5850,"station_name":"Brambanan","time":7,"station_id":"BBN","i_lat":-7.756284,"line":0,"transit":false,"is_transit":false,"i_long":110.500451},{"transit":false,"i_long":110.436791,"station_id":"MGW","is_transit":false,"time":8,"distance":7905,"i_lat":-7.784476,"station_name":"Maguwo","line":7}]]}