{"data":[[{"time":0,"line":7,"station_name":"Solo Balapan","station_id":"SLO","distance":0,"i_lat":-7.556783,"i_long":110.821471,"is_transit":false,"transit":false},{"time":6,"i_lat":-7.561362,"line":7,"station_name":"Purwosari","station_id":"PWS","transit":false,"is_transit":false,"distance":2936,"i_long":110.796655},{"is_transit":false,"station_name":"Gawok","station_id":"GW","i_long":110.744432,"i_lat":-7.589036,"distance":6639,"time":7,"line":7,"transit":false},{"time":6,"i_long":110.706679,"station_id":"DL","station_name":"Delanggu","is_transit":false,"line":7,"transit":false,"distance":5543,"i_lat":-7.62181},{"line":7,"time":7,"station_name":"Ceper","i_long":110.674861,"transit":false,"station_id":"CE","is_transit":false,"distance":6271,"i_lat":-7.668597},{"line":7,"transit":false,"is_transit":false,"i_long":110.602981,"station_id":"KT","time":9,"i_lat":-7.712087,"distance":9279,"station_name":"Klaten"},{"is_transit":false,"distance":6738,"line":7,"time":8,"transit":false,"station_id":"SWT","i_long":110.548972,"station_name":"Srowot","i_lat":-7.74111},{"transit":false,"i_lat":-7.756284,"is_transit":false,"distance":5850,"time":7,"station_name":"Brambanan","i_long":110.500451,"station_id":"BBN","line":0},{"station_id":"MGW","i_lat":-7.784476,"time":8,"i_long":110.436791,"transit":false,"distance":7905,"is_transit":false,"line":7,"station_name":"Maguwo"}]]}