{"data":[[{"i_long":106.66566,"distance":0,"i_lat":-6.319871,"is_transit":false,"transit":false,"station_id":"SRP","line":6,"station_name":"Serpong","time":0},{"time":4,"distance":1784,"station_id":"CSK","station_name":"Cisauk","transit":false,"i_long":106.640411,"line":0,"i_lat":-6.32484,"is_transit":false},{"distance":2519,"line":0,"station_id":"CC","transit":false,"is_transit":false,"time":4,"i_lat":-6.329547,"i_long":106.617853,"station_name":"Cicayur"},{"i_lat":-6.3441410000000005,"i_long":106.568863,"distance":5968,"transit":false,"is_transit":false,"station_name":"Parung Panjang","line":6,"station_id":"PRP","time":8},{"is_transit":false,"i_lat":-6.354349,"distance":7025,"time":9,"transit":false,"i_long":106.508482,"line":0,"station_id":"CJT","station_name":"Cilejit"},{"station_id":"DAR","time":6,"i_lat":-6.338021,"station_name":"Daru","i_long":106.491338,"is_transit":false,"distance":2675,"transit":false,"line":0},{"station_id":"TEJ","i_lat":-6.327251,"station_name":"Tenjo","i_long":106.460812,"transit":false,"line":6,"time":5,"distance":3902,"is_transit":false},{"is_transit":false,"i_lat":-6.328533,"distance":2974,"station_name":"Tigaraksa","line":6,"time":5,"station_id":"TGS","i_long":106.425991,"transit":false},{"time":3,"station_name":"Cikoya","is_transit":false,"station_id":"CKY","transit":false,"distance":2651,"i_long":106.411216,"i_lat":-6.33561,"line":0},{"station_id":"MJ","is_transit":false,"transit":false,"time":4,"i_long":106.394373,"i_lat":-6.332307,"distance":1853,"station_name":"Maja","line":6},{"distance":7293,"is_transit":false,"time":10,"transit":false,"i_long":106.332092,"line":0,"station_id":"CTR","station_name":"Citeras","i_lat":-6.334892},{"transit":false,"i_long":106.250396,"is_transit":true,"station_id":"RK","distance":9847,"station_name":"Rangkasbitung","time":13,"i_lat":-6.352675,"line":0}]]}