{"data":[[{"station_name":"Serpong","time":0,"line":6,"i_long":106.66566,"transit":false,"distance":0,"is_transit":false,"i_lat":-6.319871,"station_id":"SRP"},{"is_transit":false,"time":4,"transit":false,"station_id":"RU","i_lat":-6.314823,"i_long":106.675475,"station_name":"Rawa Buntu","line":6,"distance":2413},{"transit":false,"i_lat":-6.296963,"line":6,"is_transit":false,"station_name":"Sudimara","station_id":"SDM","time":6,"i_long":106.712277,"distance":4566},{"line":6,"distance":1994,"transit":false,"i_lat":-6.288927,"station_name":"Jurangmangu","i_long":106.728916,"station_id":"JMU","time":4,"is_transit":false},{"i_lat":-6.276362,"time":3,"i_long":106.74273,"transit":false,"line":6,"is_transit":false,"station_name":"Pondokranji","distance":2179,"station_id":"PDJ"},{"i_long":106.780334,"station_id":"KBY","distance":6218,"is_transit":false,"station_name":"Kebayoran","line":6,"transit":false,"time":8,"i_lat":-6.237242},{"line":6,"is_transit":false,"time":7,"transit":false,"station_name":"Palmerah","distance":3737,"i_long":106.79689,"i_lat":-6.207404,"station_id":"PLM"},{"is_transit":true,"i_lat":-6.185545,"station_id":"THB","station_name":"Tanah Abang","line":1,"time":6,"transit":true,"distance":3191,"i_long":106.811091},{"station_name":"Karet","i_long":106.816351,"line":1,"time":5,"transit":false,"distance":2029,"i_lat":-6.20132,"station_id":"KAT","is_transit":false},{"i_lat":-6.201433,"is_transit":false,"line":1,"station_name":"Sudirman Baru","station_id":"SUDB","time":1,"distance":471,"i_long":106.819881,"transit":false},{"is_transit":false,"i_lat":-6.202263,"line":1,"transit":false,"time":1,"distance":280,"i_long":106.822649,"station_name":"Sudirman","station_id":"SUD"},{"line":2,"transit":true,"station_name":"Manggarai","i_lat":-6.209883,"i_long":106.84912,"station_id":"MRI","distance":3186,"time":4,"is_transit":true},{"station_id":"TEB","is_transit":false,"distance":2610,"station_name":"Tebet","i_long":106.857948,"transit":false,"time":4,"line":2,"i_lat":-6.226659},{"transit":false,"is_transit":false,"distance":1230,"i_lat":-6.242512,"i_long":106.856607,"station_name":"Cawang","station_id":"CW","time":2,"line":2},{"station_name":"Duren Kalibata","i_long":106.85449,"is_transit":false,"station_id":"DRN","transit":false,"time":3,"i_lat":-6.255332,"line":2,"distance":1546},{"station_name":"Pasar Minggu Baru","line":2,"distance":824,"is_transit":false,"time":2,"i_long":106.851577,"transit":false,"station_id":"PSMB","i_lat":-6.263214},{"i_long":106.843999,"distance":2380,"line":2,"station_id":"PSM","i_lat":-6.2842400000000005,"transit":false,"is_transit":false,"time":2,"station_name":"Pasar Minggu"},{"station_id":"TNT","transit":false,"is_transit":false,"i_long":106.838896,"distance":2820,"line":2,"station_name":"Tanjung Barat","i_lat":-6.3080680000000005,"time":4},{"i_lat":-6.330363,"line":2,"is_transit":false,"time":3,"distance":2671,"i_long":106.832616,"station_name":"Lenteng Agung","station_id":"LNA","transit":false},{"station_id":"UP","line":2,"is_transit":false,"i_lat":-6.339291,"station_name":"Univ. Pancasila","transit":false,"time":2,"distance":1029,"i_long":106.834175}],[{"station_id":"SRP","is_transit":false,"i_lat":-6.319871,"distance":0,"line":6,"i_long":106.66566,"time":0,"station_name":"Serpong","transit":false},{"station_id":"RU","transit":false,"i_lat":-6.314823,"i_long":106.675475,"line":6,"station_name":"Rawa Buntu","is_transit":false,"time":4,"distance":2413},{"station_name":"Sudimara","line":6,"is_transit":false,"time":6,"distance":4566,"i_lat":-6.296963,"transit":false,"station_id":"SDM","i_long":106.712277},{"i_long":106.728916,"is_transit":false,"station_id":"JMU","distance":1994,"line":6,"transit":false,"time":4,"station_name":"Jurangmangu","i_lat":-6.288927},{"is_transit":false,"line":6,"i_lat":-6.276362,"station_name":"Pondokranji","i_long":106.74273,"distance":2179,"time":3,"station_id":"PDJ","transit":false},{"i_lat":-6.237242,"i_long":106.780334,"is_transit":false,"distance":6218,"transit":false,"time":8,"station_id":"KBY","station_name":"Kebayoran","line":6},{"i_long":106.79689,"is_transit":false,"distance":3737,"station_name":"Palmerah","transit":false,"station_id":"PLM","i_lat":-6.207404,"time":7,"line":6},{"time":6,"distance":3191,"i_lat":-6.185545,"i_long":106.811091,"line":1,"station_id":"THB","is_transit":true,"station_name":"Tanah Abang","transit":true},{"i_long":106.800832,"line":1,"station_name":"Duri","is_transit":false,"distance":3632,"station_id":"DU","transit":false,"i_lat":-6.155215,"time":8},{"line":1,"is_transit":false,"distance":1230,"station_name":"Angke","station_id":"AK","transit":false,"i_lat":-6.144674,"i_long":106.79867,"time":4},{"station_name":"Kampung Bandan","transit":true,"line":4,"i_long":106.826365,"station_id":"KPB","i_lat":-6.132549,"distance":4102,"is_transit":true,"time":9},{"distance":1364,"line":2,"station_id":"JAKK","station_name":"Jakarta Kota","time":3,"is_transit":true,"i_long":106.812439,"transit":true,"i_lat":-6.137569},{"line":2,"i_lat":-6.141205,"time":4,"station_id":"JAY","is_transit":false,"station_name":"Jayakarta","transit":false,"distance":1264,"i_long":106.820901},{"line":2,"is_transit":false,"i_long":106.82482,"time":2,"station_id":"MGB","transit":false,"i_lat":-6.149769,"station_name":"Manggabesar","distance":1080},{"i_long":106.827103,"is_transit":false,"time":2,"station_name":"Sawah Besar","distance":906,"transit":false,"station_id":"SW","i_lat":-6.160725,"line":2},{"line":2,"i_long":106.828284,"i_lat":-6.166716,"distance":1149,"is_transit":false,"station_name":"Juanda","transit":false,"time":2,"station_id":"JUA"},{"time":4,"is_transit":false,"station_id":"GDD","station_name":"Gondangdia","distance":2015,"transit":false,"i_lat":-6.186295,"i_long":106.832183,"line":2},{"i_long":106.840169,"distance":1750,"i_lat":-6.198556,"time":3,"transit":false,"station_name":"Cikini","line":2,"is_transit":false,"station_id":"CKI"},{"transit":false,"i_long":106.84912,"is_transit":false,"distance":1590,"time":4,"station_id":"MRI","i_lat":-6.209883,"station_name":"Manggarai","line":2},{"time":4,"distance":2610,"station_id":"TEB","station_name":"Tebet","transit":false,"line":2,"i_long":106.857948,"is_transit":false,"i_lat":-6.226659},{"transit":false,"i_long":106.856607,"is_transit":false,"time":2,"station_id":"CW","station_name":"Cawang","distance":1230,"i_lat":-6.242512,"line":2},{"time":3,"station_id":"DRN","i_lat":-6.255332,"station_name":"Duren Kalibata","is_transit":false,"distance":1546,"transit":false,"i_long":106.85449,"line":2},{"transit":false,"station_id":"PSMB","i_lat":-6.263214,"i_long":106.851577,"line":2,"time":2,"is_transit":false,"distance":824,"station_name":"Pasar Minggu Baru"},{"i_lat":-6.2842400000000005,"time":2,"is_transit":false,"distance":2380,"station_name":"Pasar Minggu","transit":false,"i_long":106.843999,"station_id":"PSM","line":2},{"transit":false,"is_transit":false,"station_name":"Tanjung Barat","i_lat":-6.3080680000000005,"line":2,"distance":2820,"station_id":"TNT","time":4,"i_long":106.838896},{"time":3,"station_id":"LNA","distance":2671,"i_long":106.832616,"line":2,"station_name":"Lenteng Agung","is_transit":false,"transit":false,"i_lat":-6.330363},{"i_lat":-6.339291,"i_long":106.834175,"distance":1029,"station_id":"UP","station_name":"Univ. Pancasila","is_transit":false,"transit":false,"line":2,"time":2}],[{"is_transit":false,"transit":false,"distance":0,"i_lat":-6.319871,"line":6,"i_long":106.66566,"station_name":"Serpong","time":0,"station_id":"SRP"},{"station_name":"Rawa Buntu","station_id":"RU","i_lat":-6.314823,"i_long":106.675475,"line":6,"is_transit":false,"transit":false,"time":4,"distance":2413},{"station_name":"Sudimara","station_id":"SDM","distance":4566,"i_lat":-6.296963,"transit":false,"i_long":106.712277,"time":6,"is_transit":false,"line":6},{"station_name":"Jurangmangu","i_long":106.728916,"transit":false,"is_transit":false,"distance":1994,"time":4,"station_id":"JMU","i_lat":-6.288927,"line":6},{"station_id":"PDJ","i_lat":-6.276362,"line":6,"station_name":"Pondokranji","i_long":106.74273,"time":3,"is_transit":false,"transit":false,"distance":2179},{"transit":false,"time":8,"i_lat":-6.237242,"station_id":"KBY","i_long":106.780334,"is_transit":false,"station_name":"Kebayoran","line":6,"distance":6218},{"line":6,"station_id":"PLM","is_transit":false,"i_lat":-6.207404,"distance":3737,"transit":false,"i_long":106.79689,"time":7,"station_name":"Palmerah"},{"time":6,"station_name":"Tanah Abang","i_lat":-6.185545,"is_transit":true,"transit":true,"distance":3191,"line":1,"i_long":106.811091,"station_id":"THB"},{"i_lat":-6.155215,"is_transit":false,"station_id":"DU","station_name":"Duri","i_long":106.800832,"transit":false,"line":1,"time":8,"distance":3632},{"distance":1230,"line":1,"time":4,"station_id":"AK","i_lat":-6.144674,"is_transit":false,"station_name":"Angke","transit":false,"i_long":106.79867},{"time":9,"distance":4102,"station_name":"Kampung Bandan","is_transit":true,"station_id":"KPB","transit":true,"i_lat":-6.132549,"line":4,"i_long":106.826365},{"i_lat":-6.14505,"station_id":"RJW","time":3,"i_long":106.836569,"distance":1444,"transit":false,"station_name":"Rajawali","line":11,"is_transit":false},{"station_id":"KMO","i_long":106.839204,"time":5,"station_name":"Kemayoran","is_transit":false,"i_lat":-6.161728,"line":11,"transit":false,"distance":1901},{"transit":false,"time":4,"i_long":106.84368,"is_transit":false,"station_id":"PSE","station_name":"Pasar Senen","distance":1436,"i_lat":-6.174784,"line":11},{"i_lat":-6.185975,"is_transit":false,"i_long":106.850107,"distance":1567,"line":11,"time":8,"station_name":"Gang Sentiong","station_id":"GST","transit":false},{"i_long":106.855437,"i_lat":-6.193792,"station_name":"Kramat","line":11,"time":1,"is_transit":false,"transit":false,"distance":973,"station_id":"KMT"},{"distance":1829,"station_id":"POK","i_long":106.861737,"i_lat":-6.209188,"time":2,"is_transit":false,"station_name":"Pondok Jati","transit":false,"line":11},{"i_lat":-6.215091,"distance":1236,"time":9,"i_long":106.86807400000001,"is_transit":true,"station_id":"JNG","line":1,"transit":true,"station_name":"Jatinegara"},{"station_name":"Matraman","i_long":106.858896,"line":1,"transit":false,"distance":1377,"station_id":"MTR","time":2,"is_transit":false,"i_lat":-6.212485},{"station_id":"MRI","distance":1275,"transit":true,"is_transit":true,"i_long":106.84912,"time":2,"station_name":"Manggarai","i_lat":-6.209883,"line":2},{"i_lat":-6.226659,"station_id":"TEB","i_long":106.857948,"transit":false,"distance":2610,"line":2,"time":4,"station_name":"Tebet","is_transit":false},{"station_id":"CW","transit":false,"station_name":"Cawang","distance":1230,"line":2,"i_lat":-6.242512,"is_transit":false,"i_long":106.856607,"time":2},{"transit":false,"i_lat":-6.255332,"line":2,"station_name":"Duren Kalibata","is_transit":false,"time":3,"i_long":106.85449,"distance":1546,"station_id":"DRN"},{"station_name":"Pasar Minggu Baru","transit":false,"i_long":106.851577,"i_lat":-6.263214,"time":2,"station_id":"PSMB","distance":824,"is_transit":false,"line":2},{"transit":false,"line":2,"distance":2380,"station_name":"Pasar Minggu","time":2,"i_long":106.843999,"is_transit":false,"station_id":"PSM","i_lat":-6.2842400000000005},{"is_transit":false,"i_long":106.838896,"distance":2820,"time":4,"transit":false,"station_id":"TNT","i_lat":-6.3080680000000005,"line":2,"station_name":"Tanjung Barat"},{"transit":false,"distance":2671,"i_lat":-6.330363,"time":3,"station_name":"Lenteng Agung","station_id":"LNA","is_transit":false,"i_long":106.832616,"line":2},{"time":2,"transit":false,"distance":1029,"i_long":106.834175,"line":2,"is_transit":false,"i_lat":-6.339291,"station_id":"UP","station_name":"Univ. Pancasila"}]]}