{"data":[[{"is_transit":false,"station_id":"SRP","i_long":106.66566,"time":0,"station_name":"Serpong","line":6,"distance":0,"i_lat":-6.319871,"transit":false},{"is_transit":false,"station_name":"Rawa Buntu","transit":false,"station_id":"RU","time":4,"distance":2413,"i_lat":-6.314823,"i_long":106.675475,"line":6},{"is_transit":false,"station_name":"Sudimara","transit":false,"time":6,"distance":4566,"i_lat":-6.296963,"line":6,"station_id":"SDM","i_long":106.712277},{"is_transit":false,"i_long":106.728916,"transit":false,"time":4,"distance":1994,"i_lat":-6.288927,"line":6,"station_id":"JMU","station_name":"Jurangmangu"},{"is_transit":false,"time":3,"distance":2179,"i_lat":-6.276362,"transit":false,"i_long":106.74273,"station_id":"PDJ","line":6,"station_name":"Pondokranji"},{"distance":6218,"time":8,"i_lat":-6.237242,"line":6,"is_transit":false,"station_id":"KBY","i_long":106.780334,"station_name":"Kebayoran","transit":false},{"i_long":106.79689,"i_lat":-6.207404,"line":6,"transit":false,"station_name":"Palmerah","is_transit":false,"distance":3737,"station_id":"PLM","time":7},{"time":6,"distance":3191,"transit":true,"station_name":"Tanah Abang","is_transit":true,"i_long":106.811091,"line":1,"i_lat":-6.185545,"station_id":"THB"},{"transit":false,"line":1,"distance":2029,"station_name":"Karet","is_transit":false,"time":5,"i_long":106.816351,"i_lat":-6.20132,"station_id":"KAT"},{"distance":471,"i_lat":-6.201433,"i_long":106.819881,"time":1,"line":1,"is_transit":false,"transit":false,"station_id":"SUDB","station_name":"Sudirman Baru"},{"station_id":"SUD","i_long":106.822649,"line":1,"is_transit":false,"time":1,"transit":false,"station_name":"Sudirman","distance":280,"i_lat":-6.202263},{"distance":3186,"i_lat":-6.209883,"line":2,"transit":false,"station_id":"MRI","is_transit":false,"station_name":"Manggarai","time":4,"i_long":106.84912},{"station_id":"MTR","station_name":"Matraman","i_long":106.858896,"transit":false,"time":2,"distance":1275,"is_transit":false,"line":1,"i_lat":-6.212485},{"is_transit":true,"station_id":"JNG","transit":true,"i_long":106.86807400000001,"station_name":"Jatinegara","time":8,"i_lat":-6.215091,"distance":1377,"line":1},{"station_id":"POK","station_name":"Pondok Jati","is_transit":false,"distance":1236,"i_long":106.861737,"time":2,"line":11,"transit":false,"i_lat":-6.209188}],[{"line":6,"is_transit":false,"distance":0,"time":0,"station_name":"Serpong","transit":false,"i_long":106.66566,"station_id":"SRP","i_lat":-6.319871},{"distance":2413,"station_id":"RU","time":4,"is_transit":false,"line":6,"transit":false,"station_name":"Rawa Buntu","i_lat":-6.314823,"i_long":106.675475},{"i_long":106.712277,"i_lat":-6.296963,"station_id":"SDM","line":6,"station_name":"Sudimara","distance":4566,"transit":false,"time":6,"is_transit":false},{"i_lat":-6.288927,"i_long":106.728916,"station_name":"Jurangmangu","station_id":"JMU","distance":1994,"time":4,"transit":false,"is_transit":false,"line":6},{"time":3,"i_lat":-6.276362,"distance":2179,"line":6,"station_id":"PDJ","transit":false,"station_name":"Pondokranji","is_transit":false,"i_long":106.74273},{"time":8,"station_name":"Kebayoran","i_lat":-6.237242,"transit":false,"station_id":"KBY","is_transit":false,"distance":6218,"i_long":106.780334,"line":6},{"station_name":"Palmerah","line":6,"i_long":106.79689,"time":7,"distance":3737,"i_lat":-6.207404,"station_id":"PLM","is_transit":false,"transit":false},{"time":6,"is_transit":true,"line":1,"transit":true,"distance":3191,"i_long":106.811091,"station_id":"THB","i_lat":-6.185545,"station_name":"Tanah Abang"},{"station_id":"DU","is_transit":false,"i_lat":-6.155215,"i_long":106.800832,"station_name":"Duri","time":8,"distance":3632,"line":1,"transit":false},{"time":4,"transit":false,"station_id":"AK","line":1,"distance":1230,"is_transit":false,"i_lat":-6.144674,"station_name":"Angke","i_long":106.79867},{"i_long":106.826365,"transit":true,"distance":4102,"station_id":"KPB","is_transit":true,"time":9,"line":4,"station_name":"Kampung Bandan","i_lat":-6.132549},{"line":11,"i_lat":-6.14505,"station_name":"Rajawali","distance":1444,"is_transit":false,"transit":false,"i_long":106.836569,"time":3,"station_id":"RJW"},{"time":5,"station_id":"KMO","station_name":"Kemayoran","i_lat":-6.161728,"i_long":106.839204,"distance":1901,"transit":false,"is_transit":false,"line":11},{"line":11,"time":4,"transit":false,"i_long":106.84368,"is_transit":false,"station_id":"PSE","station_name":"Pasar Senen","distance":1436,"i_lat":-6.174784},{"transit":false,"i_long":106.850107,"time":8,"distance":1567,"line":11,"station_id":"GST","is_transit":false,"station_name":"Gang Sentiong","i_lat":-6.185975},{"line":11,"i_long":106.855437,"time":1,"distance":973,"is_transit":false,"transit":false,"i_lat":-6.193792,"station_name":"Kramat","station_id":"KMT"},{"is_transit":false,"transit":false,"line":11,"station_name":"Pondok Jati","station_id":"POK","distance":1829,"time":2,"i_lat":-6.209188,"i_long":106.861737}],[{"transit":false,"is_transit":false,"distance":0,"i_lat":-6.319871,"i_long":106.66566,"time":0,"line":6,"station_id":"SRP","station_name":"Serpong"},{"time":4,"distance":2413,"is_transit":false,"i_lat":-6.314823,"i_long":106.675475,"station_id":"RU","station_name":"Rawa Buntu","line":6,"transit":false},{"is_transit":false,"i_lat":-6.296963,"station_id":"SDM","station_name":"Sudimara","distance":4566,"i_long":106.712277,"transit":false,"line":6,"time":6},{"time":4,"transit":false,"i_long":106.728916,"station_id":"JMU","is_transit":false,"distance":1994,"station_name":"Jurangmangu","i_lat":-6.288927,"line":6},{"time":3,"i_lat":-6.276362,"line":6,"i_long":106.74273,"transit":false,"is_transit":false,"station_name":"Pondokranji","distance":2179,"station_id":"PDJ"},{"time":8,"i_lat":-6.237242,"line":6,"i_long":106.780334,"transit":false,"is_transit":false,"distance":6218,"station_id":"KBY","station_name":"Kebayoran"},{"is_transit":false,"i_lat":-6.207404,"station_id":"PLM","station_name":"Palmerah","line":6,"distance":3737,"transit":false,"time":7,"i_long":106.79689},{"i_long":106.811091,"is_transit":true,"station_id":"THB","transit":true,"line":1,"time":6,"i_lat":-6.185545,"station_name":"Tanah Abang","distance":3191},{"transit":false,"station_id":"DU","distance":3632,"station_name":"Duri","i_long":106.800832,"is_transit":false,"time":8,"i_lat":-6.155215,"line":1},{"time":4,"station_name":"Angke","transit":false,"is_transit":false,"i_long":106.79867,"line":1,"station_id":"AK","distance":1230,"i_lat":-6.144674},{"is_transit":true,"i_long":106.826365,"transit":true,"station_name":"Kampung Bandan","time":9,"line":4,"distance":4102,"station_id":"KPB","i_lat":-6.132549},{"i_lat":-6.137569,"transit":true,"is_transit":true,"station_name":"Jakarta Kota","station_id":"JAKK","distance":1364,"i_long":106.812439,"line":2,"time":3},{"station_name":"Jayakarta","line":2,"distance":1264,"i_lat":-6.141205,"i_long":106.820901,"station_id":"JAY","is_transit":false,"transit":false,"time":4},{"line":2,"station_name":"Manggabesar","distance":1080,"transit":false,"is_transit":false,"i_lat":-6.149769,"i_long":106.82482,"station_id":"MGB","time":2},{"is_transit":false,"station_name":"Sawah Besar","station_id":"SW","i_lat":-6.160725,"i_long":106.827103,"time":2,"transit":false,"distance":906,"line":2},{"is_transit":false,"distance":1149,"i_long":106.828284,"transit":false,"line":2,"time":2,"station_name":"Juanda","i_lat":-6.166716,"station_id":"JUA"},{"station_id":"GDD","station_name":"Gondangdia","line":2,"i_lat":-6.186295,"i_long":106.832183,"transit":false,"distance":2015,"time":4,"is_transit":false},{"time":3,"line":2,"distance":1750,"transit":false,"station_id":"CKI","is_transit":false,"station_name":"Cikini","i_lat":-6.198556,"i_long":106.840169},{"line":2,"transit":true,"i_lat":-6.209883,"station_name":"Manggarai","i_long":106.84912,"time":4,"station_id":"MRI","distance":1590,"is_transit":true},{"station_id":"MTR","distance":1275,"i_long":106.858896,"transit":false,"is_transit":false,"time":2,"line":1,"i_lat":-6.212485,"station_name":"Matraman"},{"station_name":"Jatinegara","line":1,"transit":true,"i_lat":-6.215091,"i_long":106.86807400000001,"time":8,"station_id":"JNG","distance":1377,"is_transit":true},{"line":11,"is_transit":false,"distance":1236,"station_id":"POK","station_name":"Pondok Jati","transit":false,"i_long":106.861737,"time":2,"i_lat":-6.209188}],[{"transit":false,"station_name":"Serpong","i_lat":-6.319871,"i_long":106.66566,"time":0,"line":6,"is_transit":false,"distance":0,"station_id":"SRP"},{"time":4,"line":6,"distance":2413,"is_transit":false,"i_lat":-6.314823,"i_long":106.675475,"transit":false,"station_id":"RU","station_name":"Rawa Buntu"},{"station_id":"SDM","transit":false,"time":6,"i_long":106.712277,"is_transit":false,"distance":4566,"i_lat":-6.296963,"line":6,"station_name":"Sudimara"},{"i_long":106.728916,"station_id":"JMU","is_transit":false,"station_name":"Jurangmangu","i_lat":-6.288927,"time":4,"distance":1994,"line":6,"transit":false},{"distance":2179,"transit":false,"i_long":106.74273,"station_id":"PDJ","time":3,"station_name":"Pondokranji","i_lat":-6.276362,"is_transit":false,"line":6},{"station_id":"KBY","line":6,"i_lat":-6.237242,"time":8,"distance":6218,"transit":false,"station_name":"Kebayoran","i_long":106.780334,"is_transit":false},{"is_transit":false,"line":6,"transit":false,"i_lat":-6.207404,"i_long":106.79689,"station_name":"Palmerah","time":7,"station_id":"PLM","distance":3737},{"is_transit":true,"transit":true,"line":1,"time":6,"distance":3191,"i_lat":-6.185545,"i_long":106.811091,"station_name":"Tanah Abang","station_id":"THB"},{"line":1,"distance":2029,"transit":false,"time":5,"i_long":106.816351,"is_transit":false,"i_lat":-6.20132,"station_name":"Karet","station_id":"KAT"},{"distance":471,"transit":false,"line":1,"i_long":106.819881,"time":1,"station_id":"SUDB","station_name":"Sudirman Baru","i_lat":-6.201433,"is_transit":false},{"station_name":"Sudirman","station_id":"SUD","line":1,"i_lat":-6.202263,"is_transit":false,"transit":false,"time":1,"distance":280,"i_long":106.822649},{"station_id":"MRI","i_lat":-6.209883,"distance":3186,"i_long":106.84912,"station_name":"Manggarai","line":2,"transit":true,"time":4,"is_transit":true},{"station_name":"Cikini","transit":false,"distance":1590,"i_long":106.840169,"is_transit":false,"time":4,"i_lat":-6.198556,"station_id":"CKI","line":2},{"line":2,"time":3,"i_long":106.832183,"is_transit":false,"transit":false,"distance":1750,"station_id":"GDD","station_name":"Gondangdia","i_lat":-6.186295},{"transit":false,"time":4,"line":2,"distance":2015,"i_long":106.828284,"station_id":"JUA","is_transit":false,"i_lat":-6.166716,"station_name":"Juanda"},{"is_transit":false,"distance":1149,"station_name":"Sawah Besar","i_long":106.827103,"time":2,"transit":false,"i_lat":-6.160725,"line":2,"station_id":"SW"},{"transit":false,"distance":906,"station_name":"Manggabesar","i_lat":-6.149769,"i_long":106.82482,"time":2,"line":2,"station_id":"MGB","is_transit":false},{"is_transit":false,"line":2,"station_name":"Jayakarta","time":2,"i_long":106.820901,"distance":1080,"station_id":"JAY","i_lat":-6.141205,"transit":false},{"transit":true,"station_id":"JAKK","i_long":106.812439,"time":4,"distance":1264,"station_name":"Jakarta Kota","i_lat":-6.137569,"line":2,"is_transit":true},{"line":4,"distance":1364,"station_name":"Kampung Bandan","i_lat":-6.132549,"station_id":"KPB","i_long":106.826365,"is_transit":true,"time":3,"transit":true},{"transit":false,"i_long":106.836569,"i_lat":-6.14505,"station_id":"RJW","distance":1444,"is_transit":false,"time":3,"line":11,"station_name":"Rajawali"},{"station_name":"Kemayoran","i_lat":-6.161728,"time":5,"line":11,"station_id":"KMO","is_transit":false,"transit":false,"distance":1901,"i_long":106.839204},{"transit":false,"is_transit":false,"i_long":106.84368,"i_lat":-6.174784,"station_id":"PSE","distance":1436,"line":11,"station_name":"Pasar Senen","time":4},{"i_long":106.850107,"station_id":"GST","is_transit":false,"distance":1567,"time":8,"line":11,"transit":false,"station_name":"Gang Sentiong","i_lat":-6.185975},{"distance":973,"i_long":106.855437,"station_name":"Kramat","transit":false,"time":1,"i_lat":-6.193792,"line":11,"is_transit":false,"station_id":"KMT"},{"transit":false,"time":2,"station_name":"Pondok Jati","line":11,"distance":1829,"i_lat":-6.209188,"i_long":106.861737,"is_transit":false,"station_id":"POK"}]]}