{"data":[[{"i_lat":-6.319871,"time":0,"transit":false,"line":6,"is_transit":false,"i_long":106.66566,"station_id":"SRP","station_name":"Serpong","distance":0},{"station_id":"RU","station_name":"Rawa Buntu","is_transit":false,"i_long":106.675475,"transit":false,"line":6,"time":4,"distance":2413,"i_lat":-6.314823},{"station_id":"SDM","distance":4566,"line":6,"i_lat":-6.296963,"transit":false,"station_name":"Sudimara","i_long":106.712277,"is_transit":false,"time":6},{"distance":1994,"is_transit":false,"i_long":106.728916,"line":6,"time":4,"station_id":"JMU","station_name":"Jurangmangu","transit":false,"i_lat":-6.288927},{"is_transit":false,"i_lat":-6.276362,"time":3,"i_long":106.74273,"line":6,"station_name":"Pondokranji","distance":2179,"transit":false,"station_id":"PDJ"},{"i_long":106.780334,"transit":false,"station_id":"KBY","i_lat":-6.237242,"station_name":"Kebayoran","is_transit":false,"time":8,"distance":6218,"line":6},{"line":6,"time":7,"transit":false,"i_lat":-6.207404,"station_name":"Palmerah","station_id":"PLM","distance":3737,"i_long":106.79689,"is_transit":false},{"is_transit":true,"station_name":"Tanah Abang","time":6,"i_long":106.811091,"transit":true,"i_lat":-6.185545,"line":1,"distance":3191,"station_id":"THB"},{"transit":false,"station_name":"Karet","i_lat":-6.20132,"time":5,"distance":2029,"station_id":"KAT","is_transit":false,"line":1,"i_long":106.816351},{"distance":471,"line":1,"is_transit":false,"i_long":106.819881,"time":1,"transit":false,"i_lat":-6.201433,"station_id":"SUDB","station_name":"Sudirman Baru"}],[{"station_name":"Serpong","transit":false,"line":6,"i_lat":-6.319871,"i_long":106.66566,"time":0,"distance":0,"station_id":"SRP","is_transit":false},{"is_transit":false,"station_name":"Rawa Buntu","line":6,"transit":false,"station_id":"RU","i_lat":-6.314823,"i_long":106.675475,"distance":2413,"time":4},{"line":6,"station_id":"SDM","distance":4566,"i_lat":-6.296963,"station_name":"Sudimara","is_transit":false,"transit":false,"time":6,"i_long":106.712277},{"is_transit":false,"distance":1994,"station_name":"Jurangmangu","transit":false,"i_lat":-6.288927,"i_long":106.728916,"station_id":"JMU","time":4,"line":6},{"time":3,"station_id":"PDJ","i_lat":-6.276362,"i_long":106.74273,"station_name":"Pondokranji","line":6,"is_transit":false,"transit":false,"distance":2179},{"is_transit":false,"transit":false,"i_lat":-6.237242,"station_id":"KBY","time":8,"i_long":106.780334,"distance":6218,"station_name":"Kebayoran","line":6},{"station_name":"Palmerah","transit":false,"station_id":"PLM","i_lat":-6.207404,"time":7,"is_transit":false,"i_long":106.79689,"distance":3737,"line":6},{"i_lat":-6.185545,"transit":true,"line":1,"station_id":"THB","time":6,"i_long":106.811091,"is_transit":true,"station_name":"Tanah Abang","distance":3191},{"station_name":"Duri","i_lat":-6.155215,"distance":3632,"transit":false,"station_id":"DU","time":8,"is_transit":false,"i_long":106.800832,"line":1},{"station_name":"Angke","distance":1230,"line":1,"i_lat":-6.144674,"time":4,"transit":false,"station_id":"AK","is_transit":false,"i_long":106.79867},{"distance":4102,"i_lat":-6.132549,"line":4,"i_long":106.826365,"station_name":"Kampung Bandan","station_id":"KPB","is_transit":true,"time":9,"transit":true},{"station_id":"JAKK","i_lat":-6.137569,"line":2,"time":3,"transit":true,"distance":1364,"i_long":106.812439,"station_name":"Jakarta Kota","is_transit":true},{"distance":1264,"i_lat":-6.141205,"station_name":"Jayakarta","line":2,"station_id":"JAY","is_transit":false,"transit":false,"time":4,"i_long":106.820901},{"time":2,"i_long":106.82482,"station_name":"Manggabesar","is_transit":false,"station_id":"MGB","distance":1080,"line":2,"transit":false,"i_lat":-6.149769},{"time":2,"is_transit":false,"distance":906,"line":2,"i_long":106.827103,"station_name":"Sawah Besar","i_lat":-6.160725,"station_id":"SW","transit":false},{"time":2,"station_name":"Juanda","is_transit":false,"i_lat":-6.166716,"distance":1149,"line":2,"transit":false,"station_id":"JUA","i_long":106.828284},{"time":4,"station_name":"Gondangdia","distance":2015,"station_id":"GDD","i_long":106.832183,"is_transit":false,"line":2,"transit":false,"i_lat":-6.186295},{"i_lat":-6.198556,"transit":false,"distance":1750,"is_transit":false,"time":3,"i_long":106.840169,"station_name":"Cikini","line":2,"station_id":"CKI"},{"time":4,"transit":true,"i_long":106.84912,"i_lat":-6.209883,"line":2,"is_transit":true,"station_name":"Manggarai","distance":1590,"station_id":"MRI"},{"is_transit":false,"distance":3186,"i_lat":-6.202263,"i_long":106.822649,"line":1,"transit":false,"station_name":"Sudirman","station_id":"SUD","time":4},{"time":1,"line":1,"i_lat":-6.201433,"station_name":"Sudirman Baru","is_transit":false,"i_long":106.819881,"transit":false,"distance":280,"station_id":"SUDB"}],[{"time":0,"distance":0,"station_id":"SRP","i_long":106.66566,"transit":false,"is_transit":false,"i_lat":-6.319871,"line":6,"station_name":"Serpong"},{"time":4,"station_name":"Rawa Buntu","transit":false,"line":6,"distance":2413,"is_transit":false,"i_lat":-6.314823,"i_long":106.675475,"station_id":"RU"},{"time":6,"is_transit":false,"i_long":106.712277,"station_name":"Sudimara","line":6,"transit":false,"station_id":"SDM","distance":4566,"i_lat":-6.296963},{"distance":1994,"transit":false,"i_long":106.728916,"station_id":"JMU","time":4,"line":6,"is_transit":false,"station_name":"Jurangmangu","i_lat":-6.288927},{"transit":false,"distance":2179,"i_long":106.74273,"line":6,"station_name":"Pondokranji","station_id":"PDJ","time":3,"i_lat":-6.276362,"is_transit":false},{"station_id":"KBY","transit":false,"i_long":106.780334,"station_name":"Kebayoran","is_transit":false,"line":6,"distance":6218,"i_lat":-6.237242,"time":8},{"time":7,"station_id":"PLM","line":6,"distance":3737,"i_long":106.79689,"station_name":"Palmerah","transit":false,"i_lat":-6.207404,"is_transit":false},{"is_transit":true,"i_lat":-6.185545,"line":1,"transit":true,"distance":3191,"i_long":106.811091,"station_id":"THB","station_name":"Tanah Abang","time":6},{"station_id":"DU","transit":false,"i_lat":-6.155215,"distance":3632,"station_name":"Duri","is_transit":false,"i_long":106.800832,"line":1,"time":8},{"station_name":"Angke","distance":1230,"i_lat":-6.144674,"i_long":106.79867,"time":4,"transit":false,"line":1,"is_transit":false,"station_id":"AK"},{"transit":true,"is_transit":true,"distance":4102,"line":4,"i_long":106.826365,"station_id":"KPB","i_lat":-6.132549,"time":9,"station_name":"Kampung Bandan"},{"is_transit":false,"i_lat":-6.14505,"line":11,"transit":false,"distance":1444,"station_name":"Rajawali","i_long":106.836569,"station_id":"RJW","time":3},{"station_id":"KMO","transit":false,"distance":1901,"time":5,"station_name":"Kemayoran","is_transit":false,"i_lat":-6.161728,"i_long":106.839204,"line":11},{"i_long":106.84368,"transit":false,"time":4,"station_name":"Pasar Senen","i_lat":-6.174784,"station_id":"PSE","distance":1436,"line":11,"is_transit":false},{"is_transit":false,"line":11,"transit":false,"station_id":"GST","station_name":"Gang Sentiong","time":8,"distance":1567,"i_lat":-6.185975,"i_long":106.850107},{"time":1,"station_name":"Kramat","station_id":"KMT","transit":false,"i_lat":-6.193792,"line":11,"is_transit":false,"i_long":106.855437,"distance":973},{"is_transit":false,"i_lat":-6.209188,"station_id":"POK","i_long":106.861737,"distance":1829,"time":2,"transit":false,"station_name":"Pondok Jati","line":11},{"station_name":"Jatinegara","distance":1236,"station_id":"JNG","line":1,"i_lat":-6.215091,"is_transit":true,"time":9,"transit":true,"i_long":106.86807400000001},{"is_transit":false,"station_id":"MTR","i_lat":-6.212485,"distance":1377,"station_name":"Matraman","i_long":106.858896,"transit":false,"line":1,"time":2},{"i_lat":-6.209883,"station_name":"Manggarai","time":2,"is_transit":false,"distance":1275,"line":2,"i_long":106.84912,"transit":false,"station_id":"MRI"},{"distance":3186,"i_lat":-6.202263,"transit":false,"station_id":"SUD","time":4,"i_long":106.822649,"line":1,"is_transit":false,"station_name":"Sudirman"},{"i_long":106.819881,"station_id":"SUDB","transit":false,"time":1,"is_transit":false,"i_lat":-6.201433,"line":1,"station_name":"Sudirman Baru","distance":280}]]}