{
  "data": [
    [
      {
        "distance": 0,
        "i_lat": -6.319871,
        "i_long": 106.66566,
        "is_transit": false,
        "line": 6,
        "station_id": "SRP",
        "station_name": "Serpong",
        "time": 0,
        "transit": false
      },
      {
        "distance": 1784,
        "i_lat": -6.32484,
        "i_long": 106.640411,
        "is_transit": false,
        "line": 3,
        "station_id": "CSK",
        "station_name": "Cisauk",
        "time": 4,
        "transit": false
      },
      {
        "distance": 2519,
        "i_lat": -6.329547,
        "i_long": 106.617853,
        "is_transit": false,
        "line": 3,
        "station_id": "CC",
        "station_name": "Cicayur",
        "time": 4,
        "transit": false
      },
      {
        "distance": 5968,
        "i_lat": -6.3441410000000005,
        "i_long": 106.568863,
        "is_transit": false,
        "line": 6,
        "station_id": "PRP",
        "station_name": "Parung Panjang",
        "time": 8,
        "transit": false
      },
      {
        "distance": 7025,
        "i_lat": -6.354349,
        "i_long": 106.508482,
        "is_transit": false,
        "line": 3,
        "station_id": "CJT",
        "station_name": "Cilejit",
        "time": 9,
        "transit": false
      },
      {
        "distance": 2675,
        "i_lat": -6.338021,
        "i_long": 106.491338,
        "is_transit": false,
        "line": 0,
        "station_id": "DAR",
        "station_name": "Daru",
        "time": 6,
        "transit": false
      },
      {
        "distance": 3902,
        "i_lat": -6.327251,
        "i_long": 106.460812,
        "is_transit": false,
        "line": 6,
        "station_id": "TEJ",
        "station_name": "Tenjo",
        "time": 5,
        "transit": false
      },
      {
        "distance": 2974,
        "i_lat": -6.328533,
        "i_long": 106.425991,
        "is_transit": false,
        "line": 6,
        "station_id": "TGS",
        "station_name": "Tigaraksa",
        "time": 5,
        "transit": false
      },
      {
        "distance": 2651,
        "i_lat": -6.33561,
        "i_long": 106.411216,
        "is_transit": false,
        "line": 3,
        "station_id": "CKY",
        "station_name": "Cikoya",
        "time": 3,
        "transit": false
      },
      {
        "distance": 1853,
        "i_lat": -6.332307,
        "i_long": 106.394373,
        "is_transit": false,
        "line": 6,
        "station_id": "MJ",
        "station_name": "Maja",
        "time": 4,
        "transit": false
      },
      {
        "distance": 7293,
        "i_lat": -6.334892,
        "i_long": 106.332092,
        "is_transit": false,
        "line": 3,
        "station_id": "CTR",
        "station_name": "Citeras",
        "time": 10,
        "transit": false
      },
      {
        "distance": 9847,
        "i_lat": -6.352675,
        "i_long": 106.250396,
        "is_transit": false,
        "line": 3,
        "station_id": "RK",
        "station_name": "Rangkasbitung",
        "time": 13,
        "transit": false
      }
    ]
  ]
}
