{"data":[[{"transit":false,"i_lat":-6.319871,"line":6,"i_long":106.66566,"is_transit":false,"time":0,"distance":0,"station_name":"Serpong","station_id":"SRP"},{"station_name":"Rawa Buntu","is_transit":false,"transit":false,"distance":2413,"time":4,"i_long":106.675475,"station_id":"RU","line":6,"i_lat":-6.314823},{"i_lat":-6.296963,"line":6,"station_id":"SDM","transit":false,"is_transit":false,"distance":4566,"i_long":106.712277,"station_name":"Sudimara","time":6},{"station_name":"Jurangmangu","station_id":"JMU","i_long":106.728916,"line":6,"is_transit":false,"time":4,"distance":1994,"transit":false,"i_lat":-6.288927},{"i_long":106.74273,"distance":2179,"station_id":"PDJ","is_transit":false,"station_name":"Pondokranji","time":3,"transit":false,"i_lat":-6.276362,"line":6},{"i_lat":-6.237242,"is_transit":false,"distance":6218,"line":6,"transit":false,"time":8,"i_long":106.780334,"station_name":"Kebayoran","station_id":"KBY"},{"time":7,"i_lat":-6.207404,"station_id":"PLM","distance":3737,"i_long":106.79689,"transit":false,"line":6,"is_transit":false,"station_name":"Palmerah"},{"is_transit":true,"transit":true,"i_lat":-6.185545,"distance":3191,"station_name":"Tanah Abang","i_long":106.811091,"line":1,"time":6,"station_id":"THB"},{"is_transit":false,"i_long":106.816351,"time":5,"station_name":"Karet","i_lat":-6.20132,"line":1,"transit":false,"distance":2029,"station_id":"KAT"},{"line":1,"i_lat":-6.201433,"station_name":"Sudirman Baru","is_transit":false,"transit":false,"i_long":106.819881,"station_id":"SUDB","time":1,"distance":471},{"distance":280,"is_transit":false,"i_lat":-6.202263,"time":1,"line":1,"transit":false,"station_name":"Sudirman","station_id":"SUD","i_long":106.822649},{"station_id":"MRI","distance":3186,"is_transit":true,"transit":true,"line":2,"i_lat":-6.209883,"i_long":106.84912,"station_name":"Manggarai","time":4},{"i_lat":-6.226659,"station_id":"TEB","is_transit":false,"i_long":106.857948,"line":2,"transit":false,"station_name":"Tebet","time":4,"distance":2610},{"transit":false,"is_transit":false,"time":2,"i_lat":-6.242512,"line":2,"station_id":"CW","i_long":106.856607,"distance":1230,"station_name":"Cawang"},{"i_long":106.85449,"station_id":"DRN","station_name":"Duren Kalibata","transit":false,"distance":1546,"line":2,"i_lat":-6.255332,"is_transit":false,"time":3},{"i_long":106.851577,"time":2,"line":2,"station_id":"PSMB","transit":false,"is_transit":false,"station_name":"Pasar Minggu Baru","i_lat":-6.263214,"distance":824},{"distance":2380,"station_name":"Pasar Minggu","station_id":"PSM","is_transit":false,"i_lat":-6.2842400000000005,"i_long":106.843999,"transit":false,"time":2,"line":2},{"distance":2820,"station_id":"TNT","is_transit":false,"transit":false,"station_name":"Tanjung Barat","time":4,"i_lat":-6.3080680000000005,"i_long":106.838896,"line":2},{"transit":false,"line":2,"station_name":"Lenteng Agung","time":3,"station_id":"LNA","i_lat":-6.330363,"distance":2671,"is_transit":false,"i_long":106.832616},{"station_id":"UP","is_transit":false,"i_lat":-6.339291,"line":2,"transit":false,"station_name":"Univ. Pancasila","time":2,"distance":1029,"i_long":106.834175},{"station_id":"UI","distance":2264,"transit":false,"station_name":"Univ. Indonesia","line":2,"time":3,"i_lat":-6.360749,"i_long":106.831474,"is_transit":false},{"is_transit":false,"transit":false,"line":2,"i_long":106.831114,"distance":1109,"station_id":"POC","time":2,"station_name":"Pondok Cina","i_lat":-6.369073},{"is_transit":false,"time":4,"line":2,"i_lat":-6.391065,"transit":false,"i_long":106.819451,"distance":2727,"station_name":"Depokbaru","station_id":"DPB"},{"i_lat":-6.405256,"time":3,"station_id":"DP","transit":false,"i_long":106.816926,"line":2,"station_name":"Depok","is_transit":false,"distance":1584},{"time":6,"i_long":106.800298,"transit":false,"station_id":"CTA","distance":5084,"station_name":"Citayam","is_transit":false,"i_lat":-6.448811,"line":2},{"is_transit":false,"line":2,"transit":false,"time":5,"station_id":"BJD","station_name":"Bojonggede","i_lat":-6.493243,"i_long":106.792719,"distance":5197},{"station_id":"CLT","transit":false,"is_transit":false,"i_long":106.800016,"station_name":"Cilebut","i_lat":-6.530544,"time":5,"distance":4331,"line":2},{"time":9,"i_lat":-6.594596,"transit":false,"station_name":"Bogor","i_long":106.790574,"line":2,"is_transit":false,"distance":7514,"station_id":"BOO"}],[{"is_transit":false,"i_lat":-6.319871,"station_name":"Serpong","station_id":"SRP","transit":false,"distance":0,"time":0,"i_long":106.66566,"line":6},{"is_transit":false,"station_name":"Rawa Buntu","i_lat":-6.314823,"line":6,"i_long":106.675475,"station_id":"RU","distance":2413,"transit":false,"time":4},{"i_long":106.712277,"line":6,"i_lat":-6.296963,"station_id":"SDM","time":6,"distance":4566,"is_transit":false,"station_name":"Sudimara","transit":false},{"i_lat":-6.288927,"station_name":"Jurangmangu","line":6,"station_id":"JMU","transit":false,"distance":1994,"is_transit":false,"time":4,"i_long":106.728916},{"line":6,"transit":false,"time":3,"is_transit":false,"i_lat":-6.276362,"i_long":106.74273,"station_id":"PDJ","distance":2179,"station_name":"Pondokranji"},{"distance":6218,"i_long":106.780334,"i_lat":-6.237242,"transit":false,"station_name":"Kebayoran","is_transit":false,"time":8,"line":6,"station_id":"KBY"},{"i_long":106.79689,"time":7,"is_transit":false,"station_name":"Palmerah","line":6,"station_id":"PLM","distance":3737,"transit":false,"i_lat":-6.207404},{"transit":true,"distance":3191,"line":1,"station_id":"THB","time":6,"station_name":"Tanah Abang","i_long":106.811091,"is_transit":true,"i_lat":-6.185545},{"transit":false,"time":8,"i_long":106.800832,"station_name":"Duri","station_id":"DU","is_transit":false,"distance":3632,"line":1,"i_lat":-6.155215},{"i_long":106.79867,"transit":false,"distance":1230,"i_lat":-6.144674,"line":1,"station_id":"AK","is_transit":false,"station_name":"Angke","time":4},{"transit":true,"line":4,"distance":4102,"i_lat":-6.132549,"station_name":"Kampung Bandan","station_id":"KPB","is_transit":true,"time":9,"i_long":106.826365},{"station_id":"JAKK","distance":1364,"transit":true,"station_name":"Jakarta Kota","i_long":106.812439,"i_lat":-6.137569,"line":2,"is_transit":true,"time":3},{"distance":1264,"station_id":"JAY","time":4,"line":2,"is_transit":false,"transit":false,"station_name":"Jayakarta","i_lat":-6.141205,"i_long":106.820901},{"station_name":"Manggabesar","time":2,"i_long":106.82482,"station_id":"MGB","transit":false,"line":2,"is_transit":false,"distance":1080,"i_lat":-6.149769},{"is_transit":false,"i_lat":-6.160725,"station_id":"SW","distance":906,"i_long":106.827103,"transit":false,"time":2,"line":2,"station_name":"Sawah Besar"},{"i_lat":-6.166716,"is_transit":false,"transit":false,"distance":1149,"time":2,"station_id":"JUA","i_long":106.828284,"line":2,"station_name":"Juanda"},{"line":2,"i_lat":-6.186295,"transit":false,"station_name":"Gondangdia","is_transit":false,"time":4,"distance":2015,"station_id":"GDD","i_long":106.832183},{"distance":1750,"i_long":106.840169,"line":2,"i_lat":-6.198556,"is_transit":false,"station_name":"Cikini","station_id":"CKI","time":3,"transit":false},{"transit":false,"station_name":"Manggarai","is_transit":false,"distance":1590,"i_lat":-6.209883,"i_long":106.84912,"line":2,"time":4,"station_id":"MRI"},{"i_long":106.857948,"is_transit":false,"transit":false,"time":4,"distance":2610,"i_lat":-6.226659,"line":2,"station_name":"Tebet","station_id":"TEB"},{"is_transit":false,"i_lat":-6.242512,"station_id":"CW","station_name":"Cawang","distance":1230,"time":2,"i_long":106.856607,"line":2,"transit":false},{"station_id":"DRN","time":3,"i_lat":-6.255332,"line":2,"is_transit":false,"station_name":"Duren Kalibata","i_long":106.85449,"distance":1546,"transit":false},{"line":2,"is_transit":false,"distance":824,"transit":false,"station_name":"Pasar Minggu Baru","station_id":"PSMB","i_lat":-6.263214,"i_long":106.851577,"time":2},{"transit":false,"i_lat":-6.2842400000000005,"distance":2380,"i_long":106.843999,"station_id":"PSM","line":2,"time":2,"station_name":"Pasar Minggu","is_transit":false},{"distance":2820,"i_lat":-6.3080680000000005,"is_transit":false,"station_id":"TNT","i_long":106.838896,"line":2,"time":4,"station_name":"Tanjung Barat","transit":false},{"i_lat":-6.330363,"is_transit":false,"station_name":"Lenteng Agung","transit":false,"i_long":106.832616,"line":2,"time":3,"distance":2671,"station_id":"LNA"},{"i_lat":-6.339291,"line":2,"time":2,"transit":false,"i_long":106.834175,"station_name":"Univ. Pancasila","station_id":"UP","is_transit":false,"distance":1029},{"distance":2264,"is_transit":false,"i_lat":-6.360749,"time":3,"line":2,"station_name":"Univ. Indonesia","station_id":"UI","transit":false,"i_long":106.831474},{"transit":false,"line":2,"distance":1109,"station_id":"POC","is_transit":false,"station_name":"Pondok Cina","time":2,"i_lat":-6.369073,"i_long":106.831114},{"station_name":"Depokbaru","time":4,"i_long":106.819451,"distance":2727,"is_transit":false,"i_lat":-6.391065,"line":2,"station_id":"DPB","transit":false},{"i_lat":-6.405256,"is_transit":false,"station_id":"DP","line":2,"time":3,"station_name":"Depok","i_long":106.816926,"transit":false,"distance":1584},{"i_lat":-6.448811,"line":2,"distance":5084,"transit":false,"time":6,"station_id":"CTA","is_transit":false,"i_long":106.800298,"station_name":"Citayam"},{"transit":false,"i_long":106.792719,"station_name":"Bojonggede","distance":5197,"time":5,"i_lat":-6.493243,"station_id":"BJD","line":2,"is_transit":false},{"station_id":"CLT","i_lat":-6.530544,"distance":4331,"transit":false,"station_name":"Cilebut","line":2,"is_transit":false,"i_long":106.800016,"time":5},{"station_name":"Bogor","time":9,"station_id":"BOO","i_lat":-6.594596,"distance":7514,"transit":false,"is_transit":false,"i_long":106.790574,"line":2}],[{"distance":0,"i_lat":-6.319871,"is_transit":false,"time":0,"transit":false,"station_name":"Serpong","i_long":106.66566,"line":6,"station_id":"SRP"},{"is_transit":false,"time":4,"line":6,"i_lat":-6.314823,"station_name":"Rawa Buntu","station_id":"RU","distance":2413,"i_long":106.675475,"transit":false},{"i_lat":-6.296963,"distance":4566,"is_transit":false,"station_name":"Sudimara","station_id":"SDM","time":6,"line":6,"i_long":106.712277,"transit":false},{"i_lat":-6.288927,"transit":false,"station_id":"JMU","is_transit":false,"distance":1994,"i_long":106.728916,"line":6,"station_name":"Jurangmangu","time":4},{"i_lat":-6.276362,"line":6,"time":3,"transit":false,"station_id":"PDJ","distance":2179,"i_long":106.74273,"station_name":"Pondokranji","is_transit":false},{"time":8,"station_id":"KBY","distance":6218,"i_lat":-6.237242,"station_name":"Kebayoran","i_long":106.780334,"is_transit":false,"transit":false,"line":6},{"i_long":106.79689,"distance":3737,"i_lat":-6.207404,"time":7,"is_transit":false,"station_name":"Palmerah","transit":false,"station_id":"PLM","line":6},{"station_name":"Tanah Abang","is_transit":true,"distance":3191,"time":6,"i_long":106.811091,"transit":true,"station_id":"THB","line":1,"i_lat":-6.185545},{"transit":false,"distance":3632,"station_name":"Duri","is_transit":false,"line":1,"time":8,"station_id":"DU","i_long":106.800832,"i_lat":-6.155215},{"time":4,"i_lat":-6.144674,"line":1,"station_name":"Angke","i_long":106.79867,"is_transit":false,"station_id":"AK","transit":false,"distance":1230},{"transit":true,"time":9,"i_lat":-6.132549,"station_name":"Kampung Bandan","is_transit":true,"distance":4102,"i_long":106.826365,"line":4,"station_id":"KPB"},{"i_long":106.836569,"i_lat":-6.14505,"is_transit":false,"line":11,"distance":1444,"station_name":"Rajawali","transit":false,"station_id":"RJW","time":3},{"line":11,"distance":1901,"i_long":106.839204,"is_transit":false,"transit":false,"station_name":"Kemayoran","i_lat":-6.161728,"time":5,"station_id":"KMO"},{"transit":false,"station_name":"Pasar Senen","is_transit":false,"i_long":106.84368,"distance":1436,"station_id":"PSE","line":11,"i_lat":-6.174784,"time":4},{"station_name":"Gang Sentiong","is_transit":false,"i_long":106.850107,"line":11,"distance":1567,"i_lat":-6.185975,"time":8,"station_id":"GST","transit":false},{"i_long":106.855437,"station_name":"Kramat","is_transit":false,"station_id":"KMT","time":1,"transit":false,"i_lat":-6.193792,"line":11,"distance":973},{"station_name":"Pondok Jati","i_lat":-6.209188,"i_long":106.861737,"distance":1829,"is_transit":false,"line":11,"time":2,"transit":false,"station_id":"POK"},{"i_long":106.86807400000001,"time":9,"is_transit":true,"station_id":"JNG","station_name":"Jatinegara","distance":1236,"transit":true,"i_lat":-6.215091,"line":1},{"station_name":"Matraman","station_id":"MTR","distance":1377,"transit":false,"is_transit":false,"i_long":106.858896,"line":1,"i_lat":-6.212485,"time":2},{"line":2,"i_lat":-6.209883,"station_name":"Manggarai","station_id":"MRI","transit":true,"distance":1275,"i_long":106.84912,"is_transit":true,"time":2},{"time":4,"station_id":"TEB","i_lat":-6.226659,"transit":false,"line":2,"i_long":106.857948,"is_transit":false,"distance":2610,"station_name":"Tebet"},{"i_lat":-6.242512,"station_name":"Cawang","i_long":106.856607,"distance":1230,"line":2,"time":2,"station_id":"CW","transit":false,"is_transit":false},{"i_long":106.85449,"is_transit":false,"station_name":"Duren Kalibata","i_lat":-6.255332,"line":2,"transit":false,"station_id":"DRN","distance":1546,"time":3},{"time":2,"line":2,"i_lat":-6.263214,"i_long":106.851577,"distance":824,"station_id":"PSMB","transit":false,"is_transit":false,"station_name":"Pasar Minggu Baru"},{"time":2,"transit":false,"station_id":"PSM","line":2,"i_long":106.843999,"distance":2380,"station_name":"Pasar Minggu","i_lat":-6.2842400000000005,"is_transit":false},{"line":2,"is_transit":false,"station_name":"Tanjung Barat","station_id":"TNT","i_lat":-6.3080680000000005,"distance":2820,"transit":false,"time":4,"i_long":106.838896},{"i_lat":-6.330363,"time":3,"transit":false,"i_long":106.832616,"distance":2671,"line":2,"station_id":"LNA","station_name":"Lenteng Agung","is_transit":false},{"station_name":"Univ. Pancasila","time":2,"i_long":106.834175,"i_lat":-6.339291,"is_transit":false,"line":2,"station_id":"UP","transit":false,"distance":1029},{"i_long":106.831474,"i_lat":-6.360749,"is_transit":false,"station_id":"UI","line":2,"transit":false,"time":3,"distance":2264,"station_name":"Univ. Indonesia"},{"transit":false,"distance":1109,"i_long":106.831114,"station_name":"Pondok Cina","line":2,"i_lat":-6.369073,"time":2,"station_id":"POC","is_transit":false},{"time":4,"i_long":106.819451,"distance":2727,"station_name":"Depokbaru","station_id":"DPB","i_lat":-6.391065,"line":2,"is_transit":false,"transit":false},{"transit":false,"station_id":"DP","station_name":"Depok","i_lat":-6.405256,"distance":1584,"i_long":106.816926,"time":3,"is_transit":false,"line":2},{"time":6,"station_name":"Citayam","distance":5084,"transit":false,"i_lat":-6.448811,"is_transit":false,"line":2,"i_long":106.800298,"station_id":"CTA"},{"is_transit":false,"station_id":"BJD","i_long":106.792719,"transit":false,"distance":5197,"line":2,"station_name":"Bojonggede","time":5,"i_lat":-6.493243},{"i_lat":-6.530544,"transit":false,"station_name":"Cilebut","line":2,"station_id":"CLT","is_transit":false,"time":5,"distance":4331,"i_long":106.800016},{"station_id":"BOO","transit":false,"station_name":"Bogor","line":2,"is_transit":false,"time":9,"distance":7514,"i_long":106.790574,"i_lat":-6.594596}]]}