{"data":[[{"distance":0,"is_transit":false,"line":6,"transit":false,"time":0,"station_name":"Serpong","i_lat":-6.319871,"i_long":106.66566,"station_id":"SRP"},{"time":4,"transit":false,"station_id":"RU","i_lat":-6.314823,"station_name":"Rawa Buntu","line":6,"distance":2413,"i_long":106.675475,"is_transit":false},{"distance":4566,"is_transit":false,"i_long":106.712277,"transit":false,"line":6,"time":6,"station_id":"SDM","station_name":"Sudimara","i_lat":-6.296963},{"time":4,"transit":false,"station_name":"Jurangmangu","i_lat":-6.288927,"i_long":106.728916,"is_transit":false,"line":6,"distance":1994,"station_id":"JMU"},{"station_id":"PDJ","transit":false,"i_long":106.74273,"i_lat":-6.276362,"is_transit":false,"line":6,"station_name":"Pondokranji","time":3,"distance":2179},{"distance":6218,"i_lat":-6.237242,"is_transit":false,"time":8,"i_long":106.780334,"station_name":"Kebayoran","station_id":"KBY","transit":false,"line":6},{"line":6,"station_id":"PLM","i_lat":-6.207404,"station_name":"Palmerah","time":7,"distance":3737,"is_transit":false,"i_long":106.79689,"transit":false},{"time":6,"distance":3191,"line":1,"i_lat":-6.185545,"transit":true,"i_long":106.811091,"station_name":"Tanah Abang","is_transit":true,"station_id":"THB"},{"line":1,"time":5,"distance":2029,"station_id":"KAT","station_name":"Karet","is_transit":false,"transit":false,"i_lat":-6.20132,"i_long":106.816351},{"station_id":"SUDB","line":1,"is_transit":false,"i_long":106.819881,"distance":471,"transit":false,"i_lat":-6.201433,"station_name":"Sudirman Baru","time":1},{"line":1,"i_long":106.822649,"distance":280,"is_transit":false,"transit":false,"i_lat":-6.202263,"time":1,"station_id":"SUD","station_name":"Sudirman"},{"time":4,"station_id":"MRI","line":2,"is_transit":true,"distance":3186,"i_lat":-6.209883,"i_long":106.84912,"station_name":"Manggarai","transit":true},{"is_transit":false,"i_lat":-6.226659,"distance":2610,"time":4,"station_id":"TEB","i_long":106.857948,"station_name":"Tebet","transit":false,"line":2},{"i_long":106.856607,"time":2,"line":2,"transit":false,"is_transit":false,"station_name":"Cawang","station_id":"CW","i_lat":-6.242512,"distance":1230},{"i_lat":-6.255332,"transit":false,"station_name":"Duren Kalibata","i_long":106.85449,"time":3,"distance":1546,"line":2,"station_id":"DRN","is_transit":false}],[{"station_name":"Serpong","transit":false,"is_transit":false,"i_long":106.66566,"line":6,"distance":0,"time":0,"station_id":"SRP","i_lat":-6.319871},{"station_name":"Rawa Buntu","i_lat":-6.314823,"station_id":"RU","transit":false,"time":4,"distance":2413,"is_transit":false,"i_long":106.675475,"line":6},{"time":6,"station_name":"Sudimara","distance":4566,"is_transit":false,"i_long":106.712277,"line":6,"station_id":"SDM","transit":false,"i_lat":-6.296963},{"distance":1994,"is_transit":false,"time":4,"station_name":"Jurangmangu","transit":false,"i_long":106.728916,"station_id":"JMU","i_lat":-6.288927,"line":6},{"i_long":106.74273,"distance":2179,"transit":false,"time":3,"i_lat":-6.276362,"station_id":"PDJ","is_transit":false,"line":6,"station_name":"Pondokranji"},{"time":8,"station_name":"Kebayoran","line":6,"distance":6218,"is_transit":false,"station_id":"KBY","i_lat":-6.237242,"transit":false,"i_long":106.780334},{"time":7,"distance":3737,"transit":false,"station_id":"PLM","is_transit":false,"i_long":106.79689,"i_lat":-6.207404,"line":6,"station_name":"Palmerah"},{"i_long":106.811091,"i_lat":-6.185545,"line":1,"time":6,"station_id":"THB","is_transit":true,"station_name":"Tanah Abang","distance":3191,"transit":true},{"i_long":106.800832,"time":8,"station_id":"DU","station_name":"Duri","transit":false,"distance":3632,"is_transit":false,"i_lat":-6.155215,"line":1},{"station_name":"Angke","i_lat":-6.144674,"line":1,"is_transit":false,"time":4,"station_id":"AK","i_long":106.79867,"distance":1230,"transit":false},{"station_id":"KPB","i_lat":-6.132549,"time":9,"is_transit":true,"line":4,"distance":4102,"transit":true,"i_long":106.826365,"station_name":"Kampung Bandan"},{"distance":1364,"i_long":106.812439,"transit":true,"line":2,"i_lat":-6.137569,"time":3,"station_name":"Jakarta Kota","is_transit":true,"station_id":"JAKK"},{"i_long":106.820901,"is_transit":false,"transit":false,"station_name":"Jayakarta","i_lat":-6.141205,"station_id":"JAY","distance":1264,"line":2,"time":4},{"i_lat":-6.149769,"station_id":"MGB","distance":1080,"transit":false,"i_long":106.82482,"is_transit":false,"station_name":"Manggabesar","line":2,"time":2},{"is_transit":false,"transit":false,"i_lat":-6.160725,"i_long":106.827103,"time":2,"distance":906,"station_id":"SW","line":2,"station_name":"Sawah Besar"},{"i_long":106.828284,"station_id":"JUA","is_transit":false,"transit":false,"i_lat":-6.166716,"distance":1149,"station_name":"Juanda","time":2,"line":2},{"i_long":106.832183,"transit":false,"station_name":"Gondangdia","time":4,"distance":2015,"station_id":"GDD","i_lat":-6.186295,"is_transit":false,"line":2},{"line":2,"transit":false,"station_id":"CKI","i_long":106.840169,"is_transit":false,"i_lat":-6.198556,"time":3,"station_name":"Cikini","distance":1750},{"line":2,"i_lat":-6.209883,"is_transit":false,"i_long":106.84912,"time":4,"distance":1590,"station_name":"Manggarai","transit":false,"station_id":"MRI"},{"time":4,"station_name":"Tebet","i_lat":-6.226659,"is_transit":false,"distance":2610,"transit":false,"i_long":106.857948,"line":2,"station_id":"TEB"},{"time":2,"station_id":"CW","i_long":106.856607,"line":2,"is_transit":false,"i_lat":-6.242512,"station_name":"Cawang","distance":1230,"transit":false},{"distance":1546,"i_long":106.85449,"time":3,"transit":false,"station_id":"DRN","i_lat":-6.255332,"line":2,"is_transit":false,"station_name":"Duren Kalibata"}],[{"is_transit":false,"station_name":"Serpong","distance":0,"time":0,"i_lat":-6.319871,"i_long":106.66566,"station_id":"SRP","transit":false,"line":6},{"transit":false,"station_name":"Rawa Buntu","i_long":106.675475,"time":4,"line":6,"station_id":"RU","distance":2413,"i_lat":-6.314823,"is_transit":false},{"line":6,"station_id":"SDM","is_transit":false,"time":6,"distance":4566,"transit":false,"i_lat":-6.296963,"i_long":106.712277,"station_name":"Sudimara"},{"distance":1994,"is_transit":false,"station_id":"JMU","i_lat":-6.288927,"line":6,"station_name":"Jurangmangu","i_long":106.728916,"time":4,"transit":false},{"i_long":106.74273,"line":6,"time":3,"station_name":"Pondokranji","is_transit":false,"distance":2179,"station_id":"PDJ","i_lat":-6.276362,"transit":false},{"transit":false,"i_long":106.780334,"station_name":"Kebayoran","i_lat":-6.237242,"is_transit":false,"station_id":"KBY","line":6,"distance":6218,"time":8},{"is_transit":false,"i_lat":-6.207404,"station_name":"Palmerah","distance":3737,"time":7,"i_long":106.79689,"line":6,"transit":false,"station_id":"PLM"},{"i_lat":-6.185545,"time":6,"line":1,"is_transit":true,"station_name":"Tanah Abang","station_id":"THB","distance":3191,"i_long":106.811091,"transit":true},{"station_name":"Duri","i_long":106.800832,"transit":false,"line":1,"station_id":"DU","i_lat":-6.155215,"distance":3632,"time":8,"is_transit":false},{"time":4,"i_lat":-6.144674,"line":1,"station_name":"Angke","i_long":106.79867,"distance":1230,"transit":false,"is_transit":false,"station_id":"AK"},{"station_name":"Kampung Bandan","is_transit":true,"time":9,"distance":4102,"i_lat":-6.132549,"line":4,"i_long":106.826365,"station_id":"KPB","transit":true},{"time":3,"i_lat":-6.14505,"station_name":"Rajawali","station_id":"RJW","is_transit":false,"i_long":106.836569,"line":11,"distance":1444,"transit":false},{"i_lat":-6.161728,"transit":false,"station_id":"KMO","is_transit":false,"station_name":"Kemayoran","i_long":106.839204,"time":5,"distance":1901,"line":11},{"time":4,"station_id":"PSE","is_transit":false,"station_name":"Pasar Senen","i_lat":-6.174784,"i_long":106.84368,"transit":false,"line":11,"distance":1436},{"station_id":"GST","distance":1567,"line":11,"time":8,"is_transit":false,"i_lat":-6.185975,"station_name":"Gang Sentiong","i_long":106.850107,"transit":false},{"line":11,"station_id":"KMT","time":1,"distance":973,"i_long":106.855437,"is_transit":false,"station_name":"Kramat","i_lat":-6.193792,"transit":false},{"station_id":"POK","i_long":106.861737,"is_transit":false,"line":11,"i_lat":-6.209188,"transit":false,"station_name":"Pondok Jati","time":2,"distance":1829},{"station_name":"Jatinegara","is_transit":true,"transit":true,"line":1,"i_lat":-6.215091,"time":9,"distance":1236,"i_long":106.86807400000001,"station_id":"JNG"},{"transit":false,"station_name":"Matraman","is_transit":false,"distance":1377,"station_id":"MTR","i_lat":-6.212485,"i_long":106.858896,"time":2,"line":1},{"is_transit":true,"i_lat":-6.209883,"time":2,"i_long":106.84912,"station_name":"Manggarai","transit":true,"line":2,"station_id":"MRI","distance":1275},{"i_lat":-6.226659,"station_id":"TEB","distance":2610,"time":4,"transit":false,"is_transit":false,"station_name":"Tebet","i_long":106.857948,"line":2},{"time":2,"transit":false,"is_transit":false,"station_id":"CW","i_lat":-6.242512,"i_long":106.856607,"line":2,"distance":1230,"station_name":"Cawang"},{"time":3,"is_transit":false,"transit":false,"station_name":"Duren Kalibata","i_long":106.85449,"station_id":"DRN","i_lat":-6.255332,"line":2,"distance":1546}]]}