{"data":[[{"station_id":"SRP","i_long":106.66566,"transit":false,"is_transit":false,"time":0,"station_name":"Serpong","distance":0,"i_lat":-6.319871,"line":6},{"i_long":106.675475,"station_id":"RU","distance":2413,"is_transit":false,"station_name":"Rawa Buntu","time":4,"line":6,"i_lat":-6.314823,"transit":false},{"is_transit":false,"distance":4566,"time":6,"i_lat":-6.296963,"line":6,"station_name":"Sudimara","i_long":106.712277,"station_id":"SDM","transit":false},{"station_id":"JMU","time":4,"is_transit":false,"transit":false,"i_long":106.728916,"line":6,"distance":1994,"station_name":"Jurangmangu","i_lat":-6.288927},{"transit":false,"time":3,"i_long":106.74273,"i_lat":-6.276362,"station_id":"PDJ","line":6,"station_name":"Pondokranji","is_transit":false,"distance":2179},{"transit":false,"line":6,"station_id":"KBY","i_long":106.780334,"i_lat":-6.237242,"time":8,"is_transit":false,"distance":6218,"station_name":"Kebayoran"},{"station_id":"PLM","is_transit":false,"i_long":106.79689,"transit":false,"distance":3737,"line":6,"time":7,"station_name":"Palmerah","i_lat":-6.207404},{"distance":3191,"i_long":106.811091,"time":6,"transit":true,"station_name":"Tanah Abang","is_transit":true,"station_id":"THB","i_lat":-6.185545,"line":1},{"is_transit":false,"i_long":106.800832,"line":1,"transit":false,"station_id":"DU","station_name":"Duri","distance":3632,"time":8,"i_lat":-6.155215},{"distance":1230,"i_long":106.79867,"line":1,"i_lat":-6.144674,"is_transit":false,"station_name":"Angke","station_id":"AK","time":4,"transit":false},{"transit":true,"station_name":"Kampung Bandan","is_transit":true,"distance":4102,"i_lat":-6.132549,"i_long":106.826365,"line":4,"time":9,"station_id":"KPB"},{"i_long":106.812439,"is_transit":false,"transit":false,"time":3,"distance":1364,"i_lat":-6.137569,"line":2,"station_name":"Jakarta Kota","station_id":"JAKK"}],[{"is_transit":false,"i_lat":-6.319871,"station_id":"SRP","station_name":"Serpong","distance":0,"time":0,"i_long":106.66566,"line":6,"transit":false},{"station_id":"RU","time":4,"i_lat":-6.314823,"line":6,"is_transit":false,"station_name":"Rawa Buntu","i_long":106.675475,"distance":2413,"transit":false},{"line":6,"is_transit":false,"distance":4566,"transit":false,"station_name":"Sudimara","station_id":"SDM","i_lat":-6.296963,"i_long":106.712277,"time":6},{"transit":false,"i_lat":-6.288927,"distance":1994,"i_long":106.728916,"station_id":"JMU","line":6,"time":4,"station_name":"Jurangmangu","is_transit":false},{"distance":2179,"i_lat":-6.276362,"is_transit":false,"station_id":"PDJ","i_long":106.74273,"line":6,"time":3,"station_name":"Pondokranji","transit":false},{"i_lat":-6.237242,"is_transit":false,"station_name":"Kebayoran","transit":false,"i_long":106.780334,"line":6,"time":8,"distance":6218,"station_id":"KBY"},{"i_lat":-6.207404,"line":6,"time":7,"transit":false,"i_long":106.79689,"station_name":"Palmerah","station_id":"PLM","is_transit":false,"distance":3737},{"distance":3191,"is_transit":true,"i_lat":-6.185545,"time":6,"line":1,"station_name":"Tanah Abang","station_id":"THB","transit":true,"i_long":106.811091},{"transit":false,"line":1,"distance":2029,"station_id":"KAT","is_transit":false,"station_name":"Karet","time":5,"i_lat":-6.20132,"i_long":106.816351},{"station_name":"Sudirman Baru","time":1,"i_long":106.819881,"distance":471,"is_transit":false,"i_lat":-6.201433,"line":1,"station_id":"SUDB","transit":false},{"i_lat":-6.202263,"is_transit":false,"station_id":"SUD","line":1,"time":1,"station_name":"Sudirman","i_long":106.822649,"transit":false,"distance":280},{"i_lat":-6.209883,"line":2,"distance":3186,"transit":true,"time":4,"station_id":"MRI","is_transit":true,"i_long":106.84912,"station_name":"Manggarai"},{"transit":false,"i_long":106.840169,"station_name":"Cikini","distance":1590,"time":4,"i_lat":-6.198556,"station_id":"CKI","line":2,"is_transit":false},{"distance":1750,"line":2,"station_name":"Gondangdia","time":3,"transit":false,"is_transit":false,"i_lat":-6.186295,"i_long":106.832183,"station_id":"GDD"},{"i_long":106.828284,"is_transit":false,"i_lat":-6.166716,"transit":false,"time":4,"station_name":"Juanda","station_id":"JUA","distance":2015,"line":2},{"station_id":"SW","station_name":"Sawah Besar","line":2,"transit":false,"i_long":106.827103,"is_transit":false,"distance":1149,"time":2,"i_lat":-6.160725},{"time":2,"transit":false,"i_lat":-6.149769,"station_id":"MGB","distance":906,"i_long":106.82482,"line":2,"station_name":"Manggabesar","is_transit":false},{"station_id":"JAY","i_long":106.820901,"distance":1080,"line":2,"transit":false,"station_name":"Jayakarta","time":2,"i_lat":-6.141205,"is_transit":false},{"i_long":106.812439,"distance":1264,"is_transit":false,"station_id":"JAKK","transit":false,"line":2,"station_name":"Jakarta Kota","time":4,"i_lat":-6.137569}],[{"distance":0,"i_long":106.66566,"transit":false,"line":6,"time":0,"station_name":"Serpong","i_lat":-6.319871,"is_transit":false,"station_id":"SRP"},{"station_id":"RU","i_lat":-6.314823,"line":6,"distance":2413,"is_transit":false,"transit":false,"station_name":"Rawa Buntu","time":4,"i_long":106.675475},{"transit":false,"is_transit":false,"i_long":106.712277,"distance":4566,"station_id":"SDM","station_name":"Sudimara","i_lat":-6.296963,"time":6,"line":6},{"line":6,"i_long":106.728916,"i_lat":-6.288927,"station_name":"Jurangmangu","station_id":"JMU","transit":false,"is_transit":false,"distance":1994,"time":4},{"station_id":"PDJ","i_long":106.74273,"transit":false,"is_transit":false,"time":3,"i_lat":-6.276362,"station_name":"Pondokranji","distance":2179,"line":6},{"line":6,"is_transit":false,"station_name":"Kebayoran","transit":false,"i_long":106.780334,"time":8,"station_id":"KBY","distance":6218,"i_lat":-6.237242},{"i_lat":-6.207404,"line":6,"is_transit":false,"station_id":"PLM","time":7,"transit":false,"i_long":106.79689,"station_name":"Palmerah","distance":3737},{"is_transit":true,"transit":true,"time":6,"station_name":"Tanah Abang","station_id":"THB","distance":3191,"i_lat":-6.185545,"i_long":106.811091,"line":1},{"time":5,"i_lat":-6.20132,"line":1,"i_long":106.816351,"transit":false,"is_transit":false,"station_name":"Karet","distance":2029,"station_id":"KAT"},{"line":1,"is_transit":false,"time":1,"station_id":"SUDB","station_name":"Sudirman Baru","distance":471,"transit":false,"i_lat":-6.201433,"i_long":106.819881},{"time":1,"transit":false,"line":1,"i_lat":-6.202263,"station_id":"SUD","i_long":106.822649,"distance":280,"is_transit":false,"station_name":"Sudirman"},{"station_name":"Manggarai","distance":3186,"time":4,"line":2,"is_transit":false,"transit":false,"station_id":"MRI","i_lat":-6.209883,"i_long":106.84912},{"is_transit":false,"transit":false,"line":1,"station_name":"Matraman","distance":1275,"i_long":106.858896,"i_lat":-6.212485,"time":2,"station_id":"MTR"},{"distance":1377,"transit":true,"station_name":"Jatinegara","line":1,"is_transit":true,"i_long":106.86807400000001,"station_id":"JNG","i_lat":-6.215091,"time":8},{"i_lat":-6.209188,"is_transit":false,"i_long":106.861737,"line":11,"station_name":"Pondok Jati","transit":false,"time":2,"station_id":"POK","distance":1236},{"transit":false,"is_transit":false,"time":2,"i_long":106.855437,"station_name":"Kramat","station_id":"KMT","line":11,"i_lat":-6.193792,"distance":1829},{"station_name":"Gang Sentiong","time":1,"line":11,"distance":973,"station_id":"GST","i_long":106.850107,"is_transit":false,"i_lat":-6.185975,"transit":false},{"station_id":"PSE","time":8,"is_transit":false,"line":11,"station_name":"Pasar Senen","i_lat":-6.174784,"distance":1567,"i_long":106.84368,"transit":false},{"time":4,"i_lat":-6.161728,"station_id":"KMO","i_long":106.839204,"station_name":"Kemayoran","transit":false,"is_transit":false,"distance":1436,"line":11},{"distance":1901,"transit":false,"station_name":"Rajawali","is_transit":false,"time":5,"line":11,"station_id":"RJW","i_long":106.836569,"i_lat":-6.14505},{"distance":1444,"i_long":106.826365,"transit":true,"time":3,"station_name":"Kampung Bandan","is_transit":true,"line":4,"station_id":"KPB","i_lat":-6.132549},{"i_long":106.812439,"is_transit":false,"distance":1364,"transit":false,"station_name":"Jakarta Kota","i_lat":-6.137569,"line":2,"station_id":"JAKK","time":3}],[{"is_transit":false,"line":6,"i_lat":-6.319871,"distance":0,"i_long":106.66566,"station_name":"Serpong","time":0,"transit":false,"station_id":"SRP"},{"i_lat":-6.314823,"station_name":"Rawa Buntu","is_transit":false,"station_id":"RU","i_long":106.675475,"line":6,"transit":false,"time":4,"distance":2413},{"station_name":"Sudimara","i_lat":-6.296963,"i_long":106.712277,"transit":false,"distance":4566,"is_transit":false,"station_id":"SDM","line":6,"time":6},{"is_transit":false,"station_id":"JMU","time":4,"i_lat":-6.288927,"i_long":106.728916,"transit":false,"distance":1994,"line":6,"station_name":"Jurangmangu"},{"line":6,"station_name":"Pondokranji","distance":2179,"is_transit":false,"station_id":"PDJ","transit":false,"time":3,"i_lat":-6.276362,"i_long":106.74273},{"station_id":"KBY","station_name":"Kebayoran","is_transit":false,"i_lat":-6.237242,"transit":false,"distance":6218,"line":6,"time":8,"i_long":106.780334},{"time":7,"distance":3737,"i_lat":-6.207404,"i_long":106.79689,"is_transit":false,"line":6,"station_id":"PLM","station_name":"Palmerah","transit":false},{"distance":3191,"station_id":"THB","station_name":"Tanah Abang","is_transit":true,"i_lat":-6.185545,"i_long":106.811091,"line":1,"transit":true,"time":6},{"i_lat":-6.155215,"distance":3632,"station_id":"DU","is_transit":false,"transit":false,"station_name":"Duri","i_long":106.800832,"line":1,"time":8},{"distance":1230,"is_transit":false,"i_lat":-6.144674,"i_long":106.79867,"station_name":"Angke","transit":false,"time":4,"line":1,"station_id":"AK"},{"station_name":"Kampung Bandan","is_transit":true,"transit":true,"station_id":"KPB","time":9,"i_lat":-6.132549,"i_long":106.826365,"line":4,"distance":4102},{"station_id":"RJW","i_long":106.836569,"time":3,"i_lat":-6.14505,"transit":false,"is_transit":false,"line":11,"distance":1444,"station_name":"Rajawali"},{"time":5,"i_long":106.839204,"line":11,"station_name":"Kemayoran","transit":false,"station_id":"KMO","is_transit":false,"i_lat":-6.161728,"distance":1901},{"time":4,"i_lat":-6.174784,"line":11,"station_name":"Pasar Senen","station_id":"PSE","transit":false,"is_transit":false,"distance":1436,"i_long":106.84368},{"time":8,"line":11,"station_name":"Gang Sentiong","station_id":"GST","distance":1567,"i_lat":-6.185975,"i_long":106.850107,"transit":false,"is_transit":false},{"i_long":106.855437,"transit":false,"i_lat":-6.193792,"station_name":"Kramat","station_id":"KMT","line":11,"time":1,"is_transit":false,"distance":973},{"distance":1829,"i_long":106.861737,"line":11,"station_name":"Pondok Jati","is_transit":false,"i_lat":-6.209188,"transit":false,"station_id":"POK","time":2},{"transit":true,"i_lat":-6.215091,"station_id":"JNG","time":9,"line":1,"is_transit":true,"i_long":106.86807400000001,"station_name":"Jatinegara","distance":1236},{"is_transit":false,"i_long":106.858896,"station_name":"Matraman","transit":false,"time":2,"i_lat":-6.212485,"line":1,"distance":1377,"station_id":"MTR"},{"is_transit":true,"distance":1275,"transit":true,"time":2,"station_name":"Manggarai","station_id":"MRI","i_lat":-6.209883,"i_long":106.84912,"line":2},{"time":4,"i_lat":-6.198556,"station_name":"Cikini","line":2,"station_id":"CKI","transit":false,"is_transit":false,"distance":1590,"i_long":106.840169},{"is_transit":false,"i_lat":-6.186295,"distance":1750,"time":3,"i_long":106.832183,"transit":false,"station_name":"Gondangdia","line":2,"station_id":"GDD"},{"line":2,"transit":false,"is_transit":false,"time":4,"station_id":"JUA","station_name":"Juanda","distance":2015,"i_lat":-6.166716,"i_long":106.828284},{"station_id":"SW","i_long":106.827103,"line":2,"i_lat":-6.160725,"transit":false,"station_name":"Sawah Besar","is_transit":false,"time":2,"distance":1149},{"i_lat":-6.149769,"time":2,"is_transit":false,"transit":false,"station_name":"Manggabesar","i_long":106.82482,"station_id":"MGB","distance":906,"line":2},{"line":2,"station_name":"Jayakarta","distance":1080,"i_lat":-6.141205,"i_long":106.820901,"station_id":"JAY","is_transit":false,"time":2,"transit":false},{"station_name":"Jakarta Kota","distance":1264,"time":4,"station_id":"JAKK","i_long":106.812439,"transit":false,"i_lat":-6.137569,"line":2,"is_transit":false}]]}