{"data":[[{"station_name":"Serpong","line":6,"is_transit":false,"station_id":"SRP","i_lat":-6.319871,"i_long":106.66566,"transit":false,"time":0,"distance":0},{"transit":false,"station_id":"RU","station_name":"Rawa Buntu","i_long":106.675475,"i_lat":-6.314823,"line":6,"is_transit":false,"distance":2413,"time":4},{"is_transit":false,"line":6,"station_id":"SDM","transit":false,"i_long":106.712277,"distance":4566,"station_name":"Sudimara","i_lat":-6.296963,"time":6},{"station_id":"JMU","time":4,"is_transit":false,"transit":false,"line":6,"i_long":106.728916,"station_name":"Jurangmangu","distance":1994,"i_lat":-6.288927},{"station_id":"PDJ","is_transit":false,"distance":2179,"time":3,"i_lat":-6.276362,"i_long":106.74273,"line":6,"station_name":"Pondokranji","transit":false},{"is_transit":false,"i_lat":-6.237242,"time":8,"transit":false,"line":6,"distance":6218,"station_id":"KBY","i_long":106.780334,"station_name":"Kebayoran"},{"i_long":106.79689,"distance":3737,"is_transit":false,"i_lat":-6.207404,"line":6,"station_id":"PLM","station_name":"Palmerah","transit":false,"time":7},{"i_lat":-6.185545,"distance":3191,"station_name":"Tanah Abang","line":1,"transit":true,"is_transit":true,"i_long":106.811091,"time":6,"station_id":"THB"},{"distance":2029,"transit":false,"i_lat":-6.20132,"line":1,"station_name":"Karet","station_id":"KAT","is_transit":false,"i_long":106.816351,"time":5},{"is_transit":false,"station_id":"SUDB","distance":471,"transit":false,"time":1,"i_lat":-6.201433,"station_name":"Sudirman Baru","i_long":106.819881,"line":1},{"line":1,"transit":false,"station_name":"Sudirman","is_transit":false,"station_id":"SUD","distance":280,"i_long":106.822649,"time":1,"i_lat":-6.202263},{"i_long":106.84912,"station_id":"MRI","is_transit":true,"station_name":"Manggarai","transit":true,"i_lat":-6.209883,"line":2,"time":4,"distance":3186},{"line":2,"i_long":106.857948,"distance":2610,"station_name":"Tebet","station_id":"TEB","is_transit":false,"i_lat":-6.226659,"transit":false,"time":4},{"is_transit":false,"distance":1230,"i_long":106.856607,"station_name":"Cawang","i_lat":-6.242512,"transit":false,"time":2,"line":2,"station_id":"CW"},{"is_transit":false,"transit":false,"i_lat":-6.255332,"station_name":"Duren Kalibata","i_long":106.85449,"line":2,"time":3,"distance":1546,"station_id":"DRN"},{"time":2,"transit":false,"line":2,"is_transit":false,"i_lat":-6.263214,"station_name":"Pasar Minggu Baru","distance":824,"i_long":106.851577,"station_id":"PSMB"},{"station_id":"PSM","transit":false,"i_lat":-6.2842400000000005,"station_name":"Pasar Minggu","time":2,"is_transit":false,"distance":2380,"line":2,"i_long":106.843999},{"transit":false,"i_lat":-6.3080680000000005,"line":2,"time":4,"station_name":"Tanjung Barat","station_id":"TNT","distance":2820,"is_transit":false,"i_long":106.838896},{"distance":2671,"station_id":"LNA","i_long":106.832616,"station_name":"Lenteng Agung","time":3,"line":2,"i_lat":-6.330363,"is_transit":false,"transit":false},{"distance":1029,"time":2,"station_id":"UP","is_transit":false,"i_lat":-6.339291,"i_long":106.834175,"station_name":"Univ. Pancasila","line":2,"transit":false},{"station_name":"Univ. Indonesia","station_id":"UI","i_lat":-6.360749,"i_long":106.831474,"line":2,"time":3,"transit":false,"distance":2264,"is_transit":false},{"station_name":"Pondok Cina","distance":1109,"transit":false,"i_lat":-6.369073,"is_transit":false,"line":2,"station_id":"POC","i_long":106.831114,"time":2},{"station_name":"Depokbaru","distance":2727,"line":2,"is_transit":false,"time":4,"i_long":106.819451,"transit":false,"i_lat":-6.391065,"station_id":"DPB"},{"line":2,"i_lat":-6.405256,"time":3,"station_id":"DP","station_name":"Depok","distance":1584,"is_transit":false,"transit":false,"i_long":106.816926},{"time":6,"i_lat":-6.448811,"line":2,"station_id":"CTA","i_long":106.800298,"transit":true,"is_transit":true,"station_name":"Citayam","distance":5084},{"time":0,"station_name":"Pondok Rajeg","line":21,"is_transit":false,"transit":false,"distance":0,"i_lat":-6.460735,"station_id":"PDRG","i_long":106.824374},{"is_transit":false,"station_name":"Cibinong","time":0,"i_long":106.851978,"line":21,"distance":0,"transit":false,"station_id":"CBN","i_lat":-6.46424},{"distance":6527,"is_transit":false,"line":21,"station_name":"Nambo","station_id":"NMO","i_lat":-6.466285,"time":10,"i_long":106.905196,"transit":false}],[{"is_transit":false,"transit":false,"distance":0,"station_id":"SRP","station_name":"Serpong","time":0,"i_lat":-6.319871,"i_long":106.66566,"line":6},{"is_transit":false,"line":6,"station_id":"RU","time":4,"i_lat":-6.314823,"station_name":"Rawa Buntu","i_long":106.675475,"transit":false,"distance":2413},{"line":6,"station_id":"SDM","time":6,"i_lat":-6.296963,"station_name":"Sudimara","transit":false,"i_long":106.712277,"distance":4566,"is_transit":false},{"station_name":"Jurangmangu","transit":false,"time":4,"i_lat":-6.288927,"line":6,"station_id":"JMU","distance":1994,"i_long":106.728916,"is_transit":false},{"i_long":106.74273,"station_name":"Pondokranji","distance":2179,"is_transit":false,"i_lat":-6.276362,"line":6,"station_id":"PDJ","time":3,"transit":false},{"time":8,"i_long":106.780334,"station_name":"Kebayoran","is_transit":false,"transit":false,"distance":6218,"station_id":"KBY","i_lat":-6.237242,"line":6},{"i_long":106.79689,"line":6,"station_name":"Palmerah","transit":false,"is_transit":false,"station_id":"PLM","i_lat":-6.207404,"time":7,"distance":3737},{"distance":3191,"station_id":"THB","transit":true,"i_long":106.811091,"is_transit":true,"i_lat":-6.185545,"time":6,"station_name":"Tanah Abang","line":1},{"time":8,"distance":3632,"line":1,"station_name":"Duri","transit":false,"i_lat":-6.155215,"i_long":106.800832,"station_id":"DU","is_transit":false},{"line":1,"station_name":"Angke","distance":1230,"station_id":"AK","i_lat":-6.144674,"is_transit":false,"time":4,"i_long":106.79867,"transit":false},{"station_id":"KPB","is_transit":true,"i_long":106.826365,"i_lat":-6.132549,"transit":true,"line":4,"time":9,"station_name":"Kampung Bandan","distance":4102},{"station_name":"Jakarta Kota","i_lat":-6.137569,"i_long":106.812439,"transit":true,"time":3,"is_transit":true,"distance":1364,"line":2,"station_id":"JAKK"},{"transit":false,"station_name":"Jayakarta","i_lat":-6.141205,"time":4,"distance":1264,"is_transit":false,"line":2,"station_id":"JAY","i_long":106.820901},{"i_lat":-6.149769,"i_long":106.82482,"station_id":"MGB","line":2,"is_transit":false,"transit":false,"station_name":"Manggabesar","distance":1080,"time":2},{"time":2,"station_id":"SW","distance":906,"is_transit":false,"line":2,"transit":false,"i_lat":-6.160725,"i_long":106.827103,"station_name":"Sawah Besar"},{"station_id":"JUA","line":2,"time":2,"transit":false,"distance":1149,"i_long":106.828284,"is_transit":false,"station_name":"Juanda","i_lat":-6.166716},{"time":4,"is_transit":false,"distance":2015,"i_lat":-6.186295,"i_long":106.832183,"line":2,"transit":false,"station_name":"Gondangdia","station_id":"GDD"},{"time":3,"station_id":"CKI","i_lat":-6.198556,"i_long":106.840169,"station_name":"Cikini","is_transit":false,"transit":false,"distance":1750,"line":2},{"is_transit":false,"station_name":"Manggarai","time":4,"i_lat":-6.209883,"i_long":106.84912,"station_id":"MRI","line":2,"transit":false,"distance":1590},{"station_id":"TEB","i_long":106.857948,"station_name":"Tebet","transit":false,"distance":2610,"is_transit":false,"line":2,"time":4,"i_lat":-6.226659},{"transit":false,"station_id":"CW","distance":1230,"time":2,"i_lat":-6.242512,"is_transit":false,"station_name":"Cawang","i_long":106.856607,"line":2},{"time":3,"transit":false,"is_transit":false,"station_name":"Duren Kalibata","i_long":106.85449,"i_lat":-6.255332,"distance":1546,"line":2,"station_id":"DRN"},{"station_id":"PSMB","distance":824,"i_lat":-6.263214,"is_transit":false,"station_name":"Pasar Minggu Baru","line":2,"i_long":106.851577,"transit":false,"time":2},{"time":2,"distance":2380,"line":2,"station_id":"PSM","is_transit":false,"station_name":"Pasar Minggu","i_lat":-6.2842400000000005,"transit":false,"i_long":106.843999},{"is_transit":false,"station_id":"TNT","i_lat":-6.3080680000000005,"station_name":"Tanjung Barat","distance":2820,"time":4,"i_long":106.838896,"line":2,"transit":false},{"is_transit":false,"station_name":"Lenteng Agung","distance":2671,"i_long":106.832616,"i_lat":-6.330363,"time":3,"line":2,"transit":false,"station_id":"LNA"},{"time":2,"station_name":"Univ. Pancasila","line":2,"i_lat":-6.339291,"transit":false,"station_id":"UP","is_transit":false,"distance":1029,"i_long":106.834175},{"i_lat":-6.360749,"line":2,"is_transit":false,"i_long":106.831474,"time":3,"transit":false,"distance":2264,"station_name":"Univ. Indonesia","station_id":"UI"},{"transit":false,"distance":1109,"line":2,"station_name":"Pondok Cina","time":2,"is_transit":false,"station_id":"POC","i_lat":-6.369073,"i_long":106.831114},{"time":4,"transit":false,"i_lat":-6.391065,"is_transit":false,"station_id":"DPB","distance":2727,"i_long":106.819451,"station_name":"Depokbaru","line":2},{"station_id":"DP","i_lat":-6.405256,"line":2,"i_long":106.816926,"transit":false,"is_transit":false,"station_name":"Depok","distance":1584,"time":3},{"distance":5084,"time":6,"transit":true,"is_transit":true,"station_id":"CTA","line":2,"station_name":"Citayam","i_lat":-6.448811,"i_long":106.800298},{"i_long":106.824374,"transit":false,"station_id":"PDRG","is_transit":false,"distance":0,"line":21,"station_name":"Pondok Rajeg","time":0,"i_lat":-6.460735},{"station_name":"Cibinong","station_id":"CBN","i_lat":-6.46424,"is_transit":false,"transit":false,"time":0,"distance":0,"line":21,"i_long":106.851978},{"time":10,"is_transit":false,"distance":6527,"transit":false,"station_name":"Nambo","i_lat":-6.466285,"station_id":"NMO","line":21,"i_long":106.905196}],[{"transit":false,"station_id":"SRP","is_transit":false,"distance":0,"i_long":106.66566,"line":6,"station_name":"Serpong","time":0,"i_lat":-6.319871},{"time":4,"i_lat":-6.314823,"station_id":"RU","transit":false,"is_transit":false,"station_name":"Rawa Buntu","line":6,"distance":2413,"i_long":106.675475},{"station_name":"Sudimara","is_transit":false,"line":6,"station_id":"SDM","time":6,"transit":false,"i_long":106.712277,"i_lat":-6.296963,"distance":4566},{"transit":false,"i_long":106.728916,"station_id":"JMU","line":6,"distance":1994,"i_lat":-6.288927,"is_transit":false,"station_name":"Jurangmangu","time":4},{"distance":2179,"station_id":"PDJ","i_long":106.74273,"i_lat":-6.276362,"transit":false,"time":3,"line":6,"station_name":"Pondokranji","is_transit":false},{"time":8,"transit":false,"i_lat":-6.237242,"line":6,"station_id":"KBY","is_transit":false,"station_name":"Kebayoran","i_long":106.780334,"distance":6218},{"i_long":106.79689,"transit":false,"is_transit":false,"time":7,"station_name":"Palmerah","station_id":"PLM","distance":3737,"line":6,"i_lat":-6.207404},{"station_name":"Tanah Abang","i_lat":-6.185545,"i_long":106.811091,"time":6,"station_id":"THB","line":1,"distance":3191,"is_transit":true,"transit":true},{"i_long":106.800832,"time":8,"line":1,"transit":false,"station_id":"DU","is_transit":false,"distance":3632,"i_lat":-6.155215,"station_name":"Duri"},{"transit":false,"time":4,"line":1,"station_name":"Angke","is_transit":false,"distance":1230,"i_long":106.79867,"i_lat":-6.144674,"station_id":"AK"},{"distance":4102,"is_transit":true,"line":4,"station_id":"KPB","i_lat":-6.132549,"i_long":106.826365,"station_name":"Kampung Bandan","transit":true,"time":9},{"time":3,"station_id":"RJW","distance":1444,"i_long":106.836569,"line":11,"i_lat":-6.14505,"is_transit":false,"transit":false,"station_name":"Rajawali"},{"distance":1901,"transit":false,"station_id":"KMO","is_transit":false,"line":11,"i_long":106.839204,"i_lat":-6.161728,"time":5,"station_name":"Kemayoran"},{"i_long":106.84368,"is_transit":false,"station_id":"PSE","distance":1436,"line":11,"station_name":"Pasar Senen","time":4,"transit":false,"i_lat":-6.174784},{"i_lat":-6.185975,"station_name":"Gang Sentiong","transit":false,"is_transit":false,"station_id":"GST","distance":1567,"i_long":106.850107,"time":8,"line":11},{"i_long":106.855437,"time":1,"station_name":"Kramat","is_transit":false,"transit":false,"distance":973,"i_lat":-6.193792,"line":11,"station_id":"KMT"},{"line":11,"station_name":"Pondok Jati","time":2,"station_id":"POK","distance":1829,"i_long":106.861737,"is_transit":false,"transit":false,"i_lat":-6.209188},{"station_name":"Jatinegara","transit":true,"station_id":"JNG","distance":1236,"time":9,"i_lat":-6.215091,"line":1,"i_long":106.86807400000001,"is_transit":true},{"is_transit":false,"distance":1377,"station_id":"MTR","line":1,"time":2,"station_name":"Matraman","i_lat":-6.212485,"i_long":106.858896,"transit":false},{"transit":true,"is_transit":true,"station_name":"Manggarai","distance":1275,"station_id":"MRI","i_long":106.84912,"line":2,"i_lat":-6.209883,"time":2},{"transit":false,"station_id":"TEB","is_transit":false,"i_lat":-6.226659,"i_long":106.857948,"line":2,"station_name":"Tebet","time":4,"distance":2610},{"station_id":"CW","line":2,"station_name":"Cawang","distance":1230,"is_transit":false,"time":2,"i_long":106.856607,"transit":false,"i_lat":-6.242512},{"transit":false,"station_name":"Duren Kalibata","distance":1546,"line":2,"is_transit":false,"i_long":106.85449,"i_lat":-6.255332,"time":3,"station_id":"DRN"},{"distance":824,"time":2,"station_id":"PSMB","is_transit":false,"i_lat":-6.263214,"station_name":"Pasar Minggu Baru","transit":false,"i_long":106.851577,"line":2},{"i_long":106.843999,"i_lat":-6.2842400000000005,"line":2,"station_id":"PSM","station_name":"Pasar Minggu","is_transit":false,"time":2,"distance":2380,"transit":false},{"i_lat":-6.3080680000000005,"line":2,"is_transit":false,"i_long":106.838896,"station_name":"Tanjung Barat","time":4,"station_id":"TNT","transit":false,"distance":2820},{"station_name":"Lenteng Agung","is_transit":false,"i_long":106.832616,"line":2,"time":3,"distance":2671,"transit":false,"i_lat":-6.330363,"station_id":"LNA"},{"i_lat":-6.339291,"transit":false,"is_transit":false,"i_long":106.834175,"station_name":"Univ. Pancasila","station_id":"UP","distance":1029,"time":2,"line":2},{"distance":2264,"station_name":"Univ. Indonesia","i_long":106.831474,"time":3,"i_lat":-6.360749,"transit":false,"line":2,"station_id":"UI","is_transit":false},{"time":2,"line":2,"is_transit":false,"i_lat":-6.369073,"distance":1109,"station_id":"POC","i_long":106.831114,"transit":false,"station_name":"Pondok Cina"},{"station_name":"Depokbaru","i_lat":-6.391065,"time":4,"is_transit":false,"transit":false,"line":2,"station_id":"DPB","i_long":106.819451,"distance":2727},{"i_lat":-6.405256,"station_name":"Depok","is_transit":false,"distance":1584,"time":3,"station_id":"DP","i_long":106.816926,"transit":false,"line":2},{"time":6,"distance":5084,"transit":true,"is_transit":true,"station_id":"CTA","i_lat":-6.448811,"line":2,"station_name":"Citayam","i_long":106.800298},{"i_lat":-6.460735,"transit":false,"station_name":"Pondok Rajeg","station_id":"PDRG","distance":0,"line":21,"time":0,"is_transit":false,"i_long":106.824374},{"station_id":"CBN","i_lat":-6.46424,"line":21,"station_name":"Cibinong","transit":false,"time":0,"i_long":106.851978,"is_transit":false,"distance":0},{"i_long":106.905196,"station_id":"NMO","is_transit":false,"station_name":"Nambo","line":21,"distance":6527,"transit":false,"time":10,"i_lat":-6.466285}]]}