{"data":[[{"i_long":106.66566,"line":6,"distance":0,"time":0,"station_id":"SRP","is_transit":false,"transit":false,"station_name":"Serpong","i_lat":-6.319871},{"i_lat":-6.314823,"is_transit":false,"transit":false,"distance":2413,"station_name":"Rawa Buntu","time":4,"line":6,"i_long":106.675475,"station_id":"RU"},{"station_id":"SDM","station_name":"Sudimara","i_long":106.712277,"time":6,"transit":false,"is_transit":false,"line":6,"i_lat":-6.296963,"distance":4566},{"is_transit":false,"distance":1994,"time":4,"i_lat":-6.288927,"station_name":"Jurangmangu","i_long":106.728916,"station_id":"JMU","transit":false,"line":6},{"is_transit":false,"distance":2179,"time":3,"i_long":106.74273,"station_name":"Pondokranji","line":6,"station_id":"PDJ","transit":false,"i_lat":-6.276362},{"is_transit":false,"station_id":"KBY","station_name":"Kebayoran","distance":6218,"time":8,"i_long":106.780334,"line":6,"i_lat":-6.237242,"transit":false},{"i_long":106.79689,"is_transit":false,"transit":false,"i_lat":-6.207404,"time":7,"station_name":"Palmerah","station_id":"PLM","line":6,"distance":3737},{"time":6,"i_long":106.811091,"i_lat":-6.185545,"transit":true,"line":1,"distance":3191,"is_transit":true,"station_id":"THB","station_name":"Tanah Abang"},{"line":1,"station_name":"Duri","distance":3632,"station_id":"DU","time":8,"transit":true,"is_transit":true,"i_long":106.800832,"i_lat":-6.155215},{"station_id":"GGL","is_transit":false,"distance":1700,"transit":false,"time":3,"station_name":"Grogol","i_lat":-6.162021,"i_long":106.788277,"line":5},{"station_id":"PSG","i_lat":-6.161433,"transit":false,"distance":2036,"station_name":"Pesing","is_transit":false,"time":2,"i_long":106.771379,"line":5},{"station_id":"TKO","station_name":"Taman Kota","i_lat":-6.1587309999999995,"line":5,"is_transit":false,"transit":false,"i_long":106.756522,"distance":1614,"time":2},{"is_transit":false,"time":2,"line":5,"transit":false,"distance":2334,"i_long":106.737035,"i_lat":-6.159876,"station_name":"Bojongindah","station_id":"BOI"},{"line":5,"is_transit":false,"station_id":"RW","i_long":106.723064,"time":4,"transit":false,"distance":1152,"i_lat":-6.162758,"station_name":"Rawa Buaya"},{"distance":2504,"station_id":"KDS","time":3,"is_transit":false,"i_lat":-6.166068,"i_long":106.701612,"transit":false,"station_name":"Kalideres","line":5},{"transit":false,"i_lat":-6.169933,"i_long":106.679458,"time":3,"is_transit":false,"station_id":"PI","distance":2548,"station_name":"Poris","line":5},{"transit":false,"line":5,"time":3,"i_lat":-6.171811,"distance":1834,"station_name":"Batuceper","station_id":"BPR","is_transit":false,"i_long":106.665036},{"distance":2028,"transit":false,"is_transit":false,"i_long":106.64657,"i_lat":-6.17331,"time":3,"line":5,"station_id":"TTI","station_name":"Tanah Tinggi"}],[{"line":6,"is_transit":false,"station_id":"SRP","station_name":"Serpong","time":0,"i_lat":-6.319871,"distance":0,"i_long":106.66566,"transit":false},{"station_name":"Rawa Buntu","distance":2413,"i_lat":-6.314823,"station_id":"RU","is_transit":false,"time":4,"line":6,"transit":false,"i_long":106.675475},{"is_transit":false,"line":6,"i_long":106.712277,"transit":false,"station_id":"SDM","station_name":"Sudimara","time":6,"i_lat":-6.296963,"distance":4566},{"i_long":106.728916,"is_transit":false,"station_id":"JMU","i_lat":-6.288927,"transit":false,"station_name":"Jurangmangu","time":4,"line":6,"distance":1994},{"distance":2179,"transit":false,"station_name":"Pondokranji","station_id":"PDJ","time":3,"i_lat":-6.276362,"i_long":106.74273,"is_transit":false,"line":6},{"station_id":"KBY","i_long":106.780334,"line":6,"transit":false,"distance":6218,"station_name":"Kebayoran","is_transit":false,"time":8,"i_lat":-6.237242},{"is_transit":false,"i_lat":-6.207404,"station_id":"PLM","line":6,"station_name":"Palmerah","time":7,"distance":3737,"transit":false,"i_long":106.79689},{"is_transit":true,"station_id":"THB","transit":true,"line":1,"distance":3191,"time":6,"station_name":"Tanah Abang","i_lat":-6.185545,"i_long":106.811091},{"i_lat":-6.20132,"transit":false,"station_name":"Karet","time":5,"i_long":106.816351,"distance":2029,"line":1,"station_id":"KAT","is_transit":false},{"distance":471,"i_lat":-6.201433,"transit":false,"line":1,"i_long":106.819881,"station_name":"Sudirman Baru","is_transit":false,"time":1,"station_id":"SUDB"},{"i_lat":-6.202263,"station_name":"Sudirman","distance":280,"i_long":106.822649,"line":1,"station_id":"SUD","is_transit":false,"transit":false,"time":1},{"transit":true,"station_id":"MRI","i_lat":-6.209883,"station_name":"Manggarai","is_transit":true,"distance":3186,"time":4,"line":2,"i_long":106.84912},{"transit":false,"station_id":"CKI","station_name":"Cikini","time":4,"line":2,"is_transit":false,"i_lat":-6.198556,"i_long":106.840169,"distance":1590},{"station_id":"GDD","line":2,"time":3,"is_transit":false,"distance":1750,"i_long":106.832183,"station_name":"Gondangdia","transit":false,"i_lat":-6.186295},{"i_long":106.828284,"transit":false,"line":2,"is_transit":false,"i_lat":-6.166716,"time":4,"station_id":"JUA","distance":2015,"station_name":"Juanda"},{"time":2,"is_transit":false,"distance":1149,"i_lat":-6.160725,"station_id":"SW","transit":false,"i_long":106.827103,"station_name":"Sawah Besar","line":2},{"is_transit":false,"i_lat":-6.149769,"i_long":106.82482,"time":2,"station_name":"Manggabesar","transit":false,"distance":906,"station_id":"MGB","line":2},{"is_transit":false,"i_long":106.820901,"line":2,"i_lat":-6.141205,"time":2,"station_name":"Jayakarta","station_id":"JAY","distance":1080,"transit":false},{"station_name":"Jakarta Kota","station_id":"JAKK","i_lat":-6.137569,"is_transit":true,"time":4,"transit":true,"distance":1264,"line":2,"i_long":106.812439},{"station_id":"KPB","i_long":106.826365,"station_name":"Kampung Bandan","line":4,"time":3,"i_lat":-6.132549,"transit":true,"is_transit":true,"distance":1364},{"transit":false,"distance":4102,"is_transit":false,"i_lat":-6.144674,"station_name":"Angke","i_long":106.79867,"station_id":"AK","line":1,"time":9},{"is_transit":true,"distance":1230,"transit":true,"station_name":"Duri","line":1,"i_lat":-6.155215,"time":4,"i_long":106.800832,"station_id":"DU"},{"station_name":"Grogol","time":3,"distance":1700,"is_transit":false,"transit":false,"station_id":"GGL","line":5,"i_long":106.788277,"i_lat":-6.162021},{"time":2,"station_id":"PSG","distance":2036,"station_name":"Pesing","i_long":106.771379,"transit":false,"line":5,"is_transit":false,"i_lat":-6.161433},{"i_lat":-6.1587309999999995,"distance":1614,"is_transit":false,"transit":false,"station_name":"Taman Kota","station_id":"TKO","i_long":106.756522,"time":2,"line":5},{"station_id":"BOI","i_lat":-6.159876,"i_long":106.737035,"transit":false,"time":2,"distance":2334,"station_name":"Bojongindah","line":5,"is_transit":false},{"distance":1152,"i_lat":-6.162758,"line":5,"station_name":"Rawa Buaya","time":4,"transit":false,"station_id":"RW","is_transit":false,"i_long":106.723064},{"transit":false,"i_lat":-6.166068,"time":3,"distance":2504,"station_name":"Kalideres","station_id":"KDS","line":5,"is_transit":false,"i_long":106.701612},{"station_name":"Poris","i_lat":-6.169933,"distance":2548,"is_transit":false,"i_long":106.679458,"transit":false,"station_id":"PI","line":5,"time":3},{"station_id":"BPR","station_name":"Batuceper","time":3,"is_transit":false,"transit":false,"i_long":106.665036,"line":5,"distance":1834,"i_lat":-6.171811},{"i_long":106.64657,"is_transit":false,"distance":2028,"time":3,"i_lat":-6.17331,"station_name":"Tanah Tinggi","line":5,"station_id":"TTI","transit":false}],[{"transit":false,"line":6,"station_name":"Serpong","distance":0,"time":0,"i_lat":-6.319871,"i_long":106.66566,"station_id":"SRP","is_transit":false},{"station_id":"RU","station_name":"Rawa Buntu","i_lat":-6.314823,"i_long":106.675475,"line":6,"distance":2413,"is_transit":false,"time":4,"transit":false},{"station_name":"Sudimara","time":6,"i_lat":-6.296963,"line":6,"distance":4566,"i_long":106.712277,"station_id":"SDM","is_transit":false,"transit":false},{"line":6,"time":4,"is_transit":false,"station_name":"Jurangmangu","i_lat":-6.288927,"distance":1994,"i_long":106.728916,"transit":false,"station_id":"JMU"},{"time":3,"is_transit":false,"transit":false,"station_id":"PDJ","station_name":"Pondokranji","distance":2179,"i_lat":-6.276362,"i_long":106.74273,"line":6},{"i_long":106.780334,"distance":6218,"time":8,"i_lat":-6.237242,"transit":false,"is_transit":false,"station_id":"KBY","line":6,"station_name":"Kebayoran"},{"line":6,"is_transit":false,"distance":3737,"transit":false,"station_name":"Palmerah","station_id":"PLM","i_lat":-6.207404,"time":7,"i_long":106.79689},{"distance":3191,"station_name":"Tanah Abang","station_id":"THB","time":6,"i_long":106.811091,"is_transit":true,"transit":true,"i_lat":-6.185545,"line":1},{"is_transit":false,"time":5,"transit":false,"station_id":"KAT","i_lat":-6.20132,"distance":2029,"i_long":106.816351,"line":1,"station_name":"Karet"},{"distance":471,"time":1,"station_name":"Sudirman Baru","is_transit":false,"station_id":"SUDB","i_lat":-6.201433,"i_long":106.819881,"line":1,"transit":false},{"station_id":"SUD","distance":280,"station_name":"Sudirman","time":1,"is_transit":false,"line":1,"transit":false,"i_lat":-6.202263,"i_long":106.822649},{"line":2,"transit":false,"station_name":"Manggarai","station_id":"MRI","time":4,"i_lat":-6.209883,"i_long":106.84912,"is_transit":false,"distance":3186},{"transit":false,"station_name":"Matraman","line":1,"distance":1275,"station_id":"MTR","time":2,"is_transit":false,"i_long":106.858896,"i_lat":-6.212485},{"transit":true,"is_transit":true,"i_lat":-6.215091,"time":8,"i_long":106.86807400000001,"station_name":"Jatinegara","distance":1377,"line":1,"station_id":"JNG"},{"i_long":106.861737,"is_transit":false,"station_id":"POK","distance":1236,"line":11,"station_name":"Pondok Jati","i_lat":-6.209188,"time":2,"transit":false},{"distance":1829,"is_transit":false,"line":11,"i_long":106.855437,"station_id":"KMT","i_lat":-6.193792,"station_name":"Kramat","transit":false,"time":2},{"is_transit":false,"time":1,"i_long":106.850107,"transit":false,"station_name":"Gang Sentiong","i_lat":-6.185975,"line":11,"distance":973,"station_id":"GST"},{"distance":1567,"station_name":"Pasar Senen","i_long":106.84368,"time":8,"i_lat":-6.174784,"transit":false,"line":11,"station_id":"PSE","is_transit":false},{"time":4,"line":11,"is_transit":false,"i_lat":-6.161728,"distance":1436,"station_id":"KMO","i_long":106.839204,"transit":false,"station_name":"Kemayoran"},{"station_name":"Rajawali","i_lat":-6.14505,"is_transit":false,"time":5,"transit":false,"line":11,"station_id":"RJW","i_long":106.836569,"distance":1901},{"i_lat":-6.132549,"station_name":"Kampung Bandan","distance":1444,"is_transit":true,"time":3,"station_id":"KPB","i_long":106.826365,"transit":true,"line":4},{"time":9,"distance":4102,"transit":false,"is_transit":false,"station_id":"AK","i_lat":-6.144674,"line":1,"station_name":"Angke","i_long":106.79867},{"time":4,"distance":1230,"line":1,"i_lat":-6.155215,"transit":true,"station_name":"Duri","i_long":106.800832,"station_id":"DU","is_transit":true},{"is_transit":false,"time":3,"i_lat":-6.162021,"distance":1700,"i_long":106.788277,"line":5,"transit":false,"station_name":"Grogol","station_id":"GGL"},{"station_name":"Pesing","i_lat":-6.161433,"i_long":106.771379,"line":5,"is_transit":false,"distance":2036,"time":2,"transit":false,"station_id":"PSG"},{"time":2,"i_lat":-6.1587309999999995,"i_long":106.756522,"is_transit":false,"line":5,"transit":false,"station_id":"TKO","station_name":"Taman Kota","distance":1614},{"time":2,"station_name":"Bojongindah","transit":false,"i_long":106.737035,"station_id":"BOI","i_lat":-6.159876,"is_transit":false,"distance":2334,"line":5},{"transit":false,"time":4,"distance":1152,"station_name":"Rawa Buaya","is_transit":false,"station_id":"RW","i_lat":-6.162758,"i_long":106.723064,"line":5},{"transit":false,"distance":2504,"station_id":"KDS","station_name":"Kalideres","is_transit":false,"time":3,"i_lat":-6.166068,"line":5,"i_long":106.701612},{"station_id":"PI","time":3,"distance":2548,"is_transit":false,"station_name":"Poris","i_lat":-6.169933,"i_long":106.679458,"line":5,"transit":false},{"i_lat":-6.171811,"i_long":106.665036,"is_transit":false,"transit":false,"line":5,"station_id":"BPR","station_name":"Batuceper","distance":1834,"time":3},{"i_lat":-6.17331,"time":3,"i_long":106.64657,"line":5,"station_id":"TTI","station_name":"Tanah Tinggi","transit":false,"is_transit":false,"distance":2028}]]}