{"data":[[{"is_transit":false,"transit":false,"time":0,"line":6,"distance":0,"i_lat":-6.319871,"station_name":"Serpong","station_id":"SRP","i_long":106.66566},{"time":4,"i_lat":-6.314823,"i_long":106.675475,"transit":false,"station_id":"RU","is_transit":false,"line":6,"distance":2413,"station_name":"Rawa Buntu"},{"line":6,"distance":4566,"transit":false,"is_transit":false,"i_lat":-6.296963,"i_long":106.712277,"station_name":"Sudimara","station_id":"SDM","time":6},{"transit":false,"is_transit":false,"time":4,"station_id":"JMU","i_long":106.728916,"i_lat":-6.288927,"distance":1994,"line":6,"station_name":"Jurangmangu"},{"i_long":106.74273,"transit":false,"is_transit":false,"station_id":"PDJ","station_name":"Pondokranji","distance":2179,"line":6,"i_lat":-6.276362,"time":3},{"distance":6218,"station_name":"Kebayoran","line":6,"i_long":106.780334,"time":8,"is_transit":false,"station_id":"KBY","transit":false,"i_lat":-6.237242},{"transit":false,"is_transit":false,"i_long":106.79689,"station_name":"Palmerah","distance":3737,"time":7,"i_lat":-6.207404,"station_id":"PLM","line":6},{"station_name":"Tanah Abang","time":6,"station_id":"THB","transit":true,"i_lat":-6.185545,"i_long":106.811091,"line":1,"is_transit":true,"distance":3191},{"transit":false,"is_transit":false,"station_name":"Karet","i_lat":-6.20132,"station_id":"KAT","i_long":106.816351,"time":5,"line":1,"distance":2029},{"i_long":106.819881,"line":1,"time":1,"is_transit":false,"distance":471,"station_name":"Sudirman Baru","station_id":"SUDB","transit":false,"i_lat":-6.201433},{"distance":280,"time":1,"station_name":"Sudirman","transit":false,"station_id":"SUD","is_transit":false,"i_long":106.822649,"i_lat":-6.202263,"line":1},{"transit":true,"i_lat":-6.209883,"station_id":"MRI","station_name":"Manggarai","time":4,"distance":3186,"is_transit":true,"i_long":106.84912,"line":2},{"i_long":106.857948,"transit":false,"distance":2610,"is_transit":false,"i_lat":-6.226659,"line":2,"time":4,"station_name":"Tebet","station_id":"TEB"},{"transit":false,"station_id":"CW","station_name":"Cawang","i_long":106.856607,"distance":1230,"time":2,"i_lat":-6.242512,"line":2,"is_transit":false},{"transit":false,"i_lat":-6.255332,"station_name":"Duren Kalibata","distance":1546,"time":3,"station_id":"DRN","i_long":106.85449,"line":2,"is_transit":false},{"i_lat":-6.263214,"station_name":"Pasar Minggu Baru","time":2,"i_long":106.851577,"distance":824,"transit":false,"line":2,"station_id":"PSMB","is_transit":false},{"i_lat":-6.2842400000000005,"station_name":"Pasar Minggu","i_long":106.843999,"line":2,"distance":2380,"station_id":"PSM","time":2,"transit":false,"is_transit":false}],[{"time":0,"station_name":"Serpong","line":6,"distance":0,"transit":false,"station_id":"SRP","i_lat":-6.319871,"i_long":106.66566,"is_transit":false},{"time":4,"is_transit":false,"i_long":106.675475,"transit":false,"line":6,"station_id":"RU","station_name":"Rawa Buntu","distance":2413,"i_lat":-6.314823},{"line":6,"time":6,"is_transit":false,"station_name":"Sudimara","transit":false,"station_id":"SDM","i_long":106.712277,"distance":4566,"i_lat":-6.296963},{"time":4,"station_id":"JMU","i_long":106.728916,"line":6,"distance":1994,"is_transit":false,"i_lat":-6.288927,"transit":false,"station_name":"Jurangmangu"},{"time":3,"station_id":"PDJ","i_long":106.74273,"i_lat":-6.276362,"line":6,"is_transit":false,"station_name":"Pondokranji","transit":false,"distance":2179},{"line":6,"station_id":"KBY","i_long":106.780334,"station_name":"Kebayoran","transit":false,"i_lat":-6.237242,"distance":6218,"time":8,"is_transit":false},{"station_name":"Palmerah","distance":3737,"transit":false,"station_id":"PLM","i_long":106.79689,"is_transit":false,"time":7,"i_lat":-6.207404,"line":6},{"time":6,"station_id":"THB","i_lat":-6.185545,"line":1,"distance":3191,"is_transit":true,"i_long":106.811091,"transit":true,"station_name":"Tanah Abang"},{"is_transit":false,"station_id":"DU","i_lat":-6.155215,"transit":false,"line":1,"time":8,"station_name":"Duri","i_long":106.800832,"distance":3632},{"distance":1230,"i_long":106.79867,"station_id":"AK","is_transit":false,"i_lat":-6.144674,"line":1,"time":4,"station_name":"Angke","transit":false},{"distance":4102,"time":9,"i_lat":-6.132549,"station_name":"Kampung Bandan","is_transit":true,"station_id":"KPB","transit":true,"line":4,"i_long":106.826365},{"station_id":"JAKK","i_lat":-6.137569,"i_long":106.812439,"time":3,"is_transit":true,"distance":1364,"line":2,"station_name":"Jakarta Kota","transit":true},{"i_lat":-6.141205,"i_long":106.820901,"transit":false,"line":2,"station_id":"JAY","time":4,"distance":1264,"station_name":"Jayakarta","is_transit":false},{"is_transit":false,"distance":1080,"i_long":106.82482,"line":2,"station_name":"Manggabesar","transit":false,"time":2,"i_lat":-6.149769,"station_id":"MGB"},{"transit":false,"is_transit":false,"distance":906,"station_name":"Sawah Besar","station_id":"SW","i_long":106.827103,"line":2,"i_lat":-6.160725,"time":2},{"line":2,"station_id":"JUA","station_name":"Juanda","i_long":106.828284,"transit":false,"is_transit":false,"time":2,"distance":1149,"i_lat":-6.166716},{"i_lat":-6.186295,"transit":false,"i_long":106.832183,"is_transit":false,"station_id":"GDD","time":4,"station_name":"Gondangdia","distance":2015,"line":2},{"is_transit":false,"i_long":106.840169,"line":2,"transit":false,"i_lat":-6.198556,"distance":1750,"station_id":"CKI","station_name":"Cikini","time":3},{"station_name":"Manggarai","station_id":"MRI","time":4,"i_lat":-6.209883,"line":2,"transit":false,"is_transit":false,"i_long":106.84912,"distance":1590},{"line":2,"transit":false,"is_transit":false,"i_lat":-6.226659,"time":4,"station_id":"TEB","distance":2610,"i_long":106.857948,"station_name":"Tebet"},{"distance":1230,"time":2,"is_transit":false,"i_long":106.856607,"line":2,"station_name":"Cawang","station_id":"CW","i_lat":-6.242512,"transit":false},{"station_id":"DRN","i_long":106.85449,"line":2,"time":3,"is_transit":false,"station_name":"Duren Kalibata","distance":1546,"i_lat":-6.255332,"transit":false},{"station_id":"PSMB","i_long":106.851577,"transit":false,"line":2,"is_transit":false,"i_lat":-6.263214,"station_name":"Pasar Minggu Baru","distance":824,"time":2},{"time":2,"distance":2380,"i_lat":-6.2842400000000005,"is_transit":false,"station_name":"Pasar Minggu","station_id":"PSM","i_long":106.843999,"line":2,"transit":false}],[{"i_long":106.66566,"line":6,"distance":0,"station_id":"SRP","time":0,"is_transit":false,"transit":false,"i_lat":-6.319871,"station_name":"Serpong"},{"transit":false,"station_name":"Rawa Buntu","distance":2413,"i_long":106.675475,"line":6,"is_transit":false,"i_lat":-6.314823,"station_id":"RU","time":4},{"is_transit":false,"time":6,"i_long":106.712277,"i_lat":-6.296963,"distance":4566,"transit":false,"line":6,"station_id":"SDM","station_name":"Sudimara"},{"transit":false,"station_name":"Jurangmangu","time":4,"i_long":106.728916,"distance":1994,"is_transit":false,"line":6,"station_id":"JMU","i_lat":-6.288927},{"station_id":"PDJ","transit":false,"distance":2179,"is_transit":false,"i_lat":-6.276362,"line":6,"i_long":106.74273,"time":3,"station_name":"Pondokranji"},{"time":8,"i_lat":-6.237242,"is_transit":false,"i_long":106.780334,"transit":false,"station_name":"Kebayoran","line":6,"station_id":"KBY","distance":6218},{"transit":false,"is_transit":false,"station_id":"PLM","distance":3737,"i_lat":-6.207404,"time":7,"station_name":"Palmerah","line":6,"i_long":106.79689},{"is_transit":true,"station_name":"Tanah Abang","transit":true,"distance":3191,"time":6,"i_lat":-6.185545,"i_long":106.811091,"station_id":"THB","line":1},{"i_lat":-6.155215,"time":8,"i_long":106.800832,"line":1,"station_id":"DU","station_name":"Duri","is_transit":false,"distance":3632,"transit":false},{"time":4,"station_id":"AK","station_name":"Angke","transit":false,"is_transit":false,"i_long":106.79867,"distance":1230,"i_lat":-6.144674,"line":1},{"station_name":"Kampung Bandan","transit":true,"time":9,"i_lat":-6.132549,"is_transit":true,"station_id":"KPB","line":4,"i_long":106.826365,"distance":4102},{"line":11,"transit":false,"station_name":"Rajawali","time":3,"distance":1444,"i_lat":-6.14505,"station_id":"RJW","i_long":106.836569,"is_transit":false},{"distance":1901,"i_lat":-6.161728,"station_name":"Kemayoran","station_id":"KMO","time":5,"i_long":106.839204,"line":11,"transit":false,"is_transit":false},{"station_name":"Pasar Senen","station_id":"PSE","transit":false,"i_lat":-6.174784,"distance":1436,"time":4,"i_long":106.84368,"line":11,"is_transit":false},{"i_lat":-6.185975,"distance":1567,"line":11,"is_transit":false,"station_name":"Gang Sentiong","station_id":"GST","transit":false,"i_long":106.850107,"time":8},{"time":1,"line":11,"transit":false,"i_lat":-6.193792,"station_id":"KMT","station_name":"Kramat","is_transit":false,"i_long":106.855437,"distance":973},{"time":2,"station_name":"Pondok Jati","line":11,"transit":false,"is_transit":false,"distance":1829,"i_long":106.861737,"i_lat":-6.209188,"station_id":"POK"},{"line":1,"station_id":"JNG","is_transit":true,"distance":1236,"transit":true,"station_name":"Jatinegara","time":9,"i_lat":-6.215091,"i_long":106.86807400000001},{"i_long":106.858896,"is_transit":false,"i_lat":-6.212485,"line":1,"station_id":"MTR","transit":false,"distance":1377,"station_name":"Matraman","time":2},{"i_lat":-6.209883,"time":2,"transit":true,"line":2,"station_id":"MRI","distance":1275,"is_transit":true,"station_name":"Manggarai","i_long":106.84912},{"station_id":"TEB","station_name":"Tebet","time":4,"distance":2610,"transit":false,"i_lat":-6.226659,"is_transit":false,"line":2,"i_long":106.857948},{"station_name":"Cawang","is_transit":false,"time":2,"transit":false,"station_id":"CW","i_lat":-6.242512,"distance":1230,"line":2,"i_long":106.856607},{"line":2,"i_lat":-6.255332,"station_name":"Duren Kalibata","distance":1546,"is_transit":false,"transit":false,"time":3,"i_long":106.85449,"station_id":"DRN"},{"is_transit":false,"station_id":"PSMB","station_name":"Pasar Minggu Baru","line":2,"time":2,"distance":824,"i_lat":-6.263214,"i_long":106.851577,"transit":false},{"time":2,"distance":2380,"i_long":106.843999,"line":2,"station_name":"Pasar Minggu","is_transit":false,"transit":false,"station_id":"PSM","i_lat":-6.2842400000000005}]]}