{"data":[[{"time":0,"station_id":"SRP","line":6,"distance":0,"transit":false,"i_long":106.66566,"is_transit":false,"station_name":"Serpong","i_lat":-6.319871},{"time":4,"i_long":106.675475,"transit":false,"station_id":"RU","station_name":"Rawa Buntu","i_lat":-6.314823,"is_transit":false,"distance":2413,"line":6},{"transit":false,"i_long":106.712277,"distance":4566,"line":6,"is_transit":false,"station_name":"Sudimara","i_lat":-6.296963,"station_id":"SDM","time":6},{"station_name":"Jurangmangu","station_id":"JMU","i_lat":-6.288927,"time":4,"is_transit":false,"distance":1994,"i_long":106.728916,"transit":false,"line":6},{"station_name":"Pondokranji","i_long":106.74273,"line":6,"is_transit":false,"station_id":"PDJ","i_lat":-6.276362,"transit":false,"distance":2179,"time":3},{"i_lat":-6.237242,"distance":6218,"is_transit":false,"time":8,"station_name":"Kebayoran","i_long":106.780334,"station_id":"KBY","transit":false,"line":6},{"i_long":106.79689,"distance":3737,"time":7,"station_name":"Palmerah","station_id":"PLM","is_transit":false,"transit":false,"i_lat":-6.207404,"line":6},{"distance":3191,"time":6,"is_transit":true,"transit":true,"i_lat":-6.185545,"i_long":106.811091,"station_id":"THB","line":1,"station_name":"Tanah Abang"},{"transit":false,"distance":3632,"i_lat":-6.155215,"station_name":"Duri","time":8,"is_transit":false,"i_long":106.800832,"station_id":"DU","line":1},{"distance":1230,"i_long":106.79867,"time":4,"station_id":"AK","is_transit":false,"transit":false,"i_lat":-6.144674,"station_name":"Angke","line":1},{"distance":4102,"i_long":106.826365,"station_id":"KPB","station_name":"Kampung Bandan","is_transit":true,"transit":true,"i_lat":-6.132549,"time":9,"line":4},{"time":3,"is_transit":true,"i_long":106.812439,"line":2,"station_name":"Jakarta Kota","station_id":"JAKK","distance":1364,"i_lat":-6.137569,"transit":true},{"i_long":106.820901,"time":4,"is_transit":false,"distance":1264,"transit":false,"station_id":"JAY","station_name":"Jayakarta","i_lat":-6.141205,"line":2}],[{"distance":0,"i_long":106.66566,"is_transit":false,"transit":false,"i_lat":-6.319871,"station_id":"SRP","station_name":"Serpong","time":0,"line":6},{"transit":false,"i_lat":-6.314823,"line":6,"i_long":106.675475,"distance":2413,"is_transit":false,"station_name":"Rawa Buntu","time":4,"station_id":"RU"},{"time":6,"distance":4566,"station_id":"SDM","i_lat":-6.296963,"is_transit":false,"transit":false,"line":6,"station_name":"Sudimara","i_long":106.712277},{"transit":false,"i_long":106.728916,"station_id":"JMU","i_lat":-6.288927,"station_name":"Jurangmangu","line":6,"distance":1994,"time":4,"is_transit":false},{"distance":2179,"transit":false,"station_name":"Pondokranji","line":6,"is_transit":false,"i_long":106.74273,"station_id":"PDJ","time":3,"i_lat":-6.276362},{"i_long":106.780334,"station_name":"Kebayoran","distance":6218,"time":8,"station_id":"KBY","is_transit":false,"i_lat":-6.237242,"transit":false,"line":6},{"is_transit":false,"distance":3737,"transit":false,"line":6,"time":7,"i_lat":-6.207404,"station_name":"Palmerah","station_id":"PLM","i_long":106.79689},{"line":1,"i_long":106.811091,"is_transit":true,"transit":true,"distance":3191,"station_id":"THB","i_lat":-6.185545,"time":6,"station_name":"Tanah Abang"},{"i_lat":-6.20132,"transit":false,"time":5,"i_long":106.816351,"line":1,"distance":2029,"station_id":"KAT","is_transit":false,"station_name":"Karet"},{"i_long":106.819881,"transit":false,"time":1,"station_name":"Sudirman Baru","i_lat":-6.201433,"station_id":"SUDB","line":1,"distance":471,"is_transit":false},{"is_transit":false,"time":1,"line":1,"station_name":"Sudirman","i_lat":-6.202263,"i_long":106.822649,"transit":false,"distance":280,"station_id":"SUD"},{"station_id":"MRI","i_lat":-6.209883,"distance":3186,"i_long":106.84912,"line":2,"time":4,"transit":true,"is_transit":true,"station_name":"Manggarai"},{"station_id":"CKI","time":4,"transit":false,"is_transit":false,"station_name":"Cikini","i_lat":-6.198556,"i_long":106.840169,"distance":1590,"line":2},{"distance":1750,"time":3,"station_id":"GDD","station_name":"Gondangdia","transit":false,"i_long":106.832183,"is_transit":false,"i_lat":-6.186295,"line":2},{"i_long":106.828284,"line":2,"i_lat":-6.166716,"is_transit":false,"time":4,"transit":false,"station_name":"Juanda","distance":2015,"station_id":"JUA"},{"is_transit":false,"line":2,"station_name":"Sawah Besar","i_long":106.827103,"station_id":"SW","i_lat":-6.160725,"distance":1149,"transit":false,"time":2},{"is_transit":false,"line":2,"station_id":"MGB","station_name":"Manggabesar","distance":906,"transit":false,"i_long":106.82482,"time":2,"i_lat":-6.149769},{"transit":false,"line":2,"station_name":"Jayakarta","distance":1080,"is_transit":false,"station_id":"JAY","i_lat":-6.141205,"i_long":106.820901,"time":2}],[{"i_long":106.66566,"station_id":"SRP","i_lat":-6.319871,"station_name":"Serpong","distance":0,"line":6,"time":0,"transit":false,"is_transit":false},{"station_name":"Rawa Buntu","i_lat":-6.314823,"station_id":"RU","transit":false,"i_long":106.675475,"is_transit":false,"time":4,"line":6,"distance":2413},{"time":6,"station_id":"SDM","distance":4566,"transit":false,"i_lat":-6.296963,"station_name":"Sudimara","line":6,"i_long":106.712277,"is_transit":false},{"is_transit":false,"station_id":"JMU","line":6,"time":4,"station_name":"Jurangmangu","transit":false,"i_lat":-6.288927,"i_long":106.728916,"distance":1994},{"i_long":106.74273,"is_transit":false,"station_id":"PDJ","transit":false,"i_lat":-6.276362,"line":6,"station_name":"Pondokranji","distance":2179,"time":3},{"i_long":106.780334,"transit":false,"station_id":"KBY","distance":6218,"time":8,"station_name":"Kebayoran","is_transit":false,"i_lat":-6.237242,"line":6},{"i_long":106.79689,"transit":false,"station_id":"PLM","line":6,"is_transit":false,"distance":3737,"station_name":"Palmerah","time":7,"i_lat":-6.207404},{"is_transit":true,"station_id":"THB","time":6,"transit":true,"distance":3191,"station_name":"Tanah Abang","line":1,"i_long":106.811091,"i_lat":-6.185545},{"station_name":"Karet","time":5,"i_long":106.816351,"i_lat":-6.20132,"is_transit":false,"transit":false,"line":1,"station_id":"KAT","distance":2029},{"station_id":"SUDB","distance":471,"is_transit":false,"i_lat":-6.201433,"line":1,"station_name":"Sudirman Baru","time":1,"transit":false,"i_long":106.819881},{"station_id":"SUD","line":1,"transit":false,"station_name":"Sudirman","is_transit":false,"time":1,"i_long":106.822649,"i_lat":-6.202263,"distance":280},{"transit":false,"station_id":"MRI","station_name":"Manggarai","time":4,"is_transit":false,"i_long":106.84912,"distance":3186,"i_lat":-6.209883,"line":2},{"distance":1275,"is_transit":false,"station_id":"MTR","transit":false,"line":1,"i_long":106.858896,"time":2,"i_lat":-6.212485,"station_name":"Matraman"},{"line":1,"station_name":"Jatinegara","is_transit":true,"transit":true,"i_lat":-6.215091,"distance":1377,"station_id":"JNG","time":8,"i_long":106.86807400000001},{"transit":false,"i_long":106.861737,"time":2,"is_transit":false,"station_id":"POK","distance":1236,"i_lat":-6.209188,"station_name":"Pondok Jati","line":11},{"distance":1829,"is_transit":false,"i_lat":-6.193792,"time":2,"station_id":"KMT","i_long":106.855437,"transit":false,"line":11,"station_name":"Kramat"},{"line":11,"is_transit":false,"station_id":"GST","station_name":"Gang Sentiong","i_lat":-6.185975,"transit":false,"time":1,"distance":973,"i_long":106.850107},{"station_id":"PSE","time":8,"distance":1567,"is_transit":false,"i_long":106.84368,"i_lat":-6.174784,"station_name":"Pasar Senen","transit":false,"line":11},{"line":11,"transit":false,"station_id":"KMO","is_transit":false,"i_long":106.839204,"distance":1436,"station_name":"Kemayoran","i_lat":-6.161728,"time":4},{"transit":false,"i_lat":-6.14505,"i_long":106.836569,"distance":1901,"line":11,"is_transit":false,"station_name":"Rajawali","station_id":"RJW","time":5},{"i_long":106.826365,"line":4,"i_lat":-6.132549,"distance":1444,"transit":true,"station_id":"KPB","is_transit":true,"time":3,"station_name":"Kampung Bandan"},{"transit":true,"i_lat":-6.137569,"time":3,"station_name":"Jakarta Kota","distance":1364,"i_long":106.812439,"station_id":"JAKK","line":2,"is_transit":true},{"is_transit":false,"i_lat":-6.141205,"station_id":"JAY","time":4,"station_name":"Jayakarta","transit":false,"distance":1264,"i_long":106.820901,"line":2}],[{"distance":0,"time":0,"transit":false,"station_id":"SRP","i_lat":-6.319871,"line":6,"is_transit":false,"station_name":"Serpong","i_long":106.66566},{"i_lat":-6.314823,"distance":2413,"transit":false,"i_long":106.675475,"is_transit":false,"station_name":"Rawa Buntu","time":4,"station_id":"RU","line":6},{"distance":4566,"transit":false,"i_long":106.712277,"is_transit":false,"station_id":"SDM","time":6,"station_name":"Sudimara","i_lat":-6.296963,"line":6},{"station_name":"Jurangmangu","distance":1994,"is_transit":false,"line":6,"i_long":106.728916,"i_lat":-6.288927,"transit":false,"time":4,"station_id":"JMU"},{"station_id":"PDJ","transit":false,"i_lat":-6.276362,"line":6,"distance":2179,"station_name":"Pondokranji","time":3,"i_long":106.74273,"is_transit":false},{"station_name":"Kebayoran","station_id":"KBY","time":8,"transit":false,"distance":6218,"is_transit":false,"i_lat":-6.237242,"i_long":106.780334,"line":6},{"i_long":106.79689,"is_transit":false,"distance":3737,"i_lat":-6.207404,"time":7,"transit":false,"station_id":"PLM","station_name":"Palmerah","line":6},{"time":6,"i_long":106.811091,"i_lat":-6.185545,"line":1,"is_transit":true,"distance":3191,"station_id":"THB","transit":true,"station_name":"Tanah Abang"},{"station_name":"Duri","station_id":"DU","time":8,"distance":3632,"line":1,"is_transit":false,"i_lat":-6.155215,"i_long":106.800832,"transit":false},{"station_id":"AK","transit":false,"distance":1230,"is_transit":false,"i_lat":-6.144674,"time":4,"i_long":106.79867,"station_name":"Angke","line":1},{"i_lat":-6.132549,"transit":true,"distance":4102,"i_long":106.826365,"time":9,"is_transit":true,"station_id":"KPB","station_name":"Kampung Bandan","line":4},{"transit":false,"i_lat":-6.14505,"i_long":106.836569,"time":3,"is_transit":false,"station_id":"RJW","distance":1444,"station_name":"Rajawali","line":11},{"i_lat":-6.161728,"transit":false,"station_name":"Kemayoran","i_long":106.839204,"time":5,"line":11,"is_transit":false,"distance":1901,"station_id":"KMO"},{"time":4,"line":11,"station_id":"PSE","i_lat":-6.174784,"i_long":106.84368,"distance":1436,"is_transit":false,"station_name":"Pasar Senen","transit":false},{"station_id":"GST","i_lat":-6.185975,"transit":false,"station_name":"Gang Sentiong","is_transit":false,"distance":1567,"i_long":106.850107,"time":8,"line":11},{"time":1,"transit":false,"station_id":"KMT","station_name":"Kramat","i_long":106.855437,"line":11,"is_transit":false,"distance":973,"i_lat":-6.193792},{"i_long":106.861737,"line":11,"station_name":"Pondok Jati","transit":false,"station_id":"POK","i_lat":-6.209188,"is_transit":false,"time":2,"distance":1829},{"i_long":106.86807400000001,"line":1,"is_transit":true,"i_lat":-6.215091,"distance":1236,"station_id":"JNG","time":9,"station_name":"Jatinegara","transit":true},{"is_transit":false,"transit":false,"station_name":"Matraman","i_lat":-6.212485,"i_long":106.858896,"station_id":"MTR","distance":1377,"time":2,"line":1},{"distance":1275,"i_lat":-6.209883,"line":2,"transit":true,"is_transit":true,"station_name":"Manggarai","i_long":106.84912,"station_id":"MRI","time":2},{"station_name":"Cikini","line":2,"time":4,"transit":false,"station_id":"CKI","i_long":106.840169,"i_lat":-6.198556,"is_transit":false,"distance":1590},{"is_transit":false,"transit":false,"station_name":"Gondangdia","i_long":106.832183,"line":2,"time":3,"i_lat":-6.186295,"distance":1750,"station_id":"GDD"},{"line":2,"is_transit":false,"transit":false,"time":4,"i_long":106.828284,"distance":2015,"station_name":"Juanda","station_id":"JUA","i_lat":-6.166716},{"distance":1149,"line":2,"i_long":106.827103,"time":2,"station_name":"Sawah Besar","i_lat":-6.160725,"station_id":"SW","is_transit":false,"transit":false},{"line":2,"is_transit":false,"i_lat":-6.149769,"transit":false,"station_id":"MGB","station_name":"Manggabesar","time":2,"distance":906,"i_long":106.82482},{"station_name":"Jayakarta","station_id":"JAY","i_long":106.820901,"line":2,"is_transit":false,"transit":false,"time":2,"distance":1080,"i_lat":-6.141205}]]}