{"data":[[{"is_transit":false,"i_lat":-6.319871,"i_long":106.66566,"line":6,"station_id":"SRP","transit":false,"station_name":"Serpong","time":0,"distance":0},{"i_long":106.675475,"is_transit":false,"distance":2413,"time":4,"station_name":"Rawa Buntu","line":6,"transit":false,"i_lat":-6.314823,"station_id":"RU"},{"station_id":"SDM","is_transit":false,"transit":false,"line":6,"time":6,"i_lat":-6.296963,"i_long":106.712277,"station_name":"Sudimara","distance":4566},{"distance":1994,"time":4,"station_id":"JMU","line":6,"i_lat":-6.288927,"is_transit":false,"transit":false,"station_name":"Jurangmangu","i_long":106.728916},{"distance":2179,"is_transit":false,"transit":false,"station_name":"Pondokranji","i_lat":-6.276362,"time":3,"line":6,"station_id":"PDJ","i_long":106.74273},{"transit":false,"distance":6218,"station_id":"KBY","line":6,"time":8,"station_name":"Kebayoran","i_long":106.780334,"is_transit":false,"i_lat":-6.237242},{"station_id":"PLM","transit":false,"i_lat":-6.207404,"line":6,"time":7,"is_transit":false,"station_name":"Palmerah","i_long":106.79689,"distance":3737},{"transit":true,"i_lat":-6.185545,"i_long":106.811091,"line":1,"time":6,"station_name":"Tanah Abang","is_transit":true,"distance":3191,"station_id":"THB"},{"line":1,"time":5,"is_transit":false,"transit":false,"distance":2029,"station_name":"Karet","i_long":106.816351,"i_lat":-6.20132,"station_id":"KAT"},{"station_id":"SUDB","station_name":"Sudirman Baru","i_lat":-6.201433,"distance":471,"line":1,"time":1,"is_transit":false,"transit":false,"i_long":106.819881},{"is_transit":false,"station_id":"SUD","i_lat":-6.202263,"station_name":"Sudirman","time":1,"line":1,"i_long":106.822649,"distance":280,"transit":false},{"transit":true,"time":4,"line":2,"station_id":"MRI","i_long":106.84912,"station_name":"Manggarai","i_lat":-6.209883,"distance":3186,"is_transit":true},{"station_id":"TEB","station_name":"Tebet","distance":2610,"line":2,"i_lat":-6.226659,"time":4,"transit":false,"is_transit":false,"i_long":106.857948},{"distance":1230,"station_name":"Cawang","i_lat":-6.242512,"i_long":106.856607,"transit":false,"line":2,"is_transit":false,"time":2,"station_id":"CW"},{"is_transit":false,"time":3,"station_name":"Duren Kalibata","station_id":"DRN","transit":false,"distance":1546,"i_lat":-6.255332,"i_long":106.85449,"line":2},{"station_name":"Pasar Minggu Baru","transit":false,"i_lat":-6.263214,"is_transit":false,"station_id":"PSMB","i_long":106.851577,"line":2,"distance":824,"time":2},{"station_name":"Pasar Minggu","time":2,"is_transit":false,"transit":false,"i_lat":-6.2842400000000005,"distance":2380,"line":2,"i_long":106.843999,"station_id":"PSM"},{"line":2,"transit":false,"is_transit":false,"i_lat":-6.3080680000000005,"distance":2820,"i_long":106.838896,"station_name":"Tanjung Barat","station_id":"TNT","time":4},{"station_name":"Lenteng Agung","transit":false,"station_id":"LNA","line":2,"distance":2671,"time":3,"is_transit":false,"i_lat":-6.330363,"i_long":106.832616},{"distance":1029,"time":2,"station_id":"UP","i_long":106.834175,"line":2,"is_transit":false,"i_lat":-6.339291,"transit":false,"station_name":"Univ. Pancasila"}],[{"i_long":106.66566,"station_name":"Serpong","line":6,"distance":0,"i_lat":-6.319871,"is_transit":false,"transit":false,"station_id":"SRP","time":0},{"time":4,"i_long":106.675475,"station_id":"RU","distance":2413,"i_lat":-6.314823,"transit":false,"station_name":"Rawa Buntu","line":6,"is_transit":false},{"transit":false,"station_name":"Sudimara","line":6,"i_long":106.712277,"time":6,"station_id":"SDM","distance":4566,"is_transit":false,"i_lat":-6.296963},{"time":4,"distance":1994,"station_id":"JMU","is_transit":false,"i_lat":-6.288927,"transit":false,"station_name":"Jurangmangu","i_long":106.728916,"line":6},{"station_name":"Pondokranji","line":6,"i_lat":-6.276362,"transit":false,"time":3,"station_id":"PDJ","i_long":106.74273,"distance":2179,"is_transit":false},{"transit":false,"is_transit":false,"distance":6218,"station_name":"Kebayoran","time":8,"i_lat":-6.237242,"i_long":106.780334,"station_id":"KBY","line":6},{"i_lat":-6.207404,"i_long":106.79689,"distance":3737,"line":6,"transit":false,"station_name":"Palmerah","is_transit":false,"time":7,"station_id":"PLM"},{"transit":true,"station_id":"THB","distance":3191,"is_transit":true,"i_lat":-6.185545,"time":6,"i_long":106.811091,"line":1,"station_name":"Tanah Abang"},{"transit":false,"line":1,"station_name":"Duri","i_lat":-6.155215,"i_long":106.800832,"time":8,"distance":3632,"station_id":"DU","is_transit":false},{"station_name":"Angke","distance":1230,"is_transit":false,"i_long":106.79867,"line":1,"i_lat":-6.144674,"time":4,"transit":false,"station_id":"AK"},{"i_long":106.826365,"i_lat":-6.132549,"time":9,"distance":4102,"station_id":"KPB","is_transit":true,"station_name":"Kampung Bandan","line":4,"transit":true},{"is_transit":true,"time":3,"i_long":106.812439,"transit":true,"distance":1364,"station_name":"Jakarta Kota","line":2,"station_id":"JAKK","i_lat":-6.137569},{"i_lat":-6.141205,"distance":1264,"i_long":106.820901,"transit":false,"line":2,"station_id":"JAY","is_transit":false,"station_name":"Jayakarta","time":4},{"time":2,"i_long":106.82482,"is_transit":false,"station_id":"MGB","i_lat":-6.149769,"transit":false,"station_name":"Manggabesar","line":2,"distance":1080},{"i_lat":-6.160725,"is_transit":false,"time":2,"line":2,"i_long":106.827103,"distance":906,"transit":false,"station_id":"SW","station_name":"Sawah Besar"},{"i_lat":-6.166716,"i_long":106.828284,"line":2,"distance":1149,"transit":false,"station_id":"JUA","is_transit":false,"station_name":"Juanda","time":2},{"station_name":"Gondangdia","time":4,"is_transit":false,"i_lat":-6.186295,"distance":2015,"line":2,"station_id":"GDD","transit":false,"i_long":106.832183},{"distance":1750,"i_long":106.840169,"i_lat":-6.198556,"transit":false,"station_id":"CKI","station_name":"Cikini","is_transit":false,"time":3,"line":2},{"i_long":106.84912,"station_id":"MRI","station_name":"Manggarai","is_transit":false,"distance":1590,"i_lat":-6.209883,"transit":false,"time":4,"line":2},{"line":2,"transit":false,"is_transit":false,"distance":2610,"time":4,"station_name":"Tebet","i_lat":-6.226659,"i_long":106.857948,"station_id":"TEB"},{"i_long":106.856607,"transit":false,"line":2,"i_lat":-6.242512,"time":2,"station_id":"CW","station_name":"Cawang","distance":1230,"is_transit":false},{"distance":1546,"transit":false,"station_name":"Duren Kalibata","line":2,"time":3,"i_lat":-6.255332,"i_long":106.85449,"station_id":"DRN","is_transit":false},{"transit":false,"station_id":"PSMB","station_name":"Pasar Minggu Baru","is_transit":false,"i_lat":-6.263214,"distance":824,"time":2,"i_long":106.851577,"line":2},{"is_transit":false,"station_name":"Pasar Minggu","station_id":"PSM","i_long":106.843999,"distance":2380,"time":2,"i_lat":-6.2842400000000005,"line":2,"transit":false},{"i_long":106.838896,"distance":2820,"is_transit":false,"time":4,"i_lat":-6.3080680000000005,"station_name":"Tanjung Barat","line":2,"transit":false,"station_id":"TNT"},{"time":3,"distance":2671,"i_lat":-6.330363,"station_id":"LNA","transit":false,"i_long":106.832616,"is_transit":false,"station_name":"Lenteng Agung","line":2},{"station_id":"UP","time":2,"distance":1029,"is_transit":false,"i_lat":-6.339291,"transit":false,"line":2,"i_long":106.834175,"station_name":"Univ. Pancasila"}],[{"is_transit":false,"i_long":106.66566,"i_lat":-6.319871,"line":6,"station_id":"SRP","transit":false,"time":0,"distance":0,"station_name":"Serpong"},{"transit":false,"is_transit":false,"station_id":"RU","time":4,"station_name":"Rawa Buntu","distance":2413,"i_lat":-6.314823,"line":6,"i_long":106.675475},{"transit":false,"is_transit":false,"station_name":"Sudimara","line":6,"i_long":106.712277,"time":6,"station_id":"SDM","i_lat":-6.296963,"distance":4566},{"i_lat":-6.288927,"i_long":106.728916,"transit":false,"station_id":"JMU","station_name":"Jurangmangu","time":4,"is_transit":false,"distance":1994,"line":6},{"transit":false,"distance":2179,"is_transit":false,"i_long":106.74273,"station_name":"Pondokranji","i_lat":-6.276362,"station_id":"PDJ","line":6,"time":3},{"station_name":"Kebayoran","time":8,"i_lat":-6.237242,"line":6,"is_transit":false,"station_id":"KBY","i_long":106.780334,"distance":6218,"transit":false},{"i_long":106.79689,"is_transit":false,"distance":3737,"line":6,"transit":false,"station_id":"PLM","station_name":"Palmerah","time":7,"i_lat":-6.207404},{"station_name":"Tanah Abang","i_long":106.811091,"line":1,"station_id":"THB","transit":true,"is_transit":true,"i_lat":-6.185545,"time":6,"distance":3191},{"transit":false,"i_lat":-6.155215,"station_id":"DU","station_name":"Duri","is_transit":false,"line":1,"i_long":106.800832,"time":8,"distance":3632},{"distance":1230,"i_long":106.79867,"line":1,"time":4,"is_transit":false,"transit":false,"station_id":"AK","station_name":"Angke","i_lat":-6.144674},{"time":9,"station_id":"KPB","distance":4102,"line":4,"is_transit":true,"station_name":"Kampung Bandan","i_lat":-6.132549,"i_long":106.826365,"transit":true},{"time":3,"station_id":"RJW","line":11,"transit":false,"station_name":"Rajawali","i_long":106.836569,"distance":1444,"is_transit":false,"i_lat":-6.14505},{"i_long":106.839204,"station_name":"Kemayoran","is_transit":false,"distance":1901,"transit":false,"time":5,"line":11,"i_lat":-6.161728,"station_id":"KMO"},{"station_id":"PSE","transit":false,"line":11,"station_name":"Pasar Senen","distance":1436,"is_transit":false,"i_lat":-6.174784,"i_long":106.84368,"time":4},{"station_name":"Gang Sentiong","distance":1567,"station_id":"GST","i_long":106.850107,"transit":false,"is_transit":false,"i_lat":-6.185975,"line":11,"time":8},{"time":1,"transit":false,"station_name":"Kramat","i_long":106.855437,"line":11,"station_id":"KMT","distance":973,"is_transit":false,"i_lat":-6.193792},{"distance":1829,"station_name":"Pondok Jati","station_id":"POK","line":11,"i_lat":-6.209188,"transit":false,"time":2,"is_transit":false,"i_long":106.861737},{"distance":1236,"i_lat":-6.215091,"transit":true,"i_long":106.86807400000001,"is_transit":true,"time":9,"station_id":"JNG","line":1,"station_name":"Jatinegara"},{"i_long":106.858896,"line":1,"transit":false,"station_name":"Matraman","distance":1377,"station_id":"MTR","i_lat":-6.212485,"time":2,"is_transit":false},{"time":2,"i_long":106.84912,"station_id":"MRI","line":2,"is_transit":true,"distance":1275,"transit":true,"station_name":"Manggarai","i_lat":-6.209883},{"line":2,"station_id":"TEB","station_name":"Tebet","time":4,"i_long":106.857948,"transit":false,"distance":2610,"is_transit":false,"i_lat":-6.226659},{"station_name":"Cawang","distance":1230,"time":2,"is_transit":false,"i_lat":-6.242512,"i_long":106.856607,"station_id":"CW","line":2,"transit":false},{"i_long":106.85449,"transit":false,"is_transit":false,"station_id":"DRN","line":2,"time":3,"i_lat":-6.255332,"distance":1546,"station_name":"Duren Kalibata"},{"station_id":"PSMB","i_lat":-6.263214,"transit":false,"distance":824,"station_name":"Pasar Minggu Baru","i_long":106.851577,"line":2,"is_transit":false,"time":2},{"station_id":"PSM","distance":2380,"i_long":106.843999,"is_transit":false,"time":2,"line":2,"transit":false,"station_name":"Pasar Minggu","i_lat":-6.2842400000000005},{"transit":false,"station_name":"Tanjung Barat","i_long":106.838896,"is_transit":false,"distance":2820,"time":4,"line":2,"i_lat":-6.3080680000000005,"station_id":"TNT"},{"line":2,"is_transit":false,"distance":2671,"time":3,"i_long":106.832616,"transit":false,"station_id":"LNA","station_name":"Lenteng Agung","i_lat":-6.330363},{"station_name":"Univ. Pancasila","line":2,"transit":false,"time":2,"station_id":"UP","i_lat":-6.339291,"distance":1029,"is_transit":false,"i_long":106.834175}]]}