{"data":[[{"time":0,"station_name":"Serpong","i_lat":-6.319871,"distance":0,"i_long":106.66566,"is_transit":false,"line":6,"station_id":"SRP","transit":false},{"line":6,"transit":false,"station_name":"Rawa Buntu","distance":2413,"time":4,"station_id":"RU","is_transit":false,"i_long":106.675475,"i_lat":-6.314823},{"distance":4566,"station_id":"SDM","time":6,"line":6,"i_long":106.712277,"transit":false,"is_transit":false,"station_name":"Sudimara","i_lat":-6.296963},{"station_id":"JMU","i_long":106.728916,"station_name":"Jurangmangu","distance":1994,"is_transit":false,"line":6,"transit":false,"time":4,"i_lat":-6.288927},{"transit":false,"station_name":"Pondokranji","distance":2179,"i_lat":-6.276362,"is_transit":false,"time":3,"line":6,"i_long":106.74273,"station_id":"PDJ"},{"i_lat":-6.237242,"is_transit":false,"station_id":"KBY","i_long":106.780334,"distance":6218,"line":6,"transit":false,"time":8,"station_name":"Kebayoran"},{"time":7,"i_long":106.79689,"distance":3737,"is_transit":false,"station_id":"PLM","transit":false,"station_name":"Palmerah","i_lat":-6.207404,"line":6},{"is_transit":true,"station_name":"Tanah Abang","i_lat":-6.185545,"distance":3191,"transit":true,"time":6,"station_id":"THB","i_long":106.811091,"line":1},{"i_lat":-6.20132,"distance":2029,"transit":false,"station_id":"KAT","i_long":106.816351,"line":1,"is_transit":false,"time":5,"station_name":"Karet"},{"i_lat":-6.201433,"transit":false,"station_name":"Sudirman Baru","is_transit":false,"station_id":"SUDB","distance":471,"time":1,"line":1,"i_long":106.819881},{"time":1,"distance":280,"i_lat":-6.202263,"line":1,"station_name":"Sudirman","station_id":"SUD","transit":false,"is_transit":false,"i_long":106.822649},{"distance":3186,"i_lat":-6.209883,"transit":false,"is_transit":false,"time":4,"station_id":"MRI","station_name":"Manggarai","line":2,"i_long":106.84912}],[{"i_lat":-6.319871,"time":0,"station_name":"Serpong","transit":false,"i_long":106.66566,"line":6,"distance":0,"is_transit":false,"station_id":"SRP"},{"time":4,"station_id":"RU","i_long":106.675475,"station_name":"Rawa Buntu","line":6,"is_transit":false,"transit":false,"distance":2413,"i_lat":-6.314823},{"i_lat":-6.296963,"line":6,"is_transit":false,"transit":false,"station_name":"Sudimara","distance":4566,"time":6,"station_id":"SDM","i_long":106.712277},{"i_long":106.728916,"station_name":"Jurangmangu","is_transit":false,"station_id":"JMU","transit":false,"time":4,"distance":1994,"line":6,"i_lat":-6.288927},{"i_long":106.74273,"line":6,"transit":false,"is_transit":false,"station_id":"PDJ","time":3,"station_name":"Pondokranji","i_lat":-6.276362,"distance":2179},{"distance":6218,"transit":false,"line":6,"time":8,"i_long":106.780334,"is_transit":false,"station_name":"Kebayoran","i_lat":-6.237242,"station_id":"KBY"},{"line":6,"station_id":"PLM","i_lat":-6.207404,"distance":3737,"time":7,"transit":false,"station_name":"Palmerah","is_transit":false,"i_long":106.79689},{"line":1,"i_lat":-6.185545,"distance":3191,"transit":true,"time":6,"i_long":106.811091,"station_name":"Tanah Abang","is_transit":true,"station_id":"THB"},{"distance":3632,"station_id":"DU","i_long":106.800832,"line":1,"is_transit":false,"transit":false,"time":8,"station_name":"Duri","i_lat":-6.155215},{"i_lat":-6.144674,"is_transit":false,"station_name":"Angke","transit":false,"distance":1230,"time":4,"line":1,"i_long":106.79867,"station_id":"AK"},{"i_lat":-6.132549,"distance":4102,"is_transit":true,"time":9,"station_id":"KPB","i_long":106.826365,"transit":true,"station_name":"Kampung Bandan","line":4},{"distance":1364,"time":3,"station_id":"JAKK","i_lat":-6.137569,"station_name":"Jakarta Kota","is_transit":true,"line":2,"transit":true,"i_long":106.812439},{"is_transit":false,"distance":1264,"i_lat":-6.141205,"time":4,"line":2,"i_long":106.820901,"transit":false,"station_id":"JAY","station_name":"Jayakarta"},{"i_lat":-6.149769,"station_id":"MGB","i_long":106.82482,"line":2,"time":2,"transit":false,"distance":1080,"is_transit":false,"station_name":"Manggabesar"},{"line":2,"station_name":"Sawah Besar","i_long":106.827103,"is_transit":false,"station_id":"SW","distance":906,"transit":false,"i_lat":-6.160725,"time":2},{"transit":false,"station_id":"JUA","i_lat":-6.166716,"i_long":106.828284,"station_name":"Juanda","distance":1149,"is_transit":false,"time":2,"line":2},{"transit":false,"line":2,"station_id":"GDD","is_transit":false,"station_name":"Gondangdia","i_long":106.832183,"i_lat":-6.186295,"time":4,"distance":2015},{"distance":1750,"is_transit":false,"time":3,"i_long":106.840169,"station_name":"Cikini","i_lat":-6.198556,"line":2,"transit":false,"station_id":"CKI"},{"line":2,"is_transit":false,"station_name":"Manggarai","i_long":106.84912,"distance":1590,"i_lat":-6.209883,"time":4,"station_id":"MRI","transit":false}],[{"line":6,"station_id":"SRP","transit":false,"is_transit":false,"time":0,"distance":0,"station_name":"Serpong","i_long":106.66566,"i_lat":-6.319871},{"i_lat":-6.314823,"distance":2413,"i_long":106.675475,"station_id":"RU","line":6,"transit":false,"is_transit":false,"station_name":"Rawa Buntu","time":4},{"station_id":"SDM","i_lat":-6.296963,"transit":false,"time":6,"station_name":"Sudimara","i_long":106.712277,"line":6,"distance":4566,"is_transit":false},{"line":6,"i_lat":-6.288927,"station_name":"Jurangmangu","is_transit":false,"time":4,"distance":1994,"transit":false,"i_long":106.728916,"station_id":"JMU"},{"i_lat":-6.276362,"distance":2179,"station_id":"PDJ","transit":false,"is_transit":false,"line":6,"time":3,"station_name":"Pondokranji","i_long":106.74273},{"station_id":"KBY","i_long":106.780334,"transit":false,"line":6,"distance":6218,"time":8,"is_transit":false,"i_lat":-6.237242,"station_name":"Kebayoran"},{"is_transit":false,"i_long":106.79689,"station_id":"PLM","station_name":"Palmerah","transit":false,"time":7,"i_lat":-6.207404,"line":6,"distance":3737},{"i_lat":-6.185545,"transit":true,"time":6,"station_id":"THB","station_name":"Tanah Abang","line":1,"is_transit":true,"i_long":106.811091,"distance":3191},{"time":8,"i_lat":-6.155215,"distance":3632,"is_transit":false,"i_long":106.800832,"station_id":"DU","station_name":"Duri","line":1,"transit":false},{"distance":1230,"i_long":106.79867,"i_lat":-6.144674,"transit":false,"station_name":"Angke","is_transit":false,"time":4,"station_id":"AK","line":1},{"i_lat":-6.132549,"time":9,"station_id":"KPB","transit":true,"station_name":"Kampung Bandan","i_long":106.826365,"distance":4102,"line":4,"is_transit":true},{"i_lat":-6.14505,"line":11,"transit":false,"distance":1444,"is_transit":false,"station_name":"Rajawali","i_long":106.836569,"station_id":"RJW","time":3},{"station_name":"Kemayoran","i_long":106.839204,"is_transit":false,"station_id":"KMO","time":5,"distance":1901,"transit":false,"line":11,"i_lat":-6.161728},{"distance":1436,"i_long":106.84368,"time":4,"station_id":"PSE","station_name":"Pasar Senen","i_lat":-6.174784,"transit":false,"is_transit":false,"line":11},{"i_lat":-6.185975,"station_id":"GST","distance":1567,"time":8,"station_name":"Gang Sentiong","line":11,"transit":false,"i_long":106.850107,"is_transit":false},{"time":1,"transit":false,"is_transit":false,"i_lat":-6.193792,"station_name":"Kramat","distance":973,"line":11,"station_id":"KMT","i_long":106.855437},{"distance":1829,"transit":false,"station_id":"POK","time":2,"i_lat":-6.209188,"i_long":106.861737,"is_transit":false,"line":11,"station_name":"Pondok Jati"},{"line":1,"is_transit":true,"station_id":"JNG","station_name":"Jatinegara","i_lat":-6.215091,"i_long":106.86807400000001,"distance":1236,"transit":true,"time":9},{"distance":1377,"time":2,"transit":false,"station_name":"Matraman","is_transit":false,"station_id":"MTR","i_lat":-6.212485,"i_long":106.858896,"line":1},{"station_name":"Manggarai","i_long":106.84912,"transit":false,"is_transit":false,"station_id":"MRI","i_lat":-6.209883,"line":2,"distance":1275,"time":2}]]}