{"data":[[{"station_name":"Serpong","line":6,"time":0,"transit":false,"distance":0,"is_transit":false,"station_id":"SRP","i_lat":-6.319871,"i_long":106.66566},{"i_long":106.675475,"line":6,"i_lat":-6.314823,"station_id":"RU","transit":false,"is_transit":false,"time":4,"distance":2413,"station_name":"Rawa Buntu"},{"i_long":106.712277,"line":6,"distance":4566,"time":6,"is_transit":false,"transit":false,"i_lat":-6.296963,"station_id":"SDM","station_name":"Sudimara"},{"is_transit":false,"station_id":"JMU","i_lat":-6.288927,"i_long":106.728916,"transit":false,"time":4,"line":6,"distance":1994,"station_name":"Jurangmangu"},{"i_lat":-6.276362,"i_long":106.74273,"time":3,"distance":2179,"station_name":"Pondokranji","transit":false,"line":6,"is_transit":false,"station_id":"PDJ"},{"line":6,"distance":6218,"station_id":"KBY","station_name":"Kebayoran","i_long":106.780334,"time":8,"transit":false,"is_transit":false,"i_lat":-6.237242},{"station_id":"PLM","line":6,"transit":false,"distance":3737,"time":7,"i_long":106.79689,"is_transit":false,"station_name":"Palmerah","i_lat":-6.207404},{"i_lat":-6.185545,"is_transit":true,"i_long":106.811091,"station_name":"Tanah Abang","distance":3191,"station_id":"THB","transit":true,"time":6,"line":1},{"line":1,"is_transit":true,"station_id":"DU","station_name":"Duri","i_lat":-6.155215,"transit":true,"i_long":106.800832,"distance":3632,"time":8},{"time":4,"line":0,"i_lat":-6.144674,"is_transit":false,"transit":false,"station_id":"AK","distance":1230,"i_long":106.79867,"station_name":"Angke"},{"i_long":106.826365,"station_id":"KPB","line":0,"time":9,"i_lat":-6.132549,"is_transit":true,"station_name":"Kampung Bandan","distance":4102,"transit":false},{"station_id":"JAKK","i_lat":-6.137569,"time":3,"station_name":"Jakarta Kota","line":0,"is_transit":true,"distance":1364,"transit":false,"i_long":106.812439}],[{"transit":false,"is_transit":false,"time":0,"distance":0,"line":6,"station_name":"Serpong","i_lat":-6.319871,"i_long":106.66566,"station_id":"SRP"},{"i_lat":-6.314823,"line":6,"i_long":106.675475,"transit":false,"distance":2413,"is_transit":false,"station_id":"RU","time":4,"station_name":"Rawa Buntu"},{"time":6,"station_name":"Sudimara","i_lat":-6.296963,"is_transit":false,"station_id":"SDM","transit":false,"line":6,"distance":4566,"i_long":106.712277},{"i_lat":-6.288927,"line":6,"station_id":"JMU","distance":1994,"time":4,"is_transit":false,"transit":false,"station_name":"Jurangmangu","i_long":106.728916},{"distance":2179,"is_transit":false,"station_id":"PDJ","time":3,"station_name":"Pondokranji","i_lat":-6.276362,"transit":false,"i_long":106.74273,"line":6},{"station_name":"Kebayoran","distance":6218,"i_lat":-6.237242,"i_long":106.780334,"line":6,"station_id":"KBY","time":8,"transit":false,"is_transit":false},{"time":7,"i_lat":-6.207404,"transit":false,"i_long":106.79689,"distance":3737,"station_name":"Palmerah","station_id":"PLM","line":6,"is_transit":false},{"is_transit":true,"line":1,"i_lat":-6.185545,"station_id":"THB","i_long":106.811091,"distance":3191,"station_name":"Tanah Abang","transit":true,"time":6},{"transit":false,"distance":2029,"i_lat":-6.20132,"line":1,"is_transit":false,"station_id":"KAT","time":5,"i_long":106.816351,"station_name":"Karet"},{"is_transit":false,"transit":false,"distance":471,"line":1,"station_name":"Sudirman Baru","time":1,"i_long":106.819881,"i_lat":-6.201433,"station_id":"SUDB"},{"i_lat":-6.202263,"is_transit":false,"time":1,"station_name":"Sudirman","i_long":106.822649,"distance":280,"line":1,"station_id":"SUD","transit":false},{"station_name":"Manggarai","station_id":"MRI","line":0,"is_transit":true,"transit":true,"i_lat":-6.209883,"time":4,"distance":3186,"i_long":106.84912},{"is_transit":false,"station_id":"CKI","distance":1590,"time":4,"i_lat":-6.198556,"station_name":"Cikini","transit":false,"i_long":106.840169,"line":0},{"distance":1750,"i_lat":-6.186295,"station_id":"GDD","i_long":106.832183,"is_transit":false,"station_name":"Gondangdia","time":3,"line":2,"transit":false},{"line":2,"is_transit":false,"station_name":"Juanda","time":4,"transit":false,"i_long":106.828284,"station_id":"JUA","distance":2015,"i_lat":-6.166716},{"i_long":106.827103,"transit":false,"station_id":"SW","distance":1149,"station_name":"Sawah Besar","time":2,"line":2,"i_lat":-6.160725,"is_transit":false},{"is_transit":false,"station_id":"MGB","i_long":106.82482,"distance":906,"i_lat":-6.149769,"time":2,"station_name":"Manggabesar","transit":false,"line":2},{"i_lat":-6.141205,"time":2,"distance":1080,"transit":false,"station_name":"Jayakarta","line":7,"is_transit":false,"station_id":"JAY","i_long":106.820901},{"line":0,"transit":false,"time":4,"i_long":106.812439,"is_transit":true,"i_lat":-6.137569,"station_id":"JAKK","distance":1264,"station_name":"Jakarta Kota"}],[{"i_long":106.66566,"line":6,"is_transit":false,"time":0,"distance":0,"station_id":"SRP","station_name":"Serpong","transit":false,"i_lat":-6.319871},{"line":6,"time":4,"station_id":"RU","station_name":"Rawa Buntu","transit":false,"i_lat":-6.314823,"i_long":106.675475,"distance":2413,"is_transit":false},{"station_id":"SDM","time":6,"transit":false,"i_lat":-6.296963,"distance":4566,"i_long":106.712277,"is_transit":false,"station_name":"Sudimara","line":6},{"distance":1994,"station_name":"Jurangmangu","i_long":106.728916,"time":4,"station_id":"JMU","is_transit":false,"transit":false,"i_lat":-6.288927,"line":6},{"time":3,"is_transit":false,"i_lat":-6.276362,"line":6,"transit":false,"station_name":"Pondokranji","distance":2179,"station_id":"PDJ","i_long":106.74273},{"transit":false,"distance":6218,"line":6,"is_transit":false,"i_lat":-6.237242,"station_id":"KBY","station_name":"Kebayoran","time":8,"i_long":106.780334},{"distance":3737,"is_transit":false,"i_long":106.79689,"line":6,"time":7,"station_id":"PLM","transit":false,"station_name":"Palmerah","i_lat":-6.207404},{"i_lat":-6.185545,"i_long":106.811091,"is_transit":true,"station_id":"THB","station_name":"Tanah Abang","distance":3191,"line":1,"time":6,"transit":true},{"distance":2029,"station_id":"KAT","transit":false,"is_transit":false,"time":5,"i_lat":-6.20132,"i_long":106.816351,"line":1,"station_name":"Karet"},{"line":1,"station_id":"SUDB","transit":false,"station_name":"Sudirman Baru","i_long":106.819881,"distance":471,"i_lat":-6.201433,"is_transit":false,"time":1},{"time":1,"i_long":106.822649,"station_name":"Sudirman","is_transit":false,"distance":280,"i_lat":-6.202263,"transit":false,"line":1,"station_id":"SUD"},{"i_long":106.84912,"line":0,"station_id":"MRI","station_name":"Manggarai","is_transit":true,"i_lat":-6.209883,"distance":3186,"time":4,"transit":false},{"i_lat":-6.212485,"distance":1275,"station_id":"MTR","time":2,"i_long":106.858896,"is_transit":false,"transit":false,"station_name":"Matraman","line":1},{"distance":1377,"transit":true,"i_long":106.86807400000001,"station_name":"Jatinegara","i_lat":-6.215091,"line":0,"time":8,"is_transit":true,"station_id":"JNG"},{"station_name":"Pondok Jati","transit":false,"station_id":"POK","i_lat":-6.209188,"is_transit":false,"time":2,"line":11,"distance":1236,"i_long":106.861737},{"distance":1829,"is_transit":false,"i_long":106.855437,"line":11,"i_lat":-6.193792,"transit":false,"time":2,"station_id":"KMT","station_name":"Kramat"},{"i_lat":-6.185975,"distance":973,"is_transit":false,"station_name":"Gang Sentiong","station_id":"GST","transit":false,"i_long":106.850107,"time":1,"line":11},{"time":8,"transit":false,"i_lat":-6.174784,"station_id":"PSE","is_transit":false,"distance":1567,"i_long":106.84368,"station_name":"Pasar Senen","line":11},{"transit":false,"station_name":"Kemayoran","distance":1436,"i_long":106.839204,"i_lat":-6.161728,"line":11,"is_transit":false,"station_id":"KMO","time":4},{"distance":1901,"transit":false,"station_id":"RJW","is_transit":false,"line":11,"station_name":"Rajawali","i_lat":-6.14505,"time":5,"i_long":106.836569},{"is_transit":true,"station_id":"KPB","distance":1444,"line":0,"transit":true,"i_lat":-6.132549,"time":3,"station_name":"Kampung Bandan","i_long":106.826365},{"distance":1364,"line":0,"time":3,"i_long":106.812439,"transit":false,"station_name":"Jakarta Kota","is_transit":true,"i_lat":-6.137569,"station_id":"JAKK"}],[{"transit":false,"distance":0,"is_transit":false,"i_long":106.66566,"time":0,"station_id":"SRP","i_lat":-6.319871,"line":6,"station_name":"Serpong"},{"transit":false,"time":4,"distance":2413,"i_long":106.675475,"station_id":"RU","line":6,"station_name":"Rawa Buntu","i_lat":-6.314823,"is_transit":false},{"station_name":"Sudimara","time":6,"is_transit":false,"station_id":"SDM","i_lat":-6.296963,"line":6,"distance":4566,"transit":false,"i_long":106.712277},{"time":4,"i_long":106.728916,"station_name":"Jurangmangu","station_id":"JMU","distance":1994,"transit":false,"is_transit":false,"i_lat":-6.288927,"line":6},{"distance":2179,"i_lat":-6.276362,"i_long":106.74273,"time":3,"transit":false,"station_id":"PDJ","is_transit":false,"line":6,"station_name":"Pondokranji"},{"i_long":106.780334,"transit":false,"i_lat":-6.237242,"is_transit":false,"line":6,"station_id":"KBY","distance":6218,"time":8,"station_name":"Kebayoran"},{"station_name":"Palmerah","transit":false,"distance":3737,"station_id":"PLM","is_transit":false,"time":7,"i_long":106.79689,"line":6,"i_lat":-6.207404},{"time":6,"station_id":"THB","is_transit":true,"station_name":"Tanah Abang","i_long":106.811091,"transit":true,"i_lat":-6.185545,"line":1,"distance":3191},{"distance":3632,"station_id":"DU","is_transit":true,"station_name":"Duri","transit":true,"i_lat":-6.155215,"i_long":106.800832,"time":8,"line":1},{"station_id":"AK","transit":false,"i_long":106.79867,"time":4,"line":0,"i_lat":-6.144674,"station_name":"Angke","distance":1230,"is_transit":false},{"i_long":106.826365,"distance":4102,"is_transit":true,"line":0,"station_id":"KPB","station_name":"Kampung Bandan","transit":true,"i_lat":-6.132549,"time":9},{"time":3,"i_lat":-6.14505,"i_long":106.836569,"is_transit":false,"station_id":"RJW","distance":1444,"transit":false,"line":11,"station_name":"Rajawali"},{"station_id":"KMO","distance":1901,"i_lat":-6.161728,"transit":false,"time":5,"is_transit":false,"station_name":"Kemayoran","i_long":106.839204,"line":11},{"distance":1436,"station_name":"Pasar Senen","is_transit":false,"transit":false,"i_lat":-6.174784,"i_long":106.84368,"line":11,"time":4,"station_id":"PSE"},{"time":8,"transit":false,"line":11,"i_long":106.850107,"i_lat":-6.185975,"is_transit":false,"distance":1567,"station_name":"Gang Sentiong","station_id":"GST"},{"is_transit":false,"station_id":"KMT","line":11,"time":1,"transit":false,"station_name":"Kramat","i_lat":-6.193792,"i_long":106.855437,"distance":973},{"station_id":"POK","is_transit":false,"distance":1829,"station_name":"Pondok Jati","time":2,"i_long":106.861737,"i_lat":-6.209188,"transit":false,"line":11},{"i_lat":-6.215091,"i_long":106.86807400000001,"station_name":"Jatinegara","station_id":"JNG","transit":true,"is_transit":true,"distance":1236,"time":9,"line":0},{"time":2,"line":1,"station_name":"Matraman","is_transit":false,"i_lat":-6.212485,"transit":false,"station_id":"MTR","i_long":106.858896,"distance":1377},{"i_long":106.84912,"i_lat":-6.209883,"distance":1275,"is_transit":true,"station_id":"MRI","station_name":"Manggarai","transit":true,"line":0,"time":2},{"transit":false,"i_lat":-6.198556,"is_transit":false,"station_name":"Cikini","time":4,"i_long":106.840169,"distance":1590,"station_id":"CKI","line":0},{"is_transit":false,"station_id":"GDD","transit":false,"station_name":"Gondangdia","distance":1750,"time":3,"i_long":106.832183,"line":2,"i_lat":-6.186295},{"i_lat":-6.166716,"line":2,"is_transit":false,"distance":2015,"station_id":"JUA","transit":false,"time":4,"station_name":"Juanda","i_long":106.828284},{"distance":1149,"i_long":106.827103,"time":2,"station_name":"Sawah Besar","is_transit":false,"i_lat":-6.160725,"line":2,"station_id":"SW","transit":false},{"distance":906,"transit":false,"is_transit":false,"station_id":"MGB","line":2,"i_long":106.82482,"i_lat":-6.149769,"station_name":"Manggabesar","time":2},{"is_transit":false,"i_lat":-6.141205,"transit":false,"time":2,"station_name":"Jayakarta","i_long":106.820901,"line":7,"distance":1080,"station_id":"JAY"},{"transit":false,"station_name":"Jakarta Kota","distance":1264,"is_transit":true,"i_long":106.812439,"line":0,"time":4,"station_id":"JAKK","i_lat":-6.137569}]]}