{"data":[[{"is_transit":false,"i_lat":-6.319871,"station_id":"SRP","station_name":"Serpong","transit":false,"line":6,"distance":0,"time":0,"i_long":106.66566},{"i_lat":-6.314823,"i_long":106.675475,"is_transit":false,"time":4,"distance":2413,"station_name":"Rawa Buntu","transit":false,"station_id":"RU","line":6},{"station_id":"SDM","transit":false,"i_long":106.712277,"station_name":"Sudimara","time":6,"line":6,"distance":4566,"is_transit":false,"i_lat":-6.296963},{"i_long":106.728916,"station_name":"Jurangmangu","is_transit":false,"station_id":"JMU","transit":false,"line":6,"time":4,"i_lat":-6.288927,"distance":1994},{"station_id":"PDJ","transit":false,"distance":2179,"i_long":106.74273,"line":6,"time":3,"station_name":"Pondokranji","i_lat":-6.276362,"is_transit":false},{"distance":6218,"is_transit":false,"transit":false,"time":8,"i_lat":-6.237242,"station_id":"KBY","line":6,"i_long":106.780334,"station_name":"Kebayoran"},{"distance":3737,"station_id":"PLM","station_name":"Palmerah","time":7,"i_lat":-6.207404,"transit":false,"is_transit":false,"line":6,"i_long":106.79689},{"station_id":"THB","distance":3191,"station_name":"Tanah Abang","i_lat":-6.185545,"time":6,"is_transit":true,"i_long":106.811091,"transit":true,"line":1},{"is_transit":false,"time":5,"i_long":106.816351,"line":1,"station_name":"Karet","i_lat":-6.20132,"distance":2029,"station_id":"KAT","transit":false},{"station_name":"Sudirman Baru","i_long":106.819881,"i_lat":-6.201433,"station_id":"SUDB","line":1,"time":1,"transit":false,"distance":471,"is_transit":false},{"transit":false,"i_lat":-6.202263,"i_long":106.822649,"station_id":"SUD","is_transit":false,"time":1,"line":1,"station_name":"Sudirman","distance":280},{"is_transit":true,"station_name":"Manggarai","transit":false,"i_lat":-6.209883,"time":4,"line":0,"station_id":"MRI","distance":3186,"i_long":106.84912}],[{"station_id":"SRP","i_long":106.66566,"distance":0,"line":6,"is_transit":false,"transit":false,"time":0,"station_name":"Serpong","i_lat":-6.319871},{"station_name":"Rawa Buntu","time":4,"i_long":106.675475,"transit":false,"i_lat":-6.314823,"line":6,"is_transit":false,"distance":2413,"station_id":"RU"},{"time":6,"i_long":106.712277,"distance":4566,"transit":false,"station_id":"SDM","is_transit":false,"line":6,"station_name":"Sudimara","i_lat":-6.296963},{"station_name":"Jurangmangu","distance":1994,"station_id":"JMU","transit":false,"line":6,"i_long":106.728916,"is_transit":false,"i_lat":-6.288927,"time":4},{"station_name":"Pondokranji","line":6,"time":3,"transit":false,"i_lat":-6.276362,"distance":2179,"station_id":"PDJ","i_long":106.74273,"is_transit":false},{"distance":6218,"i_long":106.780334,"time":8,"station_id":"KBY","is_transit":false,"i_lat":-6.237242,"line":6,"station_name":"Kebayoran","transit":false},{"distance":3737,"station_name":"Palmerah","line":6,"station_id":"PLM","time":7,"is_transit":false,"transit":false,"i_lat":-6.207404,"i_long":106.79689},{"station_name":"Tanah Abang","transit":true,"i_long":106.811091,"i_lat":-6.185545,"is_transit":true,"distance":3191,"line":1,"station_id":"THB","time":6},{"distance":3632,"i_long":106.800832,"is_transit":true,"i_lat":-6.155215,"time":8,"transit":true,"line":1,"station_id":"DU","station_name":"Duri"},{"station_id":"AK","station_name":"Angke","i_long":106.79867,"transit":false,"i_lat":-6.144674,"line":0,"time":4,"distance":1230,"is_transit":false},{"i_lat":-6.132549,"station_name":"Kampung Bandan","station_id":"KPB","distance":4102,"is_transit":true,"time":9,"i_long":106.826365,"line":0,"transit":false},{"station_name":"Jakarta Kota","is_transit":true,"i_lat":-6.137569,"line":0,"distance":1364,"station_id":"JAKK","transit":true,"i_long":106.812439,"time":3},{"i_long":106.820901,"station_id":"JAY","transit":false,"station_name":"Jayakarta","line":7,"time":4,"distance":1264,"i_lat":-6.141205,"is_transit":false},{"station_id":"MGB","i_long":106.82482,"station_name":"Manggabesar","is_transit":false,"i_lat":-6.149769,"distance":1080,"time":2,"transit":false,"line":2},{"i_lat":-6.160725,"time":2,"transit":false,"station_id":"SW","i_long":106.827103,"line":2,"distance":906,"is_transit":false,"station_name":"Sawah Besar"},{"is_transit":false,"transit":false,"time":2,"distance":1149,"station_name":"Juanda","line":2,"station_id":"JUA","i_lat":-6.166716,"i_long":106.828284},{"i_lat":-6.186295,"transit":false,"distance":2015,"station_name":"Gondangdia","time":4,"station_id":"GDD","i_long":106.832183,"line":2,"is_transit":false},{"transit":false,"is_transit":false,"i_long":106.840169,"time":3,"station_id":"CKI","station_name":"Cikini","line":0,"distance":1750,"i_lat":-6.198556},{"station_name":"Manggarai","time":4,"i_long":106.84912,"i_lat":-6.209883,"station_id":"MRI","transit":false,"is_transit":true,"line":0,"distance":1590}],[{"station_id":"SRP","is_transit":false,"i_long":106.66566,"transit":false,"i_lat":-6.319871,"line":6,"distance":0,"station_name":"Serpong","time":0},{"i_lat":-6.314823,"line":6,"i_long":106.675475,"is_transit":false,"station_name":"Rawa Buntu","station_id":"RU","transit":false,"distance":2413,"time":4},{"station_name":"Sudimara","i_lat":-6.296963,"station_id":"SDM","distance":4566,"is_transit":false,"transit":false,"i_long":106.712277,"time":6,"line":6},{"time":4,"distance":1994,"station_id":"JMU","is_transit":false,"i_lat":-6.288927,"i_long":106.728916,"transit":false,"line":6,"station_name":"Jurangmangu"},{"time":3,"is_transit":false,"i_long":106.74273,"station_id":"PDJ","transit":false,"line":6,"distance":2179,"i_lat":-6.276362,"station_name":"Pondokranji"},{"time":8,"i_long":106.780334,"is_transit":false,"distance":6218,"station_name":"Kebayoran","transit":false,"station_id":"KBY","i_lat":-6.237242,"line":6},{"is_transit":false,"station_id":"PLM","time":7,"distance":3737,"station_name":"Palmerah","i_lat":-6.207404,"transit":false,"line":6,"i_long":106.79689},{"station_id":"THB","station_name":"Tanah Abang","is_transit":true,"i_long":106.811091,"distance":3191,"transit":true,"i_lat":-6.185545,"time":6,"line":1},{"i_long":106.800832,"station_id":"DU","time":8,"is_transit":true,"transit":true,"distance":3632,"i_lat":-6.155215,"line":1,"station_name":"Duri"},{"transit":false,"station_id":"AK","time":4,"i_long":106.79867,"i_lat":-6.144674,"station_name":"Angke","line":0,"distance":1230,"is_transit":false},{"line":0,"transit":true,"station_id":"KPB","i_lat":-6.132549,"station_name":"Kampung Bandan","is_transit":true,"i_long":106.826365,"distance":4102,"time":9},{"distance":1444,"is_transit":false,"transit":false,"time":3,"i_lat":-6.14505,"station_name":"Rajawali","station_id":"RJW","i_long":106.836569,"line":11},{"is_transit":false,"i_lat":-6.161728,"line":11,"transit":false,"station_id":"KMO","distance":1901,"station_name":"Kemayoran","time":5,"i_long":106.839204},{"station_name":"Pasar Senen","i_lat":-6.174784,"station_id":"PSE","time":4,"line":11,"distance":1436,"i_long":106.84368,"is_transit":false,"transit":false},{"station_id":"GST","station_name":"Gang Sentiong","transit":false,"time":8,"i_long":106.850107,"i_lat":-6.185975,"line":11,"distance":1567,"is_transit":false},{"is_transit":false,"station_id":"KMT","station_name":"Kramat","transit":false,"i_lat":-6.193792,"i_long":106.855437,"line":11,"distance":973,"time":1},{"time":2,"line":11,"transit":false,"distance":1829,"station_id":"POK","i_long":106.861737,"station_name":"Pondok Jati","i_lat":-6.209188,"is_transit":false},{"station_name":"Jatinegara","time":9,"i_lat":-6.215091,"is_transit":true,"i_long":106.86807400000001,"station_id":"JNG","line":0,"distance":1236,"transit":true},{"i_lat":-6.212485,"is_transit":false,"transit":false,"line":1,"station_id":"MTR","station_name":"Matraman","i_long":106.858896,"time":2,"distance":1377},{"i_lat":-6.209883,"station_id":"MRI","transit":false,"station_name":"Manggarai","i_long":106.84912,"line":0,"distance":1275,"is_transit":true,"time":2}]]}