{"data":[[{"station_name":"Serpong","line":6,"transit":false,"i_lat":-6.319871,"i_long":106.66566,"station_id":"SRP","is_transit":false,"distance":0,"time":0},{"station_id":"RU","time":4,"i_long":106.675475,"distance":2413,"i_lat":-6.314823,"line":6,"transit":false,"station_name":"Rawa Buntu","is_transit":false},{"distance":4566,"i_long":106.712277,"station_id":"SDM","time":6,"line":6,"is_transit":false,"transit":false,"station_name":"Sudimara","i_lat":-6.296963},{"station_id":"JMU","i_lat":-6.288927,"transit":false,"time":4,"station_name":"Jurangmangu","line":6,"i_long":106.728916,"is_transit":false,"distance":1994},{"distance":2179,"transit":false,"line":6,"i_lat":-6.276362,"station_name":"Pondokranji","station_id":"PDJ","time":3,"is_transit":false,"i_long":106.74273},{"station_id":"KBY","station_name":"Kebayoran","line":6,"is_transit":false,"time":8,"i_long":106.780334,"transit":false,"distance":6218,"i_lat":-6.237242},{"time":7,"line":6,"i_lat":-6.207404,"i_long":106.79689,"transit":false,"is_transit":false,"station_name":"Palmerah","distance":3737,"station_id":"PLM"},{"i_lat":-6.185545,"time":6,"is_transit":true,"transit":true,"i_long":106.811091,"line":1,"station_id":"THB","station_name":"Tanah Abang","distance":3191},{"is_transit":false,"line":1,"time":5,"station_name":"Karet","i_long":106.816351,"station_id":"KAT","transit":false,"distance":2029,"i_lat":-6.20132},{"station_name":"Sudirman Baru","i_lat":-6.201433,"transit":false,"station_id":"SUDB","distance":471,"is_transit":false,"i_long":106.819881,"time":1,"line":1},{"i_long":106.822649,"transit":false,"station_name":"Sudirman","distance":280,"time":1,"station_id":"SUD","is_transit":false,"i_lat":-6.202263,"line":1},{"is_transit":true,"time":4,"station_id":"MRI","distance":3186,"transit":true,"i_long":106.84912,"station_name":"Manggarai","line":2,"i_lat":-6.209883},{"i_lat":-6.226659,"distance":2610,"is_transit":false,"station_name":"Tebet","time":4,"i_long":106.857948,"line":2,"station_id":"TEB","transit":false},{"distance":1230,"station_name":"Cawang","transit":false,"line":2,"station_id":"CW","i_long":106.856607,"i_lat":-6.242512,"is_transit":false,"time":2},{"station_name":"Duren Kalibata","line":2,"i_long":106.85449,"station_id":"DRN","i_lat":-6.255332,"distance":1546,"time":3,"transit":false,"is_transit":false},{"distance":824,"is_transit":false,"line":2,"time":2,"i_lat":-6.263214,"station_name":"Pasar Minggu Baru","transit":false,"station_id":"PSMB","i_long":106.851577},{"transit":false,"distance":2380,"time":2,"i_long":106.843999,"i_lat":-6.2842400000000005,"station_id":"PSM","line":2,"station_name":"Pasar Minggu","is_transit":false},{"i_long":106.838896,"time":4,"distance":2820,"transit":false,"station_name":"Tanjung Barat","station_id":"TNT","line":2,"is_transit":false,"i_lat":-6.3080680000000005},{"line":2,"is_transit":false,"transit":false,"station_name":"Lenteng Agung","distance":2671,"i_lat":-6.330363,"time":3,"i_long":106.832616,"station_id":"LNA"},{"station_id":"UP","i_lat":-6.339291,"is_transit":false,"time":2,"line":2,"i_long":106.834175,"transit":false,"station_name":"Univ. Pancasila","distance":1029},{"i_long":106.831474,"distance":2264,"i_lat":-6.360749,"line":2,"time":3,"transit":false,"station_name":"Univ. Indonesia","is_transit":false,"station_id":"UI"},{"station_id":"POC","transit":false,"i_long":106.831114,"i_lat":-6.369073,"time":2,"distance":1109,"line":2,"is_transit":false,"station_name":"Pondok Cina"},{"line":2,"transit":false,"station_name":"Depokbaru","station_id":"DPB","distance":2727,"is_transit":false,"i_lat":-6.391065,"time":4,"i_long":106.819451},{"distance":1584,"time":3,"i_lat":-6.405256,"transit":false,"is_transit":false,"station_id":"DP","line":2,"i_long":106.816926,"station_name":"Depok"},{"i_long":106.800298,"line":2,"time":6,"is_transit":true,"transit":true,"i_lat":-6.448811,"station_name":"Citayam","distance":5084,"station_id":"CTA"},{"station_name":"Pondok Rajeg","station_id":"PDRG","time":0,"line":21,"distance":0,"transit":false,"i_lat":-6.460735,"is_transit":false,"i_long":106.824374},{"i_lat":-6.46424,"time":0,"station_id":"CBN","i_long":106.851978,"line":21,"is_transit":false,"station_name":"Cibinong","distance":0,"transit":false}],[{"station_id":"SRP","transit":false,"i_long":106.66566,"is_transit":false,"i_lat":-6.319871,"distance":0,"station_name":"Serpong","time":0,"line":6},{"i_long":106.675475,"distance":2413,"line":6,"station_id":"RU","time":4,"i_lat":-6.314823,"is_transit":false,"transit":false,"station_name":"Rawa Buntu"},{"distance":4566,"station_name":"Sudimara","i_lat":-6.296963,"is_transit":false,"transit":false,"i_long":106.712277,"line":6,"time":6,"station_id":"SDM"},{"time":4,"station_id":"JMU","i_lat":-6.288927,"transit":false,"line":6,"i_long":106.728916,"station_name":"Jurangmangu","distance":1994,"is_transit":false},{"distance":2179,"station_id":"PDJ","line":6,"is_transit":false,"i_long":106.74273,"time":3,"transit":false,"i_lat":-6.276362,"station_name":"Pondokranji"},{"transit":false,"line":6,"station_name":"Kebayoran","station_id":"KBY","i_lat":-6.237242,"i_long":106.780334,"time":8,"distance":6218,"is_transit":false},{"is_transit":false,"distance":3737,"transit":false,"time":7,"station_id":"PLM","line":6,"i_long":106.79689,"i_lat":-6.207404,"station_name":"Palmerah"},{"time":6,"is_transit":true,"distance":3191,"i_lat":-6.185545,"i_long":106.811091,"station_name":"Tanah Abang","station_id":"THB","line":1,"transit":true},{"transit":false,"line":1,"station_id":"DU","distance":3632,"time":8,"station_name":"Duri","is_transit":false,"i_lat":-6.155215,"i_long":106.800832},{"station_name":"Angke","station_id":"AK","i_lat":-6.144674,"is_transit":false,"distance":1230,"transit":false,"i_long":106.79867,"time":4,"line":1},{"time":9,"i_long":106.826365,"i_lat":-6.132549,"distance":4102,"transit":true,"is_transit":true,"station_id":"KPB","station_name":"Kampung Bandan","line":4},{"time":3,"i_long":106.812439,"line":2,"i_lat":-6.137569,"station_name":"Jakarta Kota","transit":true,"distance":1364,"station_id":"JAKK","is_transit":true},{"station_id":"JAY","time":4,"line":2,"i_lat":-6.141205,"station_name":"Jayakarta","transit":false,"is_transit":false,"i_long":106.820901,"distance":1264},{"i_long":106.82482,"station_id":"MGB","is_transit":false,"distance":1080,"i_lat":-6.149769,"line":2,"station_name":"Manggabesar","transit":false,"time":2},{"time":2,"i_lat":-6.160725,"line":2,"transit":false,"station_name":"Sawah Besar","station_id":"SW","is_transit":false,"i_long":106.827103,"distance":906},{"i_lat":-6.166716,"i_long":106.828284,"line":2,"time":2,"station_name":"Juanda","is_transit":false,"distance":1149,"transit":false,"station_id":"JUA"},{"transit":false,"i_long":106.832183,"distance":2015,"station_name":"Gondangdia","time":4,"i_lat":-6.186295,"is_transit":false,"line":2,"station_id":"GDD"},{"i_long":106.840169,"station_name":"Cikini","time":3,"station_id":"CKI","transit":false,"i_lat":-6.198556,"is_transit":false,"distance":1750,"line":2},{"is_transit":false,"time":4,"station_name":"Manggarai","i_long":106.84912,"transit":false,"distance":1590,"i_lat":-6.209883,"line":2,"station_id":"MRI"},{"station_id":"TEB","line":2,"i_lat":-6.226659,"station_name":"Tebet","is_transit":false,"i_long":106.857948,"time":4,"distance":2610,"transit":false},{"line":2,"i_long":106.856607,"station_name":"Cawang","distance":1230,"station_id":"CW","i_lat":-6.242512,"is_transit":false,"transit":false,"time":2},{"is_transit":false,"station_name":"Duren Kalibata","transit":false,"i_long":106.85449,"station_id":"DRN","time":3,"i_lat":-6.255332,"distance":1546,"line":2},{"distance":824,"station_id":"PSMB","i_lat":-6.263214,"transit":false,"i_long":106.851577,"time":2,"line":2,"station_name":"Pasar Minggu Baru","is_transit":false},{"i_long":106.843999,"line":2,"station_id":"PSM","transit":false,"distance":2380,"time":2,"station_name":"Pasar Minggu","is_transit":false,"i_lat":-6.2842400000000005},{"distance":2820,"station_name":"Tanjung Barat","is_transit":false,"time":4,"station_id":"TNT","i_long":106.838896,"line":2,"transit":false,"i_lat":-6.3080680000000005},{"is_transit":false,"distance":2671,"line":2,"time":3,"station_name":"Lenteng Agung","i_lat":-6.330363,"transit":false,"station_id":"LNA","i_long":106.832616},{"time":2,"i_long":106.834175,"transit":false,"station_name":"Univ. Pancasila","is_transit":false,"distance":1029,"i_lat":-6.339291,"line":2,"station_id":"UP"},{"time":3,"distance":2264,"station_name":"Univ. Indonesia","i_long":106.831474,"line":2,"station_id":"UI","is_transit":false,"transit":false,"i_lat":-6.360749},{"station_id":"POC","time":2,"transit":false,"distance":1109,"station_name":"Pondok Cina","is_transit":false,"line":2,"i_lat":-6.369073,"i_long":106.831114},{"station_id":"DPB","i_lat":-6.391065,"time":4,"distance":2727,"station_name":"Depokbaru","transit":false,"is_transit":false,"line":2,"i_long":106.819451},{"i_long":106.816926,"distance":1584,"transit":false,"is_transit":false,"line":2,"i_lat":-6.405256,"station_id":"DP","station_name":"Depok","time":3},{"i_long":106.800298,"is_transit":true,"i_lat":-6.448811,"line":2,"station_name":"Citayam","time":6,"transit":true,"station_id":"CTA","distance":5084},{"station_name":"Pondok Rajeg","i_long":106.824374,"time":0,"station_id":"PDRG","transit":false,"distance":0,"i_lat":-6.460735,"is_transit":false,"line":21},{"time":0,"i_long":106.851978,"line":21,"is_transit":false,"station_id":"CBN","transit":false,"distance":0,"station_name":"Cibinong","i_lat":-6.46424}],[{"time":0,"is_transit":false,"distance":0,"transit":false,"i_long":106.66566,"i_lat":-6.319871,"line":6,"station_id":"SRP","station_name":"Serpong"},{"time":4,"is_transit":false,"transit":false,"distance":2413,"line":6,"station_name":"Rawa Buntu","i_lat":-6.314823,"i_long":106.675475,"station_id":"RU"},{"time":6,"station_id":"SDM","i_lat":-6.296963,"i_long":106.712277,"line":6,"is_transit":false,"station_name":"Sudimara","transit":false,"distance":4566},{"time":4,"station_name":"Jurangmangu","station_id":"JMU","i_lat":-6.288927,"is_transit":false,"i_long":106.728916,"distance":1994,"transit":false,"line":6},{"station_id":"PDJ","i_lat":-6.276362,"transit":false,"i_long":106.74273,"line":6,"station_name":"Pondokranji","is_transit":false,"distance":2179,"time":3},{"i_lat":-6.237242,"distance":6218,"station_name":"Kebayoran","i_long":106.780334,"station_id":"KBY","transit":false,"line":6,"is_transit":false,"time":8},{"is_transit":false,"i_long":106.79689,"station_id":"PLM","transit":false,"station_name":"Palmerah","time":7,"distance":3737,"i_lat":-6.207404,"line":6},{"station_name":"Tanah Abang","transit":true,"line":1,"distance":3191,"time":6,"station_id":"THB","i_lat":-6.185545,"i_long":106.811091,"is_transit":true},{"time":8,"i_lat":-6.155215,"station_name":"Duri","station_id":"DU","distance":3632,"transit":false,"i_long":106.800832,"is_transit":false,"line":1},{"distance":1230,"transit":false,"i_lat":-6.144674,"time":4,"station_id":"AK","i_long":106.79867,"line":1,"is_transit":false,"station_name":"Angke"},{"i_lat":-6.132549,"line":4,"transit":true,"station_name":"Kampung Bandan","is_transit":true,"time":9,"station_id":"KPB","i_long":106.826365,"distance":4102},{"station_name":"Rajawali","i_lat":-6.14505,"station_id":"RJW","is_transit":false,"i_long":106.836569,"transit":false,"distance":1444,"time":3,"line":11},{"i_long":106.839204,"line":11,"station_name":"Kemayoran","time":5,"is_transit":false,"station_id":"KMO","i_lat":-6.161728,"distance":1901,"transit":false},{"station_name":"Pasar Senen","i_lat":-6.174784,"station_id":"PSE","transit":false,"i_long":106.84368,"distance":1436,"line":11,"is_transit":false,"time":4},{"is_transit":false,"distance":1567,"i_long":106.850107,"time":8,"transit":false,"station_name":"Gang Sentiong","station_id":"GST","i_lat":-6.185975,"line":11},{"i_long":106.855437,"is_transit":false,"station_id":"KMT","i_lat":-6.193792,"time":1,"distance":973,"station_name":"Kramat","line":11,"transit":false},{"i_long":106.861737,"i_lat":-6.209188,"is_transit":false,"station_id":"POK","distance":1829,"transit":false,"line":11,"time":2,"station_name":"Pondok Jati"},{"is_transit":true,"i_long":106.86807400000001,"line":1,"transit":true,"station_name":"Jatinegara","time":9,"station_id":"JNG","distance":1236,"i_lat":-6.215091},{"line":1,"distance":1377,"station_id":"MTR","is_transit":false,"station_name":"Matraman","time":2,"i_long":106.858896,"i_lat":-6.212485,"transit":false},{"transit":true,"is_transit":true,"i_lat":-6.209883,"i_long":106.84912,"distance":1275,"time":2,"station_id":"MRI","line":2,"station_name":"Manggarai"},{"station_name":"Tebet","distance":2610,"time":4,"transit":false,"i_lat":-6.226659,"is_transit":false,"i_long":106.857948,"station_id":"TEB","line":2},{"station_id":"CW","time":2,"is_transit":false,"distance":1230,"station_name":"Cawang","transit":false,"i_lat":-6.242512,"i_long":106.856607,"line":2},{"i_long":106.85449,"station_name":"Duren Kalibata","i_lat":-6.255332,"distance":1546,"time":3,"is_transit":false,"line":2,"station_id":"DRN","transit":false},{"is_transit":false,"station_id":"PSMB","transit":false,"i_long":106.851577,"station_name":"Pasar Minggu Baru","line":2,"time":2,"distance":824,"i_lat":-6.263214},{"time":2,"station_name":"Pasar Minggu","distance":2380,"i_lat":-6.2842400000000005,"i_long":106.843999,"transit":false,"line":2,"is_transit":false,"station_id":"PSM"},{"transit":false,"time":4,"station_name":"Tanjung Barat","distance":2820,"i_lat":-6.3080680000000005,"i_long":106.838896,"is_transit":false,"station_id":"TNT","line":2},{"station_name":"Lenteng Agung","station_id":"LNA","line":2,"i_long":106.832616,"distance":2671,"time":3,"is_transit":false,"transit":false,"i_lat":-6.330363},{"distance":1029,"i_long":106.834175,"transit":false,"i_lat":-6.339291,"time":2,"line":2,"station_name":"Univ. Pancasila","station_id":"UP","is_transit":false},{"time":3,"is_transit":false,"distance":2264,"station_id":"UI","station_name":"Univ. Indonesia","transit":false,"i_lat":-6.360749,"i_long":106.831474,"line":2},{"time":2,"transit":false,"station_id":"POC","station_name":"Pondok Cina","i_long":106.831114,"is_transit":false,"line":2,"i_lat":-6.369073,"distance":1109},{"time":4,"station_id":"DPB","distance":2727,"station_name":"Depokbaru","is_transit":false,"i_lat":-6.391065,"i_long":106.819451,"transit":false,"line":2},{"i_long":106.816926,"time":3,"station_name":"Depok","i_lat":-6.405256,"transit":false,"line":2,"is_transit":false,"distance":1584,"station_id":"DP"},{"i_long":106.800298,"line":2,"station_id":"CTA","i_lat":-6.448811,"is_transit":true,"station_name":"Citayam","time":6,"transit":true,"distance":5084},{"i_long":106.824374,"distance":0,"station_id":"PDRG","transit":false,"i_lat":-6.460735,"line":21,"station_name":"Pondok Rajeg","is_transit":false,"time":0},{"i_long":106.851978,"i_lat":-6.46424,"is_transit":false,"station_id":"CBN","line":21,"distance":0,"time":0,"station_name":"Cibinong","transit":false}]]}