{"data":[[{"is_transit":false,"station_id":"SRP","i_long":106.66566,"distance":0,"time":0,"i_lat":-6.319871,"line":6,"transit":false,"station_name":"Serpong"},{"station_id":"RU","line":6,"time":4,"is_transit":false,"station_name":"Rawa Buntu","i_lat":-6.314823,"i_long":106.675475,"distance":2413,"transit":false},{"is_transit":false,"time":6,"line":6,"station_id":"SDM","station_name":"Sudimara","i_lat":-6.296963,"distance":4566,"transit":false,"i_long":106.712277},{"station_id":"JMU","time":4,"line":6,"is_transit":false,"transit":false,"i_lat":-6.288927,"i_long":106.728916,"station_name":"Jurangmangu","distance":1994},{"station_id":"PDJ","is_transit":false,"station_name":"Pondokranji","time":3,"transit":false,"i_long":106.74273,"distance":2179,"line":6,"i_lat":-6.276362},{"is_transit":false,"i_long":106.780334,"time":8,"station_id":"KBY","station_name":"Kebayoran","line":6,"transit":false,"distance":6218,"i_lat":-6.237242},{"distance":3737,"station_name":"Palmerah","i_lat":-6.207404,"line":6,"time":7,"transit":false,"i_long":106.79689,"is_transit":false,"station_id":"PLM"},{"time":6,"station_name":"Tanah Abang","distance":3191,"station_id":"THB","i_lat":-6.185545,"i_long":106.811091,"transit":true,"line":1,"is_transit":true},{"is_transit":false,"i_lat":-6.20132,"distance":2029,"line":1,"transit":false,"station_name":"Karet","station_id":"KAT","time":5,"i_long":106.816351},{"line":1,"station_id":"SUDB","is_transit":false,"i_lat":-6.201433,"station_name":"Sudirman Baru","distance":471,"transit":false,"i_long":106.819881,"time":1},{"i_lat":-6.202263,"station_id":"SUD","line":1,"distance":280,"is_transit":false,"time":1,"station_name":"Sudirman","i_long":106.822649,"transit":false},{"transit":false,"distance":3186,"i_long":106.84912,"line":2,"station_id":"MRI","station_name":"Manggarai","time":4,"i_lat":-6.209883,"is_transit":false}],[{"time":0,"transit":false,"i_long":106.66566,"distance":0,"station_name":"Serpong","i_lat":-6.319871,"is_transit":false,"station_id":"SRP","line":6},{"i_long":106.675475,"station_id":"RU","transit":false,"distance":2413,"i_lat":-6.314823,"is_transit":false,"line":6,"time":4,"station_name":"Rawa Buntu"},{"time":6,"is_transit":false,"distance":4566,"station_name":"Sudimara","line":6,"i_lat":-6.296963,"transit":false,"station_id":"SDM","i_long":106.712277},{"station_id":"JMU","station_name":"Jurangmangu","line":6,"distance":1994,"i_lat":-6.288927,"i_long":106.728916,"transit":false,"is_transit":false,"time":4},{"time":3,"station_id":"PDJ","station_name":"Pondokranji","i_long":106.74273,"transit":false,"line":6,"is_transit":false,"i_lat":-6.276362,"distance":2179},{"station_id":"KBY","is_transit":false,"line":6,"i_lat":-6.237242,"transit":false,"station_name":"Kebayoran","distance":6218,"i_long":106.780334,"time":8},{"i_lat":-6.207404,"station_name":"Palmerah","is_transit":false,"time":7,"station_id":"PLM","distance":3737,"transit":false,"line":6,"i_long":106.79689},{"station_name":"Tanah Abang","transit":true,"i_lat":-6.185545,"station_id":"THB","distance":3191,"is_transit":true,"time":6,"i_long":106.811091,"line":1},{"station_id":"DU","is_transit":false,"time":8,"transit":false,"station_name":"Duri","i_lat":-6.155215,"line":1,"i_long":106.800832,"distance":3632},{"station_name":"Angke","time":4,"station_id":"AK","line":1,"i_lat":-6.144674,"is_transit":false,"distance":1230,"transit":false,"i_long":106.79867},{"transit":true,"station_id":"KPB","station_name":"Kampung Bandan","time":9,"distance":4102,"i_lat":-6.132549,"line":4,"i_long":106.826365,"is_transit":true},{"transit":true,"station_id":"JAKK","line":2,"i_long":106.812439,"is_transit":true,"distance":1364,"i_lat":-6.137569,"station_name":"Jakarta Kota","time":3},{"line":2,"time":4,"transit":false,"is_transit":false,"i_lat":-6.141205,"station_name":"Jayakarta","i_long":106.820901,"station_id":"JAY","distance":1264},{"line":2,"transit":false,"station_name":"Manggabesar","station_id":"MGB","time":2,"i_lat":-6.149769,"is_transit":false,"i_long":106.82482,"distance":1080},{"time":2,"is_transit":false,"transit":false,"i_lat":-6.160725,"line":2,"station_id":"SW","distance":906,"station_name":"Sawah Besar","i_long":106.827103},{"i_long":106.828284,"transit":false,"station_id":"JUA","line":2,"is_transit":false,"time":2,"distance":1149,"station_name":"Juanda","i_lat":-6.166716},{"station_id":"GDD","i_long":106.832183,"line":2,"i_lat":-6.186295,"station_name":"Gondangdia","time":4,"is_transit":false,"transit":false,"distance":2015},{"station_id":"CKI","distance":1750,"i_lat":-6.198556,"transit":false,"time":3,"station_name":"Cikini","is_transit":false,"i_long":106.840169,"line":2},{"station_name":"Manggarai","distance":1590,"i_long":106.84912,"time":4,"transit":false,"is_transit":false,"line":2,"station_id":"MRI","i_lat":-6.209883}],[{"transit":false,"i_long":106.66566,"is_transit":false,"i_lat":-6.319871,"time":0,"station_id":"SRP","distance":0,"line":6,"station_name":"Serpong"},{"line":6,"station_id":"RU","transit":false,"is_transit":false,"station_name":"Rawa Buntu","distance":2413,"time":4,"i_lat":-6.314823,"i_long":106.675475},{"i_lat":-6.296963,"station_id":"SDM","line":6,"time":6,"i_long":106.712277,"is_transit":false,"distance":4566,"station_name":"Sudimara","transit":false},{"station_id":"JMU","station_name":"Jurangmangu","transit":false,"i_long":106.728916,"line":6,"is_transit":false,"distance":1994,"i_lat":-6.288927,"time":4},{"transit":false,"i_lat":-6.276362,"station_name":"Pondokranji","station_id":"PDJ","distance":2179,"is_transit":false,"i_long":106.74273,"line":6,"time":3},{"i_long":106.780334,"is_transit":false,"station_name":"Kebayoran","distance":6218,"time":8,"station_id":"KBY","transit":false,"i_lat":-6.237242,"line":6},{"distance":3737,"transit":false,"i_lat":-6.207404,"station_id":"PLM","station_name":"Palmerah","is_transit":false,"time":7,"i_long":106.79689,"line":6},{"distance":3191,"transit":true,"i_lat":-6.185545,"i_long":106.811091,"station_name":"Tanah Abang","time":6,"station_id":"THB","line":1,"is_transit":true},{"line":1,"i_long":106.800832,"station_name":"Duri","time":8,"distance":3632,"station_id":"DU","transit":false,"i_lat":-6.155215,"is_transit":false},{"transit":false,"distance":1230,"i_lat":-6.144674,"line":1,"station_name":"Angke","station_id":"AK","i_long":106.79867,"time":4,"is_transit":false},{"i_long":106.826365,"distance":4102,"station_id":"KPB","time":9,"is_transit":true,"transit":true,"line":4,"station_name":"Kampung Bandan","i_lat":-6.132549},{"line":11,"time":3,"is_transit":false,"i_lat":-6.14505,"i_long":106.836569,"station_id":"RJW","transit":false,"station_name":"Rajawali","distance":1444},{"station_name":"Kemayoran","time":5,"is_transit":false,"i_lat":-6.161728,"line":11,"station_id":"KMO","distance":1901,"transit":false,"i_long":106.839204},{"distance":1436,"station_name":"Pasar Senen","time":4,"transit":false,"i_lat":-6.174784,"is_transit":false,"station_id":"PSE","i_long":106.84368,"line":11},{"distance":1567,"station_name":"Gang Sentiong","i_lat":-6.185975,"station_id":"GST","transit":false,"time":8,"is_transit":false,"i_long":106.850107,"line":11},{"time":1,"station_id":"KMT","station_name":"Kramat","i_long":106.855437,"transit":false,"line":11,"distance":973,"is_transit":false,"i_lat":-6.193792},{"distance":1829,"station_id":"POK","time":2,"transit":false,"i_long":106.861737,"is_transit":false,"station_name":"Pondok Jati","line":11,"i_lat":-6.209188},{"is_transit":true,"station_id":"JNG","time":9,"distance":1236,"station_name":"Jatinegara","transit":true,"i_lat":-6.215091,"i_long":106.86807400000001,"line":1},{"line":1,"time":2,"station_name":"Matraman","is_transit":false,"station_id":"MTR","distance":1377,"i_lat":-6.212485,"i_long":106.858896,"transit":false},{"station_id":"MRI","time":2,"line":2,"is_transit":false,"transit":false,"i_long":106.84912,"station_name":"Manggarai","distance":1275,"i_lat":-6.209883}]]}