{"data":[[{"line":6,"is_transit":false,"station_name":"Serpong","distance":0,"time":0,"transit":false,"station_id":"SRP","i_lat":-6.319871,"i_long":106.66566},{"line":6,"is_transit":false,"time":4,"station_id":"RU","station_name":"Rawa Buntu","distance":2413,"i_long":106.675475,"transit":false,"i_lat":-6.314823},{"station_id":"SDM","station_name":"Sudimara","time":6,"is_transit":false,"line":6,"distance":4566,"i_long":106.712277,"i_lat":-6.296963,"transit":false},{"time":4,"is_transit":false,"line":6,"i_long":106.728916,"distance":1994,"station_id":"JMU","i_lat":-6.288927,"station_name":"Jurangmangu","transit":false},{"i_lat":-6.276362,"station_id":"PDJ","i_long":106.74273,"station_name":"Pondokranji","distance":2179,"time":3,"is_transit":false,"transit":false,"line":6},{"is_transit":false,"i_long":106.780334,"time":8,"station_id":"KBY","i_lat":-6.237242,"transit":false,"station_name":"Kebayoran","distance":6218,"line":6},{"i_long":106.79689,"line":6,"is_transit":false,"station_id":"PLM","i_lat":-6.207404,"transit":false,"station_name":"Palmerah","time":7,"distance":3737},{"is_transit":true,"transit":true,"station_name":"Tanah Abang","time":6,"i_lat":-6.185545,"i_long":106.811091,"line":1,"station_id":"THB","distance":3191},{"i_lat":-6.155215,"station_name":"Duri","transit":false,"line":1,"i_long":106.800832,"distance":3632,"is_transit":false,"station_id":"DU","time":8},{"station_name":"Angke","time":4,"station_id":"AK","is_transit":false,"line":1,"distance":1230,"transit":false,"i_long":106.79867,"i_lat":-6.144674},{"distance":4102,"station_id":"KPB","time":9,"transit":true,"station_name":"Kampung Bandan","is_transit":true,"i_long":106.826365,"i_lat":-6.132549,"line":4},{"distance":1364,"station_name":"Jakarta Kota","i_lat":-6.137569,"is_transit":false,"station_id":"JAKK","time":3,"transit":false,"i_long":106.812439,"line":2}],[{"transit":false,"station_name":"Serpong","i_long":106.66566,"distance":0,"i_lat":-6.319871,"line":6,"station_id":"SRP","time":0,"is_transit":false},{"station_id":"RU","is_transit":false,"i_long":106.675475,"i_lat":-6.314823,"station_name":"Rawa Buntu","time":4,"line":6,"distance":2413,"transit":false},{"station_id":"SDM","transit":false,"is_transit":false,"station_name":"Sudimara","time":6,"line":6,"distance":4566,"i_long":106.712277,"i_lat":-6.296963},{"time":4,"station_name":"Jurangmangu","distance":1994,"i_long":106.728916,"line":6,"is_transit":false,"transit":false,"station_id":"JMU","i_lat":-6.288927},{"is_transit":false,"i_lat":-6.276362,"time":3,"station_id":"PDJ","transit":false,"station_name":"Pondokranji","i_long":106.74273,"distance":2179,"line":6},{"distance":6218,"station_id":"KBY","station_name":"Kebayoran","time":8,"i_lat":-6.237242,"i_long":106.780334,"is_transit":false,"transit":false,"line":6},{"is_transit":false,"station_id":"PLM","line":6,"distance":3737,"time":7,"transit":false,"i_lat":-6.207404,"i_long":106.79689,"station_name":"Palmerah"},{"station_id":"THB","time":6,"line":1,"is_transit":true,"station_name":"Tanah Abang","i_lat":-6.185545,"distance":3191,"transit":true,"i_long":106.811091},{"transit":false,"station_name":"Karet","i_lat":-6.20132,"line":1,"distance":2029,"i_long":106.816351,"station_id":"KAT","time":5,"is_transit":false},{"station_name":"Sudirman Baru","station_id":"SUDB","transit":false,"i_lat":-6.201433,"i_long":106.819881,"time":1,"line":1,"is_transit":false,"distance":471},{"time":1,"transit":false,"line":1,"station_id":"SUD","is_transit":false,"station_name":"Sudirman","distance":280,"i_lat":-6.202263,"i_long":106.822649},{"i_long":106.84912,"station_name":"Manggarai","i_lat":-6.209883,"distance":3186,"station_id":"MRI","line":2,"transit":true,"is_transit":true,"time":4},{"i_long":106.840169,"station_name":"Cikini","i_lat":-6.198556,"line":2,"distance":1590,"time":4,"transit":false,"is_transit":false,"station_id":"CKI"},{"transit":false,"line":2,"i_lat":-6.186295,"distance":1750,"station_name":"Gondangdia","is_transit":false,"i_long":106.832183,"time":3,"station_id":"GDD"},{"station_id":"JUA","transit":false,"i_long":106.828284,"time":4,"distance":2015,"i_lat":-6.166716,"line":2,"station_name":"Juanda","is_transit":false},{"i_lat":-6.160725,"i_long":106.827103,"distance":1149,"time":2,"station_name":"Sawah Besar","transit":false,"is_transit":false,"station_id":"SW","line":2},{"transit":false,"distance":906,"i_lat":-6.149769,"line":2,"station_id":"MGB","station_name":"Manggabesar","is_transit":false,"time":2,"i_long":106.82482},{"distance":1080,"line":2,"transit":false,"station_name":"Jayakarta","is_transit":false,"station_id":"JAY","i_lat":-6.141205,"time":2,"i_long":106.820901},{"i_lat":-6.137569,"i_long":106.812439,"time":4,"station_name":"Jakarta Kota","line":2,"transit":false,"station_id":"JAKK","distance":1264,"is_transit":false}],[{"station_id":"SRP","time":0,"i_long":106.66566,"line":6,"distance":0,"transit":false,"station_name":"Serpong","is_transit":false,"i_lat":-6.319871},{"station_id":"RU","is_transit":false,"time":4,"transit":false,"station_name":"Rawa Buntu","i_long":106.675475,"line":6,"distance":2413,"i_lat":-6.314823},{"time":6,"is_transit":false,"station_id":"SDM","i_long":106.712277,"transit":false,"station_name":"Sudimara","line":6,"distance":4566,"i_lat":-6.296963},{"i_long":106.728916,"is_transit":false,"station_name":"Jurangmangu","i_lat":-6.288927,"station_id":"JMU","time":4,"distance":1994,"transit":false,"line":6},{"distance":2179,"i_lat":-6.276362,"is_transit":false,"transit":false,"station_name":"Pondokranji","time":3,"station_id":"PDJ","line":6,"i_long":106.74273},{"is_transit":false,"transit":false,"i_long":106.780334,"time":8,"station_id":"KBY","distance":6218,"i_lat":-6.237242,"station_name":"Kebayoran","line":6},{"time":7,"line":6,"station_id":"PLM","i_lat":-6.207404,"i_long":106.79689,"is_transit":false,"transit":false,"distance":3737,"station_name":"Palmerah"},{"distance":3191,"i_lat":-6.185545,"i_long":106.811091,"line":1,"station_id":"THB","time":6,"is_transit":true,"transit":true,"station_name":"Tanah Abang"},{"transit":false,"is_transit":false,"station_id":"KAT","distance":2029,"station_name":"Karet","i_long":106.816351,"line":1,"i_lat":-6.20132,"time":5},{"time":1,"station_id":"SUDB","distance":471,"i_lat":-6.201433,"station_name":"Sudirman Baru","line":1,"i_long":106.819881,"is_transit":false,"transit":false},{"time":1,"is_transit":false,"station_id":"SUD","transit":false,"i_long":106.822649,"distance":280,"i_lat":-6.202263,"line":1,"station_name":"Sudirman"},{"i_long":106.84912,"is_transit":false,"transit":false,"station_id":"MRI","line":2,"i_lat":-6.209883,"station_name":"Manggarai","time":4,"distance":3186},{"transit":false,"line":1,"i_long":106.858896,"is_transit":false,"distance":1275,"time":2,"station_name":"Matraman","i_lat":-6.212485,"station_id":"MTR"},{"transit":true,"is_transit":true,"line":1,"i_lat":-6.215091,"station_id":"JNG","time":8,"distance":1377,"i_long":106.86807400000001,"station_name":"Jatinegara"},{"is_transit":false,"transit":false,"time":2,"station_id":"POK","i_lat":-6.209188,"i_long":106.861737,"distance":1236,"station_name":"Pondok Jati","line":11},{"is_transit":false,"transit":false,"distance":1829,"station_name":"Kramat","i_long":106.855437,"line":11,"station_id":"KMT","time":2,"i_lat":-6.193792},{"station_id":"GST","line":11,"distance":973,"time":1,"i_lat":-6.185975,"station_name":"Gang Sentiong","is_transit":false,"transit":false,"i_long":106.850107},{"distance":1567,"is_transit":false,"i_long":106.84368,"station_id":"PSE","i_lat":-6.174784,"transit":false,"station_name":"Pasar Senen","line":11,"time":8},{"station_name":"Kemayoran","i_lat":-6.161728,"time":4,"i_long":106.839204,"is_transit":false,"line":11,"distance":1436,"station_id":"KMO","transit":false},{"time":5,"station_name":"Rajawali","line":11,"station_id":"RJW","distance":1901,"transit":false,"i_lat":-6.14505,"i_long":106.836569,"is_transit":false},{"time":3,"is_transit":true,"i_long":106.826365,"transit":true,"line":4,"station_id":"KPB","station_name":"Kampung Bandan","distance":1444,"i_lat":-6.132549},{"line":2,"time":3,"is_transit":false,"station_name":"Jakarta Kota","station_id":"JAKK","transit":false,"i_long":106.812439,"distance":1364,"i_lat":-6.137569}],[{"time":0,"station_id":"SRP","i_long":106.66566,"line":6,"is_transit":false,"distance":0,"i_lat":-6.319871,"transit":false,"station_name":"Serpong"},{"time":4,"station_id":"RU","i_long":106.675475,"i_lat":-6.314823,"line":6,"is_transit":false,"station_name":"Rawa Buntu","transit":false,"distance":2413},{"line":6,"station_id":"SDM","i_long":106.712277,"station_name":"Sudimara","transit":false,"i_lat":-6.296963,"distance":4566,"time":6,"is_transit":false},{"distance":1994,"transit":false,"station_name":"Jurangmangu","station_id":"JMU","i_long":106.728916,"is_transit":false,"time":4,"i_lat":-6.288927,"line":6},{"time":3,"station_id":"PDJ","i_lat":-6.276362,"line":6,"distance":2179,"is_transit":false,"i_long":106.74273,"transit":false,"station_name":"Pondokranji"},{"distance":6218,"station_id":"KBY","i_lat":-6.237242,"transit":false,"line":6,"time":8,"station_name":"Kebayoran","i_long":106.780334,"is_transit":false},{"distance":3737,"i_long":106.79689,"station_id":"PLM","is_transit":false,"i_lat":-6.207404,"line":6,"time":7,"transit":false,"station_name":"Palmerah"},{"distance":3191,"time":6,"i_lat":-6.185545,"is_transit":true,"station_id":"THB","station_name":"Tanah Abang","transit":true,"line":1,"i_long":106.811091},{"station_id":"DU","i_lat":-6.155215,"i_long":106.800832,"time":8,"is_transit":false,"distance":3632,"line":1,"station_name":"Duri","transit":false},{"i_lat":-6.144674,"i_long":106.79867,"transit":false,"line":1,"station_id":"AK","time":4,"distance":1230,"station_name":"Angke","is_transit":false},{"is_transit":true,"distance":4102,"i_long":106.826365,"line":4,"transit":true,"time":9,"station_name":"Kampung Bandan","i_lat":-6.132549,"station_id":"KPB"},{"transit":false,"is_transit":false,"distance":1444,"station_id":"RJW","station_name":"Rajawali","i_long":106.836569,"line":11,"i_lat":-6.14505,"time":3},{"line":11,"station_id":"KMO","station_name":"Kemayoran","i_long":106.839204,"transit":false,"is_transit":false,"time":5,"distance":1901,"i_lat":-6.161728},{"i_lat":-6.174784,"transit":false,"i_long":106.84368,"is_transit":false,"station_id":"PSE","time":4,"distance":1436,"station_name":"Pasar Senen","line":11},{"distance":1567,"station_name":"Gang Sentiong","line":11,"i_long":106.850107,"station_id":"GST","time":8,"transit":false,"i_lat":-6.185975,"is_transit":false},{"time":1,"distance":973,"i_long":106.855437,"line":11,"transit":false,"is_transit":false,"i_lat":-6.193792,"station_id":"KMT","station_name":"Kramat"},{"time":2,"is_transit":false,"transit":false,"station_name":"Pondok Jati","line":11,"distance":1829,"station_id":"POK","i_lat":-6.209188,"i_long":106.861737},{"distance":1236,"time":9,"is_transit":true,"i_long":106.86807400000001,"line":1,"station_name":"Jatinegara","station_id":"JNG","i_lat":-6.215091,"transit":true},{"station_id":"MTR","i_long":106.858896,"line":1,"time":2,"is_transit":false,"station_name":"Matraman","distance":1377,"i_lat":-6.212485,"transit":false},{"station_name":"Manggarai","i_long":106.84912,"transit":true,"line":2,"is_transit":true,"i_lat":-6.209883,"distance":1275,"time":2,"station_id":"MRI"},{"time":4,"distance":1590,"i_lat":-6.198556,"is_transit":false,"station_id":"CKI","station_name":"Cikini","i_long":106.840169,"line":2,"transit":false},{"i_long":106.832183,"line":2,"distance":1750,"station_id":"GDD","time":3,"is_transit":false,"transit":false,"i_lat":-6.186295,"station_name":"Gondangdia"},{"transit":false,"station_name":"Juanda","distance":2015,"i_long":106.828284,"line":2,"is_transit":false,"i_lat":-6.166716,"station_id":"JUA","time":4},{"is_transit":false,"time":2,"i_long":106.827103,"i_lat":-6.160725,"distance":1149,"transit":false,"line":2,"station_id":"SW","station_name":"Sawah Besar"},{"transit":false,"station_name":"Manggabesar","time":2,"i_long":106.82482,"distance":906,"is_transit":false,"line":2,"station_id":"MGB","i_lat":-6.149769},{"station_id":"JAY","transit":false,"distance":1080,"is_transit":false,"i_lat":-6.141205,"line":2,"i_long":106.820901,"time":2,"station_name":"Jayakarta"},{"time":4,"i_lat":-6.137569,"is_transit":false,"i_long":106.812439,"transit":false,"station_name":"Jakarta Kota","line":2,"station_id":"JAKK","distance":1264}]]}