{"data":[[{"distance":0,"transit":false,"line":6,"time":0,"i_long":106.66566,"is_transit":false,"station_id":"SRP","station_name":"Serpong","i_lat":-6.319871},{"station_name":"Rawa Buntu","is_transit":false,"distance":2413,"i_long":106.675475,"i_lat":-6.314823,"line":6,"station_id":"RU","time":4,"transit":false},{"time":6,"i_lat":-6.296963,"distance":4566,"i_long":106.712277,"line":6,"station_id":"SDM","transit":false,"station_name":"Sudimara","is_transit":false},{"is_transit":false,"line":6,"i_long":106.728916,"distance":1994,"transit":false,"i_lat":-6.288927,"station_name":"Jurangmangu","time":4,"station_id":"JMU"},{"distance":2179,"i_lat":-6.276362,"time":3,"station_id":"PDJ","i_long":106.74273,"is_transit":false,"station_name":"Pondokranji","transit":false,"line":6},{"station_name":"Kebayoran","station_id":"KBY","distance":6218,"time":8,"line":6,"is_transit":false,"i_long":106.780334,"i_lat":-6.237242,"transit":false},{"distance":3737,"station_name":"Palmerah","i_lat":-6.207404,"is_transit":false,"station_id":"PLM","line":6,"time":7,"transit":false,"i_long":106.79689},{"is_transit":true,"transit":true,"i_long":106.811091,"distance":3191,"line":1,"station_name":"Tanah Abang","station_id":"THB","time":6,"i_lat":-6.185545},{"time":5,"i_long":106.816351,"station_name":"Karet","transit":false,"i_lat":-6.20132,"line":1,"station_id":"KAT","distance":2029,"is_transit":false},{"station_name":"Sudirman Baru","station_id":"SUDB","distance":471,"transit":false,"is_transit":false,"i_long":106.819881,"line":1,"time":1,"i_lat":-6.201433},{"station_id":"SUD","is_transit":false,"i_lat":-6.202263,"distance":280,"station_name":"Sudirman","i_long":106.822649,"time":1,"line":1,"transit":false},{"distance":3186,"i_long":106.84912,"line":2,"i_lat":-6.209883,"station_name":"Manggarai","station_id":"MRI","transit":true,"time":4,"is_transit":true},{"line":2,"transit":false,"is_transit":false,"station_name":"Tebet","i_lat":-6.226659,"station_id":"TEB","distance":2610,"time":4,"i_long":106.857948},{"is_transit":false,"time":2,"line":2,"station_name":"Cawang","distance":1230,"transit":false,"station_id":"CW","i_lat":-6.242512,"i_long":106.856607}],[{"station_id":"SRP","i_long":106.66566,"distance":0,"station_name":"Serpong","transit":false,"i_lat":-6.319871,"time":0,"is_transit":false,"line":6},{"i_long":106.675475,"distance":2413,"is_transit":false,"station_id":"RU","transit":false,"station_name":"Rawa Buntu","time":4,"i_lat":-6.314823,"line":6},{"transit":false,"time":6,"i_lat":-6.296963,"station_id":"SDM","station_name":"Sudimara","line":6,"is_transit":false,"i_long":106.712277,"distance":4566},{"line":6,"station_name":"Jurangmangu","time":4,"station_id":"JMU","i_lat":-6.288927,"is_transit":false,"distance":1994,"i_long":106.728916,"transit":false},{"i_long":106.74273,"station_id":"PDJ","is_transit":false,"time":3,"distance":2179,"i_lat":-6.276362,"line":6,"station_name":"Pondokranji","transit":false},{"distance":6218,"is_transit":false,"station_id":"KBY","station_name":"Kebayoran","transit":false,"time":8,"i_lat":-6.237242,"i_long":106.780334,"line":6},{"station_name":"Palmerah","station_id":"PLM","line":6,"time":7,"i_lat":-6.207404,"transit":false,"is_transit":false,"i_long":106.79689,"distance":3737},{"transit":true,"station_name":"Tanah Abang","line":1,"is_transit":true,"time":6,"i_lat":-6.185545,"station_id":"THB","i_long":106.811091,"distance":3191},{"distance":3632,"station_id":"DU","line":1,"is_transit":false,"transit":false,"i_long":106.800832,"time":8,"i_lat":-6.155215,"station_name":"Duri"},{"distance":1230,"transit":false,"station_id":"AK","time":4,"i_long":106.79867,"line":1,"station_name":"Angke","is_transit":false,"i_lat":-6.144674},{"i_long":106.826365,"transit":true,"station_name":"Kampung Bandan","distance":4102,"i_lat":-6.132549,"is_transit":true,"station_id":"KPB","time":9,"line":4},{"transit":true,"station_name":"Jakarta Kota","time":3,"i_lat":-6.137569,"station_id":"JAKK","line":2,"is_transit":true,"i_long":106.812439,"distance":1364},{"i_lat":-6.141205,"transit":false,"line":2,"station_id":"JAY","time":4,"distance":1264,"i_long":106.820901,"station_name":"Jayakarta","is_transit":false},{"station_id":"MGB","time":2,"i_lat":-6.149769,"is_transit":false,"line":2,"station_name":"Manggabesar","distance":1080,"i_long":106.82482,"transit":false},{"line":2,"transit":false,"i_lat":-6.160725,"station_name":"Sawah Besar","time":2,"station_id":"SW","is_transit":false,"distance":906,"i_long":106.827103},{"transit":false,"line":2,"station_name":"Juanda","i_lat":-6.166716,"i_long":106.828284,"station_id":"JUA","is_transit":false,"time":2,"distance":1149},{"distance":2015,"i_long":106.832183,"station_name":"Gondangdia","time":4,"station_id":"GDD","i_lat":-6.186295,"is_transit":false,"line":2,"transit":false},{"station_name":"Cikini","transit":false,"is_transit":false,"distance":1750,"station_id":"CKI","i_lat":-6.198556,"time":3,"line":2,"i_long":106.840169},{"i_long":106.84912,"line":2,"distance":1590,"station_id":"MRI","transit":false,"is_transit":false,"station_name":"Manggarai","time":4,"i_lat":-6.209883},{"station_id":"TEB","i_lat":-6.226659,"is_transit":false,"line":2,"i_long":106.857948,"station_name":"Tebet","distance":2610,"transit":false,"time":4},{"station_id":"CW","time":2,"transit":false,"i_lat":-6.242512,"i_long":106.856607,"is_transit":false,"distance":1230,"station_name":"Cawang","line":2}],[{"i_lat":-6.319871,"distance":0,"line":6,"station_id":"SRP","transit":false,"is_transit":false,"time":0,"station_name":"Serpong","i_long":106.66566},{"i_long":106.675475,"time":4,"i_lat":-6.314823,"line":6,"station_id":"RU","transit":false,"station_name":"Rawa Buntu","is_transit":false,"distance":2413},{"time":6,"distance":4566,"station_id":"SDM","transit":false,"i_long":106.712277,"station_name":"Sudimara","i_lat":-6.296963,"is_transit":false,"line":6},{"distance":1994,"line":6,"is_transit":false,"transit":false,"station_name":"Jurangmangu","i_lat":-6.288927,"i_long":106.728916,"station_id":"JMU","time":4},{"station_id":"PDJ","transit":false,"distance":2179,"i_long":106.74273,"line":6,"is_transit":false,"station_name":"Pondokranji","i_lat":-6.276362,"time":3},{"station_id":"KBY","i_long":106.780334,"distance":6218,"line":6,"transit":false,"station_name":"Kebayoran","is_transit":false,"time":8,"i_lat":-6.237242},{"time":7,"i_lat":-6.207404,"distance":3737,"station_name":"Palmerah","is_transit":false,"line":6,"transit":false,"station_id":"PLM","i_long":106.79689},{"time":6,"i_lat":-6.185545,"i_long":106.811091,"transit":true,"line":1,"distance":3191,"is_transit":true,"station_name":"Tanah Abang","station_id":"THB"},{"is_transit":false,"time":8,"i_long":106.800832,"line":1,"distance":3632,"i_lat":-6.155215,"transit":false,"station_id":"DU","station_name":"Duri"},{"station_name":"Angke","station_id":"AK","is_transit":false,"i_lat":-6.144674,"distance":1230,"transit":false,"time":4,"line":1,"i_long":106.79867},{"station_name":"Kampung Bandan","i_lat":-6.132549,"line":4,"station_id":"KPB","i_long":106.826365,"transit":true,"is_transit":true,"time":9,"distance":4102},{"line":11,"station_name":"Rajawali","transit":false,"station_id":"RJW","is_transit":false,"time":3,"distance":1444,"i_lat":-6.14505,"i_long":106.836569},{"distance":1901,"i_lat":-6.161728,"transit":false,"station_id":"KMO","time":5,"is_transit":false,"line":11,"station_name":"Kemayoran","i_long":106.839204},{"transit":false,"i_lat":-6.174784,"station_name":"Pasar Senen","time":4,"i_long":106.84368,"station_id":"PSE","is_transit":false,"line":11,"distance":1436},{"distance":1567,"is_transit":false,"i_long":106.850107,"station_name":"Gang Sentiong","line":11,"i_lat":-6.185975,"station_id":"GST","transit":false,"time":8},{"i_lat":-6.193792,"line":11,"distance":973,"i_long":106.855437,"station_id":"KMT","transit":false,"is_transit":false,"station_name":"Kramat","time":1},{"line":11,"i_long":106.861737,"distance":1829,"time":2,"station_id":"POK","transit":false,"i_lat":-6.209188,"station_name":"Pondok Jati","is_transit":false},{"is_transit":true,"line":1,"station_id":"JNG","i_long":106.86807400000001,"distance":1236,"i_lat":-6.215091,"time":9,"transit":true,"station_name":"Jatinegara"},{"time":2,"distance":1377,"i_lat":-6.212485,"i_long":106.858896,"line":1,"station_name":"Matraman","station_id":"MTR","is_transit":false,"transit":false},{"line":2,"is_transit":true,"time":2,"station_name":"Manggarai","i_lat":-6.209883,"i_long":106.84912,"station_id":"MRI","transit":true,"distance":1275},{"station_name":"Tebet","station_id":"TEB","distance":2610,"is_transit":false,"time":4,"i_lat":-6.226659,"i_long":106.857948,"line":2,"transit":false},{"distance":1230,"time":2,"station_name":"Cawang","line":2,"is_transit":false,"i_long":106.856607,"station_id":"CW","i_lat":-6.242512,"transit":false}]]}