{"data":[[{"line":6,"transit":false,"station_id":"SRP","station_name":"Serpong","is_transit":false,"time":0,"i_lat":-6.319871,"i_long":106.66566,"distance":0},{"time":4,"line":6,"station_id":"RU","i_lat":-6.314823,"station_name":"Rawa Buntu","distance":2413,"is_transit":false,"i_long":106.675475,"transit":false},{"is_transit":false,"station_id":"SDM","i_lat":-6.296963,"time":6,"distance":4566,"station_name":"Sudimara","i_long":106.712277,"transit":false,"line":6},{"station_id":"JMU","time":4,"i_long":106.728916,"distance":1994,"i_lat":-6.288927,"is_transit":false,"line":6,"station_name":"Jurangmangu","transit":false},{"station_id":"PDJ","distance":2179,"line":6,"time":3,"is_transit":false,"transit":false,"i_lat":-6.276362,"station_name":"Pondokranji","i_long":106.74273},{"line":6,"distance":6218,"is_transit":false,"transit":false,"station_id":"KBY","station_name":"Kebayoran","time":8,"i_lat":-6.237242,"i_long":106.780334},{"i_long":106.79689,"station_id":"PLM","is_transit":false,"time":7,"transit":false,"i_lat":-6.207404,"station_name":"Palmerah","line":6,"distance":3737},{"station_name":"Tanah Abang","distance":3191,"time":6,"station_id":"THB","i_lat":-6.185545,"line":1,"i_long":106.811091,"is_transit":true,"transit":true},{"transit":true,"line":1,"time":8,"distance":3632,"is_transit":true,"station_name":"Duri","station_id":"DU","i_long":106.800832,"i_lat":-6.155215},{"i_long":106.788277,"i_lat":-6.162021,"transit":false,"distance":1700,"station_id":"GGL","line":5,"is_transit":false,"time":3,"station_name":"Grogol"},{"distance":2036,"transit":false,"station_name":"Pesing","time":2,"is_transit":false,"station_id":"PSG","i_lat":-6.161433,"line":5,"i_long":106.771379},{"i_long":106.756522,"transit":false,"station_name":"Taman Kota","station_id":"TKO","time":2,"line":5,"is_transit":false,"i_lat":-6.1587309999999995,"distance":1614},{"distance":2334,"is_transit":false,"station_name":"Bojongindah","i_lat":-6.159876,"line":5,"station_id":"BOI","time":2,"i_long":106.737035,"transit":false},{"is_transit":false,"distance":1152,"time":4,"i_lat":-6.162758,"line":5,"station_name":"Rawa Buaya","i_long":106.723064,"station_id":"RW","transit":false},{"i_lat":-6.166068,"i_long":106.701612,"time":3,"station_id":"KDS","station_name":"Kalideres","line":5,"transit":false,"distance":2504,"is_transit":false},{"time":3,"station_name":"Poris","is_transit":false,"station_id":"PI","i_long":106.679458,"distance":2548,"i_lat":-6.169933,"line":5,"transit":false}],[{"station_id":"SRP","station_name":"Serpong","time":0,"line":6,"i_lat":-6.319871,"i_long":106.66566,"distance":0,"is_transit":false,"transit":false},{"station_id":"RU","time":4,"i_long":106.675475,"line":6,"is_transit":false,"station_name":"Rawa Buntu","distance":2413,"transit":false,"i_lat":-6.314823},{"line":6,"station_id":"SDM","i_long":106.712277,"station_name":"Sudimara","is_transit":false,"transit":false,"time":6,"distance":4566,"i_lat":-6.296963},{"i_lat":-6.288927,"time":4,"is_transit":false,"station_name":"Jurangmangu","station_id":"JMU","line":6,"distance":1994,"i_long":106.728916,"transit":false},{"time":3,"station_id":"PDJ","distance":2179,"station_name":"Pondokranji","i_long":106.74273,"is_transit":false,"i_lat":-6.276362,"line":6,"transit":false},{"is_transit":false,"time":8,"distance":6218,"station_name":"Kebayoran","i_long":106.780334,"transit":false,"i_lat":-6.237242,"line":6,"station_id":"KBY"},{"i_long":106.79689,"station_name":"Palmerah","time":7,"station_id":"PLM","distance":3737,"i_lat":-6.207404,"line":6,"transit":false,"is_transit":false},{"distance":3191,"station_id":"THB","line":1,"is_transit":true,"transit":true,"station_name":"Tanah Abang","time":6,"i_lat":-6.185545,"i_long":106.811091},{"station_id":"KAT","i_long":106.816351,"line":1,"i_lat":-6.20132,"time":5,"transit":false,"station_name":"Karet","is_transit":false,"distance":2029},{"time":1,"station_name":"Sudirman Baru","is_transit":false,"transit":false,"i_lat":-6.201433,"i_long":106.819881,"line":1,"station_id":"SUDB","distance":471},{"distance":280,"time":1,"i_lat":-6.202263,"i_long":106.822649,"line":1,"transit":false,"station_name":"Sudirman","station_id":"SUD","is_transit":false},{"distance":3186,"time":4,"transit":true,"i_lat":-6.209883,"is_transit":true,"i_long":106.84912,"station_name":"Manggarai","line":2,"station_id":"MRI"},{"line":2,"station_name":"Cikini","is_transit":false,"distance":1590,"transit":false,"station_id":"CKI","i_long":106.840169,"time":4,"i_lat":-6.198556},{"time":3,"i_lat":-6.186295,"is_transit":false,"station_id":"GDD","station_name":"Gondangdia","distance":1750,"transit":false,"line":2,"i_long":106.832183},{"is_transit":false,"transit":false,"time":4,"line":2,"station_name":"Juanda","distance":2015,"station_id":"JUA","i_lat":-6.166716,"i_long":106.828284},{"distance":1149,"is_transit":false,"transit":false,"time":2,"station_id":"SW","i_lat":-6.160725,"line":2,"i_long":106.827103,"station_name":"Sawah Besar"},{"time":2,"is_transit":false,"line":2,"station_name":"Manggabesar","transit":false,"i_long":106.82482,"distance":906,"station_id":"MGB","i_lat":-6.149769},{"i_lat":-6.141205,"is_transit":false,"i_long":106.820901,"station_name":"Jayakarta","distance":1080,"station_id":"JAY","time":2,"transit":false,"line":2},{"transit":true,"time":4,"i_lat":-6.137569,"station_name":"Jakarta Kota","is_transit":true,"distance":1264,"station_id":"JAKK","i_long":106.812439,"line":2},{"station_name":"Kampung Bandan","time":3,"i_lat":-6.132549,"station_id":"KPB","distance":1364,"transit":true,"i_long":106.826365,"line":4,"is_transit":true},{"i_long":106.79867,"station_id":"AK","line":1,"is_transit":false,"distance":4102,"station_name":"Angke","time":9,"i_lat":-6.144674,"transit":false},{"distance":1230,"time":4,"is_transit":true,"line":1,"i_lat":-6.155215,"i_long":106.800832,"station_id":"DU","transit":true,"station_name":"Duri"},{"distance":1700,"transit":false,"station_id":"GGL","i_long":106.788277,"line":5,"is_transit":false,"station_name":"Grogol","time":3,"i_lat":-6.162021},{"distance":2036,"i_lat":-6.161433,"line":5,"is_transit":false,"time":2,"station_name":"Pesing","transit":false,"i_long":106.771379,"station_id":"PSG"},{"station_name":"Taman Kota","line":5,"i_lat":-6.1587309999999995,"distance":1614,"time":2,"is_transit":false,"station_id":"TKO","i_long":106.756522,"transit":false},{"transit":false,"time":2,"station_name":"Bojongindah","is_transit":false,"station_id":"BOI","i_long":106.737035,"distance":2334,"line":5,"i_lat":-6.159876},{"i_long":106.723064,"is_transit":false,"station_name":"Rawa Buaya","transit":false,"station_id":"RW","distance":1152,"i_lat":-6.162758,"time":4,"line":5},{"i_long":106.701612,"station_name":"Kalideres","transit":false,"is_transit":false,"time":3,"i_lat":-6.166068,"distance":2504,"station_id":"KDS","line":5},{"station_name":"Poris","line":5,"station_id":"PI","i_lat":-6.169933,"distance":2548,"i_long":106.679458,"transit":false,"time":3,"is_transit":false}],[{"station_id":"SRP","line":6,"is_transit":false,"time":0,"distance":0,"i_lat":-6.319871,"transit":false,"i_long":106.66566,"station_name":"Serpong"},{"is_transit":false,"i_lat":-6.314823,"i_long":106.675475,"line":6,"distance":2413,"station_name":"Rawa Buntu","transit":false,"time":4,"station_id":"RU"},{"time":6,"is_transit":false,"transit":false,"line":6,"station_id":"SDM","i_lat":-6.296963,"station_name":"Sudimara","distance":4566,"i_long":106.712277},{"station_id":"JMU","i_long":106.728916,"line":6,"station_name":"Jurangmangu","time":4,"distance":1994,"transit":false,"i_lat":-6.288927,"is_transit":false},{"transit":false,"station_name":"Pondokranji","line":6,"i_long":106.74273,"i_lat":-6.276362,"is_transit":false,"station_id":"PDJ","distance":2179,"time":3},{"station_id":"KBY","i_long":106.780334,"is_transit":false,"station_name":"Kebayoran","time":8,"distance":6218,"transit":false,"line":6,"i_lat":-6.237242},{"station_name":"Palmerah","transit":false,"line":6,"i_lat":-6.207404,"time":7,"is_transit":false,"i_long":106.79689,"station_id":"PLM","distance":3737},{"distance":3191,"station_name":"Tanah Abang","i_long":106.811091,"time":6,"station_id":"THB","i_lat":-6.185545,"line":1,"is_transit":true,"transit":true},{"time":5,"station_id":"KAT","line":1,"distance":2029,"station_name":"Karet","i_lat":-6.20132,"i_long":106.816351,"transit":false,"is_transit":false},{"i_long":106.819881,"is_transit":false,"time":1,"line":1,"distance":471,"transit":false,"station_name":"Sudirman Baru","station_id":"SUDB","i_lat":-6.201433},{"line":1,"station_name":"Sudirman","i_long":106.822649,"distance":280,"station_id":"SUD","is_transit":false,"i_lat":-6.202263,"transit":false,"time":1},{"line":2,"transit":false,"distance":3186,"i_lat":-6.209883,"station_id":"MRI","station_name":"Manggarai","is_transit":false,"time":4,"i_long":106.84912},{"transit":false,"station_id":"MTR","distance":1275,"station_name":"Matraman","time":2,"i_lat":-6.212485,"line":1,"i_long":106.858896,"is_transit":false},{"i_long":106.86807400000001,"is_transit":true,"transit":true,"line":1,"time":8,"station_id":"JNG","station_name":"Jatinegara","distance":1377,"i_lat":-6.215091},{"transit":false,"i_lat":-6.209188,"i_long":106.861737,"line":11,"station_name":"Pondok Jati","station_id":"POK","time":2,"is_transit":false,"distance":1236},{"line":11,"station_id":"KMT","transit":false,"i_long":106.855437,"is_transit":false,"distance":1829,"time":2,"i_lat":-6.193792,"station_name":"Kramat"},{"transit":false,"station_id":"GST","i_long":106.850107,"distance":973,"time":1,"station_name":"Gang Sentiong","line":11,"i_lat":-6.185975,"is_transit":false},{"i_lat":-6.174784,"line":11,"is_transit":false,"i_long":106.84368,"distance":1567,"station_id":"PSE","station_name":"Pasar Senen","transit":false,"time":8},{"line":11,"time":4,"i_long":106.839204,"station_name":"Kemayoran","is_transit":false,"distance":1436,"station_id":"KMO","transit":false,"i_lat":-6.161728},{"i_lat":-6.14505,"line":11,"time":5,"is_transit":false,"station_name":"Rajawali","distance":1901,"i_long":106.836569,"station_id":"RJW","transit":false},{"i_lat":-6.132549,"distance":1444,"is_transit":true,"time":3,"station_name":"Kampung Bandan","transit":true,"i_long":106.826365,"station_id":"KPB","line":4},{"station_id":"AK","i_lat":-6.144674,"i_long":106.79867,"transit":false,"is_transit":false,"distance":4102,"line":1,"time":9,"station_name":"Angke"},{"time":4,"i_long":106.800832,"station_id":"DU","transit":true,"station_name":"Duri","i_lat":-6.155215,"line":1,"is_transit":true,"distance":1230},{"station_id":"GGL","i_long":106.788277,"line":5,"i_lat":-6.162021,"station_name":"Grogol","is_transit":false,"time":3,"distance":1700,"transit":false},{"station_name":"Pesing","distance":2036,"is_transit":false,"time":2,"i_lat":-6.161433,"i_long":106.771379,"line":5,"transit":false,"station_id":"PSG"},{"distance":1614,"is_transit":false,"station_id":"TKO","transit":false,"line":5,"station_name":"Taman Kota","i_lat":-6.1587309999999995,"time":2,"i_long":106.756522},{"i_lat":-6.159876,"transit":false,"time":2,"station_id":"BOI","distance":2334,"i_long":106.737035,"station_name":"Bojongindah","line":5,"is_transit":false},{"station_name":"Rawa Buaya","transit":false,"time":4,"station_id":"RW","line":5,"i_long":106.723064,"is_transit":false,"i_lat":-6.162758,"distance":1152},{"time":3,"i_long":106.701612,"station_name":"Kalideres","distance":2504,"i_lat":-6.166068,"is_transit":false,"transit":false,"line":5,"station_id":"KDS"},{"i_lat":-6.169933,"station_id":"PI","i_long":106.679458,"line":5,"transit":false,"station_name":"Poris","is_transit":false,"distance":2548,"time":3}]]}