{"data":[[{"distance":0,"i_lat":-6.319871,"time":0,"transit":false,"line":6,"is_transit":false,"station_name":"Serpong","i_long":106.66566,"station_id":"SRP"},{"distance":2413,"station_name":"Rawa Buntu","transit":false,"line":6,"station_id":"RU","i_lat":-6.314823,"i_long":106.675475,"time":4,"is_transit":false},{"time":6,"station_id":"SDM","transit":false,"distance":4566,"i_long":106.712277,"line":6,"station_name":"Sudimara","is_transit":false,"i_lat":-6.296963},{"station_name":"Jurangmangu","line":6,"station_id":"JMU","is_transit":false,"i_long":106.728916,"distance":1994,"transit":false,"i_lat":-6.288927,"time":4},{"station_id":"PDJ","distance":2179,"station_name":"Pondokranji","i_lat":-6.276362,"transit":false,"i_long":106.74273,"line":6,"is_transit":false,"time":3},{"transit":false,"i_long":106.780334,"line":6,"distance":6218,"i_lat":-6.237242,"station_id":"KBY","time":8,"station_name":"Kebayoran","is_transit":false},{"station_id":"PLM","is_transit":false,"i_lat":-6.207404,"i_long":106.79689,"line":6,"time":7,"distance":3737,"station_name":"Palmerah","transit":false},{"i_lat":-6.185545,"line":1,"station_name":"Tanah Abang","i_long":106.811091,"distance":3191,"time":6,"station_id":"THB","is_transit":true,"transit":true},{"transit":false,"distance":2029,"station_name":"Karet","is_transit":false,"time":5,"station_id":"KAT","i_lat":-6.20132,"i_long":106.816351,"line":1},{"time":1,"distance":471,"is_transit":false,"station_name":"Sudirman Baru","i_long":106.819881,"line":1,"i_lat":-6.201433,"transit":false,"station_id":"SUDB"},{"distance":280,"station_name":"Sudirman","is_transit":false,"station_id":"SUD","time":1,"transit":false,"i_lat":-6.202263,"i_long":106.822649,"line":1},{"time":4,"station_id":"MRI","transit":false,"i_long":106.84912,"line":2,"i_lat":-6.209883,"is_transit":false,"station_name":"Manggarai","distance":3186},{"distance":1275,"station_id":"MTR","station_name":"Matraman","time":2,"is_transit":false,"i_lat":-6.212485,"transit":false,"line":1,"i_long":106.858896}],[{"station_id":"SRP","time":0,"transit":false,"i_lat":-6.319871,"station_name":"Serpong","is_transit":false,"line":6,"i_long":106.66566,"distance":0},{"station_id":"RU","transit":false,"station_name":"Rawa Buntu","i_lat":-6.314823,"line":6,"distance":2413,"i_long":106.675475,"is_transit":false,"time":4},{"transit":false,"i_long":106.712277,"i_lat":-6.296963,"time":6,"station_name":"Sudimara","line":6,"is_transit":false,"distance":4566,"station_id":"SDM"},{"station_name":"Jurangmangu","time":4,"station_id":"JMU","distance":1994,"transit":false,"i_long":106.728916,"i_lat":-6.288927,"line":6,"is_transit":false},{"distance":2179,"station_id":"PDJ","line":6,"is_transit":false,"i_lat":-6.276362,"i_long":106.74273,"time":3,"transit":false,"station_name":"Pondokranji"},{"i_long":106.780334,"station_name":"Kebayoran","time":8,"transit":false,"i_lat":-6.237242,"distance":6218,"station_id":"KBY","line":6,"is_transit":false},{"distance":3737,"station_id":"PLM","i_lat":-6.207404,"line":6,"station_name":"Palmerah","is_transit":false,"transit":false,"i_long":106.79689,"time":7},{"line":1,"station_name":"Tanah Abang","time":6,"i_long":106.811091,"i_lat":-6.185545,"station_id":"THB","is_transit":true,"transit":true,"distance":3191},{"time":8,"line":1,"i_long":106.800832,"transit":false,"distance":3632,"station_id":"DU","i_lat":-6.155215,"station_name":"Duri","is_transit":false},{"station_id":"AK","is_transit":false,"time":4,"transit":false,"station_name":"Angke","distance":1230,"i_lat":-6.144674,"i_long":106.79867,"line":1},{"i_lat":-6.132549,"station_id":"KPB","time":9,"is_transit":true,"station_name":"Kampung Bandan","distance":4102,"i_long":106.826365,"transit":true,"line":4},{"transit":false,"distance":1444,"time":3,"station_name":"Rajawali","i_long":106.836569,"i_lat":-6.14505,"line":11,"is_transit":false,"station_id":"RJW"},{"time":5,"station_id":"KMO","distance":1901,"line":11,"i_long":106.839204,"is_transit":false,"transit":false,"station_name":"Kemayoran","i_lat":-6.161728},{"i_lat":-6.174784,"i_long":106.84368,"station_id":"PSE","is_transit":false,"transit":false,"station_name":"Pasar Senen","time":4,"distance":1436,"line":11},{"line":11,"time":8,"transit":false,"i_lat":-6.185975,"station_id":"GST","i_long":106.850107,"distance":1567,"is_transit":false,"station_name":"Gang Sentiong"},{"is_transit":false,"station_name":"Kramat","transit":false,"i_lat":-6.193792,"time":1,"distance":973,"station_id":"KMT","i_long":106.855437,"line":11},{"i_lat":-6.209188,"time":2,"is_transit":false,"line":11,"station_id":"POK","station_name":"Pondok Jati","transit":false,"i_long":106.861737,"distance":1829},{"time":9,"station_name":"Jatinegara","station_id":"JNG","transit":true,"i_long":106.86807400000001,"line":1,"i_lat":-6.215091,"distance":1236,"is_transit":true},{"station_id":"MTR","i_lat":-6.212485,"time":2,"i_long":106.858896,"station_name":"Matraman","distance":1377,"is_transit":false,"transit":false,"line":1}],[{"i_lat":-6.319871,"is_transit":false,"station_name":"Serpong","i_long":106.66566,"transit":false,"station_id":"SRP","line":6,"distance":0,"time":0},{"station_id":"RU","i_lat":-6.314823,"distance":2413,"line":6,"i_long":106.675475,"is_transit":false,"station_name":"Rawa Buntu","time":4,"transit":false},{"station_name":"Sudimara","transit":false,"time":6,"line":6,"distance":4566,"i_lat":-6.296963,"station_id":"SDM","is_transit":false,"i_long":106.712277},{"is_transit":false,"station_name":"Jurangmangu","transit":false,"distance":1994,"station_id":"JMU","i_lat":-6.288927,"i_long":106.728916,"line":6,"time":4},{"station_id":"PDJ","is_transit":false,"transit":false,"i_long":106.74273,"time":3,"i_lat":-6.276362,"line":6,"station_name":"Pondokranji","distance":2179},{"distance":6218,"station_id":"KBY","station_name":"Kebayoran","time":8,"is_transit":false,"i_lat":-6.237242,"line":6,"transit":false,"i_long":106.780334},{"i_long":106.79689,"transit":false,"time":7,"line":6,"station_id":"PLM","distance":3737,"i_lat":-6.207404,"is_transit":false,"station_name":"Palmerah"},{"station_id":"THB","line":1,"time":6,"is_transit":true,"transit":true,"distance":3191,"i_long":106.811091,"i_lat":-6.185545,"station_name":"Tanah Abang"},{"distance":3632,"station_id":"DU","transit":false,"station_name":"Duri","time":8,"i_long":106.800832,"is_transit":false,"i_lat":-6.155215,"line":1},{"station_name":"Angke","distance":1230,"is_transit":false,"time":4,"station_id":"AK","i_long":106.79867,"transit":false,"i_lat":-6.144674,"line":1},{"station_id":"KPB","time":9,"i_lat":-6.132549,"station_name":"Kampung Bandan","transit":true,"distance":4102,"is_transit":true,"i_long":106.826365,"line":4},{"transit":true,"time":3,"line":2,"is_transit":true,"station_id":"JAKK","i_lat":-6.137569,"i_long":106.812439,"station_name":"Jakarta Kota","distance":1364},{"i_lat":-6.141205,"transit":false,"i_long":106.820901,"distance":1264,"station_name":"Jayakarta","is_transit":false,"time":4,"line":2,"station_id":"JAY"},{"station_name":"Manggabesar","i_lat":-6.149769,"station_id":"MGB","i_long":106.82482,"line":2,"distance":1080,"time":2,"is_transit":false,"transit":false},{"transit":false,"distance":906,"time":2,"station_name":"Sawah Besar","i_long":106.827103,"station_id":"SW","is_transit":false,"line":2,"i_lat":-6.160725},{"is_transit":false,"station_name":"Juanda","transit":false,"distance":1149,"i_lat":-6.166716,"i_long":106.828284,"line":2,"station_id":"JUA","time":2},{"line":2,"distance":2015,"transit":false,"station_id":"GDD","i_long":106.832183,"time":4,"i_lat":-6.186295,"is_transit":false,"station_name":"Gondangdia"},{"i_long":106.840169,"station_name":"Cikini","transit":false,"i_lat":-6.198556,"line":2,"is_transit":false,"time":3,"distance":1750,"station_id":"CKI"},{"station_name":"Manggarai","transit":true,"i_long":106.84912,"line":2,"is_transit":true,"time":4,"i_lat":-6.209883,"station_id":"MRI","distance":1590},{"station_name":"Matraman","transit":false,"distance":1275,"is_transit":false,"station_id":"MTR","i_lat":-6.212485,"i_long":106.858896,"time":2,"line":1}],[{"is_transit":false,"transit":false,"i_long":106.66566,"line":6,"station_name":"Serpong","i_lat":-6.319871,"distance":0,"station_id":"SRP","time":0},{"distance":2413,"i_long":106.675475,"station_id":"RU","time":4,"is_transit":false,"transit":false,"i_lat":-6.314823,"station_name":"Rawa Buntu","line":6},{"station_name":"Sudimara","transit":false,"line":6,"distance":4566,"time":6,"i_lat":-6.296963,"station_id":"SDM","i_long":106.712277,"is_transit":false},{"is_transit":false,"i_long":106.728916,"time":4,"distance":1994,"station_name":"Jurangmangu","transit":false,"line":6,"station_id":"JMU","i_lat":-6.288927},{"distance":2179,"i_lat":-6.276362,"time":3,"is_transit":false,"transit":false,"line":6,"station_id":"PDJ","i_long":106.74273,"station_name":"Pondokranji"},{"time":8,"i_lat":-6.237242,"i_long":106.780334,"station_id":"KBY","distance":6218,"is_transit":false,"station_name":"Kebayoran","line":6,"transit":false},{"i_long":106.79689,"is_transit":false,"time":7,"station_name":"Palmerah","distance":3737,"transit":false,"line":6,"i_lat":-6.207404,"station_id":"PLM"},{"distance":3191,"time":6,"station_id":"THB","i_lat":-6.185545,"line":1,"transit":true,"i_long":106.811091,"is_transit":true,"station_name":"Tanah Abang"},{"is_transit":false,"station_name":"Karet","station_id":"KAT","i_long":106.816351,"distance":2029,"transit":false,"i_lat":-6.20132,"time":5,"line":1},{"line":1,"distance":471,"transit":false,"is_transit":false,"station_id":"SUDB","i_lat":-6.201433,"i_long":106.819881,"time":1,"station_name":"Sudirman Baru"},{"time":1,"station_id":"SUD","transit":false,"station_name":"Sudirman","distance":280,"is_transit":false,"i_lat":-6.202263,"line":1,"i_long":106.822649},{"station_name":"Manggarai","distance":3186,"line":2,"i_long":106.84912,"time":4,"i_lat":-6.209883,"transit":true,"station_id":"MRI","is_transit":true},{"time":4,"i_lat":-6.198556,"line":2,"station_name":"Cikini","is_transit":false,"distance":1590,"transit":false,"i_long":106.840169,"station_id":"CKI"},{"i_lat":-6.186295,"distance":1750,"time":3,"line":2,"is_transit":false,"transit":false,"station_id":"GDD","station_name":"Gondangdia","i_long":106.832183},{"i_lat":-6.166716,"is_transit":false,"transit":false,"station_id":"JUA","i_long":106.828284,"station_name":"Juanda","line":2,"time":4,"distance":2015},{"is_transit":false,"time":2,"transit":false,"line":2,"i_lat":-6.160725,"station_name":"Sawah Besar","distance":1149,"i_long":106.827103,"station_id":"SW"},{"transit":false,"time":2,"line":2,"station_name":"Manggabesar","distance":906,"station_id":"MGB","i_long":106.82482,"i_lat":-6.149769,"is_transit":false},{"station_name":"Jayakarta","time":2,"distance":1080,"is_transit":false,"station_id":"JAY","transit":false,"i_long":106.820901,"line":2,"i_lat":-6.141205},{"distance":1264,"is_transit":true,"i_long":106.812439,"station_id":"JAKK","station_name":"Jakarta Kota","time":4,"transit":true,"i_lat":-6.137569,"line":2},{"time":3,"i_lat":-6.132549,"station_id":"KPB","station_name":"Kampung Bandan","line":4,"distance":1364,"is_transit":true,"transit":true,"i_long":106.826365},{"station_name":"Rajawali","is_transit":false,"line":11,"station_id":"RJW","i_lat":-6.14505,"distance":1444,"transit":false,"time":3,"i_long":106.836569},{"i_lat":-6.161728,"station_name":"Kemayoran","time":5,"is_transit":false,"transit":false,"distance":1901,"station_id":"KMO","line":11,"i_long":106.839204},{"is_transit":false,"time":4,"station_name":"Pasar Senen","transit":false,"distance":1436,"i_long":106.84368,"line":11,"i_lat":-6.174784,"station_id":"PSE"},{"time":8,"transit":false,"distance":1567,"is_transit":false,"i_lat":-6.185975,"i_long":106.850107,"station_id":"GST","station_name":"Gang Sentiong","line":11},{"i_long":106.855437,"line":11,"transit":false,"time":1,"i_lat":-6.193792,"distance":973,"is_transit":false,"station_id":"KMT","station_name":"Kramat"},{"transit":false,"distance":1829,"station_name":"Pondok Jati","is_transit":false,"i_lat":-6.209188,"i_long":106.861737,"station_id":"POK","time":2,"line":11},{"i_lat":-6.215091,"distance":1236,"is_transit":true,"station_id":"JNG","time":9,"i_long":106.86807400000001,"line":1,"transit":true,"station_name":"Jatinegara"},{"station_id":"MTR","distance":1377,"line":1,"station_name":"Matraman","i_lat":-6.212485,"i_long":106.858896,"transit":false,"is_transit":false,"time":2}]]}