{"data":[[{"transit":false,"line":6,"distance":0,"station_id":"SRP","is_transit":false,"time":0,"station_name":"Serpong","i_lat":-6.319871,"i_long":106.66566},{"line":6,"is_transit":false,"transit":false,"time":4,"station_name":"Rawa Buntu","distance":2413,"i_long":106.675475,"station_id":"RU","i_lat":-6.314823},{"i_lat":-6.296963,"time":6,"i_long":106.712277,"station_id":"SDM","distance":4566,"line":6,"transit":false,"is_transit":false,"station_name":"Sudimara"},{"i_long":106.728916,"station_name":"Jurangmangu","transit":false,"is_transit":false,"distance":1994,"line":6,"station_id":"JMU","time":4,"i_lat":-6.288927},{"distance":2179,"transit":false,"is_transit":false,"time":3,"i_lat":-6.276362,"line":6,"station_id":"PDJ","station_name":"Pondokranji","i_long":106.74273},{"i_lat":-6.237242,"line":6,"station_id":"KBY","station_name":"Kebayoran","i_long":106.780334,"is_transit":false,"transit":false,"time":8,"distance":6218},{"station_name":"Palmerah","is_transit":false,"station_id":"PLM","distance":3737,"time":7,"i_lat":-6.207404,"line":6,"transit":false,"i_long":106.79689},{"distance":3191,"i_lat":-6.185545,"is_transit":true,"station_name":"Tanah Abang","transit":true,"station_id":"THB","i_long":106.811091,"line":1,"time":6},{"i_lat":-6.20132,"station_id":"KAT","is_transit":false,"transit":false,"time":5,"line":1,"station_name":"Karet","distance":2029,"i_long":106.816351},{"i_long":106.819881,"transit":false,"distance":471,"is_transit":false,"station_id":"SUDB","station_name":"Sudirman Baru","i_lat":-6.201433,"line":1,"time":1},{"i_long":106.822649,"distance":280,"station_id":"SUD","station_name":"Sudirman","transit":false,"i_lat":-6.202263,"line":1,"time":1,"is_transit":false},{"time":4,"distance":3186,"i_long":106.84912,"station_name":"Manggarai","i_lat":-6.209883,"station_id":"MRI","transit":true,"line":0,"is_transit":true},{"is_transit":false,"distance":2610,"time":4,"station_id":"TEB","i_lat":-6.226659,"line":2,"transit":false,"i_long":106.857948,"station_name":"Tebet"},{"time":2,"is_transit":false,"station_id":"CW","station_name":"Cawang","distance":1230,"line":0,"i_lat":-6.242512,"i_long":106.856607,"transit":false},{"line":0,"i_lat":-6.255332,"transit":false,"station_name":"Duren Kalibata","is_transit":false,"distance":1546,"time":3,"i_long":106.85449,"station_id":"DRN"},{"transit":false,"i_long":106.851577,"station_id":"PSMB","line":2,"is_transit":false,"i_lat":-6.263214,"time":2,"station_name":"Pasar Minggu Baru","distance":824},{"station_name":"Pasar Minggu","distance":2380,"time":2,"line":2,"station_id":"PSM","is_transit":false,"transit":false,"i_lat":-6.2842400000000005,"i_long":106.843999},{"i_long":106.838896,"time":4,"i_lat":-6.3080680000000005,"is_transit":false,"line":2,"station_id":"TNT","distance":2820,"transit":false,"station_name":"Tanjung Barat"},{"i_long":106.832616,"is_transit":false,"station_name":"Lenteng Agung","line":2,"distance":2671,"transit":false,"i_lat":-6.330363,"time":3,"station_id":"LNA"},{"station_name":"Univ. Pancasila","i_lat":-6.339291,"time":2,"is_transit":false,"distance":1029,"i_long":106.834175,"line":2,"transit":false,"station_id":"UP"}],[{"station_id":"SRP","is_transit":false,"line":6,"i_lat":-6.319871,"station_name":"Serpong","time":0,"distance":0,"i_long":106.66566,"transit":false},{"line":6,"transit":false,"station_id":"RU","distance":2413,"is_transit":false,"station_name":"Rawa Buntu","time":4,"i_long":106.675475,"i_lat":-6.314823},{"i_lat":-6.296963,"is_transit":false,"distance":4566,"station_name":"Sudimara","time":6,"i_long":106.712277,"transit":false,"line":6,"station_id":"SDM"},{"station_id":"JMU","transit":false,"time":4,"is_transit":false,"i_lat":-6.288927,"line":6,"distance":1994,"i_long":106.728916,"station_name":"Jurangmangu"},{"station_name":"Pondokranji","i_long":106.74273,"transit":false,"station_id":"PDJ","is_transit":false,"distance":2179,"time":3,"line":6,"i_lat":-6.276362},{"i_long":106.780334,"station_id":"KBY","station_name":"Kebayoran","time":8,"transit":false,"line":6,"i_lat":-6.237242,"distance":6218,"is_transit":false},{"station_id":"PLM","is_transit":false,"station_name":"Palmerah","i_lat":-6.207404,"transit":false,"time":7,"distance":3737,"i_long":106.79689,"line":6},{"time":6,"i_lat":-6.185545,"line":1,"station_name":"Tanah Abang","is_transit":true,"distance":3191,"transit":true,"station_id":"THB","i_long":106.811091},{"line":1,"transit":true,"distance":3632,"i_long":106.800832,"station_name":"Duri","station_id":"DU","time":8,"i_lat":-6.155215,"is_transit":true},{"i_long":106.79867,"distance":1230,"station_name":"Angke","is_transit":false,"transit":false,"i_lat":-6.144674,"line":0,"station_id":"AK","time":4},{"station_id":"KPB","i_lat":-6.132549,"station_name":"Kampung Bandan","transit":false,"i_long":106.826365,"distance":4102,"time":9,"line":0,"is_transit":true},{"i_lat":-6.137569,"station_name":"Jakarta Kota","time":3,"distance":1364,"is_transit":true,"line":0,"i_long":106.812439,"station_id":"JAKK","transit":true},{"station_id":"JAY","is_transit":false,"distance":1264,"station_name":"Jayakarta","i_lat":-6.141205,"transit":false,"i_long":106.820901,"line":7,"time":4},{"i_long":106.82482,"line":2,"station_name":"Manggabesar","distance":1080,"i_lat":-6.149769,"is_transit":false,"station_id":"MGB","transit":false,"time":2},{"station_name":"Sawah Besar","transit":false,"i_long":106.827103,"line":2,"i_lat":-6.160725,"is_transit":false,"distance":906,"station_id":"SW","time":2},{"transit":false,"time":2,"i_lat":-6.166716,"is_transit":false,"i_long":106.828284,"line":2,"station_id":"JUA","distance":1149,"station_name":"Juanda"},{"time":4,"distance":2015,"i_lat":-6.186295,"station_name":"Gondangdia","station_id":"GDD","is_transit":false,"line":2,"transit":false,"i_long":106.832183},{"i_long":106.840169,"time":3,"station_id":"CKI","line":0,"i_lat":-6.198556,"station_name":"Cikini","transit":false,"distance":1750,"is_transit":false},{"line":0,"transit":true,"i_long":106.84912,"station_id":"MRI","time":4,"distance":1590,"station_name":"Manggarai","is_transit":true,"i_lat":-6.209883},{"is_transit":false,"distance":2610,"time":4,"i_lat":-6.226659,"i_long":106.857948,"transit":false,"station_id":"TEB","line":2,"station_name":"Tebet"},{"station_id":"CW","transit":false,"i_lat":-6.242512,"distance":1230,"time":2,"station_name":"Cawang","is_transit":false,"i_long":106.856607,"line":0},{"line":0,"station_name":"Duren Kalibata","i_lat":-6.255332,"distance":1546,"station_id":"DRN","transit":false,"i_long":106.85449,"is_transit":false,"time":3},{"station_name":"Pasar Minggu Baru","is_transit":false,"transit":false,"i_lat":-6.263214,"line":2,"i_long":106.851577,"station_id":"PSMB","distance":824,"time":2},{"transit":false,"line":2,"station_name":"Pasar Minggu","i_lat":-6.2842400000000005,"i_long":106.843999,"is_transit":false,"station_id":"PSM","time":2,"distance":2380},{"station_name":"Tanjung Barat","i_lat":-6.3080680000000005,"is_transit":false,"station_id":"TNT","time":4,"i_long":106.838896,"line":2,"distance":2820,"transit":false},{"station_id":"LNA","transit":false,"station_name":"Lenteng Agung","is_transit":false,"time":3,"distance":2671,"line":2,"i_lat":-6.330363,"i_long":106.832616},{"station_id":"UP","line":2,"station_name":"Univ. Pancasila","distance":1029,"i_lat":-6.339291,"i_long":106.834175,"transit":false,"is_transit":false,"time":2}],[{"distance":0,"i_lat":-6.319871,"station_id":"SRP","time":0,"transit":false,"i_long":106.66566,"is_transit":false,"line":6,"station_name":"Serpong"},{"station_id":"RU","i_lat":-6.314823,"distance":2413,"is_transit":false,"transit":false,"time":4,"station_name":"Rawa Buntu","line":6,"i_long":106.675475},{"i_long":106.712277,"line":6,"time":6,"i_lat":-6.296963,"station_id":"SDM","transit":false,"distance":4566,"station_name":"Sudimara","is_transit":false},{"i_long":106.728916,"line":6,"i_lat":-6.288927,"is_transit":false,"distance":1994,"station_name":"Jurangmangu","transit":false,"station_id":"JMU","time":4},{"transit":false,"is_transit":false,"station_name":"Pondokranji","i_lat":-6.276362,"distance":2179,"time":3,"station_id":"PDJ","i_long":106.74273,"line":6},{"station_name":"Kebayoran","i_lat":-6.237242,"station_id":"KBY","time":8,"is_transit":false,"distance":6218,"i_long":106.780334,"transit":false,"line":6},{"distance":3737,"is_transit":false,"i_long":106.79689,"i_lat":-6.207404,"station_name":"Palmerah","station_id":"PLM","transit":false,"time":7,"line":6},{"line":1,"distance":3191,"transit":true,"station_name":"Tanah Abang","i_long":106.811091,"station_id":"THB","i_lat":-6.185545,"time":6,"is_transit":true},{"transit":true,"i_lat":-6.155215,"station_name":"Duri","time":8,"i_long":106.800832,"distance":3632,"station_id":"DU","is_transit":true,"line":1},{"time":4,"station_id":"AK","distance":1230,"station_name":"Angke","i_lat":-6.144674,"is_transit":false,"i_long":106.79867,"transit":false,"line":0},{"i_lat":-6.132549,"i_long":106.826365,"is_transit":true,"time":9,"transit":true,"station_id":"KPB","line":0,"distance":4102,"station_name":"Kampung Bandan"},{"is_transit":false,"transit":false,"station_name":"Rajawali","i_lat":-6.14505,"i_long":106.836569,"line":11,"station_id":"RJW","time":3,"distance":1444},{"is_transit":false,"time":5,"i_lat":-6.161728,"i_long":106.839204,"line":11,"station_name":"Kemayoran","transit":false,"station_id":"KMO","distance":1901},{"is_transit":false,"i_lat":-6.174784,"transit":false,"station_id":"PSE","line":11,"distance":1436,"i_long":106.84368,"station_name":"Pasar Senen","time":4},{"time":8,"station_name":"Gang Sentiong","i_lat":-6.185975,"transit":false,"i_long":106.850107,"line":11,"is_transit":false,"distance":1567,"station_id":"GST"},{"transit":false,"line":11,"distance":973,"is_transit":false,"station_id":"KMT","time":1,"i_lat":-6.193792,"station_name":"Kramat","i_long":106.855437},{"is_transit":false,"time":2,"line":11,"station_id":"POK","station_name":"Pondok Jati","distance":1829,"transit":false,"i_long":106.861737,"i_lat":-6.209188},{"station_id":"JNG","distance":1236,"time":9,"is_transit":true,"station_name":"Jatinegara","transit":true,"line":0,"i_long":106.86807400000001,"i_lat":-6.215091},{"station_id":"MTR","transit":false,"distance":1377,"is_transit":false,"time":2,"line":1,"i_lat":-6.212485,"station_name":"Matraman","i_long":106.858896},{"i_long":106.84912,"line":0,"is_transit":true,"station_id":"MRI","distance":1275,"station_name":"Manggarai","transit":true,"time":2,"i_lat":-6.209883},{"line":2,"time":4,"station_id":"TEB","i_lat":-6.226659,"distance":2610,"station_name":"Tebet","i_long":106.857948,"is_transit":false,"transit":false},{"is_transit":false,"station_name":"Cawang","transit":false,"time":2,"station_id":"CW","i_lat":-6.242512,"i_long":106.856607,"line":0,"distance":1230},{"i_long":106.85449,"station_name":"Duren Kalibata","i_lat":-6.255332,"is_transit":false,"station_id":"DRN","time":3,"transit":false,"line":0,"distance":1546},{"is_transit":false,"time":2,"i_long":106.851577,"line":2,"distance":824,"station_name":"Pasar Minggu Baru","transit":false,"station_id":"PSMB","i_lat":-6.263214},{"i_long":106.843999,"is_transit":false,"distance":2380,"station_id":"PSM","time":2,"i_lat":-6.2842400000000005,"station_name":"Pasar Minggu","transit":false,"line":2},{"time":4,"distance":2820,"station_id":"TNT","transit":false,"station_name":"Tanjung Barat","i_long":106.838896,"is_transit":false,"line":2,"i_lat":-6.3080680000000005},{"station_name":"Lenteng Agung","transit":false,"line":2,"i_lat":-6.330363,"time":3,"station_id":"LNA","is_transit":false,"distance":2671,"i_long":106.832616},{"i_lat":-6.339291,"is_transit":false,"i_long":106.834175,"line":2,"distance":1029,"station_id":"UP","station_name":"Univ. Pancasila","time":2,"transit":false}]]}