{"data":[[{"distance":0,"is_transit":false,"i_lat":-6.319871,"station_name":"Serpong","time":0,"station_id":"SRP","transit":false,"i_long":106.66566,"line":6},{"station_id":"RU","i_lat":-6.314823,"transit":false,"i_long":106.675475,"is_transit":false,"line":6,"time":4,"distance":2413,"station_name":"Rawa Buntu"},{"line":6,"transit":false,"time":6,"i_lat":-6.296963,"i_long":106.712277,"station_name":"Sudimara","is_transit":false,"station_id":"SDM","distance":4566},{"i_lat":-6.288927,"transit":false,"i_long":106.728916,"time":4,"station_id":"JMU","station_name":"Jurangmangu","is_transit":false,"line":6,"distance":1994},{"time":3,"station_id":"PDJ","i_lat":-6.276362,"line":6,"is_transit":false,"distance":2179,"transit":false,"i_long":106.74273,"station_name":"Pondokranji"},{"distance":6218,"i_long":106.780334,"line":6,"i_lat":-6.237242,"is_transit":false,"time":8,"station_id":"KBY","transit":false,"station_name":"Kebayoran"}]]}