{"data":[[{"transit":false,"is_transit":false,"i_long":106.66566,"i_lat":-6.319871,"time":0,"line":6,"station_name":"Serpong","distance":0,"station_id":"SRP"},{"distance":2413,"i_long":106.675475,"time":4,"i_lat":-6.314823,"is_transit":false,"transit":false,"station_id":"RU","line":6,"station_name":"Rawa Buntu"},{"distance":4566,"line":6,"station_name":"Sudimara","i_lat":-6.296963,"i_long":106.712277,"is_transit":false,"time":6,"transit":false,"station_id":"SDM"},{"station_name":"Jurangmangu","line":6,"i_lat":-6.288927,"distance":1994,"time":4,"station_id":"JMU","is_transit":false,"i_long":106.728916,"transit":false},{"time":3,"distance":2179,"i_long":106.74273,"transit":false,"i_lat":-6.276362,"station_name":"Pondokranji","line":6,"station_id":"PDJ","is_transit":false},{"station_name":"Kebayoran","line":6,"distance":6218,"time":8,"i_long":106.780334,"i_lat":-6.237242,"transit":false,"station_id":"KBY","is_transit":false},{"i_lat":-6.207404,"line":6,"distance":3737,"time":7,"station_name":"Palmerah","station_id":"PLM","transit":false,"is_transit":false,"i_long":106.79689},{"time":6,"line":1,"i_lat":-6.185545,"is_transit":true,"distance":3191,"station_name":"Tanah Abang","station_id":"THB","i_long":106.811091,"transit":true},{"is_transit":false,"time":5,"transit":false,"distance":2029,"station_id":"KAT","i_lat":-6.20132,"i_long":106.816351,"station_name":"Karet","line":1},{"is_transit":false,"i_long":106.819881,"line":1,"station_name":"Sudirman Baru","i_lat":-6.201433,"station_id":"SUDB","transit":false,"time":1,"distance":471},{"time":1,"is_transit":false,"distance":280,"station_name":"Sudirman","station_id":"SUD","transit":false,"i_long":106.822649,"i_lat":-6.202263,"line":1},{"is_transit":false,"line":2,"station_id":"MRI","transit":false,"i_long":106.84912,"station_name":"Manggarai","time":4,"distance":3186,"i_lat":-6.209883},{"time":2,"station_id":"MTR","distance":1275,"is_transit":false,"transit":false,"station_name":"Matraman","i_lat":-6.212485,"line":1,"i_long":106.858896},{"distance":1377,"i_lat":-6.215091,"i_long":106.86807400000001,"line":1,"time":8,"is_transit":true,"station_name":"Jatinegara","station_id":"JNG","transit":true},{"station_name":"Pondok Jati","i_lat":-6.209188,"time":2,"i_long":106.861737,"distance":1236,"station_id":"POK","is_transit":false,"transit":false,"line":11}],[{"station_id":"SRP","transit":false,"time":0,"distance":0,"i_long":106.66566,"is_transit":false,"i_lat":-6.319871,"station_name":"Serpong","line":6},{"line":6,"i_long":106.675475,"is_transit":false,"distance":2413,"station_id":"RU","station_name":"Rawa Buntu","time":4,"i_lat":-6.314823,"transit":false},{"is_transit":false,"transit":false,"time":6,"station_name":"Sudimara","station_id":"SDM","distance":4566,"i_lat":-6.296963,"line":6,"i_long":106.712277},{"time":4,"line":6,"distance":1994,"station_name":"Jurangmangu","station_id":"JMU","is_transit":false,"transit":false,"i_lat":-6.288927,"i_long":106.728916},{"station_name":"Pondokranji","distance":2179,"station_id":"PDJ","i_lat":-6.276362,"i_long":106.74273,"line":6,"is_transit":false,"transit":false,"time":3},{"time":8,"is_transit":false,"distance":6218,"station_id":"KBY","station_name":"Kebayoran","i_lat":-6.237242,"transit":false,"line":6,"i_long":106.780334},{"i_long":106.79689,"transit":false,"line":6,"distance":3737,"time":7,"station_name":"Palmerah","station_id":"PLM","i_lat":-6.207404,"is_transit":false},{"is_transit":true,"i_long":106.811091,"i_lat":-6.185545,"station_name":"Tanah Abang","time":6,"line":1,"station_id":"THB","transit":true,"distance":3191},{"station_name":"Duri","i_long":106.800832,"station_id":"DU","time":8,"transit":false,"distance":3632,"is_transit":false,"i_lat":-6.155215,"line":1},{"line":1,"station_name":"Angke","transit":false,"station_id":"AK","distance":1230,"time":4,"is_transit":false,"i_lat":-6.144674,"i_long":106.79867},{"station_id":"KPB","is_transit":true,"transit":true,"i_lat":-6.132549,"i_long":106.826365,"time":9,"distance":4102,"station_name":"Kampung Bandan","line":4},{"station_name":"Rajawali","line":11,"time":3,"station_id":"RJW","i_lat":-6.14505,"distance":1444,"is_transit":false,"i_long":106.836569,"transit":false},{"transit":false,"distance":1901,"line":11,"is_transit":false,"station_name":"Kemayoran","station_id":"KMO","time":5,"i_lat":-6.161728,"i_long":106.839204},{"station_id":"PSE","distance":1436,"i_lat":-6.174784,"is_transit":false,"transit":false,"station_name":"Pasar Senen","time":4,"i_long":106.84368,"line":11},{"time":8,"i_long":106.850107,"is_transit":false,"station_name":"Gang Sentiong","transit":false,"station_id":"GST","line":11,"distance":1567,"i_lat":-6.185975},{"i_lat":-6.193792,"station_name":"Kramat","is_transit":false,"distance":973,"station_id":"KMT","i_long":106.855437,"line":11,"time":1,"transit":false},{"i_long":106.861737,"station_id":"POK","is_transit":false,"line":11,"transit":false,"station_name":"Pondok Jati","time":2,"distance":1829,"i_lat":-6.209188}],[{"i_long":106.66566,"time":0,"station_name":"Serpong","distance":0,"i_lat":-6.319871,"station_id":"SRP","is_transit":false,"transit":false,"line":6},{"i_long":106.675475,"station_id":"RU","time":4,"is_transit":false,"i_lat":-6.314823,"line":6,"station_name":"Rawa Buntu","transit":false,"distance":2413},{"station_name":"Sudimara","station_id":"SDM","time":6,"line":6,"is_transit":false,"i_long":106.712277,"transit":false,"distance":4566,"i_lat":-6.296963},{"is_transit":false,"time":4,"i_lat":-6.288927,"line":6,"station_id":"JMU","transit":false,"i_long":106.728916,"station_name":"Jurangmangu","distance":1994},{"distance":2179,"i_long":106.74273,"station_name":"Pondokranji","station_id":"PDJ","is_transit":false,"time":3,"transit":false,"line":6,"i_lat":-6.276362},{"time":8,"distance":6218,"line":6,"station_name":"Kebayoran","station_id":"KBY","i_lat":-6.237242,"i_long":106.780334,"transit":false,"is_transit":false},{"distance":3737,"i_lat":-6.207404,"is_transit":false,"line":6,"i_long":106.79689,"station_name":"Palmerah","time":7,"transit":false,"station_id":"PLM"},{"distance":3191,"station_id":"THB","time":6,"i_lat":-6.185545,"i_long":106.811091,"transit":true,"line":1,"station_name":"Tanah Abang","is_transit":true},{"i_lat":-6.155215,"line":1,"i_long":106.800832,"station_id":"DU","distance":3632,"time":8,"station_name":"Duri","is_transit":false,"transit":false},{"is_transit":false,"station_id":"AK","time":4,"i_long":106.79867,"i_lat":-6.144674,"station_name":"Angke","distance":1230,"line":1,"transit":false},{"time":9,"i_long":106.826365,"transit":true,"i_lat":-6.132549,"line":4,"is_transit":true,"distance":4102,"station_id":"KPB","station_name":"Kampung Bandan"},{"station_id":"JAKK","transit":true,"distance":1364,"is_transit":true,"line":2,"i_long":106.812439,"station_name":"Jakarta Kota","time":3,"i_lat":-6.137569},{"line":2,"station_name":"Jayakarta","transit":false,"i_lat":-6.141205,"distance":1264,"is_transit":false,"station_id":"JAY","time":4,"i_long":106.820901},{"transit":false,"station_id":"MGB","line":2,"station_name":"Manggabesar","is_transit":false,"i_lat":-6.149769,"time":2,"distance":1080,"i_long":106.82482},{"i_long":106.827103,"station_name":"Sawah Besar","is_transit":false,"transit":false,"distance":906,"line":2,"station_id":"SW","time":2,"i_lat":-6.160725},{"station_name":"Juanda","distance":1149,"line":2,"i_lat":-6.166716,"time":2,"transit":false,"is_transit":false,"station_id":"JUA","i_long":106.828284},{"line":2,"i_lat":-6.186295,"distance":2015,"station_id":"GDD","time":4,"is_transit":false,"transit":false,"station_name":"Gondangdia","i_long":106.832183},{"line":2,"i_lat":-6.198556,"station_name":"Cikini","i_long":106.840169,"is_transit":false,"station_id":"CKI","time":3,"transit":false,"distance":1750},{"distance":1590,"time":4,"station_id":"MRI","station_name":"Manggarai","i_lat":-6.209883,"transit":true,"i_long":106.84912,"line":2,"is_transit":true},{"distance":1275,"station_name":"Matraman","station_id":"MTR","time":2,"is_transit":false,"transit":false,"i_long":106.858896,"i_lat":-6.212485,"line":1},{"distance":1377,"is_transit":true,"line":1,"station_id":"JNG","i_lat":-6.215091,"station_name":"Jatinegara","time":8,"transit":true,"i_long":106.86807400000001},{"time":2,"transit":false,"line":11,"station_name":"Pondok Jati","station_id":"POK","is_transit":false,"i_long":106.861737,"i_lat":-6.209188,"distance":1236}],[{"transit":false,"time":0,"station_id":"SRP","station_name":"Serpong","distance":0,"is_transit":false,"line":6,"i_long":106.66566,"i_lat":-6.319871},{"is_transit":false,"line":6,"station_id":"RU","i_long":106.675475,"station_name":"Rawa Buntu","distance":2413,"i_lat":-6.314823,"time":4,"transit":false},{"station_name":"Sudimara","i_lat":-6.296963,"i_long":106.712277,"transit":false,"station_id":"SDM","distance":4566,"line":6,"time":6,"is_transit":false},{"line":6,"transit":false,"i_long":106.728916,"is_transit":false,"i_lat":-6.288927,"distance":1994,"time":4,"station_name":"Jurangmangu","station_id":"JMU"},{"distance":2179,"is_transit":false,"time":3,"station_id":"PDJ","transit":false,"line":6,"station_name":"Pondokranji","i_lat":-6.276362,"i_long":106.74273},{"distance":6218,"time":8,"line":6,"station_name":"Kebayoran","i_long":106.780334,"i_lat":-6.237242,"is_transit":false,"transit":false,"station_id":"KBY"},{"station_name":"Palmerah","distance":3737,"line":6,"transit":false,"time":7,"is_transit":false,"i_lat":-6.207404,"station_id":"PLM","i_long":106.79689},{"transit":true,"line":1,"station_name":"Tanah Abang","time":6,"is_transit":true,"i_lat":-6.185545,"i_long":106.811091,"distance":3191,"station_id":"THB"},{"i_lat":-6.20132,"line":1,"station_id":"KAT","is_transit":false,"i_long":106.816351,"station_name":"Karet","transit":false,"distance":2029,"time":5},{"is_transit":false,"station_id":"SUDB","i_lat":-6.201433,"transit":false,"station_name":"Sudirman Baru","distance":471,"i_long":106.819881,"line":1,"time":1},{"i_lat":-6.202263,"is_transit":false,"station_name":"Sudirman","station_id":"SUD","line":1,"time":1,"transit":false,"i_long":106.822649,"distance":280},{"i_long":106.84912,"station_name":"Manggarai","line":2,"station_id":"MRI","is_transit":true,"transit":true,"distance":3186,"i_lat":-6.209883,"time":4},{"station_id":"CKI","station_name":"Cikini","distance":1590,"is_transit":false,"i_lat":-6.198556,"time":4,"i_long":106.840169,"line":2,"transit":false},{"station_id":"GDD","is_transit":false,"distance":1750,"i_long":106.832183,"i_lat":-6.186295,"line":2,"transit":false,"station_name":"Gondangdia","time":3},{"time":4,"i_long":106.828284,"is_transit":false,"station_id":"JUA","transit":false,"i_lat":-6.166716,"station_name":"Juanda","distance":2015,"line":2},{"i_long":106.827103,"time":2,"is_transit":false,"transit":false,"distance":1149,"i_lat":-6.160725,"line":2,"station_name":"Sawah Besar","station_id":"SW"},{"i_lat":-6.149769,"i_long":106.82482,"station_id":"MGB","distance":906,"line":2,"is_transit":false,"transit":false,"station_name":"Manggabesar","time":2},{"i_long":106.820901,"time":2,"transit":false,"distance":1080,"station_name":"Jayakarta","i_lat":-6.141205,"is_transit":false,"line":2,"station_id":"JAY"},{"is_transit":true,"transit":true,"distance":1264,"station_id":"JAKK","i_long":106.812439,"time":4,"station_name":"Jakarta Kota","i_lat":-6.137569,"line":2},{"station_name":"Kampung Bandan","station_id":"KPB","i_long":106.826365,"transit":true,"i_lat":-6.132549,"is_transit":true,"time":3,"line":4,"distance":1364},{"distance":1444,"i_lat":-6.14505,"line":11,"station_name":"Rajawali","station_id":"RJW","is_transit":false,"transit":false,"i_long":106.836569,"time":3},{"transit":false,"time":5,"station_id":"KMO","i_lat":-6.161728,"i_long":106.839204,"station_name":"Kemayoran","distance":1901,"line":11,"is_transit":false},{"time":4,"is_transit":false,"i_lat":-6.174784,"i_long":106.84368,"line":11,"station_name":"Pasar Senen","transit":false,"station_id":"PSE","distance":1436},{"line":11,"is_transit":false,"station_id":"GST","i_lat":-6.185975,"station_name":"Gang Sentiong","time":8,"i_long":106.850107,"distance":1567,"transit":false},{"i_lat":-6.193792,"i_long":106.855437,"line":11,"station_id":"KMT","time":1,"is_transit":false,"transit":false,"distance":973,"station_name":"Kramat"},{"distance":1829,"transit":false,"is_transit":false,"i_lat":-6.209188,"line":11,"station_name":"Pondok Jati","time":2,"i_long":106.861737,"station_id":"POK"}]]}