{"data":[[{"time":0,"i_long":106.66566,"station_name":"Serpong","line":6,"is_transit":false,"i_lat":-6.319871,"transit":false,"distance":0,"station_id":"SRP"},{"distance":2413,"station_id":"RU","transit":false,"time":4,"i_long":106.675475,"is_transit":false,"i_lat":-6.314823,"line":6,"station_name":"Rawa Buntu"},{"time":6,"line":6,"i_lat":-6.296963,"distance":4566,"station_name":"Sudimara","station_id":"SDM","transit":false,"is_transit":false,"i_long":106.712277},{"is_transit":false,"station_id":"JMU","line":6,"station_name":"Jurangmangu","distance":1994,"transit":false,"time":4,"i_lat":-6.288927,"i_long":106.728916},{"station_id":"PDJ","i_long":106.74273,"distance":2179,"is_transit":false,"transit":false,"i_lat":-6.276362,"time":3,"station_name":"Pondokranji","line":6},{"time":8,"i_long":106.780334,"station_name":"Kebayoran","transit":false,"line":6,"station_id":"KBY","distance":6218,"i_lat":-6.237242,"is_transit":false},{"time":7,"line":6,"i_lat":-6.207404,"transit":false,"distance":3737,"i_long":106.79689,"station_id":"PLM","station_name":"Palmerah","is_transit":false},{"i_lat":-6.185545,"station_name":"Tanah Abang","transit":true,"i_long":106.811091,"distance":3191,"time":6,"station_id":"THB","is_transit":true,"line":1},{"i_lat":-6.20132,"transit":false,"distance":2029,"station_id":"KAT","station_name":"Karet","line":1,"is_transit":false,"time":5,"i_long":106.816351},{"distance":471,"is_transit":false,"transit":false,"time":1,"line":1,"i_lat":-6.201433,"station_id":"SUDB","i_long":106.819881,"station_name":"Sudirman Baru"},{"time":1,"station_name":"Sudirman","is_transit":false,"station_id":"SUD","transit":false,"distance":280,"i_lat":-6.202263,"line":1,"i_long":106.822649},{"i_lat":-6.209883,"transit":true,"line":0,"is_transit":true,"station_name":"Manggarai","i_long":106.84912,"distance":3186,"station_id":"MRI","time":4},{"transit":false,"time":4,"line":2,"is_transit":false,"distance":2610,"i_lat":-6.226659,"station_id":"TEB","i_long":106.857948,"station_name":"Tebet"},{"station_name":"Cawang","time":2,"station_id":"CW","i_long":106.856607,"i_lat":-6.242512,"distance":1230,"transit":false,"line":0,"is_transit":false},{"i_lat":-6.255332,"is_transit":false,"line":0,"station_id":"DRN","time":3,"station_name":"Duren Kalibata","distance":1546,"i_long":106.85449,"transit":false}],[{"i_long":106.66566,"transit":false,"distance":0,"is_transit":false,"i_lat":-6.319871,"time":0,"line":6,"station_id":"SRP","station_name":"Serpong"},{"i_long":106.675475,"time":4,"is_transit":false,"line":6,"distance":2413,"station_name":"Rawa Buntu","transit":false,"i_lat":-6.314823,"station_id":"RU"},{"time":6,"i_long":106.712277,"distance":4566,"is_transit":false,"station_id":"SDM","transit":false,"line":6,"i_lat":-6.296963,"station_name":"Sudimara"},{"is_transit":false,"transit":false,"station_id":"JMU","i_lat":-6.288927,"time":4,"distance":1994,"line":6,"station_name":"Jurangmangu","i_long":106.728916},{"is_transit":false,"distance":2179,"transit":false,"i_long":106.74273,"i_lat":-6.276362,"line":6,"station_name":"Pondokranji","station_id":"PDJ","time":3},{"is_transit":false,"station_id":"KBY","time":8,"line":6,"station_name":"Kebayoran","transit":false,"i_long":106.780334,"distance":6218,"i_lat":-6.237242},{"time":7,"transit":false,"is_transit":false,"i_lat":-6.207404,"station_id":"PLM","i_long":106.79689,"line":6,"distance":3737,"station_name":"Palmerah"},{"line":1,"is_transit":true,"transit":true,"station_id":"THB","i_lat":-6.185545,"i_long":106.811091,"station_name":"Tanah Abang","distance":3191,"time":6},{"line":1,"time":8,"station_id":"DU","station_name":"Duri","transit":true,"distance":3632,"is_transit":true,"i_long":106.800832,"i_lat":-6.155215},{"i_lat":-6.144674,"line":0,"station_name":"Angke","time":4,"station_id":"AK","distance":1230,"is_transit":false,"transit":false,"i_long":106.79867},{"line":0,"station_id":"KPB","time":9,"is_transit":true,"i_lat":-6.132549,"station_name":"Kampung Bandan","distance":4102,"transit":false,"i_long":106.826365},{"i_lat":-6.137569,"time":3,"station_name":"Jakarta Kota","i_long":106.812439,"is_transit":true,"line":0,"transit":true,"station_id":"JAKK","distance":1364},{"distance":1264,"i_long":106.820901,"time":4,"line":7,"i_lat":-6.141205,"transit":false,"station_id":"JAY","is_transit":false,"station_name":"Jayakarta"},{"is_transit":false,"i_long":106.82482,"station_name":"Manggabesar","station_id":"MGB","distance":1080,"time":2,"line":2,"transit":false,"i_lat":-6.149769},{"i_lat":-6.160725,"station_name":"Sawah Besar","time":2,"line":2,"transit":false,"distance":906,"station_id":"SW","is_transit":false,"i_long":106.827103},{"station_name":"Juanda","i_lat":-6.166716,"i_long":106.828284,"distance":1149,"station_id":"JUA","time":2,"is_transit":false,"transit":false,"line":2},{"station_id":"GDD","line":2,"distance":2015,"is_transit":false,"transit":false,"station_name":"Gondangdia","time":4,"i_lat":-6.186295,"i_long":106.832183},{"is_transit":false,"i_lat":-6.198556,"station_name":"Cikini","i_long":106.840169,"line":0,"distance":1750,"transit":false,"time":3,"station_id":"CKI"},{"distance":1590,"is_transit":true,"station_id":"MRI","i_long":106.84912,"transit":true,"station_name":"Manggarai","time":4,"i_lat":-6.209883,"line":0},{"station_id":"TEB","time":4,"i_lat":-6.226659,"line":2,"is_transit":false,"station_name":"Tebet","i_long":106.857948,"transit":false,"distance":2610},{"is_transit":false,"transit":false,"station_name":"Cawang","station_id":"CW","line":0,"distance":1230,"i_lat":-6.242512,"i_long":106.856607,"time":2},{"line":0,"transit":false,"distance":1546,"station_id":"DRN","time":3,"station_name":"Duren Kalibata","is_transit":false,"i_lat":-6.255332,"i_long":106.85449}],[{"i_lat":-6.319871,"line":6,"is_transit":false,"station_id":"SRP","transit":false,"distance":0,"i_long":106.66566,"station_name":"Serpong","time":0},{"i_lat":-6.314823,"i_long":106.675475,"line":6,"time":4,"station_id":"RU","station_name":"Rawa Buntu","distance":2413,"is_transit":false,"transit":false},{"is_transit":false,"i_lat":-6.296963,"distance":4566,"transit":false,"station_name":"Sudimara","i_long":106.712277,"line":6,"time":6,"station_id":"SDM"},{"is_transit":false,"station_id":"JMU","station_name":"Jurangmangu","time":4,"i_long":106.728916,"line":6,"distance":1994,"transit":false,"i_lat":-6.288927},{"i_lat":-6.276362,"distance":2179,"station_id":"PDJ","transit":false,"station_name":"Pondokranji","i_long":106.74273,"line":6,"is_transit":false,"time":3},{"line":6,"time":8,"distance":6218,"is_transit":false,"station_id":"KBY","station_name":"Kebayoran","i_long":106.780334,"i_lat":-6.237242,"transit":false},{"i_lat":-6.207404,"station_name":"Palmerah","transit":false,"time":7,"line":6,"is_transit":false,"station_id":"PLM","i_long":106.79689,"distance":3737},{"distance":3191,"station_id":"THB","i_lat":-6.185545,"i_long":106.811091,"line":1,"is_transit":true,"station_name":"Tanah Abang","transit":true,"time":6},{"line":1,"is_transit":true,"station_id":"DU","transit":true,"i_long":106.800832,"i_lat":-6.155215,"station_name":"Duri","time":8,"distance":3632},{"is_transit":false,"station_name":"Angke","station_id":"AK","transit":false,"distance":1230,"i_lat":-6.144674,"time":4,"line":0,"i_long":106.79867},{"station_id":"KPB","station_name":"Kampung Bandan","i_long":106.826365,"line":0,"transit":true,"is_transit":true,"time":9,"i_lat":-6.132549,"distance":4102},{"distance":1444,"i_long":106.836569,"station_name":"Rajawali","is_transit":false,"time":3,"transit":false,"line":11,"i_lat":-6.14505,"station_id":"RJW"},{"i_long":106.839204,"line":11,"is_transit":false,"i_lat":-6.161728,"station_name":"Kemayoran","distance":1901,"station_id":"KMO","transit":false,"time":5},{"time":4,"distance":1436,"transit":false,"line":11,"station_id":"PSE","station_name":"Pasar Senen","i_long":106.84368,"i_lat":-6.174784,"is_transit":false},{"station_id":"GST","station_name":"Gang Sentiong","i_lat":-6.185975,"i_long":106.850107,"distance":1567,"is_transit":false,"time":8,"line":11,"transit":false},{"distance":973,"line":11,"i_long":106.855437,"i_lat":-6.193792,"time":1,"station_name":"Kramat","station_id":"KMT","transit":false,"is_transit":false},{"station_name":"Pondok Jati","i_long":106.861737,"is_transit":false,"station_id":"POK","time":2,"line":11,"transit":false,"i_lat":-6.209188,"distance":1829},{"i_long":106.86807400000001,"station_id":"JNG","distance":1236,"time":9,"i_lat":-6.215091,"transit":true,"is_transit":true,"station_name":"Jatinegara","line":0},{"is_transit":false,"transit":false,"distance":1377,"time":2,"i_long":106.858896,"station_id":"MTR","i_lat":-6.212485,"station_name":"Matraman","line":1},{"distance":1275,"is_transit":true,"transit":true,"line":0,"station_id":"MRI","station_name":"Manggarai","time":2,"i_lat":-6.209883,"i_long":106.84912},{"i_lat":-6.226659,"distance":2610,"station_id":"TEB","transit":false,"i_long":106.857948,"line":2,"is_transit":false,"station_name":"Tebet","time":4},{"time":2,"is_transit":false,"line":0,"station_id":"CW","i_lat":-6.242512,"transit":false,"station_name":"Cawang","distance":1230,"i_long":106.856607},{"transit":false,"is_transit":false,"time":3,"line":0,"i_lat":-6.255332,"i_long":106.85449,"station_id":"DRN","distance":1546,"station_name":"Duren Kalibata"}]]}