{"data":[[{"line":6,"time":0,"station_id":"SRP","station_name":"Serpong","transit":false,"distance":0,"is_transit":false,"i_lat":-6.319871,"i_long":106.66566},{"transit":false,"distance":2413,"station_name":"Rawa Buntu","time":4,"line":6,"station_id":"RU","i_lat":-6.314823,"i_long":106.675475,"is_transit":false},{"station_name":"Sudimara","is_transit":false,"i_long":106.712277,"station_id":"SDM","line":6,"distance":4566,"time":6,"transit":false,"i_lat":-6.296963},{"distance":1994,"i_long":106.728916,"station_name":"Jurangmangu","transit":false,"time":4,"is_transit":false,"station_id":"JMU","i_lat":-6.288927,"line":6},{"i_lat":-6.276362,"i_long":106.74273,"station_id":"PDJ","line":6,"distance":2179,"station_name":"Pondokranji","transit":false,"time":3,"is_transit":false},{"i_lat":-6.237242,"distance":6218,"line":6,"transit":false,"is_transit":false,"station_name":"Kebayoran","i_long":106.780334,"time":8,"station_id":"KBY"},{"station_id":"PLM","transit":false,"line":6,"i_lat":-6.207404,"i_long":106.79689,"distance":3737,"time":7,"is_transit":false,"station_name":"Palmerah"},{"i_lat":-6.185545,"line":1,"time":6,"i_long":106.811091,"is_transit":true,"station_id":"THB","station_name":"Tanah Abang","transit":true,"distance":3191},{"i_long":106.816351,"station_name":"Karet","distance":2029,"i_lat":-6.20132,"time":5,"transit":false,"station_id":"KAT","is_transit":false,"line":1},{"line":1,"time":1,"station_name":"Sudirman Baru","i_long":106.819881,"distance":471,"transit":false,"is_transit":false,"station_id":"SUDB","i_lat":-6.201433},{"station_id":"SUD","distance":280,"is_transit":false,"i_long":106.822649,"station_name":"Sudirman","transit":false,"i_lat":-6.202263,"time":1,"line":1},{"time":4,"i_lat":-6.209883,"i_long":106.84912,"line":0,"station_id":"MRI","is_transit":true,"distance":3186,"station_name":"Manggarai","transit":true},{"i_long":106.857948,"line":2,"station_id":"TEB","time":4,"station_name":"Tebet","transit":false,"distance":2610,"is_transit":false,"i_lat":-6.226659},{"time":2,"station_id":"CW","station_name":"Cawang","distance":1230,"transit":false,"line":0,"i_long":106.856607,"is_transit":false,"i_lat":-6.242512},{"i_lat":-6.255332,"is_transit":false,"transit":false,"station_name":"Duren Kalibata","i_long":106.85449,"distance":1546,"station_id":"DRN","time":3,"line":0},{"line":2,"distance":824,"transit":false,"time":2,"station_id":"PSMB","is_transit":false,"station_name":"Pasar Minggu Baru","i_long":106.851577,"i_lat":-6.263214},{"station_name":"Pasar Minggu","i_long":106.843999,"time":2,"is_transit":false,"distance":2380,"station_id":"PSM","transit":false,"i_lat":-6.2842400000000005,"line":2},{"i_lat":-6.3080680000000005,"i_long":106.838896,"station_id":"TNT","line":2,"transit":false,"distance":2820,"is_transit":false,"station_name":"Tanjung Barat","time":4},{"distance":2671,"transit":false,"station_name":"Lenteng Agung","time":3,"i_long":106.832616,"line":2,"station_id":"LNA","is_transit":false,"i_lat":-6.330363},{"time":2,"station_name":"Univ. Pancasila","is_transit":false,"transit":false,"distance":1029,"station_id":"UP","line":2,"i_lat":-6.339291,"i_long":106.834175},{"time":3,"is_transit":false,"station_id":"UI","station_name":"Univ. Indonesia","distance":2264,"i_lat":-6.360749,"i_long":106.831474,"line":2,"transit":false},{"is_transit":false,"i_long":106.831114,"transit":false,"station_id":"POC","time":2,"distance":1109,"station_name":"Pondok Cina","i_lat":-6.369073,"line":2},{"station_id":"DPB","line":0,"i_long":106.819451,"i_lat":-6.391065,"time":4,"station_name":"Depokbaru","transit":false,"distance":2727,"is_transit":false},{"i_lat":-6.405256,"is_transit":false,"line":0,"time":3,"station_name":"Depok","station_id":"DP","transit":false,"i_long":106.816926,"distance":1584},{"is_transit":true,"i_lat":-6.448811,"distance":5084,"i_long":106.800298,"transit":false,"line":1,"station_name":"Citayam","station_id":"CTA","time":6},{"station_name":"Cibinong","station_id":"CBN","is_transit":false,"i_long":106.851978,"transit":false,"i_lat":-6.46424,"line":0,"distance":6740,"time":10},{"i_lat":-6.466285,"is_transit":false,"line":21,"distance":6527,"transit":false,"station_id":"NMO","station_name":"Nambo","i_long":106.905196,"time":10}],[{"transit":false,"i_lat":-6.319871,"is_transit":false,"station_name":"Serpong","i_long":106.66566,"distance":0,"station_id":"SRP","time":0,"line":6},{"station_name":"Rawa Buntu","i_lat":-6.314823,"time":4,"distance":2413,"i_long":106.675475,"station_id":"RU","transit":false,"is_transit":false,"line":6},{"station_id":"SDM","transit":false,"i_long":106.712277,"i_lat":-6.296963,"station_name":"Sudimara","distance":4566,"time":6,"line":6,"is_transit":false},{"transit":false,"station_id":"JMU","time":4,"line":6,"distance":1994,"is_transit":false,"i_lat":-6.288927,"station_name":"Jurangmangu","i_long":106.728916},{"distance":2179,"station_name":"Pondokranji","transit":false,"i_lat":-6.276362,"station_id":"PDJ","time":3,"is_transit":false,"i_long":106.74273,"line":6},{"i_lat":-6.237242,"time":8,"transit":false,"station_name":"Kebayoran","station_id":"KBY","i_long":106.780334,"is_transit":false,"distance":6218,"line":6},{"station_name":"Palmerah","distance":3737,"i_lat":-6.207404,"i_long":106.79689,"transit":false,"time":7,"line":6,"station_id":"PLM","is_transit":false},{"i_long":106.811091,"distance":3191,"line":1,"time":6,"is_transit":true,"i_lat":-6.185545,"transit":true,"station_id":"THB","station_name":"Tanah Abang"},{"is_transit":true,"station_name":"Duri","time":8,"transit":true,"i_long":106.800832,"station_id":"DU","distance":3632,"i_lat":-6.155215,"line":1},{"i_lat":-6.144674,"station_name":"Angke","is_transit":false,"distance":1230,"line":0,"station_id":"AK","transit":false,"i_long":106.79867,"time":4},{"i_lat":-6.132549,"distance":4102,"transit":false,"is_transit":true,"time":9,"station_name":"Kampung Bandan","i_long":106.826365,"line":0,"station_id":"KPB"},{"station_name":"Jakarta Kota","i_long":106.812439,"distance":1364,"i_lat":-6.137569,"line":0,"time":3,"transit":true,"station_id":"JAKK","is_transit":true},{"transit":false,"station_id":"JAY","i_long":106.820901,"station_name":"Jayakarta","time":4,"is_transit":false,"i_lat":-6.141205,"line":7,"distance":1264},{"station_name":"Manggabesar","line":2,"is_transit":false,"distance":1080,"i_lat":-6.149769,"i_long":106.82482,"time":2,"transit":false,"station_id":"MGB"},{"is_transit":false,"station_name":"Sawah Besar","line":2,"transit":false,"distance":906,"i_long":106.827103,"time":2,"i_lat":-6.160725,"station_id":"SW"},{"is_transit":false,"station_name":"Juanda","transit":false,"i_lat":-6.166716,"distance":1149,"i_long":106.828284,"station_id":"JUA","time":2,"line":2},{"is_transit":false,"line":2,"time":4,"station_id":"GDD","station_name":"Gondangdia","i_lat":-6.186295,"distance":2015,"i_long":106.832183,"transit":false},{"transit":false,"station_id":"CKI","time":3,"i_lat":-6.198556,"i_long":106.840169,"station_name":"Cikini","is_transit":false,"distance":1750,"line":0},{"i_lat":-6.209883,"distance":1590,"station_id":"MRI","station_name":"Manggarai","line":0,"transit":true,"i_long":106.84912,"is_transit":true,"time":4},{"station_id":"TEB","i_lat":-6.226659,"station_name":"Tebet","transit":false,"i_long":106.857948,"is_transit":false,"time":4,"distance":2610,"line":2},{"line":0,"station_id":"CW","is_transit":false,"distance":1230,"time":2,"transit":false,"i_lat":-6.242512,"station_name":"Cawang","i_long":106.856607},{"i_long":106.85449,"is_transit":false,"station_name":"Duren Kalibata","station_id":"DRN","line":0,"transit":false,"distance":1546,"time":3,"i_lat":-6.255332},{"station_id":"PSMB","station_name":"Pasar Minggu Baru","i_lat":-6.263214,"i_long":106.851577,"time":2,"is_transit":false,"transit":false,"line":2,"distance":824},{"time":2,"line":2,"transit":false,"station_id":"PSM","distance":2380,"i_lat":-6.2842400000000005,"is_transit":false,"i_long":106.843999,"station_name":"Pasar Minggu"},{"transit":false,"is_transit":false,"station_id":"TNT","distance":2820,"time":4,"i_lat":-6.3080680000000005,"line":2,"i_long":106.838896,"station_name":"Tanjung Barat"},{"distance":2671,"time":3,"is_transit":false,"i_lat":-6.330363,"line":2,"i_long":106.832616,"station_id":"LNA","station_name":"Lenteng Agung","transit":false},{"is_transit":false,"distance":1029,"station_id":"UP","transit":false,"i_long":106.834175,"station_name":"Univ. Pancasila","i_lat":-6.339291,"time":2,"line":2},{"station_name":"Univ. Indonesia","line":2,"i_lat":-6.360749,"station_id":"UI","transit":false,"i_long":106.831474,"distance":2264,"time":3,"is_transit":false},{"is_transit":false,"station_name":"Pondok Cina","time":2,"i_lat":-6.369073,"i_long":106.831114,"line":2,"station_id":"POC","transit":false,"distance":1109},{"time":4,"station_name":"Depokbaru","i_lat":-6.391065,"line":0,"i_long":106.819451,"distance":2727,"is_transit":false,"station_id":"DPB","transit":false},{"station_id":"DP","distance":1584,"time":3,"i_long":106.816926,"transit":false,"line":0,"i_lat":-6.405256,"station_name":"Depok","is_transit":false},{"distance":5084,"is_transit":true,"station_id":"CTA","station_name":"Citayam","time":6,"i_long":106.800298,"i_lat":-6.448811,"line":1,"transit":false},{"distance":6740,"time":10,"i_lat":-6.46424,"transit":false,"i_long":106.851978,"station_name":"Cibinong","station_id":"CBN","is_transit":false,"line":0},{"line":21,"time":10,"i_long":106.905196,"station_id":"NMO","station_name":"Nambo","i_lat":-6.466285,"distance":6527,"is_transit":false,"transit":false}],[{"station_id":"SRP","transit":false,"line":6,"i_long":106.66566,"distance":0,"i_lat":-6.319871,"is_transit":false,"time":0,"station_name":"Serpong"},{"transit":false,"time":4,"is_transit":false,"distance":2413,"station_name":"Rawa Buntu","i_lat":-6.314823,"i_long":106.675475,"station_id":"RU","line":6},{"is_transit":false,"i_long":106.712277,"transit":false,"distance":4566,"station_id":"SDM","station_name":"Sudimara","i_lat":-6.296963,"time":6,"line":6},{"i_long":106.728916,"line":6,"i_lat":-6.288927,"is_transit":false,"station_id":"JMU","transit":false,"distance":1994,"station_name":"Jurangmangu","time":4},{"transit":false,"i_long":106.74273,"distance":2179,"station_id":"PDJ","station_name":"Pondokranji","line":6,"is_transit":false,"i_lat":-6.276362,"time":3},{"distance":6218,"station_id":"KBY","station_name":"Kebayoran","i_long":106.780334,"i_lat":-6.237242,"time":8,"is_transit":false,"transit":false,"line":6},{"distance":3737,"i_long":106.79689,"is_transit":false,"time":7,"line":6,"transit":false,"i_lat":-6.207404,"station_name":"Palmerah","station_id":"PLM"},{"station_name":"Tanah Abang","station_id":"THB","line":1,"distance":3191,"transit":true,"time":6,"is_transit":true,"i_long":106.811091,"i_lat":-6.185545},{"distance":3632,"i_lat":-6.155215,"is_transit":true,"station_id":"DU","i_long":106.800832,"line":1,"transit":true,"station_name":"Duri","time":8},{"station_id":"AK","line":0,"station_name":"Angke","time":4,"i_lat":-6.144674,"distance":1230,"transit":false,"is_transit":false,"i_long":106.79867},{"station_id":"KPB","i_lat":-6.132549,"is_transit":true,"station_name":"Kampung Bandan","transit":true,"time":9,"i_long":106.826365,"distance":4102,"line":0},{"i_lat":-6.14505,"line":11,"station_name":"Rajawali","station_id":"RJW","transit":false,"time":3,"i_long":106.836569,"distance":1444,"is_transit":false},{"i_lat":-6.161728,"station_id":"KMO","distance":1901,"transit":false,"time":5,"i_long":106.839204,"is_transit":false,"station_name":"Kemayoran","line":11},{"i_lat":-6.174784,"station_name":"Pasar Senen","station_id":"PSE","i_long":106.84368,"time":4,"transit":false,"distance":1436,"line":11,"is_transit":false},{"i_long":106.850107,"time":8,"line":11,"transit":false,"distance":1567,"station_id":"GST","i_lat":-6.185975,"station_name":"Gang Sentiong","is_transit":false},{"i_lat":-6.193792,"transit":false,"i_long":106.855437,"distance":973,"station_id":"KMT","time":1,"is_transit":false,"station_name":"Kramat","line":11},{"is_transit":false,"station_id":"POK","i_lat":-6.209188,"distance":1829,"i_long":106.861737,"line":11,"transit":false,"station_name":"Pondok Jati","time":2},{"station_id":"JNG","distance":1236,"i_lat":-6.215091,"time":9,"line":0,"i_long":106.86807400000001,"transit":true,"is_transit":true,"station_name":"Jatinegara"},{"distance":1377,"is_transit":false,"i_lat":-6.212485,"time":2,"transit":false,"station_name":"Matraman","i_long":106.858896,"station_id":"MTR","line":1},{"i_lat":-6.209883,"station_id":"MRI","is_transit":true,"distance":1275,"station_name":"Manggarai","transit":true,"time":2,"i_long":106.84912,"line":0},{"distance":2610,"transit":false,"line":2,"i_lat":-6.226659,"time":4,"station_id":"TEB","is_transit":false,"i_long":106.857948,"station_name":"Tebet"},{"time":2,"distance":1230,"station_id":"CW","i_lat":-6.242512,"line":0,"station_name":"Cawang","i_long":106.856607,"transit":false,"is_transit":false},{"station_id":"DRN","distance":1546,"i_long":106.85449,"is_transit":false,"transit":false,"i_lat":-6.255332,"station_name":"Duren Kalibata","time":3,"line":0},{"is_transit":false,"line":2,"transit":false,"i_long":106.851577,"i_lat":-6.263214,"station_name":"Pasar Minggu Baru","distance":824,"time":2,"station_id":"PSMB"},{"line":2,"station_name":"Pasar Minggu","transit":false,"i_lat":-6.2842400000000005,"time":2,"station_id":"PSM","i_long":106.843999,"distance":2380,"is_transit":false},{"distance":2820,"transit":false,"i_lat":-6.3080680000000005,"line":2,"is_transit":false,"station_id":"TNT","station_name":"Tanjung Barat","time":4,"i_long":106.838896},{"distance":2671,"station_name":"Lenteng Agung","time":3,"is_transit":false,"line":2,"i_long":106.832616,"i_lat":-6.330363,"transit":false,"station_id":"LNA"},{"distance":1029,"station_name":"Univ. Pancasila","transit":false,"i_long":106.834175,"time":2,"i_lat":-6.339291,"line":2,"is_transit":false,"station_id":"UP"},{"time":3,"station_id":"UI","station_name":"Univ. Indonesia","transit":false,"is_transit":false,"distance":2264,"i_long":106.831474,"line":2,"i_lat":-6.360749},{"distance":1109,"station_name":"Pondok Cina","transit":false,"time":2,"i_lat":-6.369073,"line":2,"station_id":"POC","is_transit":false,"i_long":106.831114},{"distance":2727,"is_transit":false,"station_name":"Depokbaru","transit":false,"time":4,"i_lat":-6.391065,"i_long":106.819451,"station_id":"DPB","line":0},{"distance":1584,"is_transit":false,"station_name":"Depok","station_id":"DP","line":0,"time":3,"i_long":106.816926,"transit":false,"i_lat":-6.405256},{"transit":false,"time":6,"i_long":106.800298,"station_id":"CTA","station_name":"Citayam","is_transit":true,"line":1,"i_lat":-6.448811,"distance":5084},{"time":10,"i_lat":-6.46424,"transit":false,"station_id":"CBN","line":0,"i_long":106.851978,"distance":6740,"is_transit":false,"station_name":"Cibinong"},{"i_lat":-6.466285,"line":21,"distance":6527,"station_id":"NMO","station_name":"Nambo","time":10,"i_long":106.905196,"is_transit":false,"transit":false}]]}