{"data":[[{"station_name":"Serpong","station_id":"SRP","is_transit":false,"line":6,"time":0,"transit":false,"i_lat":-6.319871,"i_long":106.66566,"distance":0},{"i_long":106.675475,"station_name":"Rawa Buntu","line":6,"distance":2413,"is_transit":false,"station_id":"RU","time":4,"i_lat":-6.314823,"transit":false},{"i_lat":-6.296963,"line":6,"station_id":"SDM","is_transit":false,"i_long":106.712277,"distance":4566,"station_name":"Sudimara","transit":false,"time":6},{"line":6,"station_name":"Jurangmangu","transit":false,"time":4,"station_id":"JMU","is_transit":false,"distance":1994,"i_lat":-6.288927,"i_long":106.728916},{"line":6,"i_lat":-6.276362,"transit":false,"is_transit":false,"station_id":"PDJ","time":3,"distance":2179,"station_name":"Pondokranji","i_long":106.74273},{"station_id":"KBY","distance":6218,"station_name":"Kebayoran","transit":false,"time":8,"i_lat":-6.237242,"i_long":106.780334,"is_transit":false,"line":6},{"station_name":"Palmerah","transit":false,"i_long":106.79689,"station_id":"PLM","distance":3737,"line":6,"is_transit":false,"time":7,"i_lat":-6.207404},{"i_lat":-6.185545,"i_long":106.811091,"station_name":"Tanah Abang","is_transit":true,"transit":true,"time":6,"distance":3191,"line":1,"station_id":"THB"},{"station_name":"Karet","transit":false,"is_transit":false,"i_lat":-6.20132,"line":1,"distance":2029,"station_id":"KAT","i_long":106.816351,"time":5},{"is_transit":false,"i_long":106.819881,"line":1,"distance":471,"time":1,"station_id":"SUDB","i_lat":-6.201433,"station_name":"Sudirman Baru","transit":false},{"line":1,"distance":280,"i_lat":-6.202263,"station_name":"Sudirman","transit":false,"time":1,"is_transit":false,"station_id":"SUD","i_long":106.822649},{"station_name":"Manggarai","transit":true,"line":2,"distance":3186,"i_long":106.84912,"time":4,"station_id":"MRI","i_lat":-6.209883,"is_transit":true},{"station_id":"TEB","transit":false,"is_transit":false,"distance":2610,"line":2,"time":4,"i_lat":-6.226659,"station_name":"Tebet","i_long":106.857948},{"station_id":"CW","station_name":"Cawang","time":2,"distance":1230,"i_lat":-6.242512,"is_transit":false,"i_long":106.856607,"line":2,"transit":false},{"distance":1546,"i_long":106.85449,"station_name":"Duren Kalibata","transit":false,"time":3,"station_id":"DRN","i_lat":-6.255332,"line":2,"is_transit":false},{"i_lat":-6.263214,"transit":false,"station_name":"Pasar Minggu Baru","time":2,"is_transit":false,"station_id":"PSMB","distance":824,"line":2,"i_long":106.851577},{"station_name":"Pasar Minggu","i_lat":-6.2842400000000005,"i_long":106.843999,"line":2,"transit":false,"time":2,"is_transit":false,"station_id":"PSM","distance":2380}],[{"time":0,"i_long":106.66566,"distance":0,"station_id":"SRP","is_transit":false,"station_name":"Serpong","i_lat":-6.319871,"transit":false,"line":6},{"time":4,"station_id":"RU","station_name":"Rawa Buntu","i_lat":-6.314823,"transit":false,"is_transit":false,"line":6,"distance":2413,"i_long":106.675475},{"station_name":"Sudimara","time":6,"is_transit":false,"transit":false,"i_long":106.712277,"line":6,"distance":4566,"i_lat":-6.296963,"station_id":"SDM"},{"time":4,"i_long":106.728916,"is_transit":false,"i_lat":-6.288927,"line":6,"distance":1994,"station_id":"JMU","transit":false,"station_name":"Jurangmangu"},{"time":3,"station_name":"Pondokranji","transit":false,"is_transit":false,"station_id":"PDJ","line":6,"i_long":106.74273,"distance":2179,"i_lat":-6.276362},{"transit":false,"station_id":"KBY","i_lat":-6.237242,"line":6,"station_name":"Kebayoran","i_long":106.780334,"distance":6218,"is_transit":false,"time":8},{"i_lat":-6.207404,"i_long":106.79689,"transit":false,"is_transit":false,"line":6,"distance":3737,"station_name":"Palmerah","time":7,"station_id":"PLM"},{"is_transit":true,"transit":true,"station_name":"Tanah Abang","station_id":"THB","distance":3191,"time":6,"i_long":106.811091,"i_lat":-6.185545,"line":1},{"i_long":106.800832,"station_name":"Duri","is_transit":false,"station_id":"DU","transit":false,"distance":3632,"i_lat":-6.155215,"line":1,"time":8},{"i_long":106.79867,"line":1,"transit":false,"station_name":"Angke","distance":1230,"is_transit":false,"station_id":"AK","i_lat":-6.144674,"time":4},{"time":9,"distance":4102,"i_long":106.826365,"is_transit":true,"station_id":"KPB","station_name":"Kampung Bandan","transit":true,"line":4,"i_lat":-6.132549},{"line":2,"time":3,"i_lat":-6.137569,"transit":true,"station_id":"JAKK","i_long":106.812439,"is_transit":true,"distance":1364,"station_name":"Jakarta Kota"},{"distance":1264,"transit":false,"station_id":"JAY","i_lat":-6.141205,"line":2,"time":4,"is_transit":false,"station_name":"Jayakarta","i_long":106.820901},{"is_transit":false,"station_id":"MGB","i_lat":-6.149769,"transit":false,"i_long":106.82482,"line":2,"station_name":"Manggabesar","distance":1080,"time":2},{"i_lat":-6.160725,"station_name":"Sawah Besar","is_transit":false,"distance":906,"line":2,"transit":false,"time":2,"station_id":"SW","i_long":106.827103},{"is_transit":false,"i_lat":-6.166716,"i_long":106.828284,"station_name":"Juanda","time":2,"station_id":"JUA","transit":false,"distance":1149,"line":2},{"station_name":"Gondangdia","i_lat":-6.186295,"i_long":106.832183,"transit":false,"line":2,"distance":2015,"is_transit":false,"station_id":"GDD","time":4},{"distance":1750,"station_name":"Cikini","is_transit":false,"line":2,"time":3,"i_long":106.840169,"i_lat":-6.198556,"transit":false,"station_id":"CKI"},{"transit":false,"i_long":106.84912,"time":4,"i_lat":-6.209883,"distance":1590,"station_name":"Manggarai","station_id":"MRI","line":2,"is_transit":false},{"i_lat":-6.226659,"is_transit":false,"i_long":106.857948,"time":4,"station_id":"TEB","transit":false,"distance":2610,"line":2,"station_name":"Tebet"},{"i_long":106.856607,"i_lat":-6.242512,"is_transit":false,"station_name":"Cawang","line":2,"time":2,"station_id":"CW","transit":false,"distance":1230},{"i_lat":-6.255332,"station_name":"Duren Kalibata","i_long":106.85449,"line":2,"distance":1546,"is_transit":false,"station_id":"DRN","transit":false,"time":3},{"distance":824,"transit":false,"i_long":106.851577,"line":2,"time":2,"i_lat":-6.263214,"station_name":"Pasar Minggu Baru","is_transit":false,"station_id":"PSMB"},{"time":2,"is_transit":false,"distance":2380,"i_lat":-6.2842400000000005,"station_name":"Pasar Minggu","i_long":106.843999,"station_id":"PSM","line":2,"transit":false}],[{"i_lat":-6.319871,"line":6,"time":0,"i_long":106.66566,"is_transit":false,"station_name":"Serpong","transit":false,"station_id":"SRP","distance":0},{"station_id":"RU","line":6,"distance":2413,"i_lat":-6.314823,"i_long":106.675475,"transit":false,"station_name":"Rawa Buntu","is_transit":false,"time":4},{"transit":false,"station_name":"Sudimara","is_transit":false,"station_id":"SDM","i_lat":-6.296963,"distance":4566,"i_long":106.712277,"line":6,"time":6},{"transit":false,"i_lat":-6.288927,"station_id":"JMU","time":4,"station_name":"Jurangmangu","distance":1994,"i_long":106.728916,"is_transit":false,"line":6},{"time":3,"is_transit":false,"distance":2179,"i_lat":-6.276362,"transit":false,"i_long":106.74273,"line":6,"station_id":"PDJ","station_name":"Pondokranji"},{"transit":false,"station_id":"KBY","is_transit":false,"i_long":106.780334,"station_name":"Kebayoran","i_lat":-6.237242,"line":6,"time":8,"distance":6218},{"station_id":"PLM","i_long":106.79689,"time":7,"line":6,"station_name":"Palmerah","distance":3737,"is_transit":false,"i_lat":-6.207404,"transit":false},{"transit":true,"i_lat":-6.185545,"i_long":106.811091,"time":6,"line":1,"distance":3191,"is_transit":true,"station_id":"THB","station_name":"Tanah Abang"},{"station_name":"Duri","time":8,"i_lat":-6.155215,"transit":false,"i_long":106.800832,"distance":3632,"is_transit":false,"line":1,"station_id":"DU"},{"i_long":106.79867,"time":4,"distance":1230,"station_id":"AK","station_name":"Angke","transit":false,"is_transit":false,"i_lat":-6.144674,"line":1},{"i_long":106.826365,"distance":4102,"line":4,"is_transit":true,"time":9,"transit":true,"station_id":"KPB","station_name":"Kampung Bandan","i_lat":-6.132549},{"station_name":"Rajawali","distance":1444,"time":3,"i_long":106.836569,"i_lat":-6.14505,"line":11,"station_id":"RJW","is_transit":false,"transit":false},{"i_long":106.839204,"line":11,"i_lat":-6.161728,"transit":false,"station_id":"KMO","time":5,"station_name":"Kemayoran","is_transit":false,"distance":1901},{"i_lat":-6.174784,"station_name":"Pasar Senen","distance":1436,"line":11,"time":4,"is_transit":false,"transit":false,"i_long":106.84368,"station_id":"PSE"},{"station_id":"GST","station_name":"Gang Sentiong","i_lat":-6.185975,"distance":1567,"line":11,"time":8,"i_long":106.850107,"transit":false,"is_transit":false},{"line":11,"station_id":"KMT","i_lat":-6.193792,"station_name":"Kramat","is_transit":false,"i_long":106.855437,"transit":false,"time":1,"distance":973},{"distance":1829,"station_name":"Pondok Jati","i_lat":-6.209188,"is_transit":false,"line":11,"station_id":"POK","time":2,"transit":false,"i_long":106.861737},{"time":9,"distance":1236,"station_name":"Jatinegara","transit":true,"i_lat":-6.215091,"i_long":106.86807400000001,"is_transit":true,"station_id":"JNG","line":1},{"transit":false,"line":1,"station_id":"MTR","station_name":"Matraman","time":2,"i_lat":-6.212485,"distance":1377,"i_long":106.858896,"is_transit":false},{"is_transit":true,"line":2,"transit":true,"station_name":"Manggarai","i_lat":-6.209883,"i_long":106.84912,"time":2,"station_id":"MRI","distance":1275},{"i_lat":-6.226659,"station_id":"TEB","is_transit":false,"transit":false,"station_name":"Tebet","line":2,"distance":2610,"i_long":106.857948,"time":4},{"is_transit":false,"i_long":106.856607,"time":2,"line":2,"station_name":"Cawang","transit":false,"i_lat":-6.242512,"station_id":"CW","distance":1230},{"is_transit":false,"distance":1546,"i_long":106.85449,"transit":false,"station_id":"DRN","time":3,"i_lat":-6.255332,"station_name":"Duren Kalibata","line":2},{"is_transit":false,"station_name":"Pasar Minggu Baru","station_id":"PSMB","distance":824,"i_long":106.851577,"transit":false,"time":2,"i_lat":-6.263214,"line":2},{"station_name":"Pasar Minggu","is_transit":false,"i_lat":-6.2842400000000005,"station_id":"PSM","line":2,"time":2,"transit":false,"distance":2380,"i_long":106.843999}]]}