{"data":[[{"i_long":106.66566,"i_lat":-6.319871,"transit":false,"station_id":"SRP","is_transit":false,"time":0,"line":6,"distance":0,"station_name":"Serpong"},{"transit":false,"i_lat":-6.314823,"time":4,"line":6,"is_transit":false,"station_id":"RU","station_name":"Rawa Buntu","distance":2413,"i_long":106.675475},{"time":6,"transit":false,"station_id":"SDM","distance":4566,"i_lat":-6.296963,"line":6,"station_name":"Sudimara","i_long":106.712277,"is_transit":false},{"i_lat":-6.288927,"station_name":"Jurangmangu","transit":false,"time":4,"line":6,"distance":1994,"station_id":"JMU","is_transit":false,"i_long":106.728916},{"distance":2179,"i_long":106.74273,"is_transit":false,"station_id":"PDJ","line":6,"transit":false,"time":3,"i_lat":-6.276362,"station_name":"Pondokranji"},{"station_id":"KBY","distance":6218,"station_name":"Kebayoran","i_long":106.780334,"transit":false,"is_transit":false,"line":6,"time":8,"i_lat":-6.237242},{"station_name":"Palmerah","transit":false,"station_id":"PLM","line":6,"time":7,"is_transit":false,"distance":3737,"i_lat":-6.207404,"i_long":106.79689},{"station_id":"THB","distance":3191,"i_lat":-6.185545,"i_long":106.811091,"line":1,"is_transit":true,"transit":true,"time":6,"station_name":"Tanah Abang"},{"i_lat":-6.155215,"station_id":"DU","station_name":"Duri","transit":true,"distance":3632,"i_long":106.800832,"is_transit":true,"line":1,"time":8},{"is_transit":false,"station_name":"Grogol","distance":1700,"line":5,"transit":false,"station_id":"GRG","i_lat":-6.162021,"i_long":106.788277,"time":3},{"station_name":"Pesing","is_transit":false,"distance":2036,"time":2,"transit":false,"i_long":106.771379,"station_id":"PSG","i_lat":-6.161433,"line":5},{"time":2,"line":5,"distance":1614,"i_long":106.756522,"station_name":"Taman Kota","is_transit":false,"transit":false,"i_lat":-6.1587309999999995,"station_id":"TKO"},{"time":2,"i_long":106.737035,"distance":2334,"transit":false,"station_id":"BOI","station_name":"Bojongindah","is_transit":false,"i_lat":-6.159876,"line":5},{"station_name":"Rawa Buaya","i_long":106.723064,"line":5,"is_transit":false,"time":4,"distance":1152,"i_lat":-6.162758,"transit":false,"station_id":"RW"},{"time":3,"i_lat":-6.166068,"i_long":106.701612,"is_transit":false,"distance":2504,"station_id":"KDS","transit":false,"station_name":"Kalideres","line":5},{"station_id":"PI","transit":false,"line":5,"i_lat":-6.169933,"distance":2548,"is_transit":false,"i_long":106.679458,"station_name":"Poris","time":3},{"i_long":106.665036,"i_lat":-6.171811,"transit":false,"distance":1834,"is_transit":false,"station_id":"BPR","line":5,"station_name":"Batuceper","time":3},{"distance":2028,"is_transit":false,"i_lat":-6.17331,"line":5,"i_long":106.64657,"station_id":"TTI","station_name":"Tanah Tinggi","time":3,"transit":false}],[{"station_name":"Serpong","station_id":"SRP","transit":false,"i_long":106.66566,"distance":0,"line":6,"i_lat":-6.319871,"time":0,"is_transit":false},{"i_lat":-6.314823,"i_long":106.675475,"station_name":"Rawa Buntu","is_transit":false,"transit":false,"line":6,"time":4,"station_id":"RU","distance":2413},{"i_lat":-6.296963,"is_transit":false,"distance":4566,"station_id":"SDM","i_long":106.712277,"line":6,"station_name":"Sudimara","transit":false,"time":6},{"time":4,"is_transit":false,"transit":false,"line":6,"station_id":"JMU","i_long":106.728916,"distance":1994,"station_name":"Jurangmangu","i_lat":-6.288927},{"i_lat":-6.276362,"distance":2179,"transit":false,"station_id":"PDJ","station_name":"Pondokranji","line":6,"is_transit":false,"time":3,"i_long":106.74273},{"is_transit":false,"distance":6218,"station_name":"Kebayoran","line":6,"time":8,"station_id":"KBY","i_lat":-6.237242,"i_long":106.780334,"transit":false},{"transit":false,"station_id":"PLM","distance":3737,"i_long":106.79689,"i_lat":-6.207404,"time":7,"station_name":"Palmerah","line":6,"is_transit":false},{"time":6,"station_id":"THB","distance":3191,"i_lat":-6.185545,"i_long":106.811091,"is_transit":true,"station_name":"Tanah Abang","line":1,"transit":true},{"is_transit":false,"station_name":"Karet","line":1,"time":5,"i_long":106.816351,"distance":2029,"transit":false,"i_lat":-6.20132,"station_id":"KAT"},{"station_name":"Sudirman Baru","i_lat":-6.201433,"time":1,"station_id":"SUDB","transit":false,"i_long":106.819881,"line":1,"is_transit":false,"distance":471},{"transit":false,"time":1,"i_lat":-6.202263,"line":1,"is_transit":false,"distance":280,"i_long":106.822649,"station_name":"Sudirman","station_id":"SUD"},{"transit":true,"line":2,"time":4,"i_lat":-6.209883,"i_long":106.84912,"station_id":"MRI","is_transit":true,"station_name":"Manggarai","distance":3186},{"time":4,"is_transit":false,"i_lat":-6.198556,"station_id":"CKI","line":2,"transit":false,"distance":1590,"i_long":106.840169,"station_name":"Cikini"},{"station_id":"GDD","distance":1750,"time":3,"is_transit":false,"i_lat":-6.186295,"i_long":106.832183,"station_name":"Gondangdia","transit":false,"line":2},{"distance":2015,"station_id":"JUA","is_transit":false,"i_long":106.828284,"station_name":"Juanda","time":4,"transit":false,"line":2,"i_lat":-6.166716},{"line":2,"time":2,"i_long":106.827103,"station_id":"SW","i_lat":-6.160725,"station_name":"Sawah Besar","transit":false,"distance":1149,"is_transit":false},{"is_transit":false,"transit":false,"distance":906,"i_lat":-6.149769,"time":2,"i_long":106.82482,"line":2,"station_id":"MGB","station_name":"Manggabesar"},{"i_lat":-6.141205,"line":2,"time":2,"transit":false,"station_name":"Jayakarta","i_long":106.820901,"station_id":"JAY","is_transit":false,"distance":1080},{"distance":1264,"transit":true,"station_id":"JAKK","time":4,"i_long":106.812439,"station_name":"Jakarta Kota","i_lat":-6.137569,"is_transit":true,"line":2},{"i_lat":-6.132549,"station_name":"Kampung Bandan","station_id":"KPB","is_transit":true,"i_long":106.826365,"distance":1364,"time":3,"transit":true,"line":4},{"distance":4102,"line":1,"is_transit":false,"station_name":"Angke","i_lat":-6.144674,"i_long":106.79867,"station_id":"AK","transit":false,"time":9},{"is_transit":true,"time":4,"i_lat":-6.155215,"station_name":"Duri","distance":1230,"i_long":106.800832,"line":1,"station_id":"DU","transit":true},{"station_name":"Grogol","i_long":106.788277,"distance":1700,"line":5,"transit":false,"station_id":"GRG","time":3,"is_transit":false,"i_lat":-6.162021},{"i_long":106.771379,"transit":false,"station_id":"PSG","distance":2036,"time":2,"i_lat":-6.161433,"line":5,"is_transit":false,"station_name":"Pesing"},{"station_name":"Taman Kota","time":2,"transit":false,"distance":1614,"i_lat":-6.1587309999999995,"station_id":"TKO","is_transit":false,"line":5,"i_long":106.756522},{"line":5,"station_name":"Bojongindah","is_transit":false,"distance":2334,"transit":false,"i_lat":-6.159876,"station_id":"BOI","time":2,"i_long":106.737035},{"transit":false,"i_long":106.723064,"station_name":"Rawa Buaya","time":4,"is_transit":false,"distance":1152,"i_lat":-6.162758,"station_id":"RW","line":5},{"is_transit":false,"i_lat":-6.166068,"distance":2504,"transit":false,"time":3,"station_id":"KDS","station_name":"Kalideres","i_long":106.701612,"line":5},{"station_name":"Poris","distance":2548,"station_id":"PI","i_lat":-6.169933,"is_transit":false,"i_long":106.679458,"time":3,"transit":false,"line":5},{"station_name":"Batuceper","station_id":"BPR","distance":1834,"i_lat":-6.171811,"line":5,"time":3,"i_long":106.665036,"is_transit":false,"transit":false},{"is_transit":false,"transit":false,"time":3,"station_name":"Tanah Tinggi","distance":2028,"i_lat":-6.17331,"station_id":"TTI","line":5,"i_long":106.64657}],[{"station_name":"Serpong","station_id":"SRP","time":0,"transit":false,"i_lat":-6.319871,"line":6,"is_transit":false,"distance":0,"i_long":106.66566},{"line":6,"distance":2413,"transit":false,"station_id":"RU","time":4,"i_long":106.675475,"i_lat":-6.314823,"is_transit":false,"station_name":"Rawa Buntu"},{"station_id":"SDM","time":6,"is_transit":false,"i_lat":-6.296963,"line":6,"i_long":106.712277,"transit":false,"distance":4566,"station_name":"Sudimara"},{"station_id":"JMU","time":4,"is_transit":false,"transit":false,"station_name":"Jurangmangu","i_lat":-6.288927,"line":6,"i_long":106.728916,"distance":1994},{"i_lat":-6.276362,"station_id":"PDJ","station_name":"Pondokranji","transit":false,"distance":2179,"time":3,"line":6,"i_long":106.74273,"is_transit":false},{"station_name":"Kebayoran","i_lat":-6.237242,"station_id":"KBY","time":8,"distance":6218,"is_transit":false,"transit":false,"i_long":106.780334,"line":6},{"distance":3737,"is_transit":false,"i_long":106.79689,"time":7,"station_id":"PLM","i_lat":-6.207404,"line":6,"station_name":"Palmerah","transit":false},{"distance":3191,"station_id":"THB","i_long":106.811091,"station_name":"Tanah Abang","time":6,"line":1,"i_lat":-6.185545,"is_transit":true,"transit":true},{"line":1,"i_long":106.816351,"transit":false,"is_transit":false,"time":5,"distance":2029,"station_name":"Karet","station_id":"KAT","i_lat":-6.20132},{"station_id":"SUDB","distance":471,"i_long":106.819881,"line":1,"transit":false,"time":1,"station_name":"Sudirman Baru","i_lat":-6.201433,"is_transit":false},{"station_name":"Sudirman","time":1,"i_long":106.822649,"line":1,"station_id":"SUD","transit":false,"is_transit":false,"distance":280,"i_lat":-6.202263},{"is_transit":false,"i_long":106.84912,"line":2,"time":4,"distance":3186,"i_lat":-6.209883,"transit":false,"station_name":"Manggarai","station_id":"MRI"},{"i_lat":-6.212485,"transit":false,"time":2,"station_name":"Matraman","i_long":106.858896,"is_transit":false,"station_id":"MTR","distance":1275,"line":1},{"i_lat":-6.215091,"distance":1377,"is_transit":true,"transit":true,"line":1,"station_id":"JNG","station_name":"Jatinegara","i_long":106.86807400000001,"time":8},{"transit":false,"line":11,"is_transit":false,"distance":1236,"i_lat":-6.209188,"station_id":"POK","time":2,"i_long":106.861737,"station_name":"Pondok Jati"},{"station_id":"KMT","i_long":106.855437,"transit":false,"time":2,"is_transit":false,"i_lat":-6.193792,"line":11,"distance":1829,"station_name":"Kramat"},{"time":1,"line":11,"distance":973,"transit":false,"i_long":106.850107,"station_name":"Gang Sentiong","is_transit":false,"i_lat":-6.185975,"station_id":"GST"},{"i_lat":-6.174784,"is_transit":false,"station_id":"PSE","distance":1567,"station_name":"Pasar Senen","transit":false,"i_long":106.84368,"line":11,"time":8},{"line":11,"station_id":"KMO","is_transit":false,"time":4,"i_long":106.839204,"station_name":"Kemayoran","i_lat":-6.161728,"transit":false,"distance":1436},{"i_lat":-6.14505,"station_id":"RJW","line":11,"transit":false,"i_long":106.836569,"is_transit":false,"station_name":"Rajawali","distance":1901,"time":5},{"line":4,"station_id":"KPB","is_transit":true,"station_name":"Kampung Bandan","transit":true,"i_long":106.826365,"i_lat":-6.132549,"distance":1444,"time":3},{"is_transit":false,"transit":false,"distance":4102,"line":1,"station_name":"Angke","time":9,"i_lat":-6.144674,"i_long":106.79867,"station_id":"AK"},{"time":4,"transit":true,"i_lat":-6.155215,"is_transit":true,"distance":1230,"station_name":"Duri","station_id":"DU","i_long":106.800832,"line":1},{"time":3,"station_name":"Grogol","is_transit":false,"station_id":"GRG","transit":false,"distance":1700,"i_lat":-6.162021,"line":5,"i_long":106.788277},{"transit":false,"time":2,"is_transit":false,"station_name":"Pesing","distance":2036,"i_lat":-6.161433,"station_id":"PSG","i_long":106.771379,"line":5},{"transit":false,"station_name":"Taman Kota","station_id":"TKO","time":2,"is_transit":false,"distance":1614,"i_lat":-6.1587309999999995,"i_long":106.756522,"line":5},{"station_id":"BOI","time":2,"is_transit":false,"station_name":"Bojongindah","distance":2334,"i_long":106.737035,"i_lat":-6.159876,"line":5,"transit":false},{"transit":false,"distance":1152,"is_transit":false,"station_name":"Rawa Buaya","i_long":106.723064,"station_id":"RW","line":5,"time":4,"i_lat":-6.162758},{"is_transit":false,"station_name":"Kalideres","time":3,"i_lat":-6.166068,"line":5,"distance":2504,"i_long":106.701612,"transit":false,"station_id":"KDS"},{"i_lat":-6.169933,"distance":2548,"i_long":106.679458,"station_id":"PI","time":3,"line":5,"transit":false,"is_transit":false,"station_name":"Poris"},{"transit":false,"distance":1834,"line":5,"station_id":"BPR","i_long":106.665036,"time":3,"station_name":"Batuceper","i_lat":-6.171811,"is_transit":false},{"transit":false,"line":5,"time":3,"i_long":106.64657,"is_transit":false,"station_name":"Tanah Tinggi","station_id":"TTI","distance":2028,"i_lat":-6.17331}]]}