{"data":[[{"time":0,"i_long":106.66566,"i_lat":-6.319871,"station_name":"Serpong","station_id":"SRP","distance":0,"line":6,"is_transit":false,"transit":false},{"line":6,"i_long":106.675475,"is_transit":false,"station_id":"RU","transit":false,"time":4,"station_name":"Rawa Buntu","i_lat":-6.314823,"distance":2413},{"station_name":"Sudimara","station_id":"SDM","distance":4566,"i_long":106.712277,"line":6,"i_lat":-6.296963,"transit":false,"time":6,"is_transit":false},{"station_id":"JMU","transit":false,"i_lat":-6.288927,"i_long":106.728916,"line":6,"distance":1994,"station_name":"Jurangmangu","time":4,"is_transit":false},{"i_lat":-6.276362,"transit":false,"is_transit":false,"i_long":106.74273,"station_name":"Pondokranji","distance":2179,"station_id":"PDJ","line":6,"time":3},{"line":6,"station_id":"KBY","transit":false,"is_transit":false,"time":8,"i_long":106.780334,"station_name":"Kebayoran","distance":6218,"i_lat":-6.237242},{"station_name":"Palmerah","transit":false,"is_transit":false,"line":6,"station_id":"PLM","distance":3737,"i_long":106.79689,"i_lat":-6.207404,"time":7},{"i_long":106.811091,"station_name":"Tanah Abang","distance":3191,"station_id":"THB","time":6,"line":1,"transit":true,"i_lat":-6.185545,"is_transit":true},{"time":8,"distance":3632,"station_name":"Duri","transit":false,"is_transit":false,"station_id":"DU","line":1,"i_long":106.800832,"i_lat":-6.155215},{"i_long":106.79867,"station_id":"AK","is_transit":false,"transit":false,"time":4,"i_lat":-6.144674,"line":1,"station_name":"Angke","distance":1230},{"i_lat":-6.132549,"i_long":106.826365,"time":9,"station_name":"Kampung Bandan","is_transit":true,"station_id":"KPB","distance":4102,"line":4,"transit":true},{"is_transit":true,"transit":true,"time":3,"station_name":"Jakarta Kota","distance":1364,"station_id":"JAKK","i_long":106.812439,"line":2,"i_lat":-6.137569},{"line":2,"station_name":"Jayakarta","is_transit":false,"i_lat":-6.141205,"time":4,"distance":1264,"station_id":"JAY","i_long":106.820901,"transit":false}],[{"time":0,"distance":0,"station_id":"SRP","station_name":"Serpong","is_transit":false,"i_lat":-6.319871,"line":6,"transit":false,"i_long":106.66566},{"station_name":"Rawa Buntu","is_transit":false,"distance":2413,"station_id":"RU","time":4,"i_lat":-6.314823,"i_long":106.675475,"line":6,"transit":false},{"line":6,"transit":false,"station_id":"SDM","i_long":106.712277,"distance":4566,"is_transit":false,"time":6,"i_lat":-6.296963,"station_name":"Sudimara"},{"i_lat":-6.288927,"line":6,"is_transit":false,"time":4,"distance":1994,"station_id":"JMU","transit":false,"i_long":106.728916,"station_name":"Jurangmangu"},{"station_id":"PDJ","time":3,"i_lat":-6.276362,"transit":false,"distance":2179,"line":6,"i_long":106.74273,"station_name":"Pondokranji","is_transit":false},{"i_long":106.780334,"transit":false,"distance":6218,"i_lat":-6.237242,"line":6,"is_transit":false,"time":8,"station_id":"KBY","station_name":"Kebayoran"},{"station_name":"Palmerah","i_lat":-6.207404,"station_id":"PLM","line":6,"time":7,"transit":false,"is_transit":false,"i_long":106.79689,"distance":3737},{"i_lat":-6.185545,"transit":true,"i_long":106.811091,"is_transit":true,"station_id":"THB","distance":3191,"line":1,"station_name":"Tanah Abang","time":6},{"line":1,"station_name":"Karet","transit":false,"distance":2029,"i_long":106.816351,"station_id":"KAT","is_transit":false,"i_lat":-6.20132,"time":5},{"distance":471,"i_lat":-6.201433,"station_name":"Sudirman Baru","line":1,"transit":false,"station_id":"SUDB","is_transit":false,"i_long":106.819881,"time":1},{"station_name":"Sudirman","distance":280,"is_transit":false,"time":1,"station_id":"SUD","i_lat":-6.202263,"line":1,"transit":false,"i_long":106.822649},{"is_transit":true,"station_name":"Manggarai","distance":3186,"time":4,"station_id":"MRI","i_long":106.84912,"transit":true,"i_lat":-6.209883,"line":2},{"is_transit":false,"time":4,"i_lat":-6.198556,"line":2,"distance":1590,"transit":false,"station_id":"CKI","i_long":106.840169,"station_name":"Cikini"},{"station_name":"Gondangdia","is_transit":false,"distance":1750,"i_lat":-6.186295,"station_id":"GDD","time":3,"transit":false,"line":2,"i_long":106.832183},{"time":4,"i_long":106.828284,"i_lat":-6.166716,"station_id":"JUA","is_transit":false,"transit":false,"station_name":"Juanda","line":2,"distance":2015},{"i_lat":-6.160725,"time":2,"i_long":106.827103,"transit":false,"station_name":"Sawah Besar","station_id":"SW","line":2,"distance":1149,"is_transit":false},{"station_id":"MGB","line":2,"station_name":"Manggabesar","i_lat":-6.149769,"distance":906,"is_transit":false,"i_long":106.82482,"time":2,"transit":false},{"i_lat":-6.141205,"line":2,"time":2,"transit":false,"station_id":"JAY","distance":1080,"i_long":106.820901,"station_name":"Jayakarta","is_transit":false}],[{"time":0,"station_id":"SRP","distance":0,"i_lat":-6.319871,"station_name":"Serpong","i_long":106.66566,"is_transit":false,"transit":false,"line":6},{"i_long":106.675475,"distance":2413,"i_lat":-6.314823,"time":4,"is_transit":false,"station_name":"Rawa Buntu","transit":false,"station_id":"RU","line":6},{"station_name":"Sudimara","is_transit":false,"distance":4566,"time":6,"i_long":106.712277,"transit":false,"station_id":"SDM","line":6,"i_lat":-6.296963},{"transit":false,"distance":1994,"station_name":"Jurangmangu","is_transit":false,"line":6,"time":4,"station_id":"JMU","i_long":106.728916,"i_lat":-6.288927},{"time":3,"i_lat":-6.276362,"line":6,"station_name":"Pondokranji","i_long":106.74273,"is_transit":false,"station_id":"PDJ","transit":false,"distance":2179},{"transit":false,"time":8,"i_lat":-6.237242,"station_name":"Kebayoran","is_transit":false,"distance":6218,"i_long":106.780334,"line":6,"station_id":"KBY"},{"i_long":106.79689,"i_lat":-6.207404,"is_transit":false,"line":6,"distance":3737,"station_name":"Palmerah","transit":false,"station_id":"PLM","time":7},{"line":1,"distance":3191,"i_long":106.811091,"is_transit":true,"transit":true,"station_name":"Tanah Abang","i_lat":-6.185545,"time":6,"station_id":"THB"},{"transit":false,"station_name":"Karet","is_transit":false,"i_long":106.816351,"distance":2029,"station_id":"KAT","line":1,"i_lat":-6.20132,"time":5},{"station_name":"Sudirman Baru","is_transit":false,"i_long":106.819881,"line":1,"distance":471,"i_lat":-6.201433,"time":1,"station_id":"SUDB","transit":false},{"i_long":106.822649,"station_name":"Sudirman","is_transit":false,"station_id":"SUD","time":1,"transit":false,"i_lat":-6.202263,"line":1,"distance":280},{"station_name":"Manggarai","i_lat":-6.209883,"i_long":106.84912,"distance":3186,"is_transit":false,"line":2,"time":4,"transit":false,"station_id":"MRI"},{"i_long":106.858896,"time":2,"is_transit":false,"station_id":"MTR","station_name":"Matraman","distance":1275,"transit":false,"i_lat":-6.212485,"line":1},{"station_name":"Jatinegara","station_id":"JNG","distance":1377,"transit":true,"is_transit":true,"i_long":106.86807400000001,"line":1,"i_lat":-6.215091,"time":8},{"line":11,"i_lat":-6.209188,"station_name":"Pondok Jati","station_id":"POK","transit":false,"distance":1236,"i_long":106.861737,"is_transit":false,"time":2},{"time":2,"station_id":"KMT","i_lat":-6.193792,"transit":false,"line":11,"i_long":106.855437,"is_transit":false,"distance":1829,"station_name":"Kramat"},{"i_lat":-6.185975,"station_name":"Gang Sentiong","i_long":106.850107,"distance":973,"line":11,"time":1,"station_id":"GST","transit":false,"is_transit":false},{"time":8,"transit":false,"is_transit":false,"i_long":106.84368,"line":11,"station_name":"Pasar Senen","station_id":"PSE","distance":1567,"i_lat":-6.174784},{"transit":false,"station_name":"Kemayoran","station_id":"KMO","time":4,"is_transit":false,"distance":1436,"i_lat":-6.161728,"i_long":106.839204,"line":11},{"station_id":"RJW","i_lat":-6.14505,"distance":1901,"line":11,"time":5,"i_long":106.836569,"station_name":"Rajawali","is_transit":false,"transit":false},{"transit":true,"i_lat":-6.132549,"i_long":106.826365,"station_id":"KPB","distance":1444,"is_transit":true,"line":4,"station_name":"Kampung Bandan","time":3},{"transit":true,"time":3,"station_id":"JAKK","is_transit":true,"i_lat":-6.137569,"distance":1364,"i_long":106.812439,"line":2,"station_name":"Jakarta Kota"},{"distance":1264,"station_name":"Jayakarta","is_transit":false,"station_id":"JAY","i_lat":-6.141205,"i_long":106.820901,"line":2,"time":4,"transit":false}],[{"station_id":"SRP","distance":0,"transit":false,"station_name":"Serpong","is_transit":false,"line":6,"i_lat":-6.319871,"time":0,"i_long":106.66566},{"i_lat":-6.314823,"i_long":106.675475,"time":4,"line":6,"station_id":"RU","distance":2413,"station_name":"Rawa Buntu","is_transit":false,"transit":false},{"is_transit":false,"i_long":106.712277,"line":6,"i_lat":-6.296963,"transit":false,"station_name":"Sudimara","station_id":"SDM","time":6,"distance":4566},{"station_id":"JMU","station_name":"Jurangmangu","i_long":106.728916,"distance":1994,"is_transit":false,"transit":false,"time":4,"line":6,"i_lat":-6.288927},{"station_name":"Pondokranji","distance":2179,"line":6,"transit":false,"time":3,"i_lat":-6.276362,"is_transit":false,"station_id":"PDJ","i_long":106.74273},{"time":8,"distance":6218,"transit":false,"is_transit":false,"station_id":"KBY","i_long":106.780334,"line":6,"station_name":"Kebayoran","i_lat":-6.237242},{"station_id":"PLM","is_transit":false,"distance":3737,"transit":false,"i_long":106.79689,"station_name":"Palmerah","time":7,"line":6,"i_lat":-6.207404},{"station_id":"THB","station_name":"Tanah Abang","is_transit":true,"transit":true,"i_lat":-6.185545,"line":1,"i_long":106.811091,"time":6,"distance":3191},{"time":8,"station_id":"DU","line":1,"station_name":"Duri","i_long":106.800832,"i_lat":-6.155215,"distance":3632,"is_transit":false,"transit":false},{"i_long":106.79867,"time":4,"distance":1230,"line":1,"is_transit":false,"transit":false,"station_name":"Angke","station_id":"AK","i_lat":-6.144674},{"transit":true,"distance":4102,"line":4,"station_id":"KPB","i_lat":-6.132549,"time":9,"i_long":106.826365,"station_name":"Kampung Bandan","is_transit":true},{"time":3,"line":11,"transit":false,"distance":1444,"station_id":"RJW","is_transit":false,"station_name":"Rajawali","i_lat":-6.14505,"i_long":106.836569},{"line":11,"station_name":"Kemayoran","distance":1901,"is_transit":false,"i_long":106.839204,"time":5,"transit":false,"i_lat":-6.161728,"station_id":"KMO"},{"station_name":"Pasar Senen","time":4,"line":11,"i_lat":-6.174784,"is_transit":false,"transit":false,"station_id":"PSE","distance":1436,"i_long":106.84368},{"station_name":"Gang Sentiong","i_lat":-6.185975,"station_id":"GST","i_long":106.850107,"distance":1567,"transit":false,"time":8,"line":11,"is_transit":false},{"is_transit":false,"station_id":"KMT","i_lat":-6.193792,"transit":false,"station_name":"Kramat","time":1,"line":11,"distance":973,"i_long":106.855437},{"line":11,"time":2,"transit":false,"i_lat":-6.209188,"station_id":"POK","station_name":"Pondok Jati","is_transit":false,"distance":1829,"i_long":106.861737},{"station_id":"JNG","i_lat":-6.215091,"transit":true,"station_name":"Jatinegara","distance":1236,"i_long":106.86807400000001,"time":9,"line":1,"is_transit":true},{"i_long":106.858896,"station_name":"Matraman","station_id":"MTR","time":2,"transit":false,"i_lat":-6.212485,"is_transit":false,"distance":1377,"line":1},{"is_transit":true,"station_id":"MRI","transit":true,"i_long":106.84912,"time":2,"distance":1275,"station_name":"Manggarai","i_lat":-6.209883,"line":2},{"line":2,"time":4,"transit":false,"distance":1590,"is_transit":false,"station_name":"Cikini","i_lat":-6.198556,"i_long":106.840169,"station_id":"CKI"},{"time":3,"station_id":"GDD","distance":1750,"transit":false,"i_long":106.832183,"line":2,"is_transit":false,"i_lat":-6.186295,"station_name":"Gondangdia"},{"time":4,"station_id":"JUA","station_name":"Juanda","line":2,"i_long":106.828284,"distance":2015,"transit":false,"is_transit":false,"i_lat":-6.166716},{"station_name":"Sawah Besar","station_id":"SW","is_transit":false,"i_lat":-6.160725,"i_long":106.827103,"line":2,"transit":false,"time":2,"distance":1149},{"distance":906,"station_name":"Manggabesar","time":2,"line":2,"i_long":106.82482,"i_lat":-6.149769,"station_id":"MGB","transit":false,"is_transit":false},{"station_name":"Jayakarta","transit":false,"is_transit":false,"time":2,"distance":1080,"i_lat":-6.141205,"i_long":106.820901,"line":2,"station_id":"JAY"}]]}