{"data":[[{"station_id":"SRP","time":0,"station_name":"Serpong","i_long":106.66566,"transit":false,"is_transit":false,"distance":0,"i_lat":-6.319871,"line":6},{"line":6,"time":4,"i_long":106.675475,"i_lat":-6.314823,"station_name":"Rawa Buntu","distance":2413,"is_transit":false,"transit":false,"station_id":"RU"},{"time":6,"line":6,"station_name":"Sudimara","is_transit":false,"i_long":106.712277,"transit":false,"i_lat":-6.296963,"distance":4566,"station_id":"SDM"},{"is_transit":false,"i_lat":-6.288927,"transit":false,"station_id":"JMU","time":4,"line":6,"distance":1994,"i_long":106.728916,"station_name":"Jurangmangu"},{"station_name":"Pondokranji","is_transit":false,"i_lat":-6.276362,"station_id":"PDJ","transit":false,"time":3,"line":6,"distance":2179,"i_long":106.74273},{"is_transit":false,"time":8,"i_long":106.780334,"distance":6218,"line":6,"i_lat":-6.237242,"station_id":"KBY","station_name":"Kebayoran","transit":false},{"station_name":"Palmerah","distance":3737,"i_lat":-6.207404,"is_transit":false,"transit":false,"station_id":"PLM","time":7,"i_long":106.79689,"line":6},{"transit":true,"station_id":"THB","station_name":"Tanah Abang","distance":3191,"line":1,"is_transit":true,"time":6,"i_lat":-6.185545,"i_long":106.811091},{"transit":false,"distance":2029,"station_id":"KAT","station_name":"Karet","i_lat":-6.20132,"line":1,"i_long":106.816351,"is_transit":false,"time":5},{"i_lat":-6.201433,"is_transit":false,"station_id":"SUDB","i_long":106.819881,"line":1,"time":1,"transit":false,"station_name":"Sudirman Baru","distance":471},{"station_name":"Sudirman","time":1,"is_transit":false,"distance":280,"transit":false,"i_lat":-6.202263,"station_id":"SUD","i_long":106.822649,"line":1},{"station_id":"MRI","station_name":"Manggarai","time":4,"transit":true,"i_lat":-6.209883,"distance":3186,"line":2,"i_long":106.84912,"is_transit":true},{"transit":false,"distance":1590,"i_lat":-6.198556,"i_long":106.840169,"station_id":"CKI","line":2,"is_transit":false,"station_name":"Cikini","time":4},{"station_name":"Gondangdia","is_transit":false,"station_id":"GDD","time":3,"line":2,"transit":false,"i_lat":-6.186295,"distance":1750,"i_long":106.832183},{"is_transit":false,"distance":2015,"i_lat":-6.166716,"i_long":106.828284,"line":2,"station_id":"JUA","time":4,"transit":false,"station_name":"Juanda"}],[{"distance":0,"i_lat":-6.319871,"station_name":"Serpong","station_id":"SRP","transit":false,"time":0,"i_long":106.66566,"is_transit":false,"line":6},{"time":4,"station_id":"RU","is_transit":false,"i_lat":-6.314823,"station_name":"Rawa Buntu","transit":false,"line":6,"i_long":106.675475,"distance":2413},{"transit":false,"is_transit":false,"line":6,"station_id":"SDM","distance":4566,"time":6,"station_name":"Sudimara","i_lat":-6.296963,"i_long":106.712277},{"line":6,"distance":1994,"i_long":106.728916,"station_name":"Jurangmangu","transit":false,"time":4,"i_lat":-6.288927,"station_id":"JMU","is_transit":false},{"station_id":"PDJ","station_name":"Pondokranji","time":3,"line":6,"transit":false,"i_lat":-6.276362,"distance":2179,"is_transit":false,"i_long":106.74273},{"i_long":106.780334,"station_id":"KBY","transit":false,"station_name":"Kebayoran","distance":6218,"is_transit":false,"time":8,"i_lat":-6.237242,"line":6},{"distance":3737,"line":6,"time":7,"is_transit":false,"station_name":"Palmerah","i_lat":-6.207404,"i_long":106.79689,"station_id":"PLM","transit":false},{"time":6,"line":1,"distance":3191,"i_lat":-6.185545,"station_id":"THB","station_name":"Tanah Abang","transit":true,"is_transit":true,"i_long":106.811091},{"line":1,"i_lat":-6.155215,"i_long":106.800832,"station_name":"Duri","time":8,"station_id":"DU","distance":3632,"transit":false,"is_transit":false},{"transit":false,"distance":1230,"line":1,"time":4,"is_transit":false,"i_lat":-6.144674,"station_name":"Angke","station_id":"AK","i_long":106.79867},{"i_lat":-6.132549,"station_name":"Kampung Bandan","station_id":"KPB","is_transit":true,"transit":true,"time":9,"i_long":106.826365,"distance":4102,"line":4},{"transit":true,"station_id":"JAKK","station_name":"Jakarta Kota","i_lat":-6.137569,"is_transit":true,"time":3,"i_long":106.812439,"distance":1364,"line":2},{"is_transit":false,"station_id":"JAY","i_long":106.820901,"distance":1264,"station_name":"Jayakarta","i_lat":-6.141205,"transit":false,"time":4,"line":2},{"i_lat":-6.149769,"time":2,"distance":1080,"station_name":"Manggabesar","transit":false,"station_id":"MGB","i_long":106.82482,"is_transit":false,"line":2},{"distance":906,"line":2,"is_transit":false,"station_id":"SW","station_name":"Sawah Besar","transit":false,"time":2,"i_lat":-6.160725,"i_long":106.827103},{"time":2,"i_long":106.828284,"station_name":"Juanda","is_transit":false,"i_lat":-6.166716,"line":2,"station_id":"JUA","distance":1149,"transit":false}],[{"station_id":"SRP","station_name":"Serpong","is_transit":false,"transit":false,"distance":0,"i_lat":-6.319871,"i_long":106.66566,"time":0,"line":6},{"i_long":106.675475,"is_transit":false,"station_name":"Rawa Buntu","time":4,"i_lat":-6.314823,"line":6,"transit":false,"station_id":"RU","distance":2413},{"distance":4566,"station_id":"SDM","transit":false,"is_transit":false,"i_lat":-6.296963,"line":6,"time":6,"station_name":"Sudimara","i_long":106.712277},{"i_lat":-6.288927,"is_transit":false,"station_id":"JMU","time":4,"station_name":"Jurangmangu","line":6,"transit":false,"distance":1994,"i_long":106.728916},{"i_lat":-6.276362,"transit":false,"i_long":106.74273,"line":6,"station_name":"Pondokranji","station_id":"PDJ","time":3,"distance":2179,"is_transit":false},{"time":8,"distance":6218,"i_lat":-6.237242,"station_name":"Kebayoran","transit":false,"is_transit":false,"i_long":106.780334,"station_id":"KBY","line":6},{"i_long":106.79689,"station_id":"PLM","station_name":"Palmerah","time":7,"line":6,"is_transit":false,"transit":false,"distance":3737,"i_lat":-6.207404},{"station_name":"Tanah Abang","station_id":"THB","is_transit":true,"distance":3191,"i_lat":-6.185545,"i_long":106.811091,"time":6,"transit":true,"line":1},{"is_transit":false,"transit":false,"station_id":"DU","i_lat":-6.155215,"i_long":106.800832,"distance":3632,"time":8,"station_name":"Duri","line":1},{"line":1,"is_transit":false,"i_long":106.79867,"distance":1230,"station_name":"Angke","transit":false,"time":4,"i_lat":-6.144674,"station_id":"AK"},{"i_lat":-6.132549,"is_transit":true,"station_name":"Kampung Bandan","i_long":106.826365,"transit":true,"time":9,"line":4,"station_id":"KPB","distance":4102},{"station_id":"RJW","station_name":"Rajawali","is_transit":false,"i_long":106.836569,"i_lat":-6.14505,"transit":false,"time":3,"distance":1444,"line":11},{"is_transit":false,"station_id":"KMO","time":5,"i_long":106.839204,"line":11,"station_name":"Kemayoran","transit":false,"distance":1901,"i_lat":-6.161728},{"line":11,"transit":false,"is_transit":false,"station_name":"Pasar Senen","i_long":106.84368,"i_lat":-6.174784,"station_id":"PSE","distance":1436,"time":4},{"transit":false,"distance":1567,"station_name":"Gang Sentiong","time":8,"i_lat":-6.185975,"is_transit":false,"i_long":106.850107,"station_id":"GST","line":11},{"time":1,"distance":973,"line":11,"station_id":"KMT","station_name":"Kramat","is_transit":false,"i_lat":-6.193792,"i_long":106.855437,"transit":false},{"transit":false,"time":2,"i_lat":-6.209188,"line":11,"i_long":106.861737,"distance":1829,"station_name":"Pondok Jati","is_transit":false,"station_id":"POK"},{"station_name":"Jatinegara","i_long":106.86807400000001,"station_id":"JNG","distance":1236,"time":9,"transit":true,"is_transit":true,"i_lat":-6.215091,"line":1},{"i_lat":-6.212485,"is_transit":false,"time":2,"line":1,"i_long":106.858896,"station_id":"MTR","station_name":"Matraman","transit":false,"distance":1377},{"distance":1275,"station_name":"Manggarai","station_id":"MRI","line":2,"transit":true,"i_long":106.84912,"time":2,"is_transit":true,"i_lat":-6.209883},{"is_transit":false,"line":2,"distance":1590,"i_lat":-6.198556,"station_id":"CKI","time":4,"transit":false,"i_long":106.840169,"station_name":"Cikini"},{"i_lat":-6.186295,"i_long":106.832183,"station_id":"GDD","station_name":"Gondangdia","transit":false,"is_transit":false,"distance":1750,"line":2,"time":3},{"distance":2015,"i_lat":-6.166716,"station_id":"JUA","is_transit":false,"time":4,"transit":false,"station_name":"Juanda","i_long":106.828284,"line":2}],[{"station_id":"SRP","transit":false,"i_long":106.66566,"station_name":"Serpong","time":0,"is_transit":false,"line":6,"i_lat":-6.319871,"distance":0},{"transit":false,"distance":2413,"i_lat":-6.314823,"station_id":"RU","line":6,"i_long":106.675475,"station_name":"Rawa Buntu","is_transit":false,"time":4},{"line":6,"station_name":"Sudimara","i_lat":-6.296963,"distance":4566,"is_transit":false,"station_id":"SDM","time":6,"transit":false,"i_long":106.712277},{"time":4,"station_name":"Jurangmangu","transit":false,"i_lat":-6.288927,"distance":1994,"station_id":"JMU","i_long":106.728916,"line":6,"is_transit":false},{"time":3,"transit":false,"is_transit":false,"station_name":"Pondokranji","distance":2179,"i_lat":-6.276362,"i_long":106.74273,"line":6,"station_id":"PDJ"},{"is_transit":false,"line":6,"station_id":"KBY","station_name":"Kebayoran","time":8,"distance":6218,"i_long":106.780334,"transit":false,"i_lat":-6.237242},{"station_id":"PLM","station_name":"Palmerah","i_long":106.79689,"i_lat":-6.207404,"is_transit":false,"time":7,"transit":false,"line":6,"distance":3737},{"station_id":"THB","time":6,"distance":3191,"i_lat":-6.185545,"line":1,"transit":true,"is_transit":true,"station_name":"Tanah Abang","i_long":106.811091},{"transit":false,"is_transit":false,"distance":2029,"i_lat":-6.20132,"i_long":106.816351,"station_name":"Karet","time":5,"station_id":"KAT","line":1},{"station_id":"SUDB","is_transit":false,"distance":471,"time":1,"i_lat":-6.201433,"transit":false,"line":1,"i_long":106.819881,"station_name":"Sudirman Baru"},{"is_transit":false,"time":1,"distance":280,"i_lat":-6.202263,"transit":false,"i_long":106.822649,"station_name":"Sudirman","station_id":"SUD","line":1},{"station_name":"Manggarai","distance":3186,"i_long":106.84912,"station_id":"MRI","is_transit":false,"line":2,"transit":false,"time":4,"i_lat":-6.209883},{"transit":false,"line":1,"is_transit":false,"station_name":"Matraman","i_lat":-6.212485,"i_long":106.858896,"station_id":"MTR","distance":1275,"time":2},{"i_lat":-6.215091,"i_long":106.86807400000001,"distance":1377,"station_name":"Jatinegara","line":1,"station_id":"JNG","is_transit":true,"transit":true,"time":8},{"transit":false,"station_name":"Pondok Jati","line":11,"distance":1236,"is_transit":false,"i_long":106.861737,"station_id":"POK","i_lat":-6.209188,"time":2},{"line":11,"is_transit":false,"station_id":"KMT","time":2,"transit":false,"distance":1829,"station_name":"Kramat","i_lat":-6.193792,"i_long":106.855437},{"is_transit":false,"i_long":106.850107,"line":11,"station_name":"Gang Sentiong","station_id":"GST","i_lat":-6.185975,"distance":973,"time":1,"transit":false},{"is_transit":false,"station_name":"Pasar Senen","station_id":"PSE","line":11,"distance":1567,"transit":false,"time":8,"i_lat":-6.174784,"i_long":106.84368},{"is_transit":false,"i_lat":-6.161728,"time":4,"station_id":"KMO","station_name":"Kemayoran","distance":1436,"i_long":106.839204,"line":11,"transit":false},{"line":11,"is_transit":false,"i_long":106.836569,"i_lat":-6.14505,"station_id":"RJW","time":5,"distance":1901,"station_name":"Rajawali","transit":false},{"time":3,"station_id":"KPB","station_name":"Kampung Bandan","distance":1444,"transit":true,"i_lat":-6.132549,"is_transit":true,"i_long":106.826365,"line":4},{"i_lat":-6.137569,"line":2,"station_id":"JAKK","time":3,"station_name":"Jakarta Kota","transit":true,"is_transit":true,"distance":1364,"i_long":106.812439},{"station_name":"Jayakarta","i_lat":-6.141205,"time":4,"distance":1264,"i_long":106.820901,"transit":false,"line":2,"is_transit":false,"station_id":"JAY"},{"station_id":"MGB","line":2,"i_long":106.82482,"distance":1080,"is_transit":false,"time":2,"transit":false,"i_lat":-6.149769,"station_name":"Manggabesar"},{"time":2,"transit":false,"line":2,"distance":906,"station_name":"Sawah Besar","i_long":106.827103,"i_lat":-6.160725,"station_id":"SW","is_transit":false},{"line":2,"time":2,"i_lat":-6.166716,"transit":false,"station_name":"Juanda","station_id":"JUA","distance":1149,"i_long":106.828284,"is_transit":false}]]}