{"data":[[{"station_name":"Serpong","i_long":106.66566,"station_id":"SRP","line":6,"transit":false,"i_lat":-6.319871,"time":0,"distance":0,"is_transit":false},{"is_transit":false,"transit":false,"station_id":"RU","station_name":"Rawa Buntu","line":6,"i_long":106.675475,"distance":2413,"time":4,"i_lat":-6.314823},{"is_transit":false,"transit":false,"station_name":"Sudimara","i_lat":-6.296963,"line":6,"i_long":106.712277,"station_id":"SDM","distance":4566,"time":6},{"line":6,"is_transit":false,"i_lat":-6.288927,"distance":1994,"station_name":"Jurangmangu","station_id":"JMU","transit":false,"time":4,"i_long":106.728916},{"is_transit":false,"transit":false,"i_lat":-6.276362,"station_id":"PDJ","station_name":"Pondokranji","time":3,"distance":2179,"i_long":106.74273,"line":6},{"i_long":106.780334,"distance":6218,"is_transit":false,"station_id":"KBY","station_name":"Kebayoran","line":6,"time":8,"transit":false,"i_lat":-6.237242},{"i_lat":-6.207404,"i_long":106.79689,"distance":3737,"time":7,"station_id":"PLM","is_transit":false,"transit":false,"station_name":"Palmerah","line":6},{"station_id":"THB","line":1,"station_name":"Tanah Abang","time":6,"i_long":106.811091,"i_lat":-6.185545,"transit":true,"distance":3191,"is_transit":true},{"station_id":"KAT","transit":false,"i_long":106.816351,"time":5,"i_lat":-6.20132,"station_name":"Karet","line":1,"is_transit":false,"distance":2029},{"i_lat":-6.201433,"i_long":106.819881,"station_id":"SUDB","time":1,"is_transit":false,"transit":false,"station_name":"Sudirman Baru","line":1,"distance":471},{"i_lat":-6.202263,"i_long":106.822649,"time":1,"is_transit":false,"line":1,"station_id":"SUD","distance":280,"transit":false,"station_name":"Sudirman"},{"station_id":"MRI","distance":3186,"time":4,"i_lat":-6.209883,"transit":true,"station_name":"Manggarai","is_transit":true,"i_long":106.84912,"line":2},{"time":4,"is_transit":false,"i_lat":-6.226659,"distance":2610,"transit":false,"station_name":"Tebet","i_long":106.857948,"station_id":"TEB","line":2},{"transit":false,"i_lat":-6.242512,"time":2,"station_name":"Cawang","line":2,"distance":1230,"i_long":106.856607,"station_id":"CW","is_transit":false},{"distance":1546,"is_transit":false,"i_lat":-6.255332,"line":2,"time":3,"station_id":"DRN","i_long":106.85449,"station_name":"Duren Kalibata","transit":false},{"i_lat":-6.263214,"station_id":"PSMB","i_long":106.851577,"line":2,"time":2,"transit":false,"station_name":"Pasar Minggu Baru","distance":824,"is_transit":false},{"is_transit":false,"line":2,"i_long":106.843999,"time":2,"station_id":"PSM","station_name":"Pasar Minggu","transit":false,"i_lat":-6.2842400000000005,"distance":2380},{"transit":false,"time":4,"station_name":"Tanjung Barat","i_lat":-6.3080680000000005,"i_long":106.838896,"is_transit":false,"line":2,"distance":2820,"station_id":"TNT"},{"i_lat":-6.330363,"station_id":"LNA","i_long":106.832616,"line":2,"station_name":"Lenteng Agung","distance":2671,"is_transit":false,"time":3,"transit":false},{"is_transit":false,"i_lat":-6.339291,"time":2,"transit":false,"line":2,"distance":1029,"station_name":"Univ. Pancasila","station_id":"UP","i_long":106.834175},{"distance":2264,"i_lat":-6.360749,"i_long":106.831474,"is_transit":false,"station_name":"Univ. Indonesia","transit":false,"station_id":"UI","line":2,"time":3},{"is_transit":false,"transit":false,"distance":1109,"station_id":"POC","i_long":106.831114,"i_lat":-6.369073,"line":2,"time":2,"station_name":"Pondok Cina"},{"i_lat":-6.391065,"distance":2727,"is_transit":false,"station_id":"DPB","transit":false,"station_name":"Depokbaru","i_long":106.819451,"time":4,"line":2},{"is_transit":false,"distance":1584,"station_name":"Depok","i_long":106.816926,"station_id":"DP","i_lat":-6.405256,"line":2,"time":3,"transit":false},{"distance":5084,"station_name":"Citayam","station_id":"CTA","line":2,"time":6,"i_lat":-6.448811,"i_long":106.800298,"transit":true,"is_transit":true},{"station_id":"PDRG","i_lat":-6.460735,"is_transit":false,"distance":0,"line":21,"time":0,"i_long":106.824374,"station_name":"Pondok Rajeg","transit":false},{"time":0,"distance":0,"line":21,"station_name":"Cibinong","transit":false,"station_id":"CBN","i_long":106.851978,"i_lat":-6.46424,"is_transit":false}],[{"station_id":"SRP","i_lat":-6.319871,"station_name":"Serpong","is_transit":false,"transit":false,"distance":0,"i_long":106.66566,"time":0,"line":6},{"is_transit":false,"station_name":"Rawa Buntu","transit":false,"distance":2413,"station_id":"RU","line":6,"i_long":106.675475,"i_lat":-6.314823,"time":4},{"time":6,"station_id":"SDM","line":6,"transit":false,"distance":4566,"i_long":106.712277,"is_transit":false,"station_name":"Sudimara","i_lat":-6.296963},{"time":4,"i_long":106.728916,"transit":false,"station_id":"JMU","station_name":"Jurangmangu","i_lat":-6.288927,"is_transit":false,"distance":1994,"line":6},{"transit":false,"i_long":106.74273,"distance":2179,"line":6,"is_transit":false,"station_name":"Pondokranji","i_lat":-6.276362,"station_id":"PDJ","time":3},{"station_name":"Kebayoran","station_id":"KBY","i_lat":-6.237242,"time":8,"is_transit":false,"distance":6218,"i_long":106.780334,"transit":false,"line":6},{"station_name":"Palmerah","i_long":106.79689,"line":6,"is_transit":false,"station_id":"PLM","i_lat":-6.207404,"transit":false,"time":7,"distance":3737},{"i_lat":-6.185545,"is_transit":true,"distance":3191,"time":6,"station_name":"Tanah Abang","i_long":106.811091,"station_id":"THB","transit":true,"line":1},{"i_long":106.800832,"time":8,"distance":3632,"station_name":"Duri","station_id":"DU","is_transit":false,"transit":false,"i_lat":-6.155215,"line":1},{"time":4,"distance":1230,"is_transit":false,"transit":false,"i_lat":-6.144674,"i_long":106.79867,"station_id":"AK","line":1,"station_name":"Angke"},{"transit":true,"distance":4102,"i_lat":-6.132549,"station_name":"Kampung Bandan","is_transit":true,"time":9,"i_long":106.826365,"station_id":"KPB","line":4},{"distance":1364,"i_long":106.812439,"time":3,"station_id":"JAKK","is_transit":true,"transit":true,"i_lat":-6.137569,"station_name":"Jakarta Kota","line":2},{"distance":1264,"i_long":106.820901,"station_id":"JAY","station_name":"Jayakarta","is_transit":false,"transit":false,"i_lat":-6.141205,"time":4,"line":2},{"is_transit":false,"time":2,"i_long":106.82482,"line":2,"station_name":"Manggabesar","station_id":"MGB","distance":1080,"i_lat":-6.149769,"transit":false},{"i_long":106.827103,"time":2,"is_transit":false,"transit":false,"distance":906,"station_name":"Sawah Besar","station_id":"SW","i_lat":-6.160725,"line":2},{"distance":1149,"i_long":106.828284,"is_transit":false,"transit":false,"i_lat":-6.166716,"station_id":"JUA","station_name":"Juanda","time":2,"line":2},{"transit":false,"i_lat":-6.186295,"line":2,"i_long":106.832183,"is_transit":false,"distance":2015,"station_name":"Gondangdia","time":4,"station_id":"GDD"},{"i_long":106.840169,"distance":1750,"is_transit":false,"line":2,"station_id":"CKI","transit":false,"time":3,"station_name":"Cikini","i_lat":-6.198556},{"line":2,"transit":false,"distance":1590,"is_transit":false,"station_name":"Manggarai","i_lat":-6.209883,"i_long":106.84912,"time":4,"station_id":"MRI"},{"i_lat":-6.226659,"is_transit":false,"i_long":106.857948,"transit":false,"time":4,"station_name":"Tebet","distance":2610,"station_id":"TEB","line":2},{"is_transit":false,"station_name":"Cawang","i_lat":-6.242512,"time":2,"distance":1230,"i_long":106.856607,"transit":false,"station_id":"CW","line":2},{"distance":1546,"station_id":"DRN","is_transit":false,"transit":false,"i_lat":-6.255332,"i_long":106.85449,"line":2,"time":3,"station_name":"Duren Kalibata"},{"distance":824,"time":2,"station_name":"Pasar Minggu Baru","i_lat":-6.263214,"station_id":"PSMB","line":2,"is_transit":false,"i_long":106.851577,"transit":false},{"is_transit":false,"time":2,"station_name":"Pasar Minggu","line":2,"station_id":"PSM","i_lat":-6.2842400000000005,"distance":2380,"i_long":106.843999,"transit":false},{"distance":2820,"station_id":"TNT","i_long":106.838896,"is_transit":false,"line":2,"time":4,"station_name":"Tanjung Barat","transit":false,"i_lat":-6.3080680000000005},{"station_name":"Lenteng Agung","line":2,"is_transit":false,"time":3,"i_lat":-6.330363,"station_id":"LNA","transit":false,"distance":2671,"i_long":106.832616},{"time":2,"transit":false,"line":2,"station_name":"Univ. Pancasila","is_transit":false,"distance":1029,"i_lat":-6.339291,"station_id":"UP","i_long":106.834175},{"line":2,"is_transit":false,"station_id":"UI","transit":false,"time":3,"i_lat":-6.360749,"station_name":"Univ. Indonesia","i_long":106.831474,"distance":2264},{"transit":false,"time":2,"i_long":106.831114,"is_transit":false,"station_name":"Pondok Cina","station_id":"POC","distance":1109,"i_lat":-6.369073,"line":2},{"station_name":"Depokbaru","transit":false,"i_long":106.819451,"i_lat":-6.391065,"line":2,"is_transit":false,"time":4,"station_id":"DPB","distance":2727},{"transit":false,"station_id":"DP","time":3,"i_lat":-6.405256,"i_long":106.816926,"line":2,"distance":1584,"station_name":"Depok","is_transit":false},{"distance":5084,"station_name":"Citayam","i_lat":-6.448811,"station_id":"CTA","i_long":106.800298,"line":2,"is_transit":true,"time":6,"transit":true},{"station_name":"Pondok Rajeg","time":0,"station_id":"PDRG","transit":false,"i_long":106.824374,"distance":0,"i_lat":-6.460735,"line":21,"is_transit":false},{"transit":false,"station_id":"CBN","line":21,"is_transit":false,"time":0,"distance":0,"i_lat":-6.46424,"i_long":106.851978,"station_name":"Cibinong"}],[{"is_transit":false,"time":0,"station_name":"Serpong","distance":0,"station_id":"SRP","i_long":106.66566,"line":6,"transit":false,"i_lat":-6.319871},{"i_long":106.675475,"time":4,"line":6,"station_name":"Rawa Buntu","transit":false,"distance":2413,"is_transit":false,"i_lat":-6.314823,"station_id":"RU"},{"time":6,"line":6,"i_lat":-6.296963,"transit":false,"distance":4566,"is_transit":false,"station_id":"SDM","i_long":106.712277,"station_name":"Sudimara"},{"i_long":106.728916,"distance":1994,"station_name":"Jurangmangu","station_id":"JMU","line":6,"i_lat":-6.288927,"is_transit":false,"time":4,"transit":false},{"station_id":"PDJ","i_long":106.74273,"is_transit":false,"time":3,"station_name":"Pondokranji","line":6,"transit":false,"distance":2179,"i_lat":-6.276362},{"station_id":"KBY","is_transit":false,"time":8,"transit":false,"station_name":"Kebayoran","distance":6218,"i_lat":-6.237242,"i_long":106.780334,"line":6},{"is_transit":false,"station_id":"PLM","line":6,"time":7,"i_lat":-6.207404,"station_name":"Palmerah","transit":false,"distance":3737,"i_long":106.79689},{"i_long":106.811091,"station_id":"THB","is_transit":true,"line":1,"i_lat":-6.185545,"time":6,"transit":true,"distance":3191,"station_name":"Tanah Abang"},{"distance":3632,"transit":false,"station_name":"Duri","i_long":106.800832,"is_transit":false,"time":8,"i_lat":-6.155215,"station_id":"DU","line":1},{"station_name":"Angke","line":1,"i_lat":-6.144674,"i_long":106.79867,"time":4,"transit":false,"distance":1230,"station_id":"AK","is_transit":false},{"station_name":"Kampung Bandan","distance":4102,"transit":true,"station_id":"KPB","time":9,"i_lat":-6.132549,"i_long":106.826365,"line":4,"is_transit":true},{"line":11,"station_id":"RJW","i_lat":-6.14505,"distance":1444,"i_long":106.836569,"time":3,"is_transit":false,"transit":false,"station_name":"Rajawali"},{"transit":false,"line":11,"distance":1901,"i_lat":-6.161728,"is_transit":false,"station_name":"Kemayoran","station_id":"KMO","i_long":106.839204,"time":5},{"distance":1436,"time":4,"station_name":"Pasar Senen","i_lat":-6.174784,"transit":false,"i_long":106.84368,"line":11,"station_id":"PSE","is_transit":false},{"line":11,"transit":false,"i_long":106.850107,"time":8,"station_name":"Gang Sentiong","is_transit":false,"station_id":"GST","distance":1567,"i_lat":-6.185975},{"distance":973,"i_lat":-6.193792,"is_transit":false,"station_name":"Kramat","station_id":"KMT","transit":false,"i_long":106.855437,"line":11,"time":1},{"station_id":"POK","is_transit":false,"time":2,"transit":false,"station_name":"Pondok Jati","distance":1829,"i_lat":-6.209188,"line":11,"i_long":106.861737},{"station_id":"JNG","time":9,"transit":true,"is_transit":true,"distance":1236,"i_lat":-6.215091,"line":1,"station_name":"Jatinegara","i_long":106.86807400000001},{"distance":1377,"transit":false,"station_id":"MTR","line":1,"station_name":"Matraman","time":2,"is_transit":false,"i_lat":-6.212485,"i_long":106.858896},{"transit":true,"station_id":"MRI","time":2,"i_long":106.84912,"line":2,"is_transit":true,"distance":1275,"station_name":"Manggarai","i_lat":-6.209883},{"distance":2610,"i_lat":-6.226659,"time":4,"transit":false,"line":2,"is_transit":false,"station_name":"Tebet","i_long":106.857948,"station_id":"TEB"},{"distance":1230,"station_name":"Cawang","transit":false,"line":2,"station_id":"CW","i_lat":-6.242512,"i_long":106.856607,"is_transit":false,"time":2},{"time":3,"transit":false,"station_id":"DRN","distance":1546,"i_long":106.85449,"line":2,"station_name":"Duren Kalibata","is_transit":false,"i_lat":-6.255332},{"station_name":"Pasar Minggu Baru","line":2,"is_transit":false,"station_id":"PSMB","i_long":106.851577,"transit":false,"distance":824,"i_lat":-6.263214,"time":2},{"station_id":"PSM","distance":2380,"station_name":"Pasar Minggu","i_lat":-6.2842400000000005,"transit":false,"i_long":106.843999,"line":2,"is_transit":false,"time":2},{"transit":false,"i_long":106.838896,"line":2,"distance":2820,"i_lat":-6.3080680000000005,"station_id":"TNT","time":4,"station_name":"Tanjung Barat","is_transit":false},{"is_transit":false,"station_id":"LNA","i_lat":-6.330363,"i_long":106.832616,"line":2,"time":3,"distance":2671,"station_name":"Lenteng Agung","transit":false},{"i_lat":-6.339291,"line":2,"station_name":"Univ. Pancasila","i_long":106.834175,"time":2,"distance":1029,"is_transit":false,"transit":false,"station_id":"UP"},{"transit":false,"distance":2264,"station_name":"Univ. Indonesia","is_transit":false,"time":3,"station_id":"UI","i_lat":-6.360749,"i_long":106.831474,"line":2},{"is_transit":false,"time":2,"distance":1109,"station_name":"Pondok Cina","i_long":106.831114,"line":2,"i_lat":-6.369073,"transit":false,"station_id":"POC"},{"distance":2727,"station_name":"Depokbaru","is_transit":false,"transit":false,"time":4,"station_id":"DPB","i_lat":-6.391065,"i_long":106.819451,"line":2},{"distance":1584,"transit":false,"station_id":"DP","i_long":106.816926,"line":2,"i_lat":-6.405256,"is_transit":false,"station_name":"Depok","time":3},{"distance":5084,"station_id":"CTA","station_name":"Citayam","is_transit":true,"time":6,"i_lat":-6.448811,"transit":true,"line":2,"i_long":106.800298},{"time":0,"distance":0,"i_lat":-6.460735,"transit":false,"station_name":"Pondok Rajeg","station_id":"PDRG","i_long":106.824374,"line":21,"is_transit":false},{"distance":0,"line":21,"station_id":"CBN","i_long":106.851978,"time":0,"i_lat":-6.46424,"station_name":"Cibinong","transit":false,"is_transit":false}]]}