{"data":[[{"i_lat":-6.319871,"transit":false,"distance":0,"station_name":"Serpong","is_transit":false,"station_id":"SRP","i_long":106.66566,"line":6,"time":0},{"i_lat":-6.314823,"station_name":"Rawa Buntu","time":4,"line":6,"station_id":"RU","transit":false,"i_long":106.675475,"is_transit":false,"distance":2413},{"distance":4566,"station_name":"Sudimara","transit":false,"line":6,"i_lat":-6.296963,"station_id":"SDM","is_transit":false,"i_long":106.712277,"time":6},{"distance":1994,"transit":false,"is_transit":false,"station_id":"JMU","i_lat":-6.288927,"i_long":106.728916,"station_name":"Jurangmangu","time":4,"line":6},{"time":3,"station_id":"PDJ","is_transit":false,"station_name":"Pondokranji","i_lat":-6.276362,"distance":2179,"line":6,"transit":false,"i_long":106.74273},{"line":6,"station_name":"Kebayoran","is_transit":false,"distance":6218,"i_lat":-6.237242,"station_id":"KBY","i_long":106.780334,"time":8,"transit":false},{"time":7,"i_lat":-6.207404,"is_transit":false,"transit":false,"station_id":"PLM","station_name":"Palmerah","line":6,"i_long":106.79689,"distance":3737},{"station_name":"Tanah Abang","line":1,"time":6,"distance":3191,"station_id":"THB","i_long":106.811091,"is_transit":true,"transit":true,"i_lat":-6.185545},{"i_lat":-6.155215,"transit":false,"time":8,"distance":3632,"line":1,"station_id":"DU","is_transit":false,"station_name":"Duri","i_long":106.800832},{"station_id":"AK","time":4,"is_transit":false,"i_long":106.79867,"i_lat":-6.144674,"distance":1230,"station_name":"Angke","transit":false,"line":1},{"time":9,"i_lat":-6.132549,"station_name":"Kampung Bandan","i_long":106.826365,"station_id":"KPB","distance":4102,"transit":true,"is_transit":true,"line":4},{"station_name":"Rajawali","line":11,"i_long":106.836569,"i_lat":-6.14505,"station_id":"RJW","transit":false,"distance":1444,"time":3,"is_transit":false},{"i_lat":-6.161728,"line":11,"i_long":106.839204,"station_name":"Kemayoran","transit":false,"station_id":"KMO","distance":1901,"time":5,"is_transit":false},{"transit":false,"distance":1436,"station_name":"Pasar Senen","is_transit":false,"time":4,"station_id":"PSE","i_lat":-6.174784,"i_long":106.84368,"line":11},{"line":11,"distance":1567,"station_name":"Gang Sentiong","time":8,"transit":false,"i_lat":-6.185975,"i_long":106.850107,"is_transit":false,"station_id":"GST"},{"station_name":"Kramat","i_lat":-6.193792,"is_transit":false,"line":11,"station_id":"KMT","distance":973,"time":1,"transit":false,"i_long":106.855437}],[{"station_id":"SRP","is_transit":false,"i_long":106.66566,"time":0,"distance":0,"i_lat":-6.319871,"transit":false,"station_name":"Serpong","line":6},{"time":4,"station_name":"Rawa Buntu","i_long":106.675475,"line":6,"i_lat":-6.314823,"distance":2413,"is_transit":false,"station_id":"RU","transit":false},{"line":6,"i_lat":-6.296963,"transit":false,"station_id":"SDM","distance":4566,"is_transit":false,"i_long":106.712277,"time":6,"station_name":"Sudimara"},{"station_id":"JMU","station_name":"Jurangmangu","distance":1994,"line":6,"time":4,"i_long":106.728916,"is_transit":false,"transit":false,"i_lat":-6.288927},{"station_name":"Pondokranji","i_long":106.74273,"is_transit":false,"transit":false,"distance":2179,"i_lat":-6.276362,"time":3,"line":6,"station_id":"PDJ"},{"line":6,"station_name":"Kebayoran","transit":false,"i_lat":-6.237242,"station_id":"KBY","i_long":106.780334,"distance":6218,"time":8,"is_transit":false},{"is_transit":false,"transit":false,"station_name":"Palmerah","line":6,"i_long":106.79689,"i_lat":-6.207404,"distance":3737,"time":7,"station_id":"PLM"},{"i_lat":-6.185545,"distance":3191,"transit":true,"line":1,"i_long":106.811091,"time":6,"station_id":"THB","station_name":"Tanah Abang","is_transit":true},{"time":5,"station_name":"Karet","line":1,"station_id":"KAT","i_lat":-6.20132,"distance":2029,"is_transit":false,"transit":false,"i_long":106.816351},{"time":1,"i_lat":-6.201433,"is_transit":false,"station_id":"SUDB","station_name":"Sudirman Baru","transit":false,"distance":471,"i_long":106.819881,"line":1},{"i_lat":-6.202263,"transit":false,"is_transit":false,"station_name":"Sudirman","line":1,"time":1,"i_long":106.822649,"station_id":"SUD","distance":280},{"transit":false,"i_lat":-6.209883,"line":2,"time":4,"station_id":"MRI","distance":3186,"station_name":"Manggarai","is_transit":false,"i_long":106.84912},{"distance":1275,"station_id":"MTR","i_long":106.858896,"station_name":"Matraman","time":2,"line":1,"i_lat":-6.212485,"is_transit":false,"transit":false},{"transit":true,"time":8,"station_id":"JNG","is_transit":true,"i_lat":-6.215091,"i_long":106.86807400000001,"station_name":"Jatinegara","line":1,"distance":1377},{"station_id":"POK","station_name":"Pondok Jati","i_lat":-6.209188,"i_long":106.861737,"line":11,"distance":1236,"time":2,"transit":false,"is_transit":false},{"distance":1829,"station_name":"Kramat","transit":false,"i_lat":-6.193792,"is_transit":false,"line":11,"station_id":"KMT","i_long":106.855437,"time":2}],[{"station_name":"Serpong","distance":0,"line":6,"is_transit":false,"time":0,"i_long":106.66566,"transit":false,"i_lat":-6.319871,"station_id":"SRP"},{"line":6,"i_lat":-6.314823,"time":4,"distance":2413,"station_id":"RU","station_name":"Rawa Buntu","is_transit":false,"transit":false,"i_long":106.675475},{"time":6,"i_lat":-6.296963,"line":6,"station_id":"SDM","i_long":106.712277,"transit":false,"is_transit":false,"station_name":"Sudimara","distance":4566},{"time":4,"station_name":"Jurangmangu","line":6,"is_transit":false,"transit":false,"distance":1994,"i_lat":-6.288927,"station_id":"JMU","i_long":106.728916},{"is_transit":false,"time":3,"station_name":"Pondokranji","i_long":106.74273,"line":6,"distance":2179,"transit":false,"station_id":"PDJ","i_lat":-6.276362},{"transit":false,"is_transit":false,"line":6,"station_name":"Kebayoran","station_id":"KBY","i_lat":-6.237242,"time":8,"i_long":106.780334,"distance":6218},{"is_transit":false,"transit":false,"distance":3737,"station_id":"PLM","time":7,"station_name":"Palmerah","i_lat":-6.207404,"i_long":106.79689,"line":6},{"is_transit":true,"line":1,"station_id":"THB","time":6,"i_lat":-6.185545,"station_name":"Tanah Abang","i_long":106.811091,"distance":3191,"transit":true},{"line":1,"station_id":"DU","time":8,"i_lat":-6.155215,"station_name":"Duri","transit":false,"i_long":106.800832,"distance":3632,"is_transit":false},{"station_name":"Angke","time":4,"transit":false,"i_lat":-6.144674,"line":1,"station_id":"AK","distance":1230,"i_long":106.79867,"is_transit":false},{"i_long":106.826365,"station_name":"Kampung Bandan","distance":4102,"is_transit":true,"i_lat":-6.132549,"line":4,"station_id":"KPB","time":9,"transit":true},{"time":3,"i_long":106.812439,"station_name":"Jakarta Kota","is_transit":true,"transit":true,"distance":1364,"station_id":"JAKK","i_lat":-6.137569,"line":2},{"i_long":106.820901,"line":2,"station_name":"Jayakarta","transit":false,"is_transit":false,"station_id":"JAY","i_lat":-6.141205,"distance":1264,"time":4},{"distance":1080,"station_id":"MGB","transit":false,"i_long":106.82482,"is_transit":false,"i_lat":-6.149769,"time":2,"station_name":"Manggabesar","line":2},{"time":2,"distance":906,"line":2,"transit":false,"station_name":"Sawah Besar","i_lat":-6.160725,"i_long":106.827103,"station_id":"SW","is_transit":false},{"line":2,"distance":1149,"station_name":"Juanda","station_id":"JUA","i_lat":-6.166716,"is_transit":false,"time":2,"i_long":106.828284,"transit":false},{"station_id":"GDD","is_transit":false,"i_long":106.832183,"i_lat":-6.186295,"transit":false,"line":2,"time":4,"distance":2015,"station_name":"Gondangdia"},{"distance":1750,"time":3,"i_lat":-6.198556,"i_long":106.840169,"line":2,"station_name":"Cikini","is_transit":false,"station_id":"CKI","transit":false},{"station_id":"MRI","is_transit":true,"i_lat":-6.209883,"line":2,"transit":true,"distance":1590,"station_name":"Manggarai","i_long":106.84912,"time":4},{"transit":false,"station_id":"MTR","station_name":"Matraman","i_lat":-6.212485,"is_transit":false,"line":1,"time":2,"i_long":106.858896,"distance":1275},{"station_name":"Jatinegara","transit":true,"i_lat":-6.215091,"distance":1377,"station_id":"JNG","i_long":106.86807400000001,"line":1,"time":8,"is_transit":true},{"i_long":106.861737,"line":11,"is_transit":false,"station_name":"Pondok Jati","distance":1236,"station_id":"POK","i_lat":-6.209188,"transit":false,"time":2},{"transit":false,"time":2,"distance":1829,"line":11,"is_transit":false,"station_id":"KMT","i_lat":-6.193792,"i_long":106.855437,"station_name":"Kramat"}],[{"line":6,"i_lat":-6.319871,"transit":false,"distance":0,"time":0,"i_long":106.66566,"is_transit":false,"station_name":"Serpong","station_id":"SRP"},{"transit":false,"i_long":106.675475,"is_transit":false,"time":4,"station_name":"Rawa Buntu","i_lat":-6.314823,"distance":2413,"station_id":"RU","line":6},{"distance":4566,"station_id":"SDM","transit":false,"i_long":106.712277,"line":6,"is_transit":false,"time":6,"i_lat":-6.296963,"station_name":"Sudimara"},{"i_long":106.728916,"time":4,"distance":1994,"i_lat":-6.288927,"transit":false,"is_transit":false,"line":6,"station_name":"Jurangmangu","station_id":"JMU"},{"time":3,"distance":2179,"i_lat":-6.276362,"transit":false,"i_long":106.74273,"line":6,"station_name":"Pondokranji","station_id":"PDJ","is_transit":false},{"line":6,"distance":6218,"station_name":"Kebayoran","transit":false,"time":8,"i_lat":-6.237242,"i_long":106.780334,"is_transit":false,"station_id":"KBY"},{"is_transit":false,"time":7,"station_name":"Palmerah","distance":3737,"i_lat":-6.207404,"station_id":"PLM","i_long":106.79689,"line":6,"transit":false},{"i_long":106.811091,"station_name":"Tanah Abang","is_transit":true,"i_lat":-6.185545,"distance":3191,"line":1,"time":6,"station_id":"THB","transit":true},{"station_id":"KAT","line":1,"i_lat":-6.20132,"station_name":"Karet","time":5,"distance":2029,"transit":false,"is_transit":false,"i_long":106.816351},{"i_long":106.819881,"transit":false,"station_name":"Sudirman Baru","station_id":"SUDB","time":1,"distance":471,"is_transit":false,"line":1,"i_lat":-6.201433},{"i_long":106.822649,"transit":false,"distance":280,"is_transit":false,"time":1,"i_lat":-6.202263,"line":1,"station_name":"Sudirman","station_id":"SUD"},{"i_lat":-6.209883,"station_name":"Manggarai","time":4,"transit":true,"i_long":106.84912,"is_transit":true,"distance":3186,"line":2,"station_id":"MRI"},{"line":2,"station_name":"Cikini","station_id":"CKI","distance":1590,"i_lat":-6.198556,"i_long":106.840169,"is_transit":false,"time":4,"transit":false},{"distance":1750,"line":2,"is_transit":false,"time":3,"station_name":"Gondangdia","i_lat":-6.186295,"i_long":106.832183,"transit":false,"station_id":"GDD"},{"is_transit":false,"station_id":"JUA","i_long":106.828284,"i_lat":-6.166716,"distance":2015,"station_name":"Juanda","line":2,"transit":false,"time":4},{"line":2,"station_id":"SW","station_name":"Sawah Besar","distance":1149,"transit":false,"i_long":106.827103,"is_transit":false,"i_lat":-6.160725,"time":2},{"is_transit":false,"distance":906,"i_lat":-6.149769,"station_name":"Manggabesar","line":2,"station_id":"MGB","time":2,"i_long":106.82482,"transit":false},{"time":2,"i_long":106.820901,"line":2,"transit":false,"i_lat":-6.141205,"station_name":"Jayakarta","is_transit":false,"distance":1080,"station_id":"JAY"},{"is_transit":true,"i_long":106.812439,"i_lat":-6.137569,"distance":1264,"transit":true,"line":2,"time":4,"station_name":"Jakarta Kota","station_id":"JAKK"},{"i_lat":-6.132549,"is_transit":true,"distance":1364,"i_long":106.826365,"line":4,"station_name":"Kampung Bandan","station_id":"KPB","transit":true,"time":3},{"line":11,"station_id":"RJW","transit":false,"distance":1444,"time":3,"is_transit":false,"i_lat":-6.14505,"station_name":"Rajawali","i_long":106.836569},{"i_lat":-6.161728,"station_name":"Kemayoran","i_long":106.839204,"station_id":"KMO","time":5,"line":11,"distance":1901,"transit":false,"is_transit":false},{"line":11,"is_transit":false,"transit":false,"station_name":"Pasar Senen","time":4,"station_id":"PSE","i_long":106.84368,"i_lat":-6.174784,"distance":1436},{"line":11,"i_long":106.850107,"station_name":"Gang Sentiong","i_lat":-6.185975,"distance":1567,"is_transit":false,"station_id":"GST","time":8,"transit":false},{"distance":973,"transit":false,"station_name":"Kramat","is_transit":false,"line":11,"i_lat":-6.193792,"station_id":"KMT","time":1,"i_long":106.855437}]]}