{"data":[[{"is_transit":false,"station_id":"SRP","station_name":"Serpong","line":6,"distance":0,"time":0,"i_lat":-6.319871,"transit":false,"i_long":106.66566},{"i_lat":-6.314823,"i_long":106.675475,"transit":false,"station_name":"Rawa Buntu","station_id":"RU","is_transit":false,"time":4,"distance":2413,"line":6},{"time":6,"is_transit":false,"i_long":106.712277,"line":6,"station_name":"Sudimara","transit":false,"station_id":"SDM","distance":4566,"i_lat":-6.296963},{"is_transit":false,"station_name":"Jurangmangu","transit":false,"station_id":"JMU","distance":1994,"i_lat":-6.288927,"time":4,"line":6,"i_long":106.728916},{"i_lat":-6.276362,"is_transit":false,"station_name":"Pondokranji","station_id":"PDJ","i_long":106.74273,"line":6,"time":3,"distance":2179,"transit":false},{"station_id":"KBY","is_transit":false,"time":8,"transit":false,"distance":6218,"i_long":106.780334,"station_name":"Kebayoran","i_lat":-6.237242,"line":6}]]}