{"data":[[{"i_lat":-6.319871,"is_transit":false,"line":6,"transit":false,"distance":0,"time":0,"station_id":"SRP","i_long":106.66566,"station_name":"Serpong"},{"transit":false,"line":6,"time":4,"is_transit":false,"i_long":106.675475,"i_lat":-6.314823,"station_id":"RU","distance":2413,"station_name":"Rawa Buntu"},{"time":6,"line":6,"is_transit":false,"distance":4566,"station_name":"Sudimara","transit":false,"i_long":106.712277,"station_id":"SDM","i_lat":-6.296963},{"station_name":"Jurangmangu","station_id":"JMU","distance":1994,"is_transit":false,"line":6,"transit":false,"i_lat":-6.288927,"time":4,"i_long":106.728916},{"station_name":"Pondokranji","distance":2179,"i_long":106.74273,"i_lat":-6.276362,"station_id":"PDJ","transit":false,"is_transit":false,"time":3,"line":6},{"time":8,"distance":6218,"transit":false,"line":6,"i_lat":-6.237242,"is_transit":false,"station_id":"KBY","i_long":106.780334,"station_name":"Kebayoran"},{"station_id":"PLM","i_lat":-6.207404,"distance":3737,"station_name":"Palmerah","line":6,"time":7,"is_transit":false,"i_long":106.79689,"transit":false},{"is_transit":true,"line":1,"distance":3191,"i_long":106.811091,"i_lat":-6.185545,"time":6,"station_id":"THB","station_name":"Tanah Abang","transit":true},{"is_transit":true,"station_name":"Duri","time":8,"i_long":106.800832,"station_id":"DU","i_lat":-6.155215,"line":1,"distance":3632,"transit":true},{"transit":false,"line":0,"distance":1230,"station_name":"Angke","is_transit":false,"time":4,"i_long":106.79867,"station_id":"AK","i_lat":-6.144674},{"time":9,"line":0,"transit":true,"station_name":"Kampung Bandan","station_id":"KPB","is_transit":true,"distance":4102,"i_lat":-6.132549,"i_long":106.826365},{"line":11,"station_id":"RJW","is_transit":false,"i_lat":-6.14505,"time":3,"transit":false,"station_name":"Rajawali","distance":1444,"i_long":106.836569},{"is_transit":false,"i_lat":-6.161728,"time":5,"line":11,"i_long":106.839204,"distance":1901,"station_name":"Kemayoran","station_id":"KMO","transit":false},{"i_long":106.84368,"distance":1436,"is_transit":false,"i_lat":-6.174784,"transit":false,"station_id":"PSE","line":11,"station_name":"Pasar Senen","time":4},{"i_lat":-6.185975,"station_name":"Gang Sentiong","line":11,"distance":1567,"i_long":106.850107,"is_transit":false,"time":8,"station_id":"GST","transit":false},{"i_long":106.855437,"i_lat":-6.193792,"distance":973,"time":1,"line":11,"is_transit":false,"station_name":"Kramat","transit":false,"station_id":"KMT"}],[{"time":0,"i_lat":-6.319871,"line":6,"station_name":"Serpong","station_id":"SRP","distance":0,"i_long":106.66566,"transit":false,"is_transit":false},{"i_lat":-6.314823,"station_name":"Rawa Buntu","distance":2413,"is_transit":false,"line":6,"station_id":"RU","transit":false,"i_long":106.675475,"time":4},{"time":6,"is_transit":false,"transit":false,"line":6,"distance":4566,"station_name":"Sudimara","i_lat":-6.296963,"station_id":"SDM","i_long":106.712277},{"i_long":106.728916,"line":6,"is_transit":false,"time":4,"transit":false,"distance":1994,"station_name":"Jurangmangu","i_lat":-6.288927,"station_id":"JMU"},{"station_name":"Pondokranji","is_transit":false,"station_id":"PDJ","time":3,"i_long":106.74273,"transit":false,"distance":2179,"line":6,"i_lat":-6.276362},{"station_name":"Kebayoran","station_id":"KBY","i_lat":-6.237242,"distance":6218,"transit":false,"time":8,"i_long":106.780334,"line":6,"is_transit":false},{"i_long":106.79689,"station_id":"PLM","transit":false,"i_lat":-6.207404,"station_name":"Palmerah","time":7,"distance":3737,"line":6,"is_transit":false},{"distance":3191,"transit":true,"i_lat":-6.185545,"station_id":"THB","station_name":"Tanah Abang","is_transit":true,"i_long":106.811091,"line":1,"time":6},{"station_id":"KAT","station_name":"Karet","distance":2029,"i_long":106.816351,"time":5,"line":1,"is_transit":false,"transit":false,"i_lat":-6.20132},{"i_long":106.819881,"is_transit":false,"station_id":"SUDB","transit":false,"line":1,"station_name":"Sudirman Baru","time":1,"i_lat":-6.201433,"distance":471},{"station_name":"Sudirman","transit":false,"is_transit":false,"time":1,"i_lat":-6.202263,"distance":280,"i_long":106.822649,"line":1,"station_id":"SUD"},{"is_transit":true,"transit":false,"station_name":"Manggarai","time":4,"line":0,"distance":3186,"i_long":106.84912,"i_lat":-6.209883,"station_id":"MRI"},{"transit":false,"i_long":106.858896,"station_name":"Matraman","station_id":"MTR","time":2,"i_lat":-6.212485,"line":1,"is_transit":false,"distance":1275},{"transit":true,"is_transit":true,"distance":1377,"i_lat":-6.215091,"i_long":106.86807400000001,"station_id":"JNG","time":8,"station_name":"Jatinegara","line":0},{"station_id":"POK","station_name":"Pondok Jati","transit":false,"is_transit":false,"time":2,"line":11,"i_lat":-6.209188,"i_long":106.861737,"distance":1236},{"distance":1829,"station_id":"KMT","station_name":"Kramat","time":2,"is_transit":false,"transit":false,"i_lat":-6.193792,"i_long":106.855437,"line":11}],[{"station_id":"SRP","station_name":"Serpong","is_transit":false,"time":0,"i_lat":-6.319871,"line":6,"distance":0,"transit":false,"i_long":106.66566},{"i_lat":-6.314823,"station_name":"Rawa Buntu","line":6,"is_transit":false,"station_id":"RU","transit":false,"i_long":106.675475,"distance":2413,"time":4},{"station_id":"SDM","transit":false,"distance":4566,"time":6,"i_lat":-6.296963,"station_name":"Sudimara","i_long":106.712277,"line":6,"is_transit":false},{"transit":false,"is_transit":false,"i_long":106.728916,"time":4,"station_id":"JMU","station_name":"Jurangmangu","line":6,"distance":1994,"i_lat":-6.288927},{"station_name":"Pondokranji","time":3,"i_long":106.74273,"i_lat":-6.276362,"station_id":"PDJ","transit":false,"is_transit":false,"line":6,"distance":2179},{"station_id":"KBY","is_transit":false,"i_long":106.780334,"transit":false,"i_lat":-6.237242,"line":6,"distance":6218,"station_name":"Kebayoran","time":8},{"i_lat":-6.207404,"line":6,"i_long":106.79689,"is_transit":false,"station_name":"Palmerah","station_id":"PLM","transit":false,"distance":3737,"time":7},{"station_name":"Tanah Abang","i_lat":-6.185545,"station_id":"THB","distance":3191,"is_transit":true,"transit":true,"i_long":106.811091,"time":6,"line":1},{"time":8,"distance":3632,"station_id":"DU","is_transit":true,"i_lat":-6.155215,"i_long":106.800832,"transit":true,"line":1,"station_name":"Duri"},{"time":4,"is_transit":false,"i_long":106.79867,"station_id":"AK","transit":false,"line":0,"distance":1230,"i_lat":-6.144674,"station_name":"Angke"},{"time":9,"i_long":106.826365,"is_transit":true,"distance":4102,"station_name":"Kampung Bandan","transit":false,"station_id":"KPB","i_lat":-6.132549,"line":0},{"is_transit":true,"station_id":"JAKK","time":3,"distance":1364,"station_name":"Jakarta Kota","i_lat":-6.137569,"transit":true,"line":0,"i_long":106.812439},{"station_id":"JAY","station_name":"Jayakarta","is_transit":false,"i_long":106.820901,"distance":1264,"transit":false,"i_lat":-6.141205,"time":4,"line":7},{"i_long":106.82482,"station_id":"MGB","time":2,"is_transit":false,"transit":false,"distance":1080,"i_lat":-6.149769,"line":2,"station_name":"Manggabesar"},{"transit":false,"station_id":"SW","time":2,"i_long":106.827103,"i_lat":-6.160725,"station_name":"Sawah Besar","line":2,"distance":906,"is_transit":false},{"line":2,"transit":false,"station_id":"JUA","i_lat":-6.166716,"station_name":"Juanda","is_transit":false,"i_long":106.828284,"distance":1149,"time":2},{"distance":2015,"is_transit":false,"transit":false,"time":4,"i_lat":-6.186295,"station_name":"Gondangdia","station_id":"GDD","i_long":106.832183,"line":2},{"i_lat":-6.198556,"i_long":106.840169,"transit":false,"distance":1750,"station_id":"CKI","station_name":"Cikini","is_transit":false,"time":3,"line":0},{"i_long":106.84912,"station_name":"Manggarai","i_lat":-6.209883,"distance":1590,"is_transit":true,"time":4,"station_id":"MRI","transit":true,"line":0},{"station_id":"MTR","is_transit":false,"i_long":106.858896,"station_name":"Matraman","distance":1275,"transit":false,"time":2,"i_lat":-6.212485,"line":1},{"station_id":"JNG","station_name":"Jatinegara","distance":1377,"i_lat":-6.215091,"i_long":106.86807400000001,"line":0,"transit":true,"is_transit":true,"time":8},{"station_id":"POK","i_long":106.861737,"station_name":"Pondok Jati","i_lat":-6.209188,"line":11,"is_transit":false,"transit":false,"time":2,"distance":1236},{"station_name":"Kramat","time":2,"i_lat":-6.193792,"is_transit":false,"i_long":106.855437,"station_id":"KMT","line":11,"distance":1829,"transit":false}],[{"i_lat":-6.319871,"is_transit":false,"transit":false,"line":6,"station_id":"SRP","station_name":"Serpong","i_long":106.66566,"time":0,"distance":0},{"i_lat":-6.314823,"station_id":"RU","transit":false,"station_name":"Rawa Buntu","i_long":106.675475,"line":6,"distance":2413,"is_transit":false,"time":4},{"time":6,"i_lat":-6.296963,"station_id":"SDM","transit":false,"is_transit":false,"distance":4566,"i_long":106.712277,"station_name":"Sudimara","line":6},{"station_id":"JMU","station_name":"Jurangmangu","time":4,"i_lat":-6.288927,"distance":1994,"is_transit":false,"i_long":106.728916,"line":6,"transit":false},{"is_transit":false,"station_id":"PDJ","station_name":"Pondokranji","transit":false,"line":6,"time":3,"distance":2179,"i_long":106.74273,"i_lat":-6.276362},{"i_lat":-6.237242,"is_transit":false,"i_long":106.780334,"station_name":"Kebayoran","distance":6218,"station_id":"KBY","time":8,"line":6,"transit":false},{"is_transit":false,"i_lat":-6.207404,"time":7,"i_long":106.79689,"station_id":"PLM","station_name":"Palmerah","transit":false,"line":6,"distance":3737},{"i_long":106.811091,"line":1,"station_id":"THB","transit":true,"time":6,"is_transit":true,"i_lat":-6.185545,"station_name":"Tanah Abang","distance":3191},{"line":1,"is_transit":false,"station_id":"KAT","transit":false,"distance":2029,"i_lat":-6.20132,"i_long":106.816351,"time":5,"station_name":"Karet"},{"station_name":"Sudirman Baru","transit":false,"time":1,"distance":471,"station_id":"SUDB","i_lat":-6.201433,"i_long":106.819881,"is_transit":false,"line":1},{"station_name":"Sudirman","distance":280,"line":1,"is_transit":false,"station_id":"SUD","transit":false,"time":1,"i_lat":-6.202263,"i_long":106.822649},{"i_lat":-6.209883,"distance":3186,"station_id":"MRI","i_long":106.84912,"station_name":"Manggarai","transit":true,"line":0,"is_transit":true,"time":4},{"is_transit":false,"i_long":106.840169,"line":0,"station_id":"CKI","station_name":"Cikini","time":4,"transit":false,"distance":1590,"i_lat":-6.198556},{"i_long":106.832183,"station_name":"Gondangdia","station_id":"GDD","line":2,"distance":1750,"transit":false,"time":3,"is_transit":false,"i_lat":-6.186295},{"line":2,"is_transit":false,"distance":2015,"transit":false,"i_lat":-6.166716,"i_long":106.828284,"time":4,"station_id":"JUA","station_name":"Juanda"},{"line":2,"i_lat":-6.160725,"station_id":"SW","transit":false,"is_transit":false,"distance":1149,"station_name":"Sawah Besar","time":2,"i_long":106.827103},{"distance":906,"station_id":"MGB","station_name":"Manggabesar","transit":false,"time":2,"is_transit":false,"line":2,"i_long":106.82482,"i_lat":-6.149769},{"transit":false,"line":7,"station_name":"Jayakarta","time":2,"station_id":"JAY","i_lat":-6.141205,"is_transit":false,"i_long":106.820901,"distance":1080},{"distance":1264,"transit":true,"station_name":"Jakarta Kota","i_long":106.812439,"station_id":"JAKK","i_lat":-6.137569,"time":4,"line":0,"is_transit":true},{"line":0,"time":3,"transit":true,"station_id":"KPB","distance":1364,"i_lat":-6.132549,"station_name":"Kampung Bandan","is_transit":true,"i_long":106.826365},{"line":11,"distance":1444,"station_name":"Rajawali","transit":false,"time":3,"is_transit":false,"station_id":"RJW","i_lat":-6.14505,"i_long":106.836569},{"station_id":"KMO","is_transit":false,"time":5,"distance":1901,"transit":false,"line":11,"station_name":"Kemayoran","i_lat":-6.161728,"i_long":106.839204},{"i_long":106.84368,"station_name":"Pasar Senen","station_id":"PSE","time":4,"is_transit":false,"transit":false,"distance":1436,"i_lat":-6.174784,"line":11},{"time":8,"transit":false,"station_id":"GST","distance":1567,"i_lat":-6.185975,"i_long":106.850107,"line":11,"is_transit":false,"station_name":"Gang Sentiong"},{"station_id":"KMT","distance":973,"station_name":"Kramat","transit":false,"line":11,"is_transit":false,"time":1,"i_lat":-6.193792,"i_long":106.855437}]]}