{"data":[[{"time":0,"distance":0,"i_long":106.66566,"station_name":"Serpong","is_transit":false,"station_id":"SRP","transit":false,"i_lat":-6.319871,"line":6},{"i_long":106.675475,"station_id":"RU","transit":false,"line":6,"station_name":"Rawa Buntu","is_transit":false,"distance":2413,"i_lat":-6.314823,"time":4},{"i_long":106.712277,"time":6,"station_name":"Sudimara","distance":4566,"i_lat":-6.296963,"station_id":"SDM","transit":false,"is_transit":false,"line":6},{"is_transit":false,"station_name":"Jurangmangu","station_id":"JMU","transit":false,"line":6,"i_lat":-6.288927,"i_long":106.728916,"time":4,"distance":1994},{"distance":2179,"station_name":"Pondokranji","transit":false,"is_transit":false,"station_id":"PDJ","time":3,"i_lat":-6.276362,"i_long":106.74273,"line":6},{"is_transit":false,"distance":6218,"transit":false,"time":8,"line":6,"station_id":"KBY","station_name":"Kebayoran","i_lat":-6.237242,"i_long":106.780334},{"is_transit":false,"station_id":"PLM","distance":3737,"transit":false,"i_long":106.79689,"station_name":"Palmerah","i_lat":-6.207404,"line":6,"time":7},{"i_lat":-6.185545,"distance":3191,"line":1,"station_name":"Tanah Abang","time":6,"station_id":"THB","transit":true,"i_long":106.811091,"is_transit":true},{"transit":false,"i_long":106.816351,"distance":2029,"station_name":"Karet","time":5,"i_lat":-6.20132,"is_transit":false,"line":1,"station_id":"KAT"},{"distance":471,"transit":false,"station_id":"SUDB","i_lat":-6.201433,"time":1,"i_long":106.819881,"is_transit":false,"line":1,"station_name":"Sudirman Baru"},{"i_lat":-6.202263,"i_long":106.822649,"line":1,"transit":false,"distance":280,"is_transit":false,"time":1,"station_id":"SUD","station_name":"Sudirman"},{"station_id":"MRI","transit":false,"i_lat":-6.209883,"i_long":106.84912,"line":0,"time":4,"is_transit":true,"distance":3186,"station_name":"Manggarai"},{"i_lat":-6.212485,"i_long":106.858896,"line":1,"transit":false,"station_id":"MTR","distance":1275,"is_transit":false,"station_name":"Matraman","time":2}],[{"station_name":"Serpong","transit":false,"is_transit":false,"i_long":106.66566,"line":6,"station_id":"SRP","distance":0,"time":0,"i_lat":-6.319871},{"line":6,"i_long":106.675475,"station_id":"RU","transit":false,"time":4,"is_transit":false,"i_lat":-6.314823,"station_name":"Rawa Buntu","distance":2413},{"station_id":"SDM","i_long":106.712277,"i_lat":-6.296963,"line":6,"is_transit":false,"station_name":"Sudimara","transit":false,"distance":4566,"time":6},{"is_transit":false,"line":6,"distance":1994,"station_id":"JMU","transit":false,"time":4,"station_name":"Jurangmangu","i_lat":-6.288927,"i_long":106.728916},{"transit":false,"i_long":106.74273,"time":3,"is_transit":false,"station_name":"Pondokranji","line":6,"i_lat":-6.276362,"distance":2179,"station_id":"PDJ"},{"station_name":"Kebayoran","distance":6218,"time":8,"i_long":106.780334,"line":6,"is_transit":false,"i_lat":-6.237242,"station_id":"KBY","transit":false},{"time":7,"station_id":"PLM","transit":false,"distance":3737,"i_lat":-6.207404,"station_name":"Palmerah","i_long":106.79689,"is_transit":false,"line":6},{"time":6,"i_long":106.811091,"line":1,"distance":3191,"i_lat":-6.185545,"is_transit":true,"station_name":"Tanah Abang","station_id":"THB","transit":true},{"line":1,"i_lat":-6.155215,"distance":3632,"is_transit":true,"transit":true,"i_long":106.800832,"station_id":"DU","station_name":"Duri","time":8},{"i_lat":-6.144674,"time":4,"i_long":106.79867,"distance":1230,"line":0,"station_id":"AK","station_name":"Angke","transit":false,"is_transit":false},{"station_id":"KPB","is_transit":true,"line":0,"i_long":106.826365,"i_lat":-6.132549,"time":9,"station_name":"Kampung Bandan","transit":true,"distance":4102},{"is_transit":false,"station_name":"Rajawali","transit":false,"time":3,"station_id":"RJW","distance":1444,"i_lat":-6.14505,"i_long":106.836569,"line":11},{"station_name":"Kemayoran","is_transit":false,"distance":1901,"i_long":106.839204,"line":11,"station_id":"KMO","transit":false,"i_lat":-6.161728,"time":5},{"time":4,"station_name":"Pasar Senen","transit":false,"i_lat":-6.174784,"distance":1436,"i_long":106.84368,"is_transit":false,"line":11,"station_id":"PSE"},{"line":11,"is_transit":false,"station_id":"GST","transit":false,"i_lat":-6.185975,"i_long":106.850107,"station_name":"Gang Sentiong","time":8,"distance":1567},{"is_transit":false,"station_name":"Kramat","time":1,"station_id":"KMT","transit":false,"distance":973,"i_long":106.855437,"line":11,"i_lat":-6.193792},{"is_transit":false,"transit":false,"i_lat":-6.209188,"line":11,"station_id":"POK","distance":1829,"time":2,"station_name":"Pondok Jati","i_long":106.861737},{"station_id":"JNG","i_long":106.86807400000001,"station_name":"Jatinegara","distance":1236,"transit":true,"i_lat":-6.215091,"is_transit":true,"time":9,"line":0},{"station_id":"MTR","distance":1377,"is_transit":false,"transit":false,"time":2,"station_name":"Matraman","i_long":106.858896,"i_lat":-6.212485,"line":1}],[{"i_lat":-6.319871,"distance":0,"line":6,"station_name":"Serpong","time":0,"i_long":106.66566,"is_transit":false,"transit":false,"station_id":"SRP"},{"line":6,"is_transit":false,"time":4,"distance":2413,"station_id":"RU","i_lat":-6.314823,"i_long":106.675475,"transit":false,"station_name":"Rawa Buntu"},{"station_id":"SDM","station_name":"Sudimara","distance":4566,"transit":false,"time":6,"i_lat":-6.296963,"i_long":106.712277,"line":6,"is_transit":false},{"i_long":106.728916,"time":4,"i_lat":-6.288927,"station_name":"Jurangmangu","transit":false,"distance":1994,"line":6,"is_transit":false,"station_id":"JMU"},{"station_name":"Pondokranji","is_transit":false,"line":6,"time":3,"i_lat":-6.276362,"i_long":106.74273,"station_id":"PDJ","transit":false,"distance":2179},{"i_lat":-6.237242,"line":6,"distance":6218,"time":8,"is_transit":false,"i_long":106.780334,"station_id":"KBY","station_name":"Kebayoran","transit":false},{"transit":false,"i_long":106.79689,"line":6,"i_lat":-6.207404,"station_id":"PLM","distance":3737,"is_transit":false,"station_name":"Palmerah","time":7},{"i_long":106.811091,"station_id":"THB","line":1,"transit":true,"time":6,"i_lat":-6.185545,"station_name":"Tanah Abang","distance":3191,"is_transit":true},{"i_lat":-6.155215,"line":1,"distance":3632,"transit":true,"i_long":106.800832,"station_name":"Duri","is_transit":true,"station_id":"DU","time":8},{"transit":false,"line":0,"distance":1230,"station_name":"Angke","is_transit":false,"time":4,"station_id":"AK","i_lat":-6.144674,"i_long":106.79867},{"line":0,"i_long":106.826365,"is_transit":true,"station_id":"KPB","time":9,"distance":4102,"station_name":"Kampung Bandan","transit":false,"i_lat":-6.132549},{"station_name":"Jakarta Kota","is_transit":true,"transit":true,"distance":1364,"station_id":"JAKK","time":3,"i_lat":-6.137569,"i_long":106.812439,"line":0},{"station_id":"JAY","i_lat":-6.141205,"distance":1264,"is_transit":false,"time":4,"line":7,"station_name":"Jayakarta","i_long":106.820901,"transit":false},{"station_name":"Manggabesar","i_long":106.82482,"is_transit":false,"station_id":"MGB","time":2,"i_lat":-6.149769,"line":2,"distance":1080,"transit":false},{"distance":906,"station_name":"Sawah Besar","time":2,"line":2,"is_transit":false,"i_long":106.827103,"station_id":"SW","i_lat":-6.160725,"transit":false},{"distance":1149,"station_name":"Juanda","time":2,"line":2,"is_transit":false,"i_lat":-6.166716,"transit":false,"i_long":106.828284,"station_id":"JUA"},{"transit":false,"i_lat":-6.186295,"is_transit":false,"distance":2015,"station_name":"Gondangdia","time":4,"station_id":"GDD","i_long":106.832183,"line":2},{"is_transit":false,"transit":false,"line":0,"time":3,"station_id":"CKI","i_long":106.840169,"distance":1750,"station_name":"Cikini","i_lat":-6.198556},{"i_lat":-6.209883,"i_long":106.84912,"line":0,"is_transit":true,"distance":1590,"station_name":"Manggarai","transit":true,"time":4,"station_id":"MRI"},{"i_lat":-6.212485,"station_id":"MTR","time":2,"is_transit":false,"i_long":106.858896,"station_name":"Matraman","transit":false,"line":1,"distance":1275}],[{"distance":0,"time":0,"is_transit":false,"transit":false,"station_id":"SRP","station_name":"Serpong","i_long":106.66566,"i_lat":-6.319871,"line":6},{"distance":2413,"is_transit":false,"station_id":"RU","station_name":"Rawa Buntu","transit":false,"i_lat":-6.314823,"i_long":106.675475,"time":4,"line":6},{"distance":4566,"station_id":"SDM","time":6,"line":6,"i_long":106.712277,"i_lat":-6.296963,"transit":false,"is_transit":false,"station_name":"Sudimara"},{"transit":false,"is_transit":false,"distance":1994,"station_name":"Jurangmangu","station_id":"JMU","i_long":106.728916,"time":4,"line":6,"i_lat":-6.288927},{"line":6,"i_long":106.74273,"i_lat":-6.276362,"time":3,"station_id":"PDJ","distance":2179,"is_transit":false,"station_name":"Pondokranji","transit":false},{"is_transit":false,"station_name":"Kebayoran","transit":false,"time":8,"i_long":106.780334,"i_lat":-6.237242,"line":6,"station_id":"KBY","distance":6218},{"transit":false,"i_long":106.79689,"distance":3737,"station_name":"Palmerah","is_transit":false,"i_lat":-6.207404,"line":6,"station_id":"PLM","time":7},{"time":6,"i_long":106.811091,"line":1,"is_transit":true,"station_name":"Tanah Abang","i_lat":-6.185545,"station_id":"THB","distance":3191,"transit":true},{"distance":2029,"i_long":106.816351,"is_transit":false,"station_name":"Karet","station_id":"KAT","transit":false,"time":5,"i_lat":-6.20132,"line":1},{"i_lat":-6.201433,"is_transit":false,"station_id":"SUDB","station_name":"Sudirman Baru","i_long":106.819881,"transit":false,"time":1,"distance":471,"line":1},{"station_name":"Sudirman","station_id":"SUD","i_lat":-6.202263,"time":1,"line":1,"distance":280,"transit":false,"i_long":106.822649,"is_transit":false},{"time":4,"station_id":"MRI","i_lat":-6.209883,"is_transit":true,"transit":true,"station_name":"Manggarai","line":0,"distance":3186,"i_long":106.84912},{"is_transit":false,"station_name":"Cikini","time":4,"i_long":106.840169,"distance":1590,"station_id":"CKI","transit":false,"i_lat":-6.198556,"line":0},{"time":3,"i_long":106.832183,"station_id":"GDD","transit":false,"line":2,"is_transit":false,"distance":1750,"i_lat":-6.186295,"station_name":"Gondangdia"},{"is_transit":false,"time":4,"distance":2015,"line":2,"station_id":"JUA","transit":false,"i_long":106.828284,"i_lat":-6.166716,"station_name":"Juanda"},{"time":2,"distance":1149,"is_transit":false,"station_name":"Sawah Besar","transit":false,"i_lat":-6.160725,"i_long":106.827103,"line":2,"station_id":"SW"},{"is_transit":false,"line":2,"station_id":"MGB","station_name":"Manggabesar","transit":false,"time":2,"i_lat":-6.149769,"i_long":106.82482,"distance":906},{"station_id":"JAY","station_name":"Jayakarta","transit":false,"i_lat":-6.141205,"i_long":106.820901,"time":2,"distance":1080,"is_transit":false,"line":7},{"distance":1264,"i_lat":-6.137569,"is_transit":true,"time":4,"transit":true,"line":0,"station_id":"JAKK","i_long":106.812439,"station_name":"Jakarta Kota"},{"station_name":"Kampung Bandan","station_id":"KPB","distance":1364,"is_transit":true,"time":3,"transit":true,"i_lat":-6.132549,"i_long":106.826365,"line":0},{"line":11,"station_name":"Rajawali","transit":false,"station_id":"RJW","is_transit":false,"i_lat":-6.14505,"distance":1444,"time":3,"i_long":106.836569},{"i_long":106.839204,"station_name":"Kemayoran","line":11,"is_transit":false,"time":5,"station_id":"KMO","distance":1901,"transit":false,"i_lat":-6.161728},{"i_long":106.84368,"distance":1436,"station_id":"PSE","station_name":"Pasar Senen","time":4,"i_lat":-6.174784,"line":11,"is_transit":false,"transit":false},{"line":11,"transit":false,"distance":1567,"station_name":"Gang Sentiong","is_transit":false,"i_lat":-6.185975,"time":8,"station_id":"GST","i_long":106.850107},{"is_transit":false,"i_lat":-6.193792,"distance":973,"i_long":106.855437,"line":11,"time":1,"station_name":"Kramat","transit":false,"station_id":"KMT"},{"station_name":"Pondok Jati","distance":1829,"station_id":"POK","transit":false,"line":11,"is_transit":false,"i_lat":-6.209188,"i_long":106.861737,"time":2},{"is_transit":true,"i_long":106.86807400000001,"i_lat":-6.215091,"station_id":"JNG","transit":true,"time":9,"line":0,"distance":1236,"station_name":"Jatinegara"},{"i_lat":-6.212485,"is_transit":false,"i_long":106.858896,"station_id":"MTR","transit":false,"distance":1377,"line":1,"station_name":"Matraman","time":2}]]}