{"data":[[{"i_lat":-6.319871,"station_name":"Serpong","i_long":106.66566,"time":0,"is_transit":false,"distance":0,"station_id":"SRP","transit":false,"line":6},{"station_name":"Rawa Buntu","time":4,"transit":false,"distance":2413,"i_lat":-6.314823,"i_long":106.675475,"station_id":"RU","is_transit":false,"line":6},{"distance":4566,"line":6,"transit":false,"station_id":"SDM","station_name":"Sudimara","is_transit":false,"time":6,"i_long":106.712277,"i_lat":-6.296963},{"i_long":106.728916,"distance":1994,"transit":false,"station_name":"Jurangmangu","time":4,"i_lat":-6.288927,"line":6,"station_id":"JMU","is_transit":false},{"transit":false,"station_id":"PDJ","time":3,"i_long":106.74273,"distance":2179,"is_transit":false,"line":6,"i_lat":-6.276362,"station_name":"Pondokranji"},{"i_lat":-6.237242,"time":8,"station_id":"KBY","is_transit":false,"i_long":106.780334,"line":6,"transit":false,"station_name":"Kebayoran","distance":6218},{"distance":3737,"i_lat":-6.207404,"is_transit":false,"station_id":"PLM","station_name":"Palmerah","i_long":106.79689,"line":6,"time":7,"transit":false},{"line":1,"transit":true,"station_id":"THB","time":6,"is_transit":true,"station_name":"Tanah Abang","i_lat":-6.185545,"distance":3191,"i_long":106.811091},{"line":1,"i_lat":-6.20132,"i_long":106.816351,"station_id":"KAT","is_transit":false,"transit":false,"station_name":"Karet","time":5,"distance":2029},{"station_id":"SUDB","is_transit":false,"transit":false,"time":1,"i_lat":-6.201433,"distance":471,"station_name":"Sudirman Baru","line":1,"i_long":106.819881},{"station_name":"Sudirman","transit":false,"is_transit":false,"i_lat":-6.202263,"distance":280,"i_long":106.822649,"time":1,"station_id":"SUD","line":1},{"distance":3186,"i_long":106.84912,"station_id":"MRI","i_lat":-6.209883,"station_name":"Manggarai","is_transit":true,"time":4,"transit":true,"line":2},{"i_lat":-6.226659,"time":4,"is_transit":false,"transit":false,"i_long":106.857948,"line":2,"station_name":"Tebet","station_id":"TEB","distance":2610},{"transit":false,"i_long":106.856607,"distance":1230,"line":2,"station_name":"Cawang","i_lat":-6.242512,"is_transit":false,"station_id":"CW","time":2},{"transit":false,"station_id":"DRN","distance":1546,"i_long":106.85449,"line":2,"is_transit":false,"time":3,"station_name":"Duren Kalibata","i_lat":-6.255332},{"i_long":106.851577,"time":2,"is_transit":false,"distance":824,"line":2,"station_name":"Pasar Minggu Baru","station_id":"PSMB","i_lat":-6.263214,"transit":false},{"transit":false,"i_lat":-6.2842400000000005,"station_id":"PSM","time":2,"line":2,"is_transit":false,"i_long":106.843999,"station_name":"Pasar Minggu","distance":2380},{"transit":false,"i_long":106.838896,"station_id":"TNT","time":4,"i_lat":-6.3080680000000005,"distance":2820,"line":2,"is_transit":false,"station_name":"Tanjung Barat"},{"transit":false,"is_transit":false,"station_id":"LNA","distance":2671,"time":3,"i_lat":-6.330363,"i_long":106.832616,"line":2,"station_name":"Lenteng Agung"},{"i_long":106.834175,"station_name":"Univ. Pancasila","line":2,"is_transit":false,"station_id":"UP","transit":false,"time":2,"distance":1029,"i_lat":-6.339291}],[{"station_id":"SRP","time":0,"i_lat":-6.319871,"is_transit":false,"distance":0,"i_long":106.66566,"line":6,"transit":false,"station_name":"Serpong"},{"is_transit":false,"transit":false,"i_lat":-6.314823,"line":6,"distance":2413,"i_long":106.675475,"station_id":"RU","station_name":"Rawa Buntu","time":4},{"time":6,"line":6,"station_id":"SDM","distance":4566,"is_transit":false,"station_name":"Sudimara","transit":false,"i_long":106.712277,"i_lat":-6.296963},{"distance":1994,"station_name":"Jurangmangu","time":4,"line":6,"i_lat":-6.288927,"transit":false,"i_long":106.728916,"is_transit":false,"station_id":"JMU"},{"station_name":"Pondokranji","is_transit":false,"distance":2179,"station_id":"PDJ","i_lat":-6.276362,"transit":false,"i_long":106.74273,"time":3,"line":6},{"i_long":106.780334,"line":6,"transit":false,"i_lat":-6.237242,"is_transit":false,"station_name":"Kebayoran","distance":6218,"time":8,"station_id":"KBY"},{"distance":3737,"station_id":"PLM","time":7,"i_lat":-6.207404,"is_transit":false,"i_long":106.79689,"line":6,"station_name":"Palmerah","transit":false},{"station_name":"Tanah Abang","station_id":"THB","distance":3191,"time":6,"i_lat":-6.185545,"is_transit":true,"transit":true,"line":1,"i_long":106.811091},{"distance":3632,"i_long":106.800832,"transit":false,"station_name":"Duri","time":8,"station_id":"DU","line":1,"i_lat":-6.155215,"is_transit":false},{"i_lat":-6.144674,"transit":false,"station_id":"AK","line":1,"is_transit":false,"station_name":"Angke","i_long":106.79867,"time":4,"distance":1230},{"station_name":"Kampung Bandan","station_id":"KPB","line":4,"is_transit":true,"distance":4102,"transit":true,"i_lat":-6.132549,"i_long":106.826365,"time":9},{"distance":1364,"time":3,"i_lat":-6.137569,"line":2,"transit":true,"station_id":"JAKK","is_transit":true,"i_long":106.812439,"station_name":"Jakarta Kota"},{"is_transit":false,"transit":false,"distance":1264,"i_long":106.820901,"line":2,"station_id":"JAY","time":4,"station_name":"Jayakarta","i_lat":-6.141205},{"i_lat":-6.149769,"is_transit":false,"time":2,"station_id":"MGB","distance":1080,"transit":false,"i_long":106.82482,"line":2,"station_name":"Manggabesar"},{"station_id":"SW","station_name":"Sawah Besar","time":2,"transit":false,"distance":906,"line":2,"i_lat":-6.160725,"is_transit":false,"i_long":106.827103},{"transit":false,"distance":1149,"is_transit":false,"station_name":"Juanda","station_id":"JUA","time":2,"line":2,"i_lat":-6.166716,"i_long":106.828284},{"line":2,"station_name":"Gondangdia","station_id":"GDD","transit":false,"i_lat":-6.186295,"is_transit":false,"time":4,"i_long":106.832183,"distance":2015},{"i_lat":-6.198556,"transit":false,"station_id":"CKI","distance":1750,"station_name":"Cikini","is_transit":false,"i_long":106.840169,"line":2,"time":3},{"station_id":"MRI","station_name":"Manggarai","line":2,"time":4,"distance":1590,"transit":false,"i_lat":-6.209883,"i_long":106.84912,"is_transit":false},{"i_long":106.857948,"line":2,"time":4,"distance":2610,"i_lat":-6.226659,"is_transit":false,"station_id":"TEB","transit":false,"station_name":"Tebet"},{"is_transit":false,"distance":1230,"station_id":"CW","i_lat":-6.242512,"transit":false,"i_long":106.856607,"line":2,"station_name":"Cawang","time":2},{"i_long":106.85449,"station_id":"DRN","line":2,"time":3,"i_lat":-6.255332,"station_name":"Duren Kalibata","transit":false,"is_transit":false,"distance":1546},{"i_long":106.851577,"is_transit":false,"distance":824,"time":2,"i_lat":-6.263214,"station_id":"PSMB","station_name":"Pasar Minggu Baru","line":2,"transit":false},{"line":2,"station_name":"Pasar Minggu","station_id":"PSM","time":2,"i_lat":-6.2842400000000005,"is_transit":false,"i_long":106.843999,"distance":2380,"transit":false},{"i_lat":-6.3080680000000005,"is_transit":false,"line":2,"station_id":"TNT","distance":2820,"transit":false,"i_long":106.838896,"station_name":"Tanjung Barat","time":4},{"i_long":106.832616,"station_name":"Lenteng Agung","transit":false,"station_id":"LNA","time":3,"distance":2671,"is_transit":false,"i_lat":-6.330363,"line":2},{"station_id":"UP","time":2,"is_transit":false,"transit":false,"i_lat":-6.339291,"i_long":106.834175,"line":2,"station_name":"Univ. Pancasila","distance":1029}],[{"is_transit":false,"station_name":"Serpong","time":0,"transit":false,"distance":0,"i_lat":-6.319871,"i_long":106.66566,"station_id":"SRP","line":6},{"transit":false,"i_lat":-6.314823,"line":6,"station_id":"RU","is_transit":false,"distance":2413,"i_long":106.675475,"time":4,"station_name":"Rawa Buntu"},{"time":6,"is_transit":false,"station_id":"SDM","transit":false,"line":6,"distance":4566,"i_long":106.712277,"station_name":"Sudimara","i_lat":-6.296963},{"station_name":"Jurangmangu","transit":false,"i_lat":-6.288927,"line":6,"time":4,"station_id":"JMU","is_transit":false,"distance":1994,"i_long":106.728916},{"is_transit":false,"station_id":"PDJ","distance":2179,"station_name":"Pondokranji","time":3,"line":6,"i_long":106.74273,"transit":false,"i_lat":-6.276362},{"time":8,"station_name":"Kebayoran","i_long":106.780334,"i_lat":-6.237242,"distance":6218,"line":6,"transit":false,"station_id":"KBY","is_transit":false},{"station_id":"PLM","time":7,"transit":false,"distance":3737,"i_lat":-6.207404,"station_name":"Palmerah","is_transit":false,"i_long":106.79689,"line":6},{"is_transit":true,"time":6,"i_lat":-6.185545,"station_name":"Tanah Abang","i_long":106.811091,"line":1,"distance":3191,"transit":true,"station_id":"THB"},{"time":8,"i_lat":-6.155215,"station_name":"Duri","distance":3632,"station_id":"DU","i_long":106.800832,"line":1,"is_transit":false,"transit":false},{"transit":false,"station_name":"Angke","station_id":"AK","line":1,"i_long":106.79867,"is_transit":false,"distance":1230,"i_lat":-6.144674,"time":4},{"time":9,"i_lat":-6.132549,"station_id":"KPB","transit":true,"i_long":106.826365,"line":4,"station_name":"Kampung Bandan","is_transit":true,"distance":4102},{"distance":1444,"i_long":106.836569,"time":3,"line":11,"transit":false,"station_id":"RJW","i_lat":-6.14505,"station_name":"Rajawali","is_transit":false},{"transit":false,"is_transit":false,"distance":1901,"i_long":106.839204,"time":5,"station_id":"KMO","line":11,"i_lat":-6.161728,"station_name":"Kemayoran"},{"i_lat":-6.174784,"is_transit":false,"distance":1436,"transit":false,"i_long":106.84368,"station_id":"PSE","line":11,"station_name":"Pasar Senen","time":4},{"distance":1567,"transit":false,"is_transit":false,"station_id":"GST","time":8,"line":11,"i_lat":-6.185975,"station_name":"Gang Sentiong","i_long":106.850107},{"line":11,"station_id":"KMT","i_long":106.855437,"time":1,"distance":973,"station_name":"Kramat","is_transit":false,"transit":false,"i_lat":-6.193792},{"i_long":106.861737,"i_lat":-6.209188,"line":11,"station_id":"POK","distance":1829,"station_name":"Pondok Jati","is_transit":false,"transit":false,"time":2},{"line":1,"is_transit":true,"station_name":"Jatinegara","i_long":106.86807400000001,"time":9,"i_lat":-6.215091,"station_id":"JNG","transit":true,"distance":1236},{"line":1,"transit":false,"time":2,"station_id":"MTR","distance":1377,"i_long":106.858896,"station_name":"Matraman","is_transit":false,"i_lat":-6.212485},{"i_lat":-6.209883,"is_transit":true,"distance":1275,"station_id":"MRI","i_long":106.84912,"station_name":"Manggarai","transit":true,"line":2,"time":2},{"i_long":106.857948,"distance":2610,"is_transit":false,"i_lat":-6.226659,"line":2,"transit":false,"station_id":"TEB","station_name":"Tebet","time":4},{"i_long":106.856607,"station_id":"CW","distance":1230,"transit":false,"time":2,"is_transit":false,"station_name":"Cawang","i_lat":-6.242512,"line":2},{"i_long":106.85449,"line":2,"distance":1546,"station_id":"DRN","station_name":"Duren Kalibata","is_transit":false,"time":3,"transit":false,"i_lat":-6.255332},{"distance":824,"i_long":106.851577,"line":2,"i_lat":-6.263214,"station_id":"PSMB","transit":false,"time":2,"is_transit":false,"station_name":"Pasar Minggu Baru"},{"station_name":"Pasar Minggu","is_transit":false,"line":2,"i_lat":-6.2842400000000005,"transit":false,"distance":2380,"station_id":"PSM","time":2,"i_long":106.843999},{"i_lat":-6.3080680000000005,"i_long":106.838896,"line":2,"station_id":"TNT","transit":false,"time":4,"distance":2820,"is_transit":false,"station_name":"Tanjung Barat"},{"is_transit":false,"line":2,"distance":2671,"time":3,"station_name":"Lenteng Agung","transit":false,"i_lat":-6.330363,"i_long":106.832616,"station_id":"LNA"},{"i_long":106.834175,"transit":false,"time":2,"station_name":"Univ. Pancasila","line":2,"station_id":"UP","i_lat":-6.339291,"distance":1029,"is_transit":false}]]}