{"data":[[{"is_transit":false,"line":6,"station_id":"SRP","transit":false,"i_lat":-6.319871,"i_long":106.66566,"time":0,"station_name":"Serpong","distance":0},{"distance":2413,"is_transit":false,"transit":false,"time":4,"i_long":106.675475,"station_id":"RU","i_lat":-6.314823,"station_name":"Rawa Buntu","line":6},{"transit":false,"time":6,"line":6,"is_transit":false,"i_lat":-6.296963,"i_long":106.712277,"distance":4566,"station_name":"Sudimara","station_id":"SDM"},{"station_id":"JMU","i_long":106.728916,"station_name":"Jurangmangu","transit":false,"i_lat":-6.288927,"time":4,"line":6,"distance":1994,"is_transit":false},{"line":6,"station_name":"Pondokranji","station_id":"PDJ","time":3,"i_lat":-6.276362,"transit":false,"is_transit":false,"i_long":106.74273,"distance":2179},{"i_long":106.780334,"time":8,"i_lat":-6.237242,"transit":false,"station_name":"Kebayoran","is_transit":false,"distance":6218,"line":6,"station_id":"KBY"},{"is_transit":false,"distance":3737,"station_name":"Palmerah","transit":false,"station_id":"PLM","i_lat":-6.207404,"line":6,"i_long":106.79689,"time":7},{"station_id":"THB","distance":3191,"i_long":106.811091,"line":1,"transit":true,"time":6,"station_name":"Tanah Abang","i_lat":-6.185545,"is_transit":true},{"line":1,"i_lat":-6.20132,"transit":false,"i_long":106.816351,"is_transit":false,"station_id":"KAT","distance":2029,"station_name":"Karet","time":5},{"is_transit":false,"i_lat":-6.201433,"time":1,"line":1,"i_long":106.819881,"station_name":"Sudirman Baru","transit":false,"station_id":"SUDB","distance":471},{"i_lat":-6.202263,"station_id":"SUD","station_name":"Sudirman","is_transit":false,"i_long":106.822649,"distance":280,"transit":false,"time":1,"line":1},{"i_lat":-6.209883,"distance":3186,"is_transit":true,"transit":true,"i_long":106.84912,"station_id":"MRI","line":0,"station_name":"Manggarai","time":4},{"i_lat":-6.226659,"transit":false,"distance":2610,"line":2,"time":4,"station_name":"Tebet","is_transit":false,"i_long":106.857948,"station_id":"TEB"},{"transit":false,"time":2,"station_name":"Cawang","distance":1230,"i_lat":-6.242512,"i_long":106.856607,"station_id":"CW","line":0,"is_transit":false},{"transit":false,"time":3,"i_lat":-6.255332,"line":0,"i_long":106.85449,"station_id":"DRN","distance":1546,"station_name":"Duren Kalibata","is_transit":false},{"station_id":"PSMB","station_name":"Pasar Minggu Baru","i_long":106.851577,"i_lat":-6.263214,"is_transit":false,"distance":824,"transit":false,"time":2,"line":2},{"i_long":106.843999,"station_name":"Pasar Minggu","transit":false,"is_transit":false,"time":2,"i_lat":-6.2842400000000005,"distance":2380,"station_id":"PSM","line":2},{"station_name":"Tanjung Barat","distance":2820,"is_transit":false,"time":4,"transit":false,"i_lat":-6.3080680000000005,"line":2,"station_id":"TNT","i_long":106.838896},{"i_lat":-6.330363,"station_id":"LNA","station_name":"Lenteng Agung","time":3,"distance":2671,"is_transit":false,"transit":false,"i_long":106.832616,"line":2},{"station_name":"Univ. Pancasila","i_lat":-6.339291,"time":2,"station_id":"UP","line":2,"i_long":106.834175,"distance":1029,"is_transit":false,"transit":false},{"line":2,"time":3,"station_name":"Univ. Indonesia","transit":false,"i_lat":-6.360749,"i_long":106.831474,"station_id":"UI","is_transit":false,"distance":2264},{"time":2,"i_lat":-6.369073,"station_name":"Pondok Cina","station_id":"POC","i_long":106.831114,"is_transit":false,"line":2,"distance":1109,"transit":false},{"i_lat":-6.391065,"is_transit":false,"line":0,"i_long":106.819451,"distance":2727,"station_name":"Depokbaru","station_id":"DPB","transit":false,"time":4},{"i_lat":-6.405256,"station_name":"Depok","time":3,"transit":false,"i_long":106.816926,"is_transit":false,"distance":1584,"station_id":"DP","line":0},{"i_long":106.800298,"station_id":"CTA","distance":5084,"transit":false,"time":6,"i_lat":-6.448811,"is_transit":true,"line":1,"station_name":"Citayam"},{"i_long":106.792719,"transit":false,"line":0,"station_name":"Bojonggede","station_id":"BJD","i_lat":-6.493243,"is_transit":false,"distance":5197,"time":5},{"transit":false,"i_long":106.800016,"time":5,"station_id":"CLT","distance":4331,"i_lat":-6.530544,"is_transit":false,"station_name":"Cilebut","line":0},{"transit":false,"is_transit":true,"station_id":"BOO","time":9,"i_long":106.790574,"i_lat":-6.594596,"line":1,"distance":7514,"station_name":"Bogor"}],[{"i_long":106.66566,"line":6,"station_id":"SRP","transit":false,"distance":0,"time":0,"i_lat":-6.319871,"is_transit":false,"station_name":"Serpong"},{"is_transit":false,"i_lat":-6.314823,"line":6,"distance":2413,"station_id":"RU","station_name":"Rawa Buntu","time":4,"transit":false,"i_long":106.675475},{"is_transit":false,"time":6,"station_id":"SDM","station_name":"Sudimara","distance":4566,"i_lat":-6.296963,"i_long":106.712277,"transit":false,"line":6},{"station_name":"Jurangmangu","transit":false,"time":4,"i_long":106.728916,"distance":1994,"station_id":"JMU","i_lat":-6.288927,"is_transit":false,"line":6},{"distance":2179,"transit":false,"station_id":"PDJ","station_name":"Pondokranji","line":6,"i_lat":-6.276362,"is_transit":false,"time":3,"i_long":106.74273},{"time":8,"station_name":"Kebayoran","station_id":"KBY","i_lat":-6.237242,"i_long":106.780334,"line":6,"distance":6218,"is_transit":false,"transit":false},{"i_long":106.79689,"station_name":"Palmerah","time":7,"is_transit":false,"transit":false,"line":6,"distance":3737,"station_id":"PLM","i_lat":-6.207404},{"time":6,"station_id":"THB","is_transit":true,"i_lat":-6.185545,"i_long":106.811091,"line":1,"transit":true,"station_name":"Tanah Abang","distance":3191},{"is_transit":true,"station_name":"Duri","distance":3632,"line":1,"station_id":"DU","i_lat":-6.155215,"time":8,"transit":true,"i_long":106.800832},{"i_lat":-6.144674,"station_name":"Angke","time":4,"is_transit":false,"i_long":106.79867,"line":0,"transit":false,"station_id":"AK","distance":1230},{"transit":false,"is_transit":true,"station_name":"Kampung Bandan","station_id":"KPB","time":9,"i_lat":-6.132549,"i_long":106.826365,"line":0,"distance":4102},{"is_transit":true,"i_long":106.812439,"i_lat":-6.137569,"line":0,"time":3,"station_id":"JAKK","distance":1364,"transit":true,"station_name":"Jakarta Kota"},{"distance":1264,"time":4,"station_id":"JAY","is_transit":false,"station_name":"Jayakarta","i_lat":-6.141205,"i_long":106.820901,"line":7,"transit":false},{"distance":1080,"i_lat":-6.149769,"transit":false,"time":2,"line":2,"station_name":"Manggabesar","i_long":106.82482,"station_id":"MGB","is_transit":false},{"i_lat":-6.160725,"distance":906,"i_long":106.827103,"line":2,"is_transit":false,"station_id":"SW","station_name":"Sawah Besar","transit":false,"time":2},{"time":2,"i_lat":-6.166716,"distance":1149,"line":2,"is_transit":false,"station_name":"Juanda","station_id":"JUA","transit":false,"i_long":106.828284},{"station_id":"GDD","i_lat":-6.186295,"line":2,"transit":false,"time":4,"i_long":106.832183,"station_name":"Gondangdia","distance":2015,"is_transit":false},{"transit":false,"is_transit":false,"station_name":"Cikini","i_lat":-6.198556,"i_long":106.840169,"distance":1750,"line":0,"time":3,"station_id":"CKI"},{"transit":true,"distance":1590,"i_long":106.84912,"is_transit":true,"station_name":"Manggarai","i_lat":-6.209883,"time":4,"line":0,"station_id":"MRI"},{"line":2,"station_id":"TEB","station_name":"Tebet","time":4,"transit":false,"i_long":106.857948,"i_lat":-6.226659,"is_transit":false,"distance":2610},{"time":2,"i_long":106.856607,"distance":1230,"is_transit":false,"station_id":"CW","transit":false,"station_name":"Cawang","i_lat":-6.242512,"line":0},{"line":0,"i_long":106.85449,"time":3,"is_transit":false,"i_lat":-6.255332,"station_name":"Duren Kalibata","transit":false,"distance":1546,"station_id":"DRN"},{"station_name":"Pasar Minggu Baru","line":2,"is_transit":false,"transit":false,"distance":824,"station_id":"PSMB","time":2,"i_lat":-6.263214,"i_long":106.851577},{"i_long":106.843999,"station_name":"Pasar Minggu","is_transit":false,"i_lat":-6.2842400000000005,"line":2,"distance":2380,"station_id":"PSM","transit":false,"time":2},{"i_lat":-6.3080680000000005,"time":4,"line":2,"i_long":106.838896,"transit":false,"station_name":"Tanjung Barat","is_transit":false,"distance":2820,"station_id":"TNT"},{"station_name":"Lenteng Agung","i_lat":-6.330363,"line":2,"distance":2671,"transit":false,"station_id":"LNA","i_long":106.832616,"is_transit":false,"time":3},{"time":2,"i_long":106.834175,"i_lat":-6.339291,"line":2,"station_id":"UP","distance":1029,"station_name":"Univ. Pancasila","transit":false,"is_transit":false},{"distance":2264,"transit":false,"i_lat":-6.360749,"i_long":106.831474,"station_id":"UI","station_name":"Univ. Indonesia","time":3,"line":2,"is_transit":false},{"station_id":"POC","time":2,"transit":false,"i_lat":-6.369073,"station_name":"Pondok Cina","i_long":106.831114,"line":2,"is_transit":false,"distance":1109},{"station_id":"DPB","transit":false,"distance":2727,"i_long":106.819451,"station_name":"Depokbaru","line":0,"i_lat":-6.391065,"is_transit":false,"time":4},{"i_lat":-6.405256,"distance":1584,"station_name":"Depok","transit":false,"line":0,"station_id":"DP","time":3,"i_long":106.816926,"is_transit":false},{"i_lat":-6.448811,"time":6,"transit":false,"i_long":106.800298,"station_name":"Citayam","is_transit":true,"line":1,"distance":5084,"station_id":"CTA"},{"i_long":106.792719,"is_transit":false,"distance":5197,"time":5,"station_name":"Bojonggede","i_lat":-6.493243,"line":0,"transit":false,"station_id":"BJD"},{"i_long":106.800016,"i_lat":-6.530544,"distance":4331,"line":0,"is_transit":false,"station_name":"Cilebut","transit":false,"station_id":"CLT","time":5},{"distance":7514,"is_transit":true,"station_name":"Bogor","transit":false,"line":1,"time":9,"station_id":"BOO","i_long":106.790574,"i_lat":-6.594596}],[{"line":6,"transit":false,"time":0,"i_long":106.66566,"is_transit":false,"i_lat":-6.319871,"distance":0,"station_name":"Serpong","station_id":"SRP"},{"i_long":106.675475,"line":6,"transit":false,"is_transit":false,"i_lat":-6.314823,"station_name":"Rawa Buntu","station_id":"RU","distance":2413,"time":4},{"station_id":"SDM","distance":4566,"i_lat":-6.296963,"is_transit":false,"time":6,"transit":false,"station_name":"Sudimara","line":6,"i_long":106.712277},{"line":6,"distance":1994,"is_transit":false,"station_id":"JMU","station_name":"Jurangmangu","transit":false,"time":4,"i_lat":-6.288927,"i_long":106.728916},{"is_transit":false,"i_long":106.74273,"station_name":"Pondokranji","station_id":"PDJ","line":6,"transit":false,"i_lat":-6.276362,"time":3,"distance":2179},{"line":6,"distance":6218,"i_lat":-6.237242,"station_id":"KBY","time":8,"transit":false,"i_long":106.780334,"station_name":"Kebayoran","is_transit":false},{"is_transit":false,"station_id":"PLM","distance":3737,"line":6,"station_name":"Palmerah","i_long":106.79689,"i_lat":-6.207404,"transit":false,"time":7},{"is_transit":true,"line":1,"transit":true,"time":6,"i_long":106.811091,"i_lat":-6.185545,"station_id":"THB","station_name":"Tanah Abang","distance":3191},{"station_name":"Duri","time":8,"line":1,"i_long":106.800832,"distance":3632,"station_id":"DU","is_transit":true,"transit":true,"i_lat":-6.155215},{"station_id":"AK","station_name":"Angke","line":0,"is_transit":false,"distance":1230,"transit":false,"i_lat":-6.144674,"i_long":106.79867,"time":4},{"line":0,"time":9,"is_transit":true,"transit":true,"distance":4102,"station_id":"KPB","i_long":106.826365,"station_name":"Kampung Bandan","i_lat":-6.132549},{"is_transit":false,"station_id":"RJW","station_name":"Rajawali","time":3,"distance":1444,"i_lat":-6.14505,"i_long":106.836569,"line":11,"transit":false},{"line":11,"distance":1901,"i_lat":-6.161728,"station_name":"Kemayoran","i_long":106.839204,"transit":false,"station_id":"KMO","is_transit":false,"time":5},{"i_lat":-6.174784,"i_long":106.84368,"station_id":"PSE","transit":false,"distance":1436,"line":11,"station_name":"Pasar Senen","is_transit":false,"time":4},{"station_name":"Gang Sentiong","line":11,"station_id":"GST","transit":false,"time":8,"i_lat":-6.185975,"is_transit":false,"i_long":106.850107,"distance":1567},{"i_lat":-6.193792,"i_long":106.855437,"station_id":"KMT","time":1,"distance":973,"is_transit":false,"station_name":"Kramat","transit":false,"line":11},{"station_id":"POK","station_name":"Pondok Jati","time":2,"i_lat":-6.209188,"line":11,"i_long":106.861737,"transit":false,"distance":1829,"is_transit":false},{"transit":true,"time":9,"station_id":"JNG","distance":1236,"i_long":106.86807400000001,"is_transit":true,"i_lat":-6.215091,"station_name":"Jatinegara","line":0},{"station_id":"MTR","i_long":106.858896,"time":2,"transit":false,"line":1,"distance":1377,"station_name":"Matraman","i_lat":-6.212485,"is_transit":false},{"distance":1275,"time":2,"station_id":"MRI","station_name":"Manggarai","line":0,"transit":true,"i_lat":-6.209883,"i_long":106.84912,"is_transit":true},{"i_long":106.857948,"station_name":"Tebet","transit":false,"time":4,"i_lat":-6.226659,"distance":2610,"line":2,"station_id":"TEB","is_transit":false},{"line":0,"i_lat":-6.242512,"i_long":106.856607,"transit":false,"distance":1230,"is_transit":false,"time":2,"station_name":"Cawang","station_id":"CW"},{"is_transit":false,"i_long":106.85449,"line":0,"i_lat":-6.255332,"station_name":"Duren Kalibata","transit":false,"distance":1546,"time":3,"station_id":"DRN"},{"i_lat":-6.263214,"is_transit":false,"transit":false,"time":2,"line":2,"station_id":"PSMB","station_name":"Pasar Minggu Baru","distance":824,"i_long":106.851577},{"i_lat":-6.2842400000000005,"time":2,"transit":false,"i_long":106.843999,"is_transit":false,"distance":2380,"station_id":"PSM","station_name":"Pasar Minggu","line":2},{"station_name":"Tanjung Barat","i_long":106.838896,"time":4,"transit":false,"line":2,"is_transit":false,"station_id":"TNT","distance":2820,"i_lat":-6.3080680000000005},{"time":3,"is_transit":false,"station_id":"LNA","i_long":106.832616,"i_lat":-6.330363,"transit":false,"station_name":"Lenteng Agung","line":2,"distance":2671},{"station_name":"Univ. Pancasila","transit":false,"distance":1029,"station_id":"UP","i_lat":-6.339291,"is_transit":false,"i_long":106.834175,"time":2,"line":2},{"station_id":"UI","distance":2264,"i_lat":-6.360749,"station_name":"Univ. Indonesia","transit":false,"line":2,"time":3,"i_long":106.831474,"is_transit":false},{"i_lat":-6.369073,"station_name":"Pondok Cina","line":2,"transit":false,"distance":1109,"is_transit":false,"i_long":106.831114,"time":2,"station_id":"POC"},{"distance":2727,"station_id":"DPB","i_long":106.819451,"time":4,"station_name":"Depokbaru","transit":false,"i_lat":-6.391065,"is_transit":false,"line":0},{"line":0,"transit":false,"i_lat":-6.405256,"station_name":"Depok","time":3,"is_transit":false,"i_long":106.816926,"distance":1584,"station_id":"DP"},{"distance":5084,"is_transit":true,"time":6,"station_name":"Citayam","station_id":"CTA","transit":false,"i_long":106.800298,"i_lat":-6.448811,"line":1},{"station_name":"Bojonggede","i_lat":-6.493243,"time":5,"i_long":106.792719,"line":0,"distance":5197,"transit":false,"is_transit":false,"station_id":"BJD"},{"distance":4331,"station_id":"CLT","station_name":"Cilebut","transit":false,"line":0,"is_transit":false,"i_long":106.800016,"time":5,"i_lat":-6.530544},{"time":9,"distance":7514,"station_id":"BOO","i_long":106.790574,"line":1,"i_lat":-6.594596,"is_transit":true,"station_name":"Bogor","transit":false}]]}