{"data":[[{"distance":0,"is_transit":false,"transit":false,"station_id":"SRP","i_lat":-6.319871,"i_long":106.66566,"station_name":"Serpong","line":6,"time":0},{"is_transit":false,"i_long":106.675475,"line":6,"station_name":"Rawa Buntu","time":4,"distance":2413,"transit":false,"station_id":"RU","i_lat":-6.314823},{"is_transit":false,"i_long":106.712277,"station_id":"SDM","time":6,"transit":false,"i_lat":-6.296963,"line":6,"distance":4566,"station_name":"Sudimara"},{"station_id":"JMU","is_transit":false,"time":4,"line":6,"station_name":"Jurangmangu","i_lat":-6.288927,"transit":false,"distance":1994,"i_long":106.728916},{"distance":2179,"station_id":"PDJ","time":3,"is_transit":false,"station_name":"Pondokranji","i_lat":-6.276362,"line":6,"transit":false,"i_long":106.74273},{"time":8,"line":6,"station_id":"KBY","is_transit":false,"station_name":"Kebayoran","i_long":106.780334,"transit":false,"i_lat":-6.237242,"distance":6218},{"distance":3737,"transit":false,"line":6,"is_transit":false,"i_lat":-6.207404,"station_id":"PLM","i_long":106.79689,"station_name":"Palmerah","time":7},{"distance":3191,"i_long":106.811091,"time":6,"i_lat":-6.185545,"station_id":"THB","station_name":"Tanah Abang","transit":true,"line":1,"is_transit":true},{"transit":false,"distance":2029,"time":5,"is_transit":false,"station_name":"Karet","i_long":106.816351,"i_lat":-6.20132,"line":1,"station_id":"KAT"},{"line":1,"station_id":"SUDB","is_transit":false,"distance":471,"station_name":"Sudirman Baru","transit":false,"i_lat":-6.201433,"i_long":106.819881,"time":1},{"distance":280,"i_long":106.822649,"transit":false,"station_name":"Sudirman","station_id":"SUD","time":1,"i_lat":-6.202263,"is_transit":false,"line":1},{"station_id":"MRI","is_transit":true,"station_name":"Manggarai","line":2,"i_long":106.84912,"distance":3186,"time":4,"i_lat":-6.209883,"transit":true},{"station_id":"TEB","is_transit":false,"transit":false,"i_long":106.857948,"station_name":"Tebet","distance":2610,"time":4,"i_lat":-6.226659,"line":2}],[{"i_lat":-6.319871,"line":6,"is_transit":false,"time":0,"station_id":"SRP","transit":false,"i_long":106.66566,"station_name":"Serpong","distance":0},{"is_transit":false,"time":4,"transit":false,"i_lat":-6.314823,"i_long":106.675475,"distance":2413,"station_name":"Rawa Buntu","line":6,"station_id":"RU"},{"i_lat":-6.296963,"station_name":"Sudimara","transit":false,"time":6,"i_long":106.712277,"distance":4566,"line":6,"is_transit":false,"station_id":"SDM"},{"line":6,"time":4,"i_long":106.728916,"station_name":"Jurangmangu","i_lat":-6.288927,"is_transit":false,"transit":false,"station_id":"JMU","distance":1994},{"is_transit":false,"transit":false,"station_id":"PDJ","station_name":"Pondokranji","time":3,"distance":2179,"i_lat":-6.276362,"i_long":106.74273,"line":6},{"transit":false,"station_id":"KBY","time":8,"is_transit":false,"distance":6218,"i_lat":-6.237242,"line":6,"station_name":"Kebayoran","i_long":106.780334},{"i_long":106.79689,"time":7,"station_name":"Palmerah","i_lat":-6.207404,"transit":false,"station_id":"PLM","line":6,"is_transit":false,"distance":3737},{"transit":true,"station_id":"THB","time":6,"distance":3191,"i_lat":-6.185545,"line":1,"station_name":"Tanah Abang","i_long":106.811091,"is_transit":true},{"distance":3632,"station_name":"Duri","station_id":"DU","i_lat":-6.155215,"i_long":106.800832,"transit":false,"line":1,"is_transit":false,"time":8},{"is_transit":false,"station_id":"AK","i_long":106.79867,"transit":false,"distance":1230,"line":1,"station_name":"Angke","time":4,"i_lat":-6.144674},{"i_lat":-6.132549,"transit":true,"station_name":"Kampung Bandan","line":4,"station_id":"KPB","is_transit":true,"time":9,"distance":4102,"i_long":106.826365},{"station_id":"JAKK","transit":true,"station_name":"Jakarta Kota","line":2,"is_transit":true,"time":3,"distance":1364,"i_long":106.812439,"i_lat":-6.137569},{"is_transit":false,"station_name":"Jayakarta","station_id":"JAY","i_lat":-6.141205,"i_long":106.820901,"distance":1264,"line":2,"time":4,"transit":false},{"transit":false,"is_transit":false,"i_long":106.82482,"time":2,"distance":1080,"line":2,"station_name":"Manggabesar","station_id":"MGB","i_lat":-6.149769},{"transit":false,"i_lat":-6.160725,"distance":906,"line":2,"station_id":"SW","i_long":106.827103,"time":2,"is_transit":false,"station_name":"Sawah Besar"},{"i_long":106.828284,"distance":1149,"transit":false,"station_id":"JUA","is_transit":false,"station_name":"Juanda","i_lat":-6.166716,"line":2,"time":2},{"transit":false,"station_id":"GDD","is_transit":false,"distance":2015,"i_long":106.832183,"i_lat":-6.186295,"time":4,"station_name":"Gondangdia","line":2},{"time":3,"station_id":"CKI","i_lat":-6.198556,"station_name":"Cikini","is_transit":false,"transit":false,"i_long":106.840169,"distance":1750,"line":2},{"station_id":"MRI","time":4,"distance":1590,"i_lat":-6.209883,"is_transit":false,"line":2,"i_long":106.84912,"transit":false,"station_name":"Manggarai"},{"i_lat":-6.226659,"station_name":"Tebet","station_id":"TEB","line":2,"is_transit":false,"i_long":106.857948,"distance":2610,"transit":false,"time":4}],[{"i_lat":-6.319871,"is_transit":false,"i_long":106.66566,"transit":false,"time":0,"distance":0,"station_id":"SRP","line":6,"station_name":"Serpong"},{"transit":false,"distance":2413,"i_long":106.675475,"i_lat":-6.314823,"line":6,"station_name":"Rawa Buntu","station_id":"RU","time":4,"is_transit":false},{"i_long":106.712277,"station_id":"SDM","transit":false,"distance":4566,"i_lat":-6.296963,"is_transit":false,"station_name":"Sudimara","line":6,"time":6},{"station_name":"Jurangmangu","is_transit":false,"line":6,"i_long":106.728916,"station_id":"JMU","time":4,"distance":1994,"i_lat":-6.288927,"transit":false},{"station_name":"Pondokranji","station_id":"PDJ","is_transit":false,"time":3,"distance":2179,"i_lat":-6.276362,"transit":false,"i_long":106.74273,"line":6},{"transit":false,"station_name":"Kebayoran","line":6,"is_transit":false,"time":8,"distance":6218,"i_lat":-6.237242,"station_id":"KBY","i_long":106.780334},{"station_id":"PLM","i_lat":-6.207404,"line":6,"i_long":106.79689,"station_name":"Palmerah","is_transit":false,"time":7,"distance":3737,"transit":false},{"station_id":"THB","time":6,"i_long":106.811091,"line":1,"transit":true,"is_transit":true,"distance":3191,"i_lat":-6.185545,"station_name":"Tanah Abang"},{"i_lat":-6.155215,"transit":false,"station_name":"Duri","station_id":"DU","distance":3632,"line":1,"time":8,"is_transit":false,"i_long":106.800832},{"time":4,"distance":1230,"line":1,"station_name":"Angke","i_lat":-6.144674,"transit":false,"station_id":"AK","is_transit":false,"i_long":106.79867},{"transit":true,"i_lat":-6.132549,"i_long":106.826365,"time":9,"line":4,"station_name":"Kampung Bandan","distance":4102,"is_transit":true,"station_id":"KPB"},{"is_transit":false,"i_lat":-6.14505,"line":11,"station_id":"RJW","time":3,"i_long":106.836569,"distance":1444,"transit":false,"station_name":"Rajawali"},{"i_lat":-6.161728,"transit":false,"is_transit":false,"station_id":"KMO","distance":1901,"line":11,"i_long":106.839204,"station_name":"Kemayoran","time":5},{"transit":false,"distance":1436,"i_lat":-6.174784,"is_transit":false,"station_name":"Pasar Senen","time":4,"station_id":"PSE","i_long":106.84368,"line":11},{"i_lat":-6.185975,"i_long":106.850107,"line":11,"station_name":"Gang Sentiong","is_transit":false,"transit":false,"station_id":"GST","time":8,"distance":1567},{"station_id":"KMT","distance":973,"i_lat":-6.193792,"is_transit":false,"time":1,"line":11,"station_name":"Kramat","i_long":106.855437,"transit":false},{"transit":false,"station_name":"Pondok Jati","distance":1829,"line":11,"i_long":106.861737,"time":2,"is_transit":false,"i_lat":-6.209188,"station_id":"POK"},{"line":1,"is_transit":true,"transit":true,"distance":1236,"time":9,"i_long":106.86807400000001,"i_lat":-6.215091,"station_id":"JNG","station_name":"Jatinegara"},{"transit":false,"station_id":"MTR","station_name":"Matraman","is_transit":false,"time":2,"distance":1377,"i_lat":-6.212485,"i_long":106.858896,"line":1},{"distance":1275,"i_lat":-6.209883,"i_long":106.84912,"line":2,"station_name":"Manggarai","transit":true,"is_transit":true,"station_id":"MRI","time":2},{"is_transit":false,"station_id":"TEB","station_name":"Tebet","distance":2610,"transit":false,"i_long":106.857948,"i_lat":-6.226659,"line":2,"time":4}]]}