{"data":[[{"distance":0,"transit":false,"line":6,"station_name":"Serpong","is_transit":false,"time":0,"i_lat":-6.319871,"i_long":106.66566,"station_id":"SRP"},{"is_transit":false,"time":4,"i_long":106.640411,"i_lat":-6.32484,"station_id":"CSK","distance":1784,"station_name":"Cisauk","line":3,"transit":false},{"i_lat":-6.329547,"station_name":"Cicayur","is_transit":false,"station_id":"CC","distance":2519,"line":3,"transit":false,"i_long":106.617853,"time":4},{"i_lat":-6.3441410000000005,"is_transit":false,"i_long":106.568863,"transit":false,"distance":5968,"station_name":"Parung Panjang","station_id":"PRP","time":8,"line":6},{"distance":7025,"i_lat":-6.354349,"time":9,"station_name":"Cilejit","i_long":106.508482,"line":3,"station_id":"CJT","transit":false,"is_transit":false},{"is_transit":false,"transit":false,"station_id":"DAR","time":6,"distance":2675,"i_long":106.491338,"i_lat":-6.338021,"station_name":"Daru","line":0},{"station_id":"TEJ","distance":3902,"i_lat":-6.327251,"line":6,"transit":false,"is_transit":false,"station_name":"Tenjo","time":5,"i_long":106.460812},{"i_lat":-6.328533,"transit":false,"distance":2974,"station_id":"TGS","line":6,"is_transit":false,"time":5,"i_long":106.425991,"station_name":"Tigaraksa"},{"line":3,"station_name":"Cikoya","i_lat":-6.33561,"time":3,"station_id":"CKY","distance":2651,"transit":false,"is_transit":false,"i_long":106.411216},{"time":4,"distance":1853,"station_name":"Maja","line":6,"is_transit":false,"i_long":106.394373,"transit":false,"i_lat":-6.332307,"station_id":"MJ"},{"line":3,"station_id":"CTR","is_transit":false,"i_long":106.332092,"time":10,"transit":false,"distance":7293,"station_name":"Citeras","i_lat":-6.334892},{"transit":false,"time":13,"station_name":"Rangkasbitung","distance":9847,"i_lat":-6.352675,"i_long":106.250396,"is_transit":false,"line":3,"station_id":"RK"}]]}