{"data":[[{"distance":0,"i_long":106.66566,"station_name":"Serpong","is_transit":false,"station_id":"SRP","time":0,"transit":false,"i_lat":-6.319871,"line":6},{"is_transit":false,"i_long":106.675475,"time":4,"transit":false,"distance":2413,"i_lat":-6.314823,"station_id":"RU","line":6,"station_name":"Rawa Buntu"},{"station_name":"Sudimara","i_long":106.712277,"is_transit":false,"time":6,"distance":4566,"transit":false,"station_id":"SDM","i_lat":-6.296963,"line":6},{"is_transit":false,"station_name":"Jurangmangu","distance":1994,"line":6,"transit":false,"station_id":"JMU","i_lat":-6.288927,"time":4,"i_long":106.728916},{"is_transit":false,"distance":2179,"station_id":"PDJ","station_name":"Pondokranji","i_long":106.74273,"i_lat":-6.276362,"time":3,"transit":false,"line":6},{"transit":false,"time":8,"i_lat":-6.237242,"i_long":106.780334,"distance":6218,"station_name":"Kebayoran","line":6,"station_id":"KBY","is_transit":false},{"i_long":106.79689,"i_lat":-6.207404,"distance":3737,"time":7,"transit":false,"station_id":"PLM","station_name":"Palmerah","line":6,"is_transit":false},{"station_id":"THB","station_name":"Tanah Abang","i_lat":-6.185545,"transit":true,"line":1,"distance":3191,"i_long":106.811091,"time":6,"is_transit":true},{"distance":2029,"time":5,"station_id":"KAT","transit":false,"i_lat":-6.20132,"station_name":"Karet","i_long":106.816351,"line":1,"is_transit":false},{"time":1,"is_transit":false,"station_name":"Sudirman Baru","line":1,"distance":471,"i_lat":-6.201433,"i_long":106.819881,"transit":false,"station_id":"SUDB"}],[{"is_transit":false,"line":6,"i_long":106.66566,"station_name":"Serpong","distance":0,"time":0,"i_lat":-6.319871,"transit":false,"station_id":"SRP"},{"station_id":"RU","distance":2413,"time":4,"is_transit":false,"transit":false,"i_lat":-6.314823,"station_name":"Rawa Buntu","i_long":106.675475,"line":6},{"line":6,"time":6,"transit":false,"distance":4566,"is_transit":false,"station_id":"SDM","station_name":"Sudimara","i_long":106.712277,"i_lat":-6.296963},{"transit":false,"station_id":"JMU","station_name":"Jurangmangu","i_lat":-6.288927,"line":6,"distance":1994,"time":4,"i_long":106.728916,"is_transit":false},{"i_long":106.74273,"time":3,"line":6,"station_name":"Pondokranji","transit":false,"i_lat":-6.276362,"is_transit":false,"distance":2179,"station_id":"PDJ"},{"line":6,"time":8,"station_name":"Kebayoran","is_transit":false,"i_lat":-6.237242,"transit":false,"distance":6218,"i_long":106.780334,"station_id":"KBY"},{"i_long":106.79689,"station_id":"PLM","station_name":"Palmerah","is_transit":false,"transit":false,"distance":3737,"line":6,"time":7,"i_lat":-6.207404},{"distance":3191,"line":1,"time":6,"station_id":"THB","is_transit":true,"i_lat":-6.185545,"transit":true,"station_name":"Tanah Abang","i_long":106.811091},{"station_id":"DU","i_lat":-6.155215,"is_transit":false,"station_name":"Duri","distance":3632,"i_long":106.800832,"time":8,"transit":false,"line":1},{"is_transit":false,"transit":false,"station_name":"Angke","i_long":106.79867,"distance":1230,"station_id":"AK","time":4,"i_lat":-6.144674,"line":1},{"time":9,"is_transit":true,"i_lat":-6.132549,"station_name":"Kampung Bandan","line":4,"i_long":106.826365,"distance":4102,"station_id":"KPB","transit":true},{"time":3,"i_long":106.812439,"i_lat":-6.137569,"distance":1364,"station_id":"JAKK","transit":true,"station_name":"Jakarta Kota","line":2,"is_transit":true},{"i_long":106.820901,"time":4,"distance":1264,"transit":false,"station_id":"JAY","is_transit":false,"i_lat":-6.141205,"line":2,"station_name":"Jayakarta"},{"i_lat":-6.149769,"line":2,"distance":1080,"station_name":"Manggabesar","station_id":"MGB","transit":false,"i_long":106.82482,"is_transit":false,"time":2},{"line":2,"distance":906,"station_id":"SW","i_long":106.827103,"transit":false,"i_lat":-6.160725,"is_transit":false,"time":2,"station_name":"Sawah Besar"},{"transit":false,"station_name":"Juanda","is_transit":false,"distance":1149,"time":2,"i_lat":-6.166716,"i_long":106.828284,"station_id":"JUA","line":2},{"i_long":106.832183,"transit":false,"line":2,"station_name":"Gondangdia","station_id":"GDD","i_lat":-6.186295,"time":4,"is_transit":false,"distance":2015},{"distance":1750,"i_lat":-6.198556,"station_id":"CKI","i_long":106.840169,"line":2,"time":3,"transit":false,"is_transit":false,"station_name":"Cikini"},{"distance":1590,"transit":true,"is_transit":true,"station_id":"MRI","i_lat":-6.209883,"i_long":106.84912,"station_name":"Manggarai","time":4,"line":2},{"time":4,"is_transit":false,"station_id":"SUD","distance":3186,"station_name":"Sudirman","i_lat":-6.202263,"i_long":106.822649,"line":1,"transit":false},{"is_transit":false,"station_id":"SUDB","transit":false,"station_name":"Sudirman Baru","line":1,"time":1,"distance":280,"i_lat":-6.201433,"i_long":106.819881}],[{"is_transit":false,"time":0,"i_long":106.66566,"station_name":"Serpong","station_id":"SRP","transit":false,"distance":0,"i_lat":-6.319871,"line":6},{"station_name":"Rawa Buntu","i_lat":-6.314823,"transit":false,"is_transit":false,"i_long":106.675475,"station_id":"RU","distance":2413,"line":6,"time":4},{"station_id":"SDM","i_lat":-6.296963,"line":6,"i_long":106.712277,"distance":4566,"transit":false,"is_transit":false,"station_name":"Sudimara","time":6},{"station_name":"Jurangmangu","is_transit":false,"time":4,"transit":false,"i_lat":-6.288927,"i_long":106.728916,"line":6,"distance":1994,"station_id":"JMU"},{"time":3,"station_name":"Pondokranji","transit":false,"i_long":106.74273,"distance":2179,"line":6,"station_id":"PDJ","i_lat":-6.276362,"is_transit":false},{"line":6,"i_lat":-6.237242,"distance":6218,"transit":false,"i_long":106.780334,"station_id":"KBY","is_transit":false,"time":8,"station_name":"Kebayoran"},{"station_id":"PLM","distance":3737,"transit":false,"time":7,"is_transit":false,"station_name":"Palmerah","i_lat":-6.207404,"line":6,"i_long":106.79689},{"distance":3191,"station_name":"Tanah Abang","line":1,"i_lat":-6.185545,"i_long":106.811091,"transit":true,"is_transit":true,"time":6,"station_id":"THB"},{"is_transit":false,"line":1,"station_name":"Duri","transit":false,"time":8,"station_id":"DU","distance":3632,"i_long":106.800832,"i_lat":-6.155215},{"i_lat":-6.144674,"time":4,"i_long":106.79867,"distance":1230,"transit":false,"station_name":"Angke","station_id":"AK","is_transit":false,"line":1},{"station_name":"Kampung Bandan","time":9,"i_long":106.826365,"line":4,"transit":true,"station_id":"KPB","i_lat":-6.132549,"is_transit":true,"distance":4102},{"station_name":"Rajawali","i_lat":-6.14505,"i_long":106.836569,"line":11,"is_transit":false,"distance":1444,"time":3,"station_id":"RJW","transit":false},{"is_transit":false,"transit":false,"station_id":"KMO","i_long":106.839204,"i_lat":-6.161728,"distance":1901,"line":11,"time":5,"station_name":"Kemayoran"},{"transit":false,"line":11,"i_long":106.84368,"i_lat":-6.174784,"station_id":"PSE","distance":1436,"time":4,"is_transit":false,"station_name":"Pasar Senen"},{"i_lat":-6.185975,"time":8,"is_transit":false,"station_id":"GST","distance":1567,"line":11,"transit":false,"i_long":106.850107,"station_name":"Gang Sentiong"},{"transit":false,"is_transit":false,"distance":973,"time":1,"station_name":"Kramat","i_lat":-6.193792,"i_long":106.855437,"line":11,"station_id":"KMT"},{"is_transit":false,"distance":1829,"transit":false,"i_long":106.861737,"time":2,"station_id":"POK","i_lat":-6.209188,"line":11,"station_name":"Pondok Jati"},{"time":9,"station_id":"JNG","line":1,"distance":1236,"is_transit":true,"i_lat":-6.215091,"i_long":106.86807400000001,"transit":true,"station_name":"Jatinegara"},{"time":2,"line":1,"station_name":"Matraman","i_long":106.858896,"i_lat":-6.212485,"station_id":"MTR","transit":false,"is_transit":false,"distance":1377},{"time":2,"i_long":106.84912,"line":2,"is_transit":false,"station_name":"Manggarai","i_lat":-6.209883,"station_id":"MRI","distance":1275,"transit":false},{"is_transit":false,"station_name":"Sudirman","i_lat":-6.202263,"transit":false,"line":1,"station_id":"SUD","distance":3186,"time":4,"i_long":106.822649},{"station_id":"SUDB","i_lat":-6.201433,"station_name":"Sudirman Baru","i_long":106.819881,"transit":false,"time":1,"distance":280,"line":1,"is_transit":false}]]}