{"data":[[{"station_id":"SRP","i_long":106.66566,"distance":0,"i_lat":-6.319871,"line":6,"transit":false,"station_name":"Serpong","time":0,"is_transit":false},{"station_name":"Rawa Buntu","station_id":"RU","is_transit":false,"i_lat":-6.314823,"transit":false,"distance":2413,"i_long":106.675475,"line":6,"time":4},{"is_transit":false,"distance":4566,"i_long":106.712277,"station_id":"SDM","station_name":"Sudimara","line":6,"transit":false,"time":6,"i_lat":-6.296963},{"station_id":"JMU","time":4,"line":6,"i_lat":-6.288927,"is_transit":false,"i_long":106.728916,"distance":1994,"station_name":"Jurangmangu","transit":false},{"is_transit":false,"line":6,"transit":false,"time":3,"i_lat":-6.276362,"distance":2179,"station_name":"Pondokranji","i_long":106.74273,"station_id":"PDJ"},{"station_name":"Kebayoran","time":8,"station_id":"KBY","transit":false,"i_lat":-6.237242,"i_long":106.780334,"line":6,"distance":6218,"is_transit":false},{"distance":3737,"time":7,"is_transit":false,"transit":false,"i_lat":-6.207404,"station_name":"Palmerah","i_long":106.79689,"station_id":"PLM","line":6}]]}