{"data":[[{"i_long":106.66566,"station_name":"Serpong","station_id":"SRP","is_transit":false,"time":0,"i_lat":-6.319871,"line":6,"distance":0,"transit":false},{"transit":false,"distance":2413,"line":6,"station_name":"Rawa Buntu","i_lat":-6.314823,"station_id":"RU","is_transit":false,"i_long":106.675475,"time":4},{"transit":false,"time":6,"is_transit":false,"line":6,"i_lat":-6.296963,"station_name":"Sudimara","distance":4566,"station_id":"SDM","i_long":106.712277},{"transit":false,"station_id":"JMU","is_transit":false,"station_name":"Jurangmangu","time":4,"i_long":106.728916,"distance":1994,"line":6,"i_lat":-6.288927},{"line":6,"station_name":"Pondokranji","i_lat":-6.276362,"time":3,"distance":2179,"i_long":106.74273,"is_transit":false,"transit":false,"station_id":"PDJ"},{"station_name":"Kebayoran","distance":6218,"station_id":"KBY","line":6,"i_lat":-6.237242,"i_long":106.780334,"time":8,"transit":false,"is_transit":false},{"i_lat":-6.207404,"line":6,"station_name":"Palmerah","is_transit":false,"i_long":106.79689,"time":7,"distance":3737,"station_id":"PLM","transit":false},{"time":6,"i_lat":-6.185545,"transit":true,"station_id":"THB","station_name":"Tanah Abang","is_transit":true,"distance":3191,"i_long":106.811091,"line":1},{"is_transit":false,"station_name":"Karet","distance":2029,"i_lat":-6.20132,"station_id":"KAT","line":1,"time":5,"i_long":106.816351,"transit":false},{"distance":471,"i_long":106.819881,"i_lat":-6.201433,"transit":false,"line":1,"station_name":"Sudirman Baru","is_transit":false,"time":1,"station_id":"SUDB"},{"is_transit":false,"line":1,"i_long":106.822649,"i_lat":-6.202263,"transit":false,"station_name":"Sudirman","distance":280,"station_id":"SUD","time":1},{"station_name":"Manggarai","time":4,"distance":3186,"i_lat":-6.209883,"is_transit":true,"line":2,"i_long":106.84912,"transit":true,"station_id":"MRI"},{"time":4,"station_name":"Tebet","station_id":"TEB","is_transit":false,"i_long":106.857948,"transit":false,"distance":2610,"line":2,"i_lat":-6.226659},{"distance":1230,"transit":false,"i_long":106.856607,"is_transit":false,"time":2,"station_id":"CW","station_name":"Cawang","i_lat":-6.242512,"line":2},{"i_lat":-6.255332,"is_transit":false,"station_name":"Duren Kalibata","i_long":106.85449,"transit":false,"time":3,"distance":1546,"station_id":"DRN","line":2},{"station_name":"Pasar Minggu Baru","time":2,"station_id":"PSMB","i_long":106.851577,"transit":false,"distance":824,"line":2,"is_transit":false,"i_lat":-6.263214},{"station_id":"PSM","i_lat":-6.2842400000000005,"i_long":106.843999,"station_name":"Pasar Minggu","time":2,"is_transit":false,"transit":false,"line":2,"distance":2380},{"i_long":106.838896,"station_name":"Tanjung Barat","time":4,"station_id":"TNT","is_transit":false,"distance":2820,"transit":false,"line":2,"i_lat":-6.3080680000000005},{"distance":2671,"transit":false,"line":2,"time":3,"i_long":106.832616,"is_transit":false,"station_id":"LNA","station_name":"Lenteng Agung","i_lat":-6.330363},{"station_name":"Univ. Pancasila","is_transit":false,"distance":1029,"i_long":106.834175,"i_lat":-6.339291,"line":2,"station_id":"UP","time":2,"transit":false},{"time":3,"i_lat":-6.360749,"distance":2264,"i_long":106.831474,"line":2,"station_id":"UI","transit":false,"station_name":"Univ. Indonesia","is_transit":false},{"is_transit":false,"line":2,"i_long":106.831114,"distance":1109,"transit":false,"i_lat":-6.369073,"station_name":"Pondok Cina","time":2,"station_id":"POC"},{"distance":2727,"i_lat":-6.391065,"time":4,"station_id":"DPB","i_long":106.819451,"is_transit":false,"station_name":"Depokbaru","transit":false,"line":2},{"station_name":"Depok","station_id":"DP","distance":1584,"time":3,"line":2,"is_transit":false,"i_long":106.816926,"i_lat":-6.405256,"transit":false},{"distance":5084,"station_name":"Citayam","i_lat":-6.448811,"is_transit":true,"station_id":"CTA","line":2,"time":6,"transit":true,"i_long":106.800298},{"is_transit":false,"transit":false,"i_long":106.824374,"distance":0,"line":21,"station_name":"Pondok Rajeg","station_id":"PDRG","time":0,"i_lat":-6.460735},{"time":0,"i_long":106.851978,"station_name":"Cibinong","transit":false,"i_lat":-6.46424,"line":21,"station_id":"CBN","distance":0,"is_transit":false}],[{"station_name":"Serpong","station_id":"SRP","distance":0,"transit":false,"is_transit":false,"i_long":106.66566,"line":6,"time":0,"i_lat":-6.319871},{"station_id":"RU","is_transit":false,"i_lat":-6.314823,"distance":2413,"station_name":"Rawa Buntu","i_long":106.675475,"time":4,"line":6,"transit":false},{"distance":4566,"i_long":106.712277,"line":6,"i_lat":-6.296963,"station_name":"Sudimara","station_id":"SDM","transit":false,"time":6,"is_transit":false},{"line":6,"transit":false,"is_transit":false,"station_name":"Jurangmangu","i_lat":-6.288927,"station_id":"JMU","distance":1994,"time":4,"i_long":106.728916},{"is_transit":false,"time":3,"line":6,"station_name":"Pondokranji","distance":2179,"transit":false,"station_id":"PDJ","i_lat":-6.276362,"i_long":106.74273},{"station_id":"KBY","i_long":106.780334,"distance":6218,"station_name":"Kebayoran","transit":false,"i_lat":-6.237242,"time":8,"is_transit":false,"line":6},{"i_long":106.79689,"distance":3737,"is_transit":false,"station_id":"PLM","transit":false,"station_name":"Palmerah","time":7,"i_lat":-6.207404,"line":6},{"transit":true,"time":6,"i_lat":-6.185545,"station_id":"THB","station_name":"Tanah Abang","line":1,"is_transit":true,"i_long":106.811091,"distance":3191},{"line":1,"station_name":"Duri","time":8,"station_id":"DU","i_lat":-6.155215,"is_transit":false,"distance":3632,"i_long":106.800832,"transit":false},{"i_long":106.79867,"station_id":"AK","is_transit":false,"time":4,"distance":1230,"i_lat":-6.144674,"line":1,"station_name":"Angke","transit":false},{"distance":4102,"is_transit":true,"station_id":"KPB","station_name":"Kampung Bandan","transit":true,"time":9,"i_lat":-6.132549,"i_long":106.826365,"line":4},{"station_name":"Jakarta Kota","station_id":"JAKK","line":2,"time":3,"i_lat":-6.137569,"transit":true,"is_transit":true,"i_long":106.812439,"distance":1364},{"transit":false,"station_name":"Jayakarta","line":2,"is_transit":false,"time":4,"i_lat":-6.141205,"station_id":"JAY","i_long":106.820901,"distance":1264},{"distance":1080,"station_id":"MGB","line":2,"is_transit":false,"transit":false,"i_long":106.82482,"time":2,"i_lat":-6.149769,"station_name":"Manggabesar"},{"distance":906,"transit":false,"station_id":"SW","time":2,"i_long":106.827103,"line":2,"station_name":"Sawah Besar","is_transit":false,"i_lat":-6.160725},{"i_long":106.828284,"transit":false,"station_name":"Juanda","distance":1149,"i_lat":-6.166716,"is_transit":false,"station_id":"JUA","time":2,"line":2},{"transit":false,"station_name":"Gondangdia","time":4,"i_lat":-6.186295,"station_id":"GDD","line":2,"is_transit":false,"i_long":106.832183,"distance":2015},{"is_transit":false,"station_name":"Cikini","time":3,"distance":1750,"i_long":106.840169,"station_id":"CKI","transit":false,"line":2,"i_lat":-6.198556},{"distance":1590,"i_lat":-6.209883,"station_name":"Manggarai","transit":false,"time":4,"is_transit":false,"i_long":106.84912,"line":2,"station_id":"MRI"},{"transit":false,"station_name":"Tebet","is_transit":false,"i_long":106.857948,"station_id":"TEB","distance":2610,"line":2,"time":4,"i_lat":-6.226659},{"i_lat":-6.242512,"i_long":106.856607,"transit":false,"station_id":"CW","is_transit":false,"line":2,"station_name":"Cawang","time":2,"distance":1230},{"is_transit":false,"station_name":"Duren Kalibata","line":2,"station_id":"DRN","time":3,"i_long":106.85449,"transit":false,"distance":1546,"i_lat":-6.255332},{"station_name":"Pasar Minggu Baru","transit":false,"is_transit":false,"distance":824,"station_id":"PSMB","i_lat":-6.263214,"time":2,"line":2,"i_long":106.851577},{"i_long":106.843999,"line":2,"distance":2380,"station_id":"PSM","transit":false,"is_transit":false,"station_name":"Pasar Minggu","time":2,"i_lat":-6.2842400000000005},{"station_id":"TNT","i_lat":-6.3080680000000005,"is_transit":false,"line":2,"i_long":106.838896,"station_name":"Tanjung Barat","distance":2820,"transit":false,"time":4},{"station_id":"LNA","time":3,"transit":false,"i_lat":-6.330363,"i_long":106.832616,"is_transit":false,"distance":2671,"station_name":"Lenteng Agung","line":2},{"i_lat":-6.339291,"distance":1029,"line":2,"station_id":"UP","transit":false,"is_transit":false,"time":2,"station_name":"Univ. Pancasila","i_long":106.834175},{"i_long":106.831474,"time":3,"i_lat":-6.360749,"line":2,"station_id":"UI","transit":false,"station_name":"Univ. Indonesia","is_transit":false,"distance":2264},{"time":2,"distance":1109,"station_id":"POC","transit":false,"i_long":106.831114,"station_name":"Pondok Cina","i_lat":-6.369073,"is_transit":false,"line":2},{"distance":2727,"line":2,"is_transit":false,"transit":false,"station_name":"Depokbaru","i_lat":-6.391065,"i_long":106.819451,"station_id":"DPB","time":4},{"station_id":"DP","transit":false,"distance":1584,"i_long":106.816926,"line":2,"is_transit":false,"station_name":"Depok","i_lat":-6.405256,"time":3},{"station_id":"CTA","i_long":106.800298,"distance":5084,"line":2,"transit":true,"station_name":"Citayam","is_transit":true,"time":6,"i_lat":-6.448811},{"time":0,"i_lat":-6.460735,"distance":0,"station_name":"Pondok Rajeg","is_transit":false,"line":21,"transit":false,"station_id":"PDRG","i_long":106.824374},{"distance":0,"station_name":"Cibinong","is_transit":false,"line":21,"time":0,"i_long":106.851978,"i_lat":-6.46424,"transit":false,"station_id":"CBN"}],[{"station_id":"SRP","is_transit":false,"i_long":106.66566,"station_name":"Serpong","i_lat":-6.319871,"time":0,"transit":false,"distance":0,"line":6},{"time":4,"i_long":106.675475,"line":6,"station_name":"Rawa Buntu","is_transit":false,"i_lat":-6.314823,"transit":false,"station_id":"RU","distance":2413},{"i_long":106.712277,"line":6,"transit":false,"station_id":"SDM","station_name":"Sudimara","distance":4566,"i_lat":-6.296963,"is_transit":false,"time":6},{"transit":false,"line":6,"time":4,"distance":1994,"station_id":"JMU","i_lat":-6.288927,"station_name":"Jurangmangu","i_long":106.728916,"is_transit":false},{"transit":false,"station_name":"Pondokranji","station_id":"PDJ","line":6,"is_transit":false,"distance":2179,"i_lat":-6.276362,"i_long":106.74273,"time":3},{"time":8,"i_long":106.780334,"station_id":"KBY","station_name":"Kebayoran","is_transit":false,"line":6,"transit":false,"i_lat":-6.237242,"distance":6218},{"is_transit":false,"station_name":"Palmerah","i_long":106.79689,"line":6,"transit":false,"time":7,"distance":3737,"i_lat":-6.207404,"station_id":"PLM"},{"transit":true,"station_id":"THB","line":1,"station_name":"Tanah Abang","is_transit":true,"distance":3191,"time":6,"i_lat":-6.185545,"i_long":106.811091},{"station_id":"DU","i_lat":-6.155215,"transit":false,"station_name":"Duri","line":1,"is_transit":false,"distance":3632,"time":8,"i_long":106.800832},{"station_id":"AK","is_transit":false,"distance":1230,"i_lat":-6.144674,"transit":false,"time":4,"i_long":106.79867,"line":1,"station_name":"Angke"},{"i_lat":-6.132549,"distance":4102,"is_transit":true,"i_long":106.826365,"station_name":"Kampung Bandan","station_id":"KPB","time":9,"transit":true,"line":4},{"station_name":"Rajawali","station_id":"RJW","time":3,"transit":false,"distance":1444,"is_transit":false,"i_lat":-6.14505,"i_long":106.836569,"line":11},{"station_id":"KMO","time":5,"i_long":106.839204,"is_transit":false,"station_name":"Kemayoran","distance":1901,"line":11,"transit":false,"i_lat":-6.161728},{"distance":1436,"transit":false,"is_transit":false,"i_lat":-6.174784,"time":4,"i_long":106.84368,"station_id":"PSE","station_name":"Pasar Senen","line":11},{"distance":1567,"is_transit":false,"time":8,"i_lat":-6.185975,"i_long":106.850107,"transit":false,"station_id":"GST","station_name":"Gang Sentiong","line":11},{"station_name":"Kramat","transit":false,"station_id":"KMT","is_transit":false,"distance":973,"i_lat":-6.193792,"i_long":106.855437,"line":11,"time":1},{"time":2,"is_transit":false,"i_lat":-6.209188,"station_name":"Pondok Jati","station_id":"POK","distance":1829,"line":11,"i_long":106.861737,"transit":false},{"i_lat":-6.215091,"line":1,"distance":1236,"station_id":"JNG","i_long":106.86807400000001,"transit":true,"station_name":"Jatinegara","time":9,"is_transit":true},{"transit":false,"is_transit":false,"i_long":106.858896,"i_lat":-6.212485,"station_name":"Matraman","distance":1377,"time":2,"station_id":"MTR","line":1},{"station_id":"MRI","is_transit":true,"line":2,"i_lat":-6.209883,"station_name":"Manggarai","i_long":106.84912,"time":2,"distance":1275,"transit":true},{"line":2,"station_name":"Tebet","distance":2610,"transit":false,"is_transit":false,"time":4,"station_id":"TEB","i_lat":-6.226659,"i_long":106.857948},{"station_name":"Cawang","i_lat":-6.242512,"distance":1230,"station_id":"CW","line":2,"i_long":106.856607,"is_transit":false,"time":2,"transit":false},{"line":2,"i_lat":-6.255332,"transit":false,"distance":1546,"is_transit":false,"station_id":"DRN","i_long":106.85449,"station_name":"Duren Kalibata","time":3},{"is_transit":false,"distance":824,"i_lat":-6.263214,"line":2,"station_id":"PSMB","transit":false,"station_name":"Pasar Minggu Baru","time":2,"i_long":106.851577},{"time":2,"i_lat":-6.2842400000000005,"line":2,"station_name":"Pasar Minggu","i_long":106.843999,"distance":2380,"transit":false,"station_id":"PSM","is_transit":false},{"station_id":"TNT","transit":false,"time":4,"is_transit":false,"station_name":"Tanjung Barat","i_lat":-6.3080680000000005,"line":2,"i_long":106.838896,"distance":2820},{"station_name":"Lenteng Agung","transit":false,"station_id":"LNA","time":3,"i_long":106.832616,"line":2,"distance":2671,"is_transit":false,"i_lat":-6.330363},{"is_transit":false,"station_name":"Univ. Pancasila","transit":false,"distance":1029,"time":2,"i_lat":-6.339291,"i_long":106.834175,"line":2,"station_id":"UP"},{"station_id":"UI","time":3,"station_name":"Univ. Indonesia","transit":false,"i_long":106.831474,"is_transit":false,"distance":2264,"i_lat":-6.360749,"line":2},{"station_id":"POC","line":2,"time":2,"distance":1109,"is_transit":false,"i_lat":-6.369073,"transit":false,"i_long":106.831114,"station_name":"Pondok Cina"},{"distance":2727,"line":2,"transit":false,"station_name":"Depokbaru","time":4,"i_lat":-6.391065,"i_long":106.819451,"is_transit":false,"station_id":"DPB"},{"line":2,"station_name":"Depok","transit":false,"station_id":"DP","distance":1584,"is_transit":false,"time":3,"i_lat":-6.405256,"i_long":106.816926},{"distance":5084,"station_id":"CTA","transit":true,"station_name":"Citayam","i_long":106.800298,"i_lat":-6.448811,"line":2,"time":6,"is_transit":true},{"is_transit":false,"transit":false,"i_lat":-6.460735,"line":21,"distance":0,"i_long":106.824374,"time":0,"station_name":"Pondok Rajeg","station_id":"PDRG"},{"i_lat":-6.46424,"distance":0,"time":0,"transit":false,"station_name":"Cibinong","i_long":106.851978,"is_transit":false,"line":21,"station_id":"CBN"}]]}