{"data":[[{"station_name":"Serpong","time":0,"is_transit":false,"line":6,"station_id":"SRP","transit":false,"i_lat":-6.319871,"distance":0,"i_long":106.66566},{"i_lat":-6.314823,"station_id":"RU","station_name":"Rawa Buntu","transit":false,"is_transit":false,"time":4,"i_long":106.675475,"distance":2413,"line":6},{"station_id":"SDM","is_transit":false,"time":6,"i_long":106.712277,"station_name":"Sudimara","transit":false,"i_lat":-6.296963,"distance":4566,"line":6},{"distance":1994,"station_name":"Jurangmangu","transit":false,"is_transit":false,"time":4,"line":6,"station_id":"JMU","i_lat":-6.288927,"i_long":106.728916},{"is_transit":false,"i_long":106.74273,"line":6,"time":3,"station_name":"Pondokranji","station_id":"PDJ","i_lat":-6.276362,"distance":2179,"transit":false},{"is_transit":false,"i_lat":-6.237242,"station_name":"Kebayoran","station_id":"KBY","transit":false,"time":8,"distance":6218,"line":6,"i_long":106.780334},{"transit":false,"time":7,"i_long":106.79689,"line":6,"station_name":"Palmerah","station_id":"PLM","distance":3737,"is_transit":false,"i_lat":-6.207404},{"station_name":"Tanah Abang","is_transit":true,"distance":3191,"transit":true,"i_lat":-6.185545,"line":1,"time":6,"i_long":106.811091,"station_id":"THB"},{"distance":2029,"time":5,"station_name":"Karet","station_id":"KAT","i_lat":-6.20132,"transit":false,"i_long":106.816351,"line":1,"is_transit":false},{"transit":false,"distance":471,"i_lat":-6.201433,"station_id":"SUDB","station_name":"Sudirman Baru","is_transit":false,"line":1,"time":1,"i_long":106.819881},{"distance":280,"transit":false,"time":1,"line":1,"station_name":"Sudirman","station_id":"SUD","i_long":106.822649,"i_lat":-6.202263,"is_transit":false},{"station_name":"Manggarai","is_transit":true,"line":2,"time":4,"transit":true,"station_id":"MRI","i_lat":-6.209883,"distance":3186,"i_long":106.84912},{"line":2,"time":4,"distance":1590,"transit":false,"station_name":"Cikini","i_lat":-6.198556,"is_transit":false,"station_id":"CKI","i_long":106.840169},{"station_name":"Gondangdia","transit":false,"is_transit":false,"time":3,"station_id":"GDD","distance":1750,"i_long":106.832183,"i_lat":-6.186295,"line":2},{"station_name":"Juanda","time":4,"station_id":"JUA","line":2,"distance":2015,"i_lat":-6.166716,"transit":false,"is_transit":false,"i_long":106.828284}],[{"distance":0,"is_transit":false,"time":0,"station_name":"Serpong","line":6,"transit":false,"i_long":106.66566,"i_lat":-6.319871,"station_id":"SRP"},{"line":6,"station_id":"RU","i_long":106.675475,"i_lat":-6.314823,"transit":false,"distance":2413,"station_name":"Rawa Buntu","is_transit":false,"time":4},{"time":6,"i_long":106.712277,"station_id":"SDM","station_name":"Sudimara","transit":false,"i_lat":-6.296963,"is_transit":false,"distance":4566,"line":6},{"station_name":"Jurangmangu","time":4,"i_lat":-6.288927,"line":6,"station_id":"JMU","distance":1994,"i_long":106.728916,"transit":false,"is_transit":false},{"i_lat":-6.276362,"station_id":"PDJ","station_name":"Pondokranji","line":6,"time":3,"i_long":106.74273,"is_transit":false,"transit":false,"distance":2179},{"line":6,"is_transit":false,"station_id":"KBY","transit":false,"station_name":"Kebayoran","distance":6218,"time":8,"i_lat":-6.237242,"i_long":106.780334},{"line":6,"time":7,"is_transit":false,"distance":3737,"i_lat":-6.207404,"station_name":"Palmerah","transit":false,"station_id":"PLM","i_long":106.79689},{"station_name":"Tanah Abang","time":6,"i_long":106.811091,"station_id":"THB","distance":3191,"line":1,"is_transit":true,"i_lat":-6.185545,"transit":true},{"time":8,"i_long":106.800832,"transit":false,"i_lat":-6.155215,"station_name":"Duri","distance":3632,"is_transit":false,"line":1,"station_id":"DU"},{"time":4,"transit":false,"station_id":"AK","line":1,"i_long":106.79867,"distance":1230,"i_lat":-6.144674,"is_transit":false,"station_name":"Angke"},{"i_lat":-6.132549,"time":9,"line":4,"station_id":"KPB","station_name":"Kampung Bandan","transit":true,"i_long":106.826365,"is_transit":true,"distance":4102},{"is_transit":true,"line":2,"distance":1364,"i_lat":-6.137569,"station_id":"JAKK","time":3,"station_name":"Jakarta Kota","transit":true,"i_long":106.812439},{"line":2,"transit":false,"i_lat":-6.141205,"station_name":"Jayakarta","is_transit":false,"distance":1264,"i_long":106.820901,"time":4,"station_id":"JAY"},{"station_id":"MGB","line":2,"time":2,"distance":1080,"is_transit":false,"i_long":106.82482,"transit":false,"station_name":"Manggabesar","i_lat":-6.149769},{"line":2,"distance":906,"i_long":106.827103,"i_lat":-6.160725,"is_transit":false,"time":2,"station_id":"SW","transit":false,"station_name":"Sawah Besar"},{"i_lat":-6.166716,"is_transit":false,"line":2,"distance":1149,"station_name":"Juanda","time":2,"i_long":106.828284,"transit":false,"station_id":"JUA"}],[{"station_id":"SRP","distance":0,"i_lat":-6.319871,"i_long":106.66566,"time":0,"transit":false,"station_name":"Serpong","is_transit":false,"line":6},{"line":6,"station_name":"Rawa Buntu","is_transit":false,"time":4,"distance":2413,"i_lat":-6.314823,"i_long":106.675475,"transit":false,"station_id":"RU"},{"station_name":"Sudimara","is_transit":false,"i_long":106.712277,"line":6,"station_id":"SDM","transit":false,"time":6,"distance":4566,"i_lat":-6.296963},{"is_transit":false,"i_long":106.728916,"transit":false,"line":6,"station_name":"Jurangmangu","station_id":"JMU","i_lat":-6.288927,"time":4,"distance":1994},{"line":6,"transit":false,"distance":2179,"station_id":"PDJ","i_lat":-6.276362,"time":3,"is_transit":false,"i_long":106.74273,"station_name":"Pondokranji"},{"station_id":"KBY","time":8,"i_lat":-6.237242,"i_long":106.780334,"is_transit":false,"transit":false,"station_name":"Kebayoran","line":6,"distance":6218},{"line":6,"station_name":"Palmerah","distance":3737,"transit":false,"time":7,"station_id":"PLM","is_transit":false,"i_lat":-6.207404,"i_long":106.79689},{"station_name":"Tanah Abang","distance":3191,"transit":true,"i_lat":-6.185545,"is_transit":true,"line":1,"time":6,"station_id":"THB","i_long":106.811091},{"i_lat":-6.155215,"line":1,"transit":false,"time":8,"is_transit":false,"station_id":"DU","station_name":"Duri","distance":3632,"i_long":106.800832},{"station_id":"AK","transit":false,"time":4,"distance":1230,"i_long":106.79867,"station_name":"Angke","line":1,"is_transit":false,"i_lat":-6.144674},{"i_long":106.826365,"transit":true,"i_lat":-6.132549,"station_id":"KPB","station_name":"Kampung Bandan","is_transit":true,"time":9,"distance":4102,"line":4},{"line":11,"station_name":"Rajawali","i_long":106.836569,"station_id":"RJW","transit":false,"is_transit":false,"distance":1444,"time":3,"i_lat":-6.14505},{"i_long":106.839204,"transit":false,"i_lat":-6.161728,"line":11,"station_id":"KMO","time":5,"station_name":"Kemayoran","is_transit":false,"distance":1901},{"station_name":"Pasar Senen","station_id":"PSE","i_lat":-6.174784,"i_long":106.84368,"distance":1436,"transit":false,"time":4,"is_transit":false,"line":11},{"is_transit":false,"line":11,"i_long":106.850107,"i_lat":-6.185975,"station_id":"GST","time":8,"transit":false,"station_name":"Gang Sentiong","distance":1567},{"i_long":106.855437,"transit":false,"line":11,"time":1,"station_id":"KMT","i_lat":-6.193792,"station_name":"Kramat","is_transit":false,"distance":973},{"station_id":"POK","is_transit":false,"i_lat":-6.209188,"i_long":106.861737,"line":11,"station_name":"Pondok Jati","transit":false,"time":2,"distance":1829},{"time":9,"i_lat":-6.215091,"line":1,"station_name":"Jatinegara","i_long":106.86807400000001,"distance":1236,"transit":true,"station_id":"JNG","is_transit":true},{"station_id":"MTR","transit":false,"time":2,"is_transit":false,"station_name":"Matraman","i_lat":-6.212485,"line":1,"i_long":106.858896,"distance":1377},{"station_name":"Manggarai","transit":true,"station_id":"MRI","time":2,"i_long":106.84912,"line":2,"distance":1275,"is_transit":true,"i_lat":-6.209883},{"is_transit":false,"station_name":"Cikini","transit":false,"distance":1590,"time":4,"i_lat":-6.198556,"i_long":106.840169,"line":2,"station_id":"CKI"},{"station_id":"GDD","time":3,"station_name":"Gondangdia","transit":false,"i_long":106.832183,"is_transit":false,"distance":1750,"i_lat":-6.186295,"line":2},{"station_id":"JUA","line":2,"time":4,"distance":2015,"is_transit":false,"i_lat":-6.166716,"transit":false,"i_long":106.828284,"station_name":"Juanda"}],[{"distance":0,"line":6,"transit":false,"station_name":"Serpong","time":0,"i_lat":-6.319871,"i_long":106.66566,"is_transit":false,"station_id":"SRP"},{"line":6,"station_name":"Rawa Buntu","transit":false,"station_id":"RU","distance":2413,"is_transit":false,"time":4,"i_lat":-6.314823,"i_long":106.675475},{"distance":4566,"station_id":"SDM","transit":false,"station_name":"Sudimara","i_long":106.712277,"i_lat":-6.296963,"line":6,"time":6,"is_transit":false},{"distance":1994,"is_transit":false,"station_name":"Jurangmangu","line":6,"transit":false,"i_lat":-6.288927,"time":4,"i_long":106.728916,"station_id":"JMU"},{"line":6,"station_id":"PDJ","i_long":106.74273,"distance":2179,"station_name":"Pondokranji","is_transit":false,"i_lat":-6.276362,"transit":false,"time":3},{"station_name":"Kebayoran","transit":false,"distance":6218,"station_id":"KBY","time":8,"i_lat":-6.237242,"is_transit":false,"i_long":106.780334,"line":6},{"transit":false,"station_name":"Palmerah","i_long":106.79689,"distance":3737,"time":7,"i_lat":-6.207404,"line":6,"is_transit":false,"station_id":"PLM"},{"is_transit":true,"i_lat":-6.185545,"line":1,"transit":true,"distance":3191,"time":6,"i_long":106.811091,"station_id":"THB","station_name":"Tanah Abang"},{"i_long":106.816351,"line":1,"distance":2029,"time":5,"transit":false,"station_name":"Karet","is_transit":false,"i_lat":-6.20132,"station_id":"KAT"},{"is_transit":false,"station_id":"SUDB","station_name":"Sudirman Baru","transit":false,"time":1,"distance":471,"line":1,"i_lat":-6.201433,"i_long":106.819881},{"time":1,"i_lat":-6.202263,"station_name":"Sudirman","station_id":"SUD","transit":false,"is_transit":false,"distance":280,"i_long":106.822649,"line":1},{"station_name":"Manggarai","station_id":"MRI","time":4,"i_lat":-6.209883,"i_long":106.84912,"is_transit":false,"transit":false,"distance":3186,"line":2},{"station_name":"Matraman","i_lat":-6.212485,"transit":false,"is_transit":false,"time":2,"line":1,"i_long":106.858896,"distance":1275,"station_id":"MTR"},{"i_long":106.86807400000001,"station_name":"Jatinegara","station_id":"JNG","distance":1377,"transit":true,"time":8,"i_lat":-6.215091,"line":1,"is_transit":true},{"line":11,"transit":false,"distance":1236,"station_id":"POK","time":2,"station_name":"Pondok Jati","i_lat":-6.209188,"is_transit":false,"i_long":106.861737},{"station_id":"KMT","is_transit":false,"station_name":"Kramat","transit":false,"i_lat":-6.193792,"line":11,"distance":1829,"i_long":106.855437,"time":2},{"line":11,"time":1,"i_lat":-6.185975,"transit":false,"is_transit":false,"distance":973,"i_long":106.850107,"station_name":"Gang Sentiong","station_id":"GST"},{"station_name":"Pasar Senen","time":8,"station_id":"PSE","is_transit":false,"distance":1567,"i_lat":-6.174784,"line":11,"i_long":106.84368,"transit":false},{"station_name":"Kemayoran","i_long":106.839204,"i_lat":-6.161728,"is_transit":false,"line":11,"station_id":"KMO","time":4,"distance":1436,"transit":false},{"time":5,"i_lat":-6.14505,"i_long":106.836569,"transit":false,"is_transit":false,"station_id":"RJW","station_name":"Rajawali","line":11,"distance":1901},{"i_lat":-6.132549,"transit":true,"i_long":106.826365,"line":4,"is_transit":true,"station_id":"KPB","station_name":"Kampung Bandan","time":3,"distance":1444},{"line":2,"distance":1364,"time":3,"i_lat":-6.137569,"i_long":106.812439,"transit":true,"is_transit":true,"station_id":"JAKK","station_name":"Jakarta Kota"},{"time":4,"i_long":106.820901,"transit":false,"is_transit":false,"distance":1264,"line":2,"i_lat":-6.141205,"station_name":"Jayakarta","station_id":"JAY"},{"is_transit":false,"line":2,"i_long":106.82482,"transit":false,"station_id":"MGB","time":2,"distance":1080,"station_name":"Manggabesar","i_lat":-6.149769},{"station_name":"Sawah Besar","is_transit":false,"time":2,"i_lat":-6.160725,"i_long":106.827103,"distance":906,"station_id":"SW","transit":false,"line":2},{"transit":false,"distance":1149,"station_id":"JUA","i_lat":-6.166716,"line":2,"time":2,"is_transit":false,"i_long":106.828284,"station_name":"Juanda"}]]}