{"data":[[{"station_name":"Serpong","station_id":"SRP","transit":false,"i_lat":-6.319871,"i_long":106.66566,"distance":0,"is_transit":false,"time":0,"line":6},{"is_transit":false,"distance":2413,"transit":false,"station_id":"RU","i_lat":-6.314823,"station_name":"Rawa Buntu","time":4,"i_long":106.675475,"line":6},{"i_long":106.712277,"line":6,"station_name":"Sudimara","distance":4566,"is_transit":false,"time":6,"station_id":"SDM","transit":false,"i_lat":-6.296963},{"i_lat":-6.288927,"time":4,"transit":false,"is_transit":false,"i_long":106.728916,"line":6,"station_id":"JMU","station_name":"Jurangmangu","distance":1994},{"station_id":"PDJ","distance":2179,"transit":false,"line":6,"i_lat":-6.276362,"is_transit":false,"station_name":"Pondokranji","time":3,"i_long":106.74273},{"station_id":"KBY","station_name":"Kebayoran","i_long":106.780334,"line":6,"is_transit":false,"time":8,"transit":false,"distance":6218,"i_lat":-6.237242},{"i_long":106.79689,"time":7,"line":6,"station_id":"PLM","transit":false,"station_name":"Palmerah","distance":3737,"is_transit":false,"i_lat":-6.207404},{"station_id":"THB","transit":true,"distance":3191,"is_transit":true,"i_lat":-6.185545,"time":6,"station_name":"Tanah Abang","line":1,"i_long":106.811091},{"station_id":"KAT","i_lat":-6.20132,"station_name":"Karet","transit":false,"distance":2029,"i_long":106.816351,"is_transit":false,"time":5,"line":1},{"time":1,"is_transit":false,"distance":471,"transit":false,"station_id":"SUDB","i_long":106.819881,"line":1,"station_name":"Sudirman Baru","i_lat":-6.201433},{"i_long":106.822649,"distance":280,"time":1,"i_lat":-6.202263,"station_id":"SUD","is_transit":false,"transit":false,"line":1,"station_name":"Sudirman"},{"time":4,"i_long":106.84912,"line":2,"station_id":"MRI","is_transit":true,"transit":true,"station_name":"Manggarai","i_lat":-6.209883,"distance":3186},{"line":2,"i_long":106.857948,"distance":2610,"transit":false,"station_id":"TEB","time":4,"i_lat":-6.226659,"is_transit":false,"station_name":"Tebet"},{"i_lat":-6.242512,"is_transit":false,"i_long":106.856607,"line":2,"station_name":"Cawang","time":2,"transit":false,"distance":1230,"station_id":"CW"},{"distance":1546,"is_transit":false,"station_id":"DRN","transit":false,"station_name":"Duren Kalibata","time":3,"i_lat":-6.255332,"i_long":106.85449,"line":2},{"distance":824,"station_name":"Pasar Minggu Baru","is_transit":false,"station_id":"PSMB","time":2,"transit":false,"i_lat":-6.263214,"i_long":106.851577,"line":2},{"station_id":"PSM","distance":2380,"station_name":"Pasar Minggu","transit":false,"i_lat":-6.2842400000000005,"i_long":106.843999,"line":2,"time":2,"is_transit":false},{"distance":2820,"line":2,"station_name":"Tanjung Barat","time":4,"transit":false,"is_transit":false,"i_long":106.838896,"i_lat":-6.3080680000000005,"station_id":"TNT"},{"i_lat":-6.330363,"station_name":"Lenteng Agung","distance":2671,"station_id":"LNA","time":3,"is_transit":false,"i_long":106.832616,"transit":false,"line":2},{"time":2,"i_lat":-6.339291,"i_long":106.834175,"line":2,"is_transit":false,"station_id":"UP","station_name":"Univ. Pancasila","distance":1029,"transit":false},{"i_lat":-6.360749,"station_name":"Univ. Indonesia","station_id":"UI","is_transit":false,"i_long":106.831474,"time":3,"distance":2264,"transit":false,"line":2},{"transit":false,"is_transit":false,"line":2,"station_id":"POC","time":2,"i_lat":-6.369073,"distance":1109,"i_long":106.831114,"station_name":"Pondok Cina"},{"station_id":"DPB","is_transit":false,"i_lat":-6.391065,"distance":2727,"transit":false,"line":2,"time":4,"i_long":106.819451,"station_name":"Depokbaru"},{"distance":1584,"station_name":"Depok","time":3,"i_lat":-6.405256,"i_long":106.816926,"line":2,"transit":false,"station_id":"DP","is_transit":false},{"transit":false,"station_name":"Citayam","distance":5084,"i_long":106.800298,"station_id":"CTA","time":6,"is_transit":false,"i_lat":-6.448811,"line":2},{"i_lat":-6.493243,"i_long":106.792719,"station_name":"Bojonggede","station_id":"BJD","is_transit":false,"transit":false,"time":5,"distance":5197,"line":2},{"distance":4331,"station_id":"CLT","i_lat":-6.530544,"time":5,"i_long":106.800016,"is_transit":false,"station_name":"Cilebut","transit":false,"line":2},{"i_lat":-6.594596,"distance":7514,"station_id":"BOO","time":9,"transit":false,"station_name":"Bogor","is_transit":false,"i_long":106.790574,"line":2}],[{"station_name":"Serpong","line":6,"i_long":106.66566,"transit":false,"is_transit":false,"station_id":"SRP","time":0,"i_lat":-6.319871,"distance":0},{"is_transit":false,"distance":2413,"time":4,"transit":false,"i_lat":-6.314823,"line":6,"station_id":"RU","station_name":"Rawa Buntu","i_long":106.675475},{"station_name":"Sudimara","station_id":"SDM","time":6,"is_transit":false,"distance":4566,"i_lat":-6.296963,"i_long":106.712277,"line":6,"transit":false},{"transit":false,"is_transit":false,"time":4,"line":6,"distance":1994,"i_long":106.728916,"i_lat":-6.288927,"station_name":"Jurangmangu","station_id":"JMU"},{"is_transit":false,"station_name":"Pondokranji","distance":2179,"line":6,"station_id":"PDJ","transit":false,"time":3,"i_lat":-6.276362,"i_long":106.74273},{"time":8,"station_id":"KBY","station_name":"Kebayoran","line":6,"is_transit":false,"distance":6218,"transit":false,"i_long":106.780334,"i_lat":-6.237242},{"station_id":"PLM","i_long":106.79689,"time":7,"line":6,"is_transit":false,"distance":3737,"station_name":"Palmerah","i_lat":-6.207404,"transit":false},{"i_lat":-6.185545,"is_transit":true,"station_id":"THB","i_long":106.811091,"time":6,"transit":true,"station_name":"Tanah Abang","line":1,"distance":3191},{"transit":false,"i_lat":-6.155215,"distance":3632,"time":8,"line":1,"is_transit":false,"station_name":"Duri","i_long":106.800832,"station_id":"DU"},{"is_transit":false,"line":1,"time":4,"i_long":106.79867,"station_name":"Angke","distance":1230,"i_lat":-6.144674,"station_id":"AK","transit":false},{"transit":true,"station_id":"KPB","is_transit":true,"line":4,"i_lat":-6.132549,"i_long":106.826365,"distance":4102,"station_name":"Kampung Bandan","time":9},{"transit":true,"i_lat":-6.137569,"station_name":"Jakarta Kota","station_id":"JAKK","time":3,"distance":1364,"i_long":106.812439,"is_transit":true,"line":2},{"station_name":"Jayakarta","is_transit":false,"station_id":"JAY","line":2,"i_lat":-6.141205,"time":4,"i_long":106.820901,"distance":1264,"transit":false},{"distance":1080,"transit":false,"time":2,"i_long":106.82482,"is_transit":false,"line":2,"i_lat":-6.149769,"station_id":"MGB","station_name":"Manggabesar"},{"i_lat":-6.160725,"i_long":106.827103,"time":2,"transit":false,"station_name":"Sawah Besar","station_id":"SW","is_transit":false,"line":2,"distance":906},{"line":2,"i_long":106.828284,"station_id":"JUA","time":2,"distance":1149,"transit":false,"is_transit":false,"station_name":"Juanda","i_lat":-6.166716},{"is_transit":false,"i_long":106.832183,"distance":2015,"transit":false,"station_name":"Gondangdia","time":4,"station_id":"GDD","i_lat":-6.186295,"line":2},{"i_lat":-6.198556,"station_name":"Cikini","distance":1750,"line":2,"transit":false,"time":3,"is_transit":false,"i_long":106.840169,"station_id":"CKI"},{"station_id":"MRI","transit":false,"i_long":106.84912,"line":2,"station_name":"Manggarai","time":4,"distance":1590,"is_transit":false,"i_lat":-6.209883},{"time":4,"station_name":"Tebet","transit":false,"station_id":"TEB","line":2,"is_transit":false,"i_long":106.857948,"i_lat":-6.226659,"distance":2610},{"is_transit":false,"time":2,"transit":false,"i_long":106.856607,"line":2,"station_name":"Cawang","distance":1230,"station_id":"CW","i_lat":-6.242512},{"time":3,"i_lat":-6.255332,"distance":1546,"station_id":"DRN","i_long":106.85449,"transit":false,"station_name":"Duren Kalibata","line":2,"is_transit":false},{"transit":false,"distance":824,"station_name":"Pasar Minggu Baru","i_lat":-6.263214,"i_long":106.851577,"time":2,"is_transit":false,"station_id":"PSMB","line":2},{"time":2,"i_lat":-6.2842400000000005,"station_id":"PSM","station_name":"Pasar Minggu","distance":2380,"line":2,"i_long":106.843999,"transit":false,"is_transit":false},{"distance":2820,"transit":false,"is_transit":false,"time":4,"i_lat":-6.3080680000000005,"i_long":106.838896,"line":2,"station_id":"TNT","station_name":"Tanjung Barat"},{"line":2,"station_id":"LNA","i_lat":-6.330363,"distance":2671,"time":3,"is_transit":false,"station_name":"Lenteng Agung","i_long":106.832616,"transit":false},{"line":2,"time":2,"station_id":"UP","is_transit":false,"distance":1029,"i_long":106.834175,"i_lat":-6.339291,"transit":false,"station_name":"Univ. Pancasila"},{"i_lat":-6.360749,"distance":2264,"is_transit":false,"station_name":"Univ. Indonesia","time":3,"line":2,"station_id":"UI","transit":false,"i_long":106.831474},{"i_long":106.831114,"line":2,"i_lat":-6.369073,"distance":1109,"time":2,"station_id":"POC","is_transit":false,"station_name":"Pondok Cina","transit":false},{"is_transit":false,"station_id":"DPB","time":4,"line":2,"transit":false,"distance":2727,"i_lat":-6.391065,"i_long":106.819451,"station_name":"Depokbaru"},{"is_transit":false,"i_long":106.816926,"line":2,"distance":1584,"i_lat":-6.405256,"station_id":"DP","time":3,"station_name":"Depok","transit":false},{"transit":false,"station_id":"CTA","i_lat":-6.448811,"station_name":"Citayam","time":6,"i_long":106.800298,"line":2,"distance":5084,"is_transit":false},{"is_transit":false,"line":2,"station_name":"Bojonggede","i_lat":-6.493243,"time":5,"i_long":106.792719,"distance":5197,"station_id":"BJD","transit":false},{"time":5,"line":2,"is_transit":false,"transit":false,"i_lat":-6.530544,"station_name":"Cilebut","station_id":"CLT","i_long":106.800016,"distance":4331},{"is_transit":false,"i_lat":-6.594596,"distance":7514,"time":9,"i_long":106.790574,"station_id":"BOO","line":2,"transit":false,"station_name":"Bogor"}],[{"is_transit":false,"i_long":106.66566,"line":6,"station_id":"SRP","station_name":"Serpong","transit":false,"i_lat":-6.319871,"time":0,"distance":0},{"time":4,"i_lat":-6.314823,"i_long":106.675475,"transit":false,"line":6,"distance":2413,"is_transit":false,"station_id":"RU","station_name":"Rawa Buntu"},{"time":6,"is_transit":false,"distance":4566,"station_id":"SDM","i_long":106.712277,"line":6,"transit":false,"station_name":"Sudimara","i_lat":-6.296963},{"distance":1994,"line":6,"time":4,"station_name":"Jurangmangu","station_id":"JMU","is_transit":false,"i_lat":-6.288927,"i_long":106.728916,"transit":false},{"is_transit":false,"station_name":"Pondokranji","station_id":"PDJ","transit":false,"time":3,"line":6,"distance":2179,"i_long":106.74273,"i_lat":-6.276362},{"distance":6218,"is_transit":false,"line":6,"station_id":"KBY","transit":false,"i_long":106.780334,"time":8,"station_name":"Kebayoran","i_lat":-6.237242},{"line":6,"is_transit":false,"time":7,"i_long":106.79689,"transit":false,"station_id":"PLM","distance":3737,"i_lat":-6.207404,"station_name":"Palmerah"},{"station_id":"THB","is_transit":true,"station_name":"Tanah Abang","time":6,"distance":3191,"transit":true,"i_lat":-6.185545,"i_long":106.811091,"line":1},{"station_name":"Duri","is_transit":false,"line":1,"transit":false,"time":8,"i_lat":-6.155215,"i_long":106.800832,"station_id":"DU","distance":3632},{"i_long":106.79867,"time":4,"distance":1230,"is_transit":false,"line":1,"station_name":"Angke","transit":false,"station_id":"AK","i_lat":-6.144674},{"line":4,"i_lat":-6.132549,"time":9,"transit":true,"is_transit":true,"station_name":"Kampung Bandan","station_id":"KPB","i_long":106.826365,"distance":4102},{"line":11,"distance":1444,"station_name":"Rajawali","transit":false,"time":3,"station_id":"RJW","i_lat":-6.14505,"i_long":106.836569,"is_transit":false},{"distance":1901,"i_long":106.839204,"transit":false,"line":11,"station_id":"KMO","station_name":"Kemayoran","is_transit":false,"time":5,"i_lat":-6.161728},{"i_long":106.84368,"station_name":"Pasar Senen","distance":1436,"station_id":"PSE","line":11,"is_transit":false,"transit":false,"i_lat":-6.174784,"time":4},{"i_lat":-6.185975,"distance":1567,"time":8,"is_transit":false,"i_long":106.850107,"station_id":"GST","station_name":"Gang Sentiong","line":11,"transit":false},{"station_id":"KMT","distance":973,"station_name":"Kramat","i_lat":-6.193792,"time":1,"i_long":106.855437,"line":11,"is_transit":false,"transit":false},{"station_id":"POK","is_transit":false,"transit":false,"distance":1829,"station_name":"Pondok Jati","time":2,"i_lat":-6.209188,"i_long":106.861737,"line":11},{"transit":true,"distance":1236,"is_transit":true,"time":9,"station_name":"Jatinegara","station_id":"JNG","i_lat":-6.215091,"i_long":106.86807400000001,"line":1},{"transit":false,"station_id":"MTR","distance":1377,"is_transit":false,"i_lat":-6.212485,"time":2,"line":1,"i_long":106.858896,"station_name":"Matraman"},{"i_long":106.84912,"time":2,"i_lat":-6.209883,"is_transit":true,"distance":1275,"transit":true,"station_name":"Manggarai","station_id":"MRI","line":2},{"station_name":"Tebet","station_id":"TEB","is_transit":false,"i_lat":-6.226659,"i_long":106.857948,"line":2,"distance":2610,"time":4,"transit":false},{"distance":1230,"transit":false,"station_name":"Cawang","time":2,"is_transit":false,"i_long":106.856607,"line":2,"station_id":"CW","i_lat":-6.242512},{"time":3,"i_long":106.85449,"line":2,"is_transit":false,"i_lat":-6.255332,"station_id":"DRN","distance":1546,"station_name":"Duren Kalibata","transit":false},{"transit":false,"distance":824,"station_name":"Pasar Minggu Baru","time":2,"line":2,"station_id":"PSMB","i_long":106.851577,"is_transit":false,"i_lat":-6.263214},{"distance":2380,"transit":false,"is_transit":false,"station_name":"Pasar Minggu","i_long":106.843999,"line":2,"i_lat":-6.2842400000000005,"station_id":"PSM","time":2},{"i_long":106.838896,"distance":2820,"line":2,"station_name":"Tanjung Barat","is_transit":false,"station_id":"TNT","transit":false,"time":4,"i_lat":-6.3080680000000005},{"i_long":106.832616,"distance":2671,"station_id":"LNA","transit":false,"time":3,"line":2,"station_name":"Lenteng Agung","i_lat":-6.330363,"is_transit":false},{"distance":1029,"i_lat":-6.339291,"transit":false,"station_id":"UP","station_name":"Univ. Pancasila","line":2,"i_long":106.834175,"time":2,"is_transit":false},{"transit":false,"is_transit":false,"i_lat":-6.360749,"distance":2264,"time":3,"station_name":"Univ. Indonesia","i_long":106.831474,"line":2,"station_id":"UI"},{"time":2,"i_lat":-6.369073,"distance":1109,"station_id":"POC","station_name":"Pondok Cina","i_long":106.831114,"transit":false,"line":2,"is_transit":false},{"station_id":"DPB","time":4,"distance":2727,"line":2,"i_lat":-6.391065,"is_transit":false,"i_long":106.819451,"transit":false,"station_name":"Depokbaru"},{"line":2,"transit":false,"station_name":"Depok","i_lat":-6.405256,"i_long":106.816926,"station_id":"DP","time":3,"is_transit":false,"distance":1584},{"time":6,"i_long":106.800298,"is_transit":false,"i_lat":-6.448811,"station_id":"CTA","line":2,"station_name":"Citayam","distance":5084,"transit":false},{"station_id":"BJD","i_long":106.792719,"station_name":"Bojonggede","line":2,"distance":5197,"transit":false,"is_transit":false,"i_lat":-6.493243,"time":5},{"time":5,"is_transit":false,"transit":false,"i_lat":-6.530544,"i_long":106.800016,"station_id":"CLT","distance":4331,"station_name":"Cilebut","line":2},{"is_transit":false,"i_long":106.790574,"time":9,"station_name":"Bogor","i_lat":-6.594596,"station_id":"BOO","distance":7514,"line":2,"transit":false}]]}