{"data":[[{"is_transit":false,"transit":false,"station_id":"SRP","time":0,"line":6,"station_name":"Serpong","i_lat":-6.319871,"i_long":106.66566,"distance":0},{"transit":false,"time":4,"i_long":106.675475,"is_transit":false,"distance":2413,"line":6,"station_id":"RU","station_name":"Rawa Buntu","i_lat":-6.314823},{"time":6,"is_transit":false,"i_long":106.712277,"line":6,"distance":4566,"i_lat":-6.296963,"station_name":"Sudimara","transit":false,"station_id":"SDM"},{"is_transit":false,"distance":1994,"station_name":"Jurangmangu","time":4,"i_long":106.728916,"line":6,"i_lat":-6.288927,"station_id":"JMU","transit":false},{"transit":false,"i_long":106.74273,"distance":2179,"i_lat":-6.276362,"line":6,"station_name":"Pondokranji","is_transit":false,"time":3,"station_id":"PDJ"},{"distance":6218,"time":8,"line":6,"station_name":"Kebayoran","station_id":"KBY","i_long":106.780334,"i_lat":-6.237242,"transit":false,"is_transit":false},{"distance":3737,"is_transit":false,"i_long":106.79689,"station_id":"PLM","line":6,"i_lat":-6.207404,"time":7,"transit":false,"station_name":"Palmerah"},{"i_lat":-6.185545,"station_id":"THB","station_name":"Tanah Abang","time":6,"i_long":106.811091,"line":1,"distance":3191,"transit":true,"is_transit":true},{"i_lat":-6.155215,"line":1,"time":8,"is_transit":true,"distance":3632,"i_long":106.800832,"station_id":"DU","transit":true,"station_name":"Duri"},{"time":3,"transit":false,"i_lat":-6.162021,"station_id":"GGL","station_name":"Grogol","is_transit":false,"distance":1700,"i_long":106.788277,"line":5},{"distance":2036,"line":5,"is_transit":false,"transit":false,"station_name":"Pesing","time":2,"i_long":106.771379,"station_id":"PSG","i_lat":-6.161433},{"transit":false,"station_name":"Taman Kota","time":2,"distance":1614,"is_transit":false,"station_id":"TKO","line":5,"i_long":106.756522,"i_lat":-6.1587309999999995},{"station_name":"Bojongindah","transit":false,"i_long":106.737035,"line":5,"is_transit":false,"distance":2334,"station_id":"BOI","time":2,"i_lat":-6.159876},{"line":5,"distance":1152,"station_id":"RW","station_name":"Rawa Buaya","is_transit":false,"transit":false,"i_lat":-6.162758,"time":4,"i_long":106.723064},{"is_transit":false,"station_name":"Kalideres","time":3,"transit":false,"i_lat":-6.166068,"station_id":"KDS","i_long":106.701612,"distance":2504,"line":5},{"is_transit":false,"station_id":"PI","i_long":106.679458,"time":3,"i_lat":-6.169933,"line":5,"transit":false,"distance":2548,"station_name":"Poris"}],[{"is_transit":false,"distance":0,"i_lat":-6.319871,"i_long":106.66566,"station_id":"SRP","line":6,"transit":false,"station_name":"Serpong","time":0},{"i_lat":-6.314823,"i_long":106.675475,"station_id":"RU","station_name":"Rawa Buntu","transit":false,"time":4,"is_transit":false,"distance":2413,"line":6},{"distance":4566,"transit":false,"line":6,"station_name":"Sudimara","is_transit":false,"time":6,"i_long":106.712277,"i_lat":-6.296963,"station_id":"SDM"},{"distance":1994,"time":4,"transit":false,"is_transit":false,"station_name":"Jurangmangu","line":6,"station_id":"JMU","i_lat":-6.288927,"i_long":106.728916},{"line":6,"i_long":106.74273,"station_id":"PDJ","time":3,"transit":false,"station_name":"Pondokranji","distance":2179,"i_lat":-6.276362,"is_transit":false},{"time":8,"station_name":"Kebayoran","i_long":106.780334,"station_id":"KBY","line":6,"is_transit":false,"distance":6218,"transit":false,"i_lat":-6.237242},{"time":7,"distance":3737,"station_name":"Palmerah","transit":false,"is_transit":false,"i_lat":-6.207404,"line":6,"i_long":106.79689,"station_id":"PLM"},{"transit":true,"time":6,"station_name":"Tanah Abang","station_id":"THB","is_transit":true,"i_lat":-6.185545,"distance":3191,"i_long":106.811091,"line":1},{"is_transit":false,"time":5,"transit":false,"distance":2029,"station_name":"Karet","i_lat":-6.20132,"station_id":"KAT","i_long":106.816351,"line":1},{"station_name":"Sudirman Baru","station_id":"SUDB","transit":false,"time":1,"is_transit":false,"i_lat":-6.201433,"i_long":106.819881,"distance":471,"line":1},{"time":1,"line":1,"station_name":"Sudirman","station_id":"SUD","transit":false,"i_long":106.822649,"is_transit":false,"distance":280,"i_lat":-6.202263},{"time":4,"distance":3186,"line":2,"i_long":106.84912,"transit":true,"station_id":"MRI","is_transit":true,"station_name":"Manggarai","i_lat":-6.209883},{"transit":false,"i_lat":-6.198556,"distance":1590,"station_name":"Cikini","station_id":"CKI","is_transit":false,"line":2,"time":4,"i_long":106.840169},{"time":3,"station_id":"GDD","is_transit":false,"station_name":"Gondangdia","distance":1750,"transit":false,"line":2,"i_lat":-6.186295,"i_long":106.832183},{"transit":false,"time":4,"distance":2015,"station_name":"Juanda","i_lat":-6.166716,"i_long":106.828284,"station_id":"JUA","line":2,"is_transit":false},{"distance":1149,"transit":false,"is_transit":false,"i_lat":-6.160725,"station_id":"SW","time":2,"station_name":"Sawah Besar","i_long":106.827103,"line":2},{"line":2,"distance":906,"i_long":106.82482,"station_name":"Manggabesar","i_lat":-6.149769,"is_transit":false,"time":2,"station_id":"MGB","transit":false},{"i_lat":-6.141205,"station_name":"Jayakarta","transit":false,"time":2,"i_long":106.820901,"distance":1080,"line":2,"is_transit":false,"station_id":"JAY"},{"line":2,"time":4,"i_long":106.812439,"station_name":"Jakarta Kota","i_lat":-6.137569,"is_transit":true,"transit":true,"station_id":"JAKK","distance":1264},{"is_transit":true,"transit":true,"station_id":"KPB","station_name":"Kampung Bandan","time":3,"distance":1364,"i_lat":-6.132549,"i_long":106.826365,"line":4},{"transit":false,"station_id":"AK","time":9,"is_transit":false,"distance":4102,"i_lat":-6.144674,"line":1,"station_name":"Angke","i_long":106.79867},{"i_long":106.800832,"time":4,"station_name":"Duri","i_lat":-6.155215,"transit":true,"station_id":"DU","line":1,"is_transit":true,"distance":1230},{"transit":false,"station_id":"GGL","time":3,"distance":1700,"i_lat":-6.162021,"line":5,"station_name":"Grogol","i_long":106.788277,"is_transit":false},{"distance":2036,"station_name":"Pesing","station_id":"PSG","i_lat":-6.161433,"i_long":106.771379,"transit":false,"line":5,"is_transit":false,"time":2},{"is_transit":false,"station_id":"TKO","i_long":106.756522,"transit":false,"distance":1614,"line":5,"station_name":"Taman Kota","time":2,"i_lat":-6.1587309999999995},{"i_lat":-6.159876,"transit":false,"station_name":"Bojongindah","line":5,"station_id":"BOI","is_transit":false,"time":2,"distance":2334,"i_long":106.737035},{"station_id":"RW","transit":false,"station_name":"Rawa Buaya","line":5,"is_transit":false,"time":4,"distance":1152,"i_long":106.723064,"i_lat":-6.162758},{"is_transit":false,"station_name":"Kalideres","station_id":"KDS","i_lat":-6.166068,"i_long":106.701612,"distance":2504,"line":5,"time":3,"transit":false},{"transit":false,"is_transit":false,"i_long":106.679458,"time":3,"distance":2548,"line":5,"station_name":"Poris","station_id":"PI","i_lat":-6.169933}],[{"transit":false,"i_lat":-6.319871,"distance":0,"line":6,"station_id":"SRP","i_long":106.66566,"time":0,"is_transit":false,"station_name":"Serpong"},{"i_long":106.675475,"distance":2413,"transit":false,"station_id":"RU","is_transit":false,"station_name":"Rawa Buntu","i_lat":-6.314823,"line":6,"time":4},{"transit":false,"station_id":"SDM","is_transit":false,"distance":4566,"i_long":106.712277,"i_lat":-6.296963,"time":6,"station_name":"Sudimara","line":6},{"station_name":"Jurangmangu","station_id":"JMU","is_transit":false,"time":4,"distance":1994,"i_lat":-6.288927,"i_long":106.728916,"line":6,"transit":false},{"station_id":"PDJ","line":6,"transit":false,"time":3,"station_name":"Pondokranji","is_transit":false,"distance":2179,"i_lat":-6.276362,"i_long":106.74273},{"line":6,"is_transit":false,"time":8,"station_name":"Kebayoran","transit":false,"distance":6218,"station_id":"KBY","i_lat":-6.237242,"i_long":106.780334},{"time":7,"transit":false,"line":6,"is_transit":false,"station_name":"Palmerah","distance":3737,"i_lat":-6.207404,"station_id":"PLM","i_long":106.79689},{"i_lat":-6.185545,"station_id":"THB","i_long":106.811091,"is_transit":true,"transit":true,"distance":3191,"line":1,"station_name":"Tanah Abang","time":6},{"is_transit":false,"time":5,"i_lat":-6.20132,"station_name":"Karet","distance":2029,"transit":false,"station_id":"KAT","line":1,"i_long":106.816351},{"station_id":"SUDB","i_lat":-6.201433,"station_name":"Sudirman Baru","is_transit":false,"transit":false,"time":1,"distance":471,"i_long":106.819881,"line":1},{"i_long":106.822649,"transit":false,"station_id":"SUD","distance":280,"time":1,"station_name":"Sudirman","i_lat":-6.202263,"line":1,"is_transit":false},{"i_lat":-6.209883,"station_name":"Manggarai","station_id":"MRI","time":4,"distance":3186,"transit":false,"line":2,"is_transit":false,"i_long":106.84912},{"time":2,"distance":1275,"i_lat":-6.212485,"i_long":106.858896,"station_id":"MTR","station_name":"Matraman","transit":false,"line":1,"is_transit":false},{"is_transit":true,"i_lat":-6.215091,"transit":true,"distance":1377,"i_long":106.86807400000001,"line":1,"time":8,"station_id":"JNG","station_name":"Jatinegara"},{"line":11,"station_id":"POK","transit":false,"time":2,"station_name":"Pondok Jati","distance":1236,"is_transit":false,"i_lat":-6.209188,"i_long":106.861737},{"distance":1829,"transit":false,"station_id":"KMT","is_transit":false,"time":2,"station_name":"Kramat","line":11,"i_lat":-6.193792,"i_long":106.855437},{"transit":false,"i_lat":-6.185975,"time":1,"i_long":106.850107,"station_name":"Gang Sentiong","line":11,"distance":973,"is_transit":false,"station_id":"GST"},{"is_transit":false,"i_lat":-6.174784,"line":11,"station_id":"PSE","time":8,"i_long":106.84368,"distance":1567,"transit":false,"station_name":"Pasar Senen"},{"i_lat":-6.161728,"transit":false,"is_transit":false,"station_id":"KMO","distance":1436,"line":11,"i_long":106.839204,"station_name":"Kemayoran","time":4},{"transit":false,"distance":1901,"i_lat":-6.14505,"is_transit":false,"station_name":"Rajawali","time":5,"station_id":"RJW","i_long":106.836569,"line":11},{"i_lat":-6.132549,"i_long":106.826365,"line":4,"station_name":"Kampung Bandan","is_transit":true,"transit":true,"station_id":"KPB","time":3,"distance":1444},{"station_id":"AK","distance":4102,"i_lat":-6.144674,"is_transit":false,"time":9,"line":1,"station_name":"Angke","i_long":106.79867,"transit":false},{"transit":true,"station_name":"Duri","distance":1230,"line":1,"i_long":106.800832,"time":4,"is_transit":true,"i_lat":-6.155215,"station_id":"DU"},{"distance":1700,"i_long":106.788277,"station_id":"GGL","is_transit":false,"station_name":"Grogol","transit":false,"time":3,"i_lat":-6.162021,"line":5},{"i_long":106.771379,"i_lat":-6.161433,"transit":false,"is_transit":false,"time":2,"station_id":"PSG","distance":2036,"station_name":"Pesing","line":5},{"station_name":"Taman Kota","i_long":106.756522,"distance":1614,"i_lat":-6.1587309999999995,"station_id":"TKO","line":5,"transit":false,"time":2,"is_transit":false},{"station_id":"BOI","i_lat":-6.159876,"time":2,"station_name":"Bojongindah","transit":false,"i_long":106.737035,"line":5,"distance":2334,"is_transit":false},{"line":5,"is_transit":false,"station_id":"RW","i_lat":-6.162758,"i_long":106.723064,"station_name":"Rawa Buaya","time":4,"transit":false,"distance":1152},{"i_long":106.701612,"station_name":"Kalideres","line":5,"i_lat":-6.166068,"transit":false,"time":3,"station_id":"KDS","distance":2504,"is_transit":false},{"line":5,"station_id":"PI","time":3,"station_name":"Poris","i_lat":-6.169933,"i_long":106.679458,"transit":false,"distance":2548,"is_transit":false}]]}