{"data":[[{"time":0,"is_transit":false,"station_name":"Serpong","i_long":106.66566,"line":6,"transit":false,"distance":0,"station_id":"SRP","i_lat":-6.319871},{"station_id":"RU","line":6,"i_long":106.675475,"time":4,"is_transit":false,"station_name":"Rawa Buntu","distance":2413,"i_lat":-6.314823,"transit":false},{"distance":4566,"time":6,"line":6,"station_id":"SDM","is_transit":false,"station_name":"Sudimara","i_lat":-6.296963,"transit":false,"i_long":106.712277},{"distance":1994,"time":4,"i_long":106.728916,"station_id":"JMU","i_lat":-6.288927,"station_name":"Jurangmangu","is_transit":false,"line":6,"transit":false},{"station_id":"PDJ","station_name":"Pondokranji","i_lat":-6.276362,"i_long":106.74273,"line":6,"distance":2179,"is_transit":false,"time":3,"transit":false},{"station_name":"Kebayoran","i_lat":-6.237242,"line":6,"distance":6218,"i_long":106.780334,"is_transit":false,"transit":false,"time":8,"station_id":"KBY"},{"transit":false,"distance":3737,"i_long":106.79689,"station_id":"PLM","is_transit":false,"line":6,"i_lat":-6.207404,"time":7,"station_name":"Palmerah"}]]}