{"data":[[{"time":0,"line":6,"i_long":106.66566,"transit":false,"station_name":"Serpong","is_transit":false,"distance":0,"i_lat":-6.319871,"station_id":"SRP"},{"line":6,"i_lat":-6.314823,"station_name":"Rawa Buntu","is_transit":false,"distance":2413,"time":4,"i_long":106.675475,"transit":false,"station_id":"RU"},{"i_lat":-6.296963,"transit":false,"station_id":"SDM","is_transit":false,"time":6,"station_name":"Sudimara","distance":4566,"i_long":106.712277,"line":6},{"transit":false,"station_id":"JMU","line":6,"is_transit":false,"time":4,"i_lat":-6.288927,"station_name":"Jurangmangu","distance":1994,"i_long":106.728916},{"transit":false,"i_long":106.74273,"time":3,"distance":2179,"station_name":"Pondokranji","line":6,"station_id":"PDJ","is_transit":false,"i_lat":-6.276362},{"station_id":"KBY","transit":false,"i_lat":-6.237242,"station_name":"Kebayoran","line":6,"i_long":106.780334,"time":8,"is_transit":false,"distance":6218},{"station_name":"Palmerah","station_id":"PLM","line":6,"is_transit":false,"transit":false,"i_long":106.79689,"time":7,"distance":3737,"i_lat":-6.207404},{"line":1,"station_id":"THB","station_name":"Tanah Abang","distance":3191,"time":6,"i_long":106.811091,"transit":true,"i_lat":-6.185545,"is_transit":true},{"i_lat":-6.20132,"i_long":106.816351,"station_id":"KAT","is_transit":false,"time":5,"transit":false,"station_name":"Karet","distance":2029,"line":1},{"i_lat":-6.201433,"station_name":"Sudirman Baru","line":1,"is_transit":false,"time":1,"transit":false,"distance":471,"i_long":106.819881,"station_id":"SUDB"}],[{"i_lat":-6.319871,"station_id":"SRP","is_transit":false,"time":0,"station_name":"Serpong","distance":0,"line":6,"i_long":106.66566,"transit":false},{"is_transit":false,"station_id":"RU","line":6,"transit":false,"i_lat":-6.314823,"time":4,"i_long":106.675475,"distance":2413,"station_name":"Rawa Buntu"},{"transit":false,"distance":4566,"i_lat":-6.296963,"line":6,"time":6,"station_id":"SDM","is_transit":false,"i_long":106.712277,"station_name":"Sudimara"},{"station_id":"JMU","time":4,"is_transit":false,"station_name":"Jurangmangu","i_long":106.728916,"line":6,"transit":false,"distance":1994,"i_lat":-6.288927},{"distance":2179,"i_lat":-6.276362,"line":6,"is_transit":false,"time":3,"i_long":106.74273,"station_name":"Pondokranji","transit":false,"station_id":"PDJ"},{"line":6,"station_id":"KBY","transit":false,"time":8,"station_name":"Kebayoran","is_transit":false,"distance":6218,"i_long":106.780334,"i_lat":-6.237242},{"station_name":"Palmerah","transit":false,"station_id":"PLM","time":7,"i_lat":-6.207404,"distance":3737,"line":6,"i_long":106.79689,"is_transit":false},{"line":1,"i_lat":-6.185545,"transit":true,"distance":3191,"station_name":"Tanah Abang","is_transit":true,"station_id":"THB","i_long":106.811091,"time":6},{"i_long":106.800832,"line":1,"is_transit":false,"transit":false,"time":8,"station_name":"Duri","station_id":"DU","distance":3632,"i_lat":-6.155215},{"line":1,"distance":1230,"i_lat":-6.144674,"i_long":106.79867,"time":4,"station_id":"AK","is_transit":false,"transit":false,"station_name":"Angke"},{"distance":4102,"i_lat":-6.132549,"is_transit":true,"line":4,"time":9,"station_name":"Kampung Bandan","i_long":106.826365,"transit":true,"station_id":"KPB"},{"i_lat":-6.137569,"i_long":106.812439,"time":3,"is_transit":true,"distance":1364,"station_name":"Jakarta Kota","line":2,"station_id":"JAKK","transit":true},{"i_long":106.820901,"is_transit":false,"distance":1264,"station_id":"JAY","i_lat":-6.141205,"transit":false,"time":4,"station_name":"Jayakarta","line":2},{"time":2,"i_long":106.82482,"distance":1080,"i_lat":-6.149769,"station_id":"MGB","station_name":"Manggabesar","is_transit":false,"line":2,"transit":false},{"station_id":"SW","station_name":"Sawah Besar","distance":906,"i_lat":-6.160725,"i_long":106.827103,"time":2,"is_transit":false,"line":2,"transit":false},{"station_name":"Juanda","station_id":"JUA","i_lat":-6.166716,"transit":false,"i_long":106.828284,"line":2,"time":2,"is_transit":false,"distance":1149},{"i_long":106.832183,"line":2,"time":4,"is_transit":false,"i_lat":-6.186295,"station_id":"GDD","station_name":"Gondangdia","distance":2015,"transit":false},{"distance":1750,"line":2,"time":3,"i_long":106.840169,"i_lat":-6.198556,"transit":false,"is_transit":false,"station_name":"Cikini","station_id":"CKI"},{"transit":true,"distance":1590,"is_transit":true,"time":4,"station_name":"Manggarai","station_id":"MRI","i_lat":-6.209883,"line":2,"i_long":106.84912},{"is_transit":false,"i_lat":-6.202263,"i_long":106.822649,"time":4,"station_name":"Sudirman","transit":false,"line":1,"distance":3186,"station_id":"SUD"},{"station_name":"Sudirman Baru","transit":false,"is_transit":false,"station_id":"SUDB","time":1,"distance":280,"i_long":106.819881,"i_lat":-6.201433,"line":1}],[{"station_name":"Serpong","i_long":106.66566,"is_transit":false,"distance":0,"time":0,"i_lat":-6.319871,"transit":false,"line":6,"station_id":"SRP"},{"is_transit":false,"station_id":"RU","line":6,"transit":false,"i_long":106.675475,"distance":2413,"time":4,"i_lat":-6.314823,"station_name":"Rawa Buntu"},{"transit":false,"i_long":106.712277,"is_transit":false,"time":6,"station_name":"Sudimara","line":6,"distance":4566,"station_id":"SDM","i_lat":-6.296963},{"station_name":"Jurangmangu","transit":false,"i_lat":-6.288927,"i_long":106.728916,"is_transit":false,"time":4,"line":6,"distance":1994,"station_id":"JMU"},{"i_lat":-6.276362,"time":3,"station_name":"Pondokranji","station_id":"PDJ","is_transit":false,"distance":2179,"i_long":106.74273,"transit":false,"line":6},{"i_long":106.780334,"line":6,"is_transit":false,"transit":false,"station_name":"Kebayoran","time":8,"station_id":"KBY","i_lat":-6.237242,"distance":6218},{"i_long":106.79689,"is_transit":false,"line":6,"i_lat":-6.207404,"station_name":"Palmerah","station_id":"PLM","transit":false,"time":7,"distance":3737},{"is_transit":true,"i_lat":-6.185545,"station_id":"THB","station_name":"Tanah Abang","transit":true,"distance":3191,"time":6,"line":1,"i_long":106.811091},{"station_id":"DU","transit":false,"line":1,"station_name":"Duri","is_transit":false,"time":8,"i_long":106.800832,"distance":3632,"i_lat":-6.155215},{"station_name":"Angke","is_transit":false,"i_lat":-6.144674,"i_long":106.79867,"transit":false,"station_id":"AK","distance":1230,"time":4,"line":1},{"distance":4102,"station_id":"KPB","i_long":106.826365,"station_name":"Kampung Bandan","is_transit":true,"line":4,"transit":true,"time":9,"i_lat":-6.132549},{"station_id":"RJW","is_transit":false,"station_name":"Rajawali","i_long":106.836569,"transit":false,"distance":1444,"i_lat":-6.14505,"line":11,"time":3},{"is_transit":false,"i_lat":-6.161728,"line":11,"transit":false,"station_name":"Kemayoran","i_long":106.839204,"time":5,"station_id":"KMO","distance":1901},{"station_id":"PSE","distance":1436,"station_name":"Pasar Senen","i_lat":-6.174784,"transit":false,"time":4,"i_long":106.84368,"line":11,"is_transit":false},{"line":11,"time":8,"transit":false,"distance":1567,"i_lat":-6.185975,"is_transit":false,"i_long":106.850107,"station_id":"GST","station_name":"Gang Sentiong"},{"is_transit":false,"transit":false,"station_id":"KMT","i_long":106.855437,"station_name":"Kramat","i_lat":-6.193792,"line":11,"distance":973,"time":1},{"i_long":106.861737,"is_transit":false,"distance":1829,"station_name":"Pondok Jati","line":11,"i_lat":-6.209188,"station_id":"POK","time":2,"transit":false},{"i_long":106.86807400000001,"station_name":"Jatinegara","is_transit":true,"transit":true,"station_id":"JNG","i_lat":-6.215091,"time":9,"line":1,"distance":1236},{"time":2,"is_transit":false,"station_name":"Matraman","i_lat":-6.212485,"station_id":"MTR","distance":1377,"transit":false,"i_long":106.858896,"line":1},{"station_id":"MRI","i_lat":-6.209883,"i_long":106.84912,"is_transit":false,"time":2,"distance":1275,"line":2,"station_name":"Manggarai","transit":false},{"station_id":"SUD","i_long":106.822649,"transit":false,"time":4,"line":1,"station_name":"Sudirman","is_transit":false,"distance":3186,"i_lat":-6.202263},{"line":1,"station_id":"SUDB","i_long":106.819881,"is_transit":false,"distance":280,"transit":false,"station_name":"Sudirman Baru","time":1,"i_lat":-6.201433}]]}