{"data":[[{"time":0,"transit":false,"i_lat":-6.319871,"station_id":"SRP","line":6,"is_transit":false,"i_long":106.66566,"station_name":"Serpong","distance":0},{"i_long":106.675475,"time":4,"distance":2413,"transit":false,"line":6,"station_name":"Rawa Buntu","station_id":"RU","i_lat":-6.314823,"is_transit":false},{"transit":false,"station_name":"Sudimara","line":6,"time":6,"distance":4566,"i_lat":-6.296963,"is_transit":false,"i_long":106.712277,"station_id":"SDM"},{"station_id":"JMU","distance":1994,"i_lat":-6.288927,"line":6,"i_long":106.728916,"time":4,"station_name":"Jurangmangu","transit":false,"is_transit":false},{"line":6,"transit":false,"station_id":"PDJ","distance":2179,"station_name":"Pondokranji","i_long":106.74273,"is_transit":false,"time":3,"i_lat":-6.276362},{"distance":6218,"time":8,"station_id":"KBY","i_lat":-6.237242,"station_name":"Kebayoran","is_transit":false,"transit":false,"i_long":106.780334,"line":6},{"transit":false,"station_name":"Palmerah","distance":3737,"i_long":106.79689,"time":7,"line":6,"is_transit":false,"i_lat":-6.207404,"station_id":"PLM"},{"transit":true,"station_id":"THB","time":6,"i_long":106.811091,"is_transit":true,"i_lat":-6.185545,"station_name":"Tanah Abang","line":1,"distance":3191},{"transit":false,"station_id":"KAT","i_lat":-6.20132,"station_name":"Karet","is_transit":false,"i_long":106.816351,"line":1,"distance":2029,"time":5},{"station_id":"SUDB","transit":false,"time":1,"is_transit":false,"distance":471,"line":1,"station_name":"Sudirman Baru","i_long":106.819881,"i_lat":-6.201433},{"is_transit":false,"i_lat":-6.202263,"i_long":106.822649,"transit":false,"station_id":"SUD","distance":280,"station_name":"Sudirman","time":1,"line":1},{"transit":true,"station_id":"MRI","is_transit":true,"time":4,"i_lat":-6.209883,"distance":3186,"i_long":106.84912,"station_name":"Manggarai","line":2},{"i_long":106.857948,"i_lat":-6.226659,"station_id":"TEB","transit":false,"station_name":"Tebet","is_transit":false,"distance":2610,"line":2,"time":4},{"station_id":"CW","i_lat":-6.242512,"i_long":106.856607,"is_transit":false,"transit":false,"line":2,"distance":1230,"time":2,"station_name":"Cawang"},{"station_id":"DRN","is_transit":false,"time":3,"distance":1546,"i_lat":-6.255332,"i_long":106.85449,"line":2,"transit":false,"station_name":"Duren Kalibata"}],[{"transit":false,"is_transit":false,"station_name":"Serpong","line":6,"time":0,"i_long":106.66566,"i_lat":-6.319871,"station_id":"SRP","distance":0},{"time":4,"transit":false,"distance":2413,"station_name":"Rawa Buntu","line":6,"station_id":"RU","is_transit":false,"i_lat":-6.314823,"i_long":106.675475},{"i_lat":-6.296963,"line":6,"distance":4566,"station_id":"SDM","time":6,"transit":false,"i_long":106.712277,"station_name":"Sudimara","is_transit":false},{"station_id":"JMU","is_transit":false,"station_name":"Jurangmangu","distance":1994,"transit":false,"time":4,"i_long":106.728916,"i_lat":-6.288927,"line":6},{"station_id":"PDJ","i_lat":-6.276362,"is_transit":false,"station_name":"Pondokranji","distance":2179,"transit":false,"time":3,"i_long":106.74273,"line":6},{"time":8,"station_id":"KBY","distance":6218,"is_transit":false,"transit":false,"i_lat":-6.237242,"line":6,"station_name":"Kebayoran","i_long":106.780334},{"is_transit":false,"i_lat":-6.207404,"station_name":"Palmerah","station_id":"PLM","distance":3737,"i_long":106.79689,"line":6,"time":7,"transit":false},{"line":1,"station_name":"Tanah Abang","i_long":106.811091,"i_lat":-6.185545,"is_transit":true,"transit":true,"station_id":"THB","time":6,"distance":3191},{"is_transit":false,"distance":3632,"station_name":"Duri","i_lat":-6.155215,"station_id":"DU","line":1,"i_long":106.800832,"time":8,"transit":false},{"distance":1230,"line":1,"station_id":"AK","is_transit":false,"transit":false,"i_long":106.79867,"i_lat":-6.144674,"station_name":"Angke","time":4},{"station_name":"Kampung Bandan","i_lat":-6.132549,"is_transit":true,"distance":4102,"station_id":"KPB","time":9,"i_long":106.826365,"line":4,"transit":true},{"is_transit":true,"station_name":"Jakarta Kota","distance":1364,"i_lat":-6.137569,"transit":true,"time":3,"i_long":106.812439,"line":2,"station_id":"JAKK"},{"line":2,"station_name":"Jayakarta","transit":false,"is_transit":false,"i_long":106.820901,"i_lat":-6.141205,"distance":1264,"time":4,"station_id":"JAY"},{"line":2,"time":2,"is_transit":false,"station_name":"Manggabesar","distance":1080,"i_lat":-6.149769,"i_long":106.82482,"transit":false,"station_id":"MGB"},{"time":2,"line":2,"station_id":"SW","distance":906,"i_long":106.827103,"is_transit":false,"transit":false,"station_name":"Sawah Besar","i_lat":-6.160725},{"is_transit":false,"i_long":106.828284,"station_id":"JUA","i_lat":-6.166716,"distance":1149,"station_name":"Juanda","time":2,"line":2,"transit":false},{"station_name":"Gondangdia","distance":2015,"station_id":"GDD","time":4,"line":2,"i_lat":-6.186295,"i_long":106.832183,"is_transit":false,"transit":false},{"line":2,"time":3,"is_transit":false,"i_long":106.840169,"station_id":"CKI","transit":false,"distance":1750,"i_lat":-6.198556,"station_name":"Cikini"},{"transit":false,"time":4,"station_name":"Manggarai","distance":1590,"line":2,"station_id":"MRI","i_lat":-6.209883,"i_long":106.84912,"is_transit":false},{"time":4,"line":2,"transit":false,"station_id":"TEB","station_name":"Tebet","is_transit":false,"i_lat":-6.226659,"i_long":106.857948,"distance":2610},{"transit":false,"distance":1230,"time":2,"line":2,"station_id":"CW","i_long":106.856607,"is_transit":false,"station_name":"Cawang","i_lat":-6.242512},{"station_id":"DRN","station_name":"Duren Kalibata","is_transit":false,"transit":false,"i_lat":-6.255332,"time":3,"distance":1546,"i_long":106.85449,"line":2}],[{"transit":false,"distance":0,"is_transit":false,"i_long":106.66566,"i_lat":-6.319871,"line":6,"station_name":"Serpong","time":0,"station_id":"SRP"},{"is_transit":false,"i_long":106.675475,"i_lat":-6.314823,"line":6,"station_id":"RU","distance":2413,"time":4,"station_name":"Rawa Buntu","transit":false},{"station_name":"Sudimara","station_id":"SDM","time":6,"transit":false,"is_transit":false,"i_long":106.712277,"i_lat":-6.296963,"distance":4566,"line":6},{"transit":false,"station_name":"Jurangmangu","station_id":"JMU","time":4,"i_long":106.728916,"i_lat":-6.288927,"is_transit":false,"line":6,"distance":1994},{"line":6,"i_long":106.74273,"transit":false,"distance":2179,"station_id":"PDJ","i_lat":-6.276362,"time":3,"station_name":"Pondokranji","is_transit":false},{"i_long":106.780334,"i_lat":-6.237242,"time":8,"station_name":"Kebayoran","transit":false,"station_id":"KBY","is_transit":false,"distance":6218,"line":6},{"station_name":"Palmerah","is_transit":false,"transit":false,"time":7,"i_long":106.79689,"i_lat":-6.207404,"distance":3737,"line":6,"station_id":"PLM"},{"line":1,"distance":3191,"i_lat":-6.185545,"time":6,"station_id":"THB","transit":true,"is_transit":true,"i_long":106.811091,"station_name":"Tanah Abang"},{"station_id":"DU","i_lat":-6.155215,"station_name":"Duri","time":8,"distance":3632,"line":1,"i_long":106.800832,"is_transit":false,"transit":false},{"i_long":106.79867,"station_id":"AK","time":4,"station_name":"Angke","distance":1230,"line":1,"transit":false,"is_transit":false,"i_lat":-6.144674},{"transit":true,"is_transit":true,"station_id":"KPB","time":9,"distance":4102,"station_name":"Kampung Bandan","line":4,"i_long":106.826365,"i_lat":-6.132549},{"station_id":"RJW","time":3,"transit":false,"i_long":106.836569,"distance":1444,"line":11,"station_name":"Rajawali","is_transit":false,"i_lat":-6.14505},{"station_id":"KMO","distance":1901,"time":5,"i_lat":-6.161728,"line":11,"is_transit":false,"station_name":"Kemayoran","transit":false,"i_long":106.839204},{"i_lat":-6.174784,"station_id":"PSE","line":11,"is_transit":false,"distance":1436,"time":4,"transit":false,"station_name":"Pasar Senen","i_long":106.84368},{"transit":false,"i_long":106.850107,"station_id":"GST","distance":1567,"is_transit":false,"i_lat":-6.185975,"line":11,"time":8,"station_name":"Gang Sentiong"},{"i_long":106.855437,"line":11,"station_id":"KMT","time":1,"station_name":"Kramat","i_lat":-6.193792,"transit":false,"is_transit":false,"distance":973},{"time":2,"transit":false,"i_long":106.861737,"station_name":"Pondok Jati","i_lat":-6.209188,"line":11,"distance":1829,"station_id":"POK","is_transit":false},{"line":1,"is_transit":true,"time":9,"station_name":"Jatinegara","i_lat":-6.215091,"distance":1236,"transit":true,"station_id":"JNG","i_long":106.86807400000001},{"station_name":"Matraman","distance":1377,"is_transit":false,"transit":false,"time":2,"i_long":106.858896,"line":1,"i_lat":-6.212485,"station_id":"MTR"},{"i_long":106.84912,"line":2,"station_name":"Manggarai","distance":1275,"is_transit":true,"station_id":"MRI","transit":true,"time":2,"i_lat":-6.209883},{"i_lat":-6.226659,"line":2,"i_long":106.857948,"station_name":"Tebet","transit":false,"is_transit":false,"station_id":"TEB","time":4,"distance":2610},{"time":2,"distance":1230,"station_name":"Cawang","transit":false,"station_id":"CW","i_lat":-6.242512,"is_transit":false,"line":2,"i_long":106.856607},{"distance":1546,"i_lat":-6.255332,"time":3,"line":2,"station_id":"DRN","transit":false,"is_transit":false,"station_name":"Duren Kalibata","i_long":106.85449}]]}