{"data":[[{"station_name":"Serpong","distance":0,"i_lat":-6.319871,"i_long":106.66566,"transit":false,"time":0,"line":6,"station_id":"SRP","is_transit":false},{"i_long":106.675475,"distance":2413,"line":6,"time":4,"is_transit":false,"i_lat":-6.314823,"transit":false,"station_id":"RU","station_name":"Rawa Buntu"},{"is_transit":false,"station_name":"Sudimara","time":6,"transit":false,"i_long":106.712277,"station_id":"SDM","distance":4566,"i_lat":-6.296963,"line":6},{"i_lat":-6.288927,"station_name":"Jurangmangu","is_transit":false,"distance":1994,"line":6,"station_id":"JMU","transit":false,"i_long":106.728916,"time":4},{"i_lat":-6.276362,"distance":2179,"transit":false,"is_transit":false,"time":3,"station_name":"Pondokranji","i_long":106.74273,"line":6,"station_id":"PDJ"},{"station_name":"Kebayoran","i_long":106.780334,"distance":6218,"i_lat":-6.237242,"line":6,"time":8,"transit":false,"station_id":"KBY","is_transit":false},{"transit":false,"station_id":"PLM","i_long":106.79689,"station_name":"Palmerah","time":7,"is_transit":false,"i_lat":-6.207404,"line":6,"distance":3737},{"station_name":"Tanah Abang","line":1,"is_transit":true,"distance":3191,"i_lat":-6.185545,"i_long":106.811091,"time":6,"transit":true,"station_id":"THB"},{"is_transit":true,"station_name":"Duri","line":1,"transit":true,"distance":3632,"i_long":106.800832,"time":8,"i_lat":-6.155215,"station_id":"DU"},{"is_transit":false,"station_name":"Grogol","transit":false,"i_lat":-6.162021,"distance":1700,"i_long":106.788277,"station_id":"GGL","time":3,"line":5},{"is_transit":false,"line":5,"time":2,"station_id":"PSG","station_name":"Pesing","i_lat":-6.161433,"distance":2036,"i_long":106.771379,"transit":false},{"station_name":"Taman Kota","transit":false,"time":2,"i_lat":-6.1587309999999995,"distance":1614,"station_id":"TKO","line":5,"is_transit":false,"i_long":106.756522},{"i_long":106.737035,"distance":2334,"station_name":"Bojongindah","transit":false,"time":2,"station_id":"BOI","is_transit":false,"i_lat":-6.159876,"line":0},{"is_transit":false,"time":4,"station_id":"RW","transit":false,"distance":1152,"station_name":"Rawa Buaya","i_lat":-6.162758,"i_long":106.723064,"line":5},{"i_long":106.701612,"distance":2504,"station_name":"Kalideres","station_id":"KDS","transit":false,"time":3,"is_transit":false,"i_lat":-6.166068,"line":5},{"transit":false,"i_lat":-6.169933,"station_id":"PI","is_transit":false,"distance":2548,"line":5,"i_long":106.679458,"time":3,"station_name":"Poris"},{"i_long":106.665036,"time":3,"line":0,"station_id":"BPR","i_lat":-6.171811,"station_name":"Batuceper","is_transit":false,"transit":false,"distance":1834},{"time":3,"line":5,"transit":false,"station_id":"TTI","distance":2028,"i_lat":-6.17331,"is_transit":false,"i_long":106.64657,"station_name":"Tanah Tinggi"}],[{"transit":false,"is_transit":false,"station_id":"SRP","distance":0,"time":0,"i_lat":-6.319871,"line":6,"i_long":106.66566,"station_name":"Serpong"},{"distance":2413,"time":4,"is_transit":false,"i_lat":-6.314823,"line":6,"i_long":106.675475,"station_id":"RU","station_name":"Rawa Buntu","transit":false},{"is_transit":false,"distance":4566,"station_id":"SDM","transit":false,"i_long":106.712277,"station_name":"Sudimara","i_lat":-6.296963,"time":6,"line":6},{"station_name":"Jurangmangu","line":6,"i_lat":-6.288927,"station_id":"JMU","transit":false,"i_long":106.728916,"distance":1994,"time":4,"is_transit":false},{"is_transit":false,"station_name":"Pondokranji","time":3,"i_lat":-6.276362,"i_long":106.74273,"line":6,"station_id":"PDJ","transit":false,"distance":2179},{"time":8,"station_name":"Kebayoran","i_lat":-6.237242,"line":6,"i_long":106.780334,"distance":6218,"is_transit":false,"station_id":"KBY","transit":false},{"station_id":"PLM","distance":3737,"time":7,"i_long":106.79689,"transit":false,"line":6,"i_lat":-6.207404,"station_name":"Palmerah","is_transit":false},{"distance":3191,"is_transit":true,"station_id":"THB","station_name":"Tanah Abang","time":6,"i_long":106.811091,"i_lat":-6.185545,"line":1,"transit":true},{"distance":2029,"time":5,"i_lat":-6.20132,"transit":false,"i_long":106.816351,"station_name":"Karet","station_id":"KAT","is_transit":false,"line":1},{"distance":471,"line":1,"station_name":"Sudirman Baru","station_id":"SUDB","transit":false,"time":1,"i_lat":-6.201433,"i_long":106.819881,"is_transit":false},{"transit":false,"is_transit":false,"line":1,"station_id":"SUD","distance":280,"station_name":"Sudirman","time":1,"i_lat":-6.202263,"i_long":106.822649},{"station_name":"Manggarai","transit":true,"i_long":106.84912,"line":0,"i_lat":-6.209883,"distance":3186,"station_id":"MRI","time":4,"is_transit":true},{"station_name":"Cikini","station_id":"CKI","i_lat":-6.198556,"distance":1590,"time":4,"is_transit":false,"i_long":106.840169,"transit":false,"line":0},{"transit":false,"time":3,"i_long":106.832183,"i_lat":-6.186295,"line":2,"distance":1750,"is_transit":false,"station_id":"GDD","station_name":"Gondangdia"},{"transit":false,"is_transit":false,"distance":2015,"i_lat":-6.166716,"line":2,"station_id":"JUA","station_name":"Juanda","time":4,"i_long":106.828284},{"distance":1149,"is_transit":false,"time":2,"station_id":"SW","i_long":106.827103,"i_lat":-6.160725,"line":2,"station_name":"Sawah Besar","transit":false},{"is_transit":false,"station_name":"Manggabesar","i_lat":-6.149769,"time":2,"line":2,"station_id":"MGB","distance":906,"transit":false,"i_long":106.82482},{"station_name":"Jayakarta","transit":false,"is_transit":false,"i_long":106.820901,"time":2,"distance":1080,"i_lat":-6.141205,"station_id":"JAY","line":7},{"is_transit":true,"transit":true,"time":4,"i_long":106.812439,"distance":1264,"station_name":"Jakarta Kota","line":0,"station_id":"JAKK","i_lat":-6.137569},{"is_transit":true,"time":3,"distance":1364,"i_long":106.826365,"i_lat":-6.132549,"station_id":"KPB","station_name":"Kampung Bandan","transit":false,"line":0},{"transit":false,"i_long":106.79867,"is_transit":false,"station_id":"AK","line":0,"distance":4102,"i_lat":-6.144674,"station_name":"Angke","time":9},{"time":4,"station_name":"Duri","transit":true,"i_lat":-6.155215,"distance":1230,"line":1,"station_id":"DU","is_transit":true,"i_long":106.800832},{"station_name":"Grogol","distance":1700,"time":3,"station_id":"GGL","line":5,"transit":false,"i_lat":-6.162021,"is_transit":false,"i_long":106.788277},{"line":5,"station_id":"PSG","distance":2036,"time":2,"i_long":106.771379,"i_lat":-6.161433,"is_transit":false,"transit":false,"station_name":"Pesing"},{"station_id":"TKO","i_long":106.756522,"line":5,"is_transit":false,"time":2,"i_lat":-6.1587309999999995,"station_name":"Taman Kota","transit":false,"distance":1614},{"distance":2334,"i_long":106.737035,"station_name":"Bojongindah","time":2,"is_transit":false,"i_lat":-6.159876,"station_id":"BOI","line":0,"transit":false},{"i_lat":-6.162758,"is_transit":false,"station_name":"Rawa Buaya","i_long":106.723064,"station_id":"RW","distance":1152,"transit":false,"line":5,"time":4},{"i_lat":-6.166068,"station_id":"KDS","time":3,"is_transit":false,"station_name":"Kalideres","i_long":106.701612,"line":5,"distance":2504,"transit":false},{"line":5,"station_name":"Poris","is_transit":false,"transit":false,"time":3,"i_long":106.679458,"station_id":"PI","i_lat":-6.169933,"distance":2548},{"transit":false,"distance":1834,"station_id":"BPR","i_lat":-6.171811,"time":3,"is_transit":false,"station_name":"Batuceper","line":0,"i_long":106.665036},{"distance":2028,"station_name":"Tanah Tinggi","transit":false,"time":3,"i_long":106.64657,"i_lat":-6.17331,"line":5,"is_transit":false,"station_id":"TTI"}],[{"station_id":"SRP","time":0,"distance":0,"i_lat":-6.319871,"station_name":"Serpong","transit":false,"is_transit":false,"i_long":106.66566,"line":6},{"i_lat":-6.314823,"line":6,"transit":false,"i_long":106.675475,"distance":2413,"station_id":"RU","is_transit":false,"time":4,"station_name":"Rawa Buntu"},{"distance":4566,"is_transit":false,"station_id":"SDM","transit":false,"line":6,"station_name":"Sudimara","i_long":106.712277,"time":6,"i_lat":-6.296963},{"transit":false,"i_lat":-6.288927,"time":4,"station_id":"JMU","line":6,"distance":1994,"i_long":106.728916,"station_name":"Jurangmangu","is_transit":false},{"station_name":"Pondokranji","station_id":"PDJ","is_transit":false,"transit":false,"distance":2179,"i_long":106.74273,"time":3,"line":6,"i_lat":-6.276362},{"time":8,"transit":false,"line":6,"i_long":106.780334,"station_id":"KBY","station_name":"Kebayoran","i_lat":-6.237242,"is_transit":false,"distance":6218},{"station_name":"Palmerah","line":6,"station_id":"PLM","distance":3737,"i_lat":-6.207404,"is_transit":false,"time":7,"i_long":106.79689,"transit":false},{"is_transit":true,"transit":true,"i_long":106.811091,"station_id":"THB","time":6,"distance":3191,"i_lat":-6.185545,"line":1,"station_name":"Tanah Abang"},{"line":1,"station_id":"KAT","distance":2029,"i_lat":-6.20132,"i_long":106.816351,"station_name":"Karet","transit":false,"is_transit":false,"time":5},{"line":1,"distance":471,"time":1,"i_long":106.819881,"station_id":"SUDB","station_name":"Sudirman Baru","is_transit":false,"transit":false,"i_lat":-6.201433},{"is_transit":false,"transit":false,"line":1,"station_id":"SUD","i_long":106.822649,"distance":280,"time":1,"i_lat":-6.202263,"station_name":"Sudirman"},{"station_name":"Manggarai","line":0,"distance":3186,"i_long":106.84912,"transit":false,"station_id":"MRI","time":4,"is_transit":true,"i_lat":-6.209883},{"transit":false,"station_name":"Matraman","time":2,"distance":1275,"is_transit":false,"line":1,"station_id":"MTR","i_lat":-6.212485,"i_long":106.858896},{"transit":true,"i_lat":-6.215091,"distance":1377,"station_id":"JNG","is_transit":true,"station_name":"Jatinegara","time":8,"line":0,"i_long":106.86807400000001},{"transit":false,"station_name":"Pondok Jati","i_lat":-6.209188,"line":11,"station_id":"POK","time":2,"distance":1236,"i_long":106.861737,"is_transit":false},{"transit":false,"line":11,"time":2,"i_lat":-6.193792,"distance":1829,"is_transit":false,"station_name":"Kramat","station_id":"KMT","i_long":106.855437},{"line":11,"time":1,"station_id":"GST","transit":false,"i_lat":-6.185975,"distance":973,"i_long":106.850107,"is_transit":false,"station_name":"Gang Sentiong"},{"distance":1567,"station_name":"Pasar Senen","transit":false,"i_lat":-6.174784,"i_long":106.84368,"is_transit":false,"time":8,"station_id":"PSE","line":11},{"time":4,"is_transit":false,"line":11,"i_long":106.839204,"station_name":"Kemayoran","i_lat":-6.161728,"distance":1436,"station_id":"KMO","transit":false},{"i_long":106.836569,"is_transit":false,"transit":false,"i_lat":-6.14505,"distance":1901,"station_name":"Rajawali","line":11,"station_id":"RJW","time":5},{"distance":1444,"time":3,"i_long":106.826365,"station_name":"Kampung Bandan","is_transit":true,"station_id":"KPB","line":0,"transit":true,"i_lat":-6.132549},{"station_name":"Angke","station_id":"AK","transit":false,"i_long":106.79867,"line":0,"distance":4102,"is_transit":false,"time":9,"i_lat":-6.144674},{"is_transit":true,"station_name":"Duri","distance":1230,"station_id":"DU","transit":true,"time":4,"i_long":106.800832,"i_lat":-6.155215,"line":1},{"station_id":"GGL","distance":1700,"station_name":"Grogol","i_lat":-6.162021,"time":3,"is_transit":false,"i_long":106.788277,"transit":false,"line":5},{"is_transit":false,"i_long":106.771379,"line":5,"time":2,"i_lat":-6.161433,"station_id":"PSG","station_name":"Pesing","distance":2036,"transit":false},{"time":2,"is_transit":false,"i_long":106.756522,"distance":1614,"transit":false,"station_id":"TKO","station_name":"Taman Kota","i_lat":-6.1587309999999995,"line":5},{"i_long":106.737035,"distance":2334,"transit":false,"line":0,"i_lat":-6.159876,"station_name":"Bojongindah","time":2,"station_id":"BOI","is_transit":false},{"time":4,"distance":1152,"i_lat":-6.162758,"transit":false,"line":5,"i_long":106.723064,"station_name":"Rawa Buaya","station_id":"RW","is_transit":false},{"i_lat":-6.166068,"station_id":"KDS","transit":false,"line":5,"i_long":106.701612,"station_name":"Kalideres","time":3,"distance":2504,"is_transit":false},{"is_transit":false,"station_name":"Poris","transit":false,"distance":2548,"time":3,"line":5,"i_lat":-6.169933,"i_long":106.679458,"station_id":"PI"},{"line":0,"station_name":"Batuceper","is_transit":false,"station_id":"BPR","i_lat":-6.171811,"time":3,"i_long":106.665036,"transit":false,"distance":1834},{"station_id":"TTI","i_lat":-6.17331,"transit":false,"is_transit":false,"distance":2028,"line":5,"station_name":"Tanah Tinggi","time":3,"i_long":106.64657}]]}