{"data":[[{"time":0,"transit":false,"i_long":106.66566,"distance":0,"is_transit":false,"station_name":"Serpong","station_id":"SRP","i_lat":-6.319871,"line":6},{"distance":2413,"i_lat":-6.314823,"station_name":"Rawa Buntu","i_long":106.675475,"station_id":"RU","time":4,"transit":false,"is_transit":false,"line":6},{"time":6,"i_lat":-6.296963,"line":6,"station_id":"SDM","transit":false,"distance":4566,"is_transit":false,"station_name":"Sudimara","i_long":106.712277},{"line":6,"station_id":"JMU","is_transit":false,"time":4,"distance":1994,"transit":false,"station_name":"Jurangmangu","i_lat":-6.288927,"i_long":106.728916},{"line":6,"i_long":106.74273,"i_lat":-6.276362,"station_id":"PDJ","time":3,"is_transit":false,"station_name":"Pondokranji","transit":false,"distance":2179},{"time":8,"is_transit":false,"transit":false,"station_name":"Kebayoran","i_long":106.780334,"i_lat":-6.237242,"line":6,"station_id":"KBY","distance":6218}]]}