{"data":[[{"distance":0,"i_long":106.66566,"time":0,"i_lat":-6.319871,"station_id":"SRP","station_name":"Serpong","is_transit":false,"transit":false,"line":6},{"distance":2413,"station_name":"Rawa Buntu","line":6,"station_id":"RU","i_lat":-6.314823,"transit":false,"i_long":106.675475,"time":4,"is_transit":false},{"distance":4566,"time":6,"i_long":106.712277,"i_lat":-6.296963,"line":6,"is_transit":false,"station_id":"SDM","station_name":"Sudimara","transit":false},{"i_lat":-6.288927,"i_long":106.728916,"is_transit":false,"transit":false,"distance":1994,"time":4,"line":6,"station_id":"JMU","station_name":"Jurangmangu"},{"distance":2179,"is_transit":false,"station_name":"Pondokranji","station_id":"PDJ","i_lat":-6.276362,"line":6,"time":3,"transit":false,"i_long":106.74273},{"station_id":"KBY","line":6,"time":8,"transit":false,"distance":6218,"is_transit":false,"station_name":"Kebayoran","i_lat":-6.237242,"i_long":106.780334},{"distance":3737,"station_name":"Palmerah","time":7,"i_long":106.79689,"line":6,"transit":false,"station_id":"PLM","i_lat":-6.207404,"is_transit":false},{"i_long":106.811091,"station_name":"Tanah Abang","distance":3191,"station_id":"THB","time":6,"is_transit":true,"transit":true,"i_lat":-6.185545,"line":1},{"transit":true,"time":8,"station_id":"DU","is_transit":true,"station_name":"Duri","i_long":106.800832,"line":1,"i_lat":-6.155215,"distance":3632},{"time":3,"is_transit":false,"station_id":"GGL","line":5,"i_lat":-6.162021,"distance":1700,"i_long":106.788277,"transit":false,"station_name":"Grogol"},{"i_long":106.771379,"station_id":"PSG","i_lat":-6.161433,"time":2,"is_transit":false,"distance":2036,"transit":false,"line":5,"station_name":"Pesing"},{"station_name":"Taman Kota","distance":1614,"is_transit":false,"i_lat":-6.1587309999999995,"i_long":106.756522,"station_id":"TKO","line":5,"time":2,"transit":false},{"station_name":"Bojongindah","line":0,"transit":false,"is_transit":false,"station_id":"BOI","i_lat":-6.159876,"time":2,"distance":2334,"i_long":106.737035},{"is_transit":false,"time":4,"station_name":"Rawa Buaya","station_id":"RW","i_long":106.723064,"distance":1152,"transit":false,"i_lat":-6.162758,"line":5},{"is_transit":false,"transit":false,"i_long":106.701612,"station_name":"Kalideres","line":5,"station_id":"KDS","distance":2504,"time":3,"i_lat":-6.166068},{"time":3,"i_long":106.679458,"transit":false,"line":5,"distance":2548,"is_transit":false,"station_name":"Poris","i_lat":-6.169933,"station_id":"PI"}],[{"i_long":106.66566,"transit":false,"station_name":"Serpong","distance":0,"is_transit":false,"station_id":"SRP","line":6,"i_lat":-6.319871,"time":0},{"i_long":106.675475,"time":4,"is_transit":false,"distance":2413,"line":6,"i_lat":-6.314823,"station_id":"RU","station_name":"Rawa Buntu","transit":false},{"is_transit":false,"i_long":106.712277,"station_name":"Sudimara","station_id":"SDM","transit":false,"distance":4566,"time":6,"line":6,"i_lat":-6.296963},{"i_lat":-6.288927,"i_long":106.728916,"line":6,"station_name":"Jurangmangu","transit":false,"time":4,"distance":1994,"station_id":"JMU","is_transit":false},{"is_transit":false,"transit":false,"time":3,"i_lat":-6.276362,"i_long":106.74273,"station_id":"PDJ","line":6,"distance":2179,"station_name":"Pondokranji"},{"station_name":"Kebayoran","transit":false,"i_long":106.780334,"line":6,"distance":6218,"time":8,"i_lat":-6.237242,"is_transit":false,"station_id":"KBY"},{"transit":false,"is_transit":false,"station_id":"PLM","station_name":"Palmerah","time":7,"i_lat":-6.207404,"i_long":106.79689,"distance":3737,"line":6},{"is_transit":true,"time":6,"i_lat":-6.185545,"i_long":106.811091,"line":1,"transit":true,"distance":3191,"station_id":"THB","station_name":"Tanah Abang"},{"transit":false,"line":1,"station_name":"Karet","is_transit":false,"i_long":106.816351,"distance":2029,"i_lat":-6.20132,"time":5,"station_id":"KAT"},{"distance":471,"is_transit":false,"i_lat":-6.201433,"station_id":"SUDB","transit":false,"station_name":"Sudirman Baru","line":1,"time":1,"i_long":106.819881},{"station_id":"SUD","transit":false,"distance":280,"is_transit":false,"i_lat":-6.202263,"station_name":"Sudirman","time":1,"line":1,"i_long":106.822649},{"distance":3186,"i_lat":-6.209883,"station_name":"Manggarai","station_id":"MRI","line":0,"is_transit":true,"i_long":106.84912,"transit":true,"time":4},{"is_transit":false,"line":0,"station_name":"Cikini","station_id":"CKI","time":4,"transit":false,"i_lat":-6.198556,"distance":1590,"i_long":106.840169},{"station_name":"Gondangdia","transit":false,"line":2,"station_id":"GDD","distance":1750,"i_lat":-6.186295,"time":3,"is_transit":false,"i_long":106.832183},{"distance":2015,"is_transit":false,"line":2,"station_name":"Juanda","i_long":106.828284,"transit":false,"i_lat":-6.166716,"time":4,"station_id":"JUA"},{"i_lat":-6.160725,"line":2,"i_long":106.827103,"station_name":"Sawah Besar","is_transit":false,"transit":false,"time":2,"station_id":"SW","distance":1149},{"is_transit":false,"time":2,"distance":906,"line":2,"station_name":"Manggabesar","station_id":"MGB","transit":false,"i_long":106.82482,"i_lat":-6.149769},{"transit":false,"line":7,"distance":1080,"station_id":"JAY","is_transit":false,"time":2,"station_name":"Jayakarta","i_lat":-6.141205,"i_long":106.820901},{"line":0,"is_transit":true,"transit":true,"time":4,"station_name":"Jakarta Kota","distance":1264,"i_long":106.812439,"station_id":"JAKK","i_lat":-6.137569},{"i_lat":-6.132549,"time":3,"i_long":106.826365,"station_id":"KPB","distance":1364,"line":0,"transit":false,"is_transit":true,"station_name":"Kampung Bandan"},{"i_long":106.79867,"station_name":"Angke","transit":false,"is_transit":false,"distance":4102,"line":0,"station_id":"AK","time":9,"i_lat":-6.144674},{"distance":1230,"transit":true,"is_transit":true,"time":4,"i_lat":-6.155215,"line":1,"station_id":"DU","station_name":"Duri","i_long":106.800832},{"i_lat":-6.162021,"line":5,"station_id":"GGL","station_name":"Grogol","i_long":106.788277,"is_transit":false,"transit":false,"time":3,"distance":1700},{"station_name":"Pesing","is_transit":false,"station_id":"PSG","distance":2036,"time":2,"i_lat":-6.161433,"line":5,"transit":false,"i_long":106.771379},{"distance":1614,"i_lat":-6.1587309999999995,"is_transit":false,"station_name":"Taman Kota","transit":false,"station_id":"TKO","i_long":106.756522,"line":5,"time":2},{"i_lat":-6.159876,"station_id":"BOI","is_transit":false,"transit":false,"time":2,"line":0,"station_name":"Bojongindah","distance":2334,"i_long":106.737035},{"i_long":106.723064,"transit":false,"distance":1152,"is_transit":false,"station_id":"RW","station_name":"Rawa Buaya","i_lat":-6.162758,"line":5,"time":4},{"i_long":106.701612,"distance":2504,"station_id":"KDS","station_name":"Kalideres","transit":false,"i_lat":-6.166068,"line":5,"time":3,"is_transit":false},{"time":3,"distance":2548,"i_long":106.679458,"station_name":"Poris","i_lat":-6.169933,"station_id":"PI","transit":false,"line":5,"is_transit":false}],[{"is_transit":false,"distance":0,"time":0,"station_id":"SRP","i_lat":-6.319871,"line":6,"transit":false,"i_long":106.66566,"station_name":"Serpong"},{"time":4,"is_transit":false,"station_id":"RU","station_name":"Rawa Buntu","distance":2413,"line":6,"i_lat":-6.314823,"i_long":106.675475,"transit":false},{"line":6,"i_lat":-6.296963,"transit":false,"station_name":"Sudimara","is_transit":false,"distance":4566,"time":6,"i_long":106.712277,"station_id":"SDM"},{"transit":false,"i_long":106.728916,"station_id":"JMU","line":6,"is_transit":false,"i_lat":-6.288927,"time":4,"station_name":"Jurangmangu","distance":1994},{"station_name":"Pondokranji","distance":2179,"time":3,"line":6,"station_id":"PDJ","is_transit":false,"transit":false,"i_lat":-6.276362,"i_long":106.74273},{"transit":false,"is_transit":false,"time":8,"i_long":106.780334,"distance":6218,"station_id":"KBY","station_name":"Kebayoran","i_lat":-6.237242,"line":6},{"distance":3737,"is_transit":false,"i_long":106.79689,"station_id":"PLM","station_name":"Palmerah","line":6,"i_lat":-6.207404,"transit":false,"time":7},{"line":1,"distance":3191,"station_name":"Tanah Abang","i_long":106.811091,"i_lat":-6.185545,"station_id":"THB","transit":true,"is_transit":true,"time":6},{"time":5,"distance":2029,"i_lat":-6.20132,"station_name":"Karet","i_long":106.816351,"line":1,"transit":false,"is_transit":false,"station_id":"KAT"},{"time":1,"distance":471,"station_name":"Sudirman Baru","transit":false,"i_long":106.819881,"station_id":"SUDB","i_lat":-6.201433,"is_transit":false,"line":1},{"i_lat":-6.202263,"line":1,"station_name":"Sudirman","station_id":"SUD","time":1,"transit":false,"i_long":106.822649,"distance":280,"is_transit":false},{"i_lat":-6.209883,"distance":3186,"station_id":"MRI","time":4,"i_long":106.84912,"station_name":"Manggarai","is_transit":true,"line":0,"transit":false},{"station_id":"MTR","transit":false,"line":1,"time":2,"is_transit":false,"station_name":"Matraman","distance":1275,"i_lat":-6.212485,"i_long":106.858896},{"transit":true,"station_name":"Jatinegara","line":0,"distance":1377,"i_long":106.86807400000001,"is_transit":true,"time":8,"station_id":"JNG","i_lat":-6.215091},{"transit":false,"station_id":"POK","time":2,"is_transit":false,"station_name":"Pondok Jati","i_long":106.861737,"line":11,"distance":1236,"i_lat":-6.209188},{"line":11,"station_id":"KMT","i_long":106.855437,"time":2,"transit":false,"station_name":"Kramat","i_lat":-6.193792,"distance":1829,"is_transit":false},{"station_id":"GST","i_lat":-6.185975,"station_name":"Gang Sentiong","i_long":106.850107,"is_transit":false,"time":1,"transit":false,"distance":973,"line":11},{"i_long":106.84368,"distance":1567,"station_name":"Pasar Senen","is_transit":false,"transit":false,"i_lat":-6.174784,"line":11,"station_id":"PSE","time":8},{"station_id":"KMO","i_lat":-6.161728,"station_name":"Kemayoran","transit":false,"i_long":106.839204,"distance":1436,"time":4,"line":11,"is_transit":false},{"i_lat":-6.14505,"station_name":"Rajawali","time":5,"distance":1901,"is_transit":false,"line":11,"i_long":106.836569,"station_id":"RJW","transit":false},{"station_id":"KPB","is_transit":true,"distance":1444,"station_name":"Kampung Bandan","i_lat":-6.132549,"transit":true,"i_long":106.826365,"line":0,"time":3},{"i_long":106.79867,"line":0,"station_name":"Angke","distance":4102,"i_lat":-6.144674,"is_transit":false,"station_id":"AK","transit":false,"time":9},{"station_name":"Duri","transit":true,"i_long":106.800832,"line":1,"i_lat":-6.155215,"is_transit":true,"distance":1230,"station_id":"DU","time":4},{"transit":false,"time":3,"i_lat":-6.162021,"is_transit":false,"i_long":106.788277,"line":5,"station_id":"GGL","distance":1700,"station_name":"Grogol"},{"time":2,"distance":2036,"i_lat":-6.161433,"station_name":"Pesing","station_id":"PSG","is_transit":false,"line":5,"transit":false,"i_long":106.771379},{"i_lat":-6.1587309999999995,"station_name":"Taman Kota","line":5,"i_long":106.756522,"transit":false,"is_transit":false,"distance":1614,"station_id":"TKO","time":2},{"time":2,"is_transit":false,"station_name":"Bojongindah","i_lat":-6.159876,"line":0,"distance":2334,"station_id":"BOI","transit":false,"i_long":106.737035},{"transit":false,"distance":1152,"time":4,"is_transit":false,"station_name":"Rawa Buaya","i_lat":-6.162758,"i_long":106.723064,"line":5,"station_id":"RW"},{"distance":2504,"station_id":"KDS","transit":false,"is_transit":false,"i_lat":-6.166068,"station_name":"Kalideres","time":3,"line":5,"i_long":106.701612},{"is_transit":false,"station_name":"Poris","i_lat":-6.169933,"line":5,"transit":false,"time":3,"i_long":106.679458,"station_id":"PI","distance":2548}]]}