{"data":[[{"line":6,"station_id":"SRP","transit":false,"is_transit":false,"station_name":"Serpong","distance":0,"time":0,"i_lat":-6.319871,"i_long":106.66566},{"i_lat":-6.314823,"station_id":"RU","line":6,"time":4,"i_long":106.675475,"is_transit":false,"station_name":"Rawa Buntu","distance":2413,"transit":false},{"time":6,"transit":false,"station_name":"Sudimara","i_long":106.712277,"line":6,"is_transit":false,"distance":4566,"i_lat":-6.296963,"station_id":"SDM"},{"transit":false,"i_lat":-6.288927,"station_name":"Jurangmangu","station_id":"JMU","is_transit":false,"distance":1994,"i_long":106.728916,"line":6,"time":4},{"i_long":106.74273,"is_transit":false,"transit":false,"station_name":"Pondokranji","station_id":"PDJ","time":3,"distance":2179,"i_lat":-6.276362,"line":6},{"distance":6218,"transit":false,"i_lat":-6.237242,"station_id":"KBY","station_name":"Kebayoran","is_transit":false,"time":8,"i_long":106.780334,"line":6},{"distance":3737,"transit":false,"i_lat":-6.207404,"i_long":106.79689,"station_name":"Palmerah","time":7,"station_id":"PLM","line":6,"is_transit":false},{"line":1,"i_long":106.811091,"station_name":"Tanah Abang","time":6,"transit":true,"station_id":"THB","distance":3191,"i_lat":-6.185545,"is_transit":true},{"transit":false,"distance":2029,"i_lat":-6.20132,"line":1,"station_name":"Karet","station_id":"KAT","i_long":106.816351,"time":5,"is_transit":false},{"i_long":106.819881,"distance":471,"station_id":"SUDB","time":1,"is_transit":false,"transit":false,"line":1,"station_name":"Sudirman Baru","i_lat":-6.201433},{"line":1,"time":1,"is_transit":false,"i_lat":-6.202263,"i_long":106.822649,"station_id":"SUD","transit":false,"station_name":"Sudirman","distance":280},{"station_name":"Manggarai","is_transit":true,"time":4,"i_lat":-6.209883,"line":2,"station_id":"MRI","distance":3186,"transit":true,"i_long":106.84912},{"distance":2610,"transit":false,"station_name":"Tebet","time":4,"i_lat":-6.226659,"is_transit":false,"station_id":"TEB","i_long":106.857948,"line":2}],[{"station_name":"Serpong","distance":0,"i_lat":-6.319871,"station_id":"SRP","transit":false,"is_transit":false,"time":0,"i_long":106.66566,"line":6},{"time":4,"station_id":"RU","station_name":"Rawa Buntu","i_long":106.675475,"transit":false,"line":6,"distance":2413,"is_transit":false,"i_lat":-6.314823},{"distance":4566,"station_id":"SDM","transit":false,"time":6,"i_long":106.712277,"is_transit":false,"station_name":"Sudimara","line":6,"i_lat":-6.296963},{"distance":1994,"i_lat":-6.288927,"is_transit":false,"station_name":"Jurangmangu","transit":false,"station_id":"JMU","time":4,"i_long":106.728916,"line":6},{"station_name":"Pondokranji","is_transit":false,"transit":false,"i_lat":-6.276362,"station_id":"PDJ","time":3,"i_long":106.74273,"distance":2179,"line":6},{"transit":false,"is_transit":false,"time":8,"i_lat":-6.237242,"station_id":"KBY","line":6,"distance":6218,"station_name":"Kebayoran","i_long":106.780334},{"line":6,"station_id":"PLM","time":7,"transit":false,"station_name":"Palmerah","distance":3737,"i_long":106.79689,"is_transit":false,"i_lat":-6.207404},{"time":6,"distance":3191,"i_lat":-6.185545,"i_long":106.811091,"line":1,"transit":true,"station_id":"THB","is_transit":true,"station_name":"Tanah Abang"},{"station_id":"DU","transit":false,"distance":3632,"is_transit":false,"time":8,"i_lat":-6.155215,"i_long":106.800832,"station_name":"Duri","line":1},{"i_lat":-6.144674,"transit":false,"time":4,"i_long":106.79867,"station_name":"Angke","station_id":"AK","is_transit":false,"line":1,"distance":1230},{"time":9,"i_long":106.826365,"line":4,"distance":4102,"station_id":"KPB","i_lat":-6.132549,"is_transit":true,"station_name":"Kampung Bandan","transit":true},{"line":2,"transit":true,"station_id":"JAKK","time":3,"i_lat":-6.137569,"is_transit":true,"distance":1364,"i_long":106.812439,"station_name":"Jakarta Kota"},{"time":4,"station_id":"JAY","station_name":"Jayakarta","is_transit":false,"line":2,"transit":false,"distance":1264,"i_lat":-6.141205,"i_long":106.820901},{"station_id":"MGB","is_transit":false,"time":2,"i_lat":-6.149769,"station_name":"Manggabesar","line":2,"transit":false,"i_long":106.82482,"distance":1080},{"time":2,"distance":906,"transit":false,"i_lat":-6.160725,"i_long":106.827103,"line":2,"station_name":"Sawah Besar","is_transit":false,"station_id":"SW"},{"i_long":106.828284,"station_id":"JUA","distance":1149,"station_name":"Juanda","transit":false,"time":2,"i_lat":-6.166716,"line":2,"is_transit":false},{"station_name":"Gondangdia","distance":2015,"line":2,"time":4,"is_transit":false,"i_long":106.832183,"i_lat":-6.186295,"transit":false,"station_id":"GDD"},{"is_transit":false,"i_lat":-6.198556,"station_name":"Cikini","distance":1750,"time":3,"transit":false,"i_long":106.840169,"line":2,"station_id":"CKI"},{"is_transit":false,"line":2,"station_id":"MRI","transit":false,"distance":1590,"time":4,"station_name":"Manggarai","i_lat":-6.209883,"i_long":106.84912},{"station_id":"TEB","time":4,"distance":2610,"i_long":106.857948,"station_name":"Tebet","i_lat":-6.226659,"is_transit":false,"transit":false,"line":2}],[{"distance":0,"i_long":106.66566,"transit":false,"is_transit":false,"line":6,"station_id":"SRP","time":0,"i_lat":-6.319871,"station_name":"Serpong"},{"i_long":106.675475,"station_id":"RU","transit":false,"i_lat":-6.314823,"line":6,"is_transit":false,"station_name":"Rawa Buntu","distance":2413,"time":4},{"distance":4566,"line":6,"station_id":"SDM","transit":false,"i_lat":-6.296963,"station_name":"Sudimara","is_transit":false,"time":6,"i_long":106.712277},{"line":6,"station_name":"Jurangmangu","transit":false,"station_id":"JMU","is_transit":false,"time":4,"i_long":106.728916,"distance":1994,"i_lat":-6.288927},{"line":6,"distance":2179,"is_transit":false,"station_name":"Pondokranji","transit":false,"station_id":"PDJ","time":3,"i_lat":-6.276362,"i_long":106.74273},{"is_transit":false,"time":8,"i_lat":-6.237242,"transit":false,"station_id":"KBY","station_name":"Kebayoran","line":6,"i_long":106.780334,"distance":6218},{"station_id":"PLM","i_long":106.79689,"station_name":"Palmerah","line":6,"i_lat":-6.207404,"is_transit":false,"transit":false,"time":7,"distance":3737},{"transit":true,"line":1,"is_transit":true,"distance":3191,"i_long":106.811091,"i_lat":-6.185545,"time":6,"station_id":"THB","station_name":"Tanah Abang"},{"is_transit":false,"transit":false,"time":8,"i_long":106.800832,"station_id":"DU","line":1,"station_name":"Duri","i_lat":-6.155215,"distance":3632},{"distance":1230,"line":1,"i_lat":-6.144674,"is_transit":false,"time":4,"i_long":106.79867,"transit":false,"station_name":"Angke","station_id":"AK"},{"station_name":"Kampung Bandan","transit":true,"time":9,"distance":4102,"i_long":106.826365,"i_lat":-6.132549,"station_id":"KPB","is_transit":true,"line":4},{"is_transit":false,"i_lat":-6.14505,"distance":1444,"i_long":106.836569,"time":3,"line":11,"station_id":"RJW","station_name":"Rajawali","transit":false},{"i_lat":-6.161728,"i_long":106.839204,"is_transit":false,"time":5,"transit":false,"line":11,"station_id":"KMO","station_name":"Kemayoran","distance":1901},{"distance":1436,"i_lat":-6.174784,"line":11,"i_long":106.84368,"is_transit":false,"station_id":"PSE","transit":false,"time":4,"station_name":"Pasar Senen"},{"station_id":"GST","distance":1567,"i_long":106.850107,"line":11,"time":8,"i_lat":-6.185975,"is_transit":false,"transit":false,"station_name":"Gang Sentiong"},{"station_id":"KMT","transit":false,"time":1,"line":11,"distance":973,"station_name":"Kramat","is_transit":false,"i_long":106.855437,"i_lat":-6.193792},{"i_long":106.861737,"time":2,"station_id":"POK","is_transit":false,"line":11,"station_name":"Pondok Jati","transit":false,"i_lat":-6.209188,"distance":1829},{"line":1,"i_long":106.86807400000001,"station_id":"JNG","i_lat":-6.215091,"is_transit":true,"time":9,"distance":1236,"station_name":"Jatinegara","transit":true},{"distance":1377,"i_long":106.858896,"line":1,"time":2,"i_lat":-6.212485,"transit":false,"station_name":"Matraman","station_id":"MTR","is_transit":false},{"i_lat":-6.209883,"i_long":106.84912,"time":2,"is_transit":true,"transit":true,"line":2,"station_id":"MRI","station_name":"Manggarai","distance":1275},{"distance":2610,"i_long":106.857948,"is_transit":false,"time":4,"station_name":"Tebet","i_lat":-6.226659,"transit":false,"line":2,"station_id":"TEB"}]]}