{"data":[[{"distance":0,"line":6,"station_name":"Serpong","station_id":"SRP","i_lat":-6.319871,"i_long":106.66566,"transit":false,"time":0,"is_transit":false},{"station_name":"Rawa Buntu","is_transit":false,"distance":2413,"time":4,"station_id":"RU","line":6,"i_long":106.675475,"i_lat":-6.314823,"transit":false},{"time":6,"is_transit":false,"distance":4566,"i_lat":-6.296963,"i_long":106.712277,"station_name":"Sudimara","station_id":"SDM","line":6,"transit":false},{"transit":false,"line":6,"station_id":"JMU","distance":1994,"time":4,"station_name":"Jurangmangu","is_transit":false,"i_lat":-6.288927,"i_long":106.728916},{"station_name":"Pondokranji","station_id":"PDJ","i_lat":-6.276362,"is_transit":false,"transit":false,"distance":2179,"i_long":106.74273,"time":3,"line":6},{"time":8,"i_long":106.780334,"i_lat":-6.237242,"transit":false,"distance":6218,"station_id":"KBY","is_transit":false,"station_name":"Kebayoran","line":6},{"time":7,"i_long":106.79689,"line":6,"i_lat":-6.207404,"transit":false,"station_name":"Palmerah","station_id":"PLM","distance":3737,"is_transit":false},{"station_id":"THB","time":6,"line":1,"i_lat":-6.185545,"station_name":"Tanah Abang","transit":true,"is_transit":true,"i_long":106.811091,"distance":3191},{"i_long":106.800832,"station_id":"DU","is_transit":false,"distance":3632,"i_lat":-6.155215,"line":1,"station_name":"Duri","transit":false,"time":8},{"distance":1230,"i_lat":-6.144674,"line":1,"transit":false,"station_name":"Angke","station_id":"AK","is_transit":false,"i_long":106.79867,"time":4},{"i_lat":-6.132549,"i_long":106.826365,"line":4,"time":9,"transit":true,"station_name":"Kampung Bandan","is_transit":true,"distance":4102,"station_id":"KPB"},{"transit":true,"i_long":106.812439,"distance":1364,"station_name":"Jakarta Kota","time":3,"i_lat":-6.137569,"is_transit":true,"line":2,"station_id":"JAKK"},{"i_lat":-6.141205,"transit":false,"i_long":106.820901,"station_id":"JAY","is_transit":false,"station_name":"Jayakarta","distance":1264,"line":2,"time":4}],[{"station_id":"SRP","is_transit":false,"transit":false,"distance":0,"line":6,"i_long":106.66566,"i_lat":-6.319871,"station_name":"Serpong","time":0},{"transit":false,"i_long":106.675475,"station_name":"Rawa Buntu","is_transit":false,"time":4,"distance":2413,"station_id":"RU","i_lat":-6.314823,"line":6},{"station_name":"Sudimara","station_id":"SDM","time":6,"i_long":106.712277,"i_lat":-6.296963,"is_transit":false,"line":6,"distance":4566,"transit":false},{"distance":1994,"station_id":"JMU","station_name":"Jurangmangu","i_long":106.728916,"line":6,"transit":false,"is_transit":false,"time":4,"i_lat":-6.288927},{"distance":2179,"transit":false,"station_name":"Pondokranji","time":3,"i_lat":-6.276362,"station_id":"PDJ","is_transit":false,"line":6,"i_long":106.74273},{"distance":6218,"i_long":106.780334,"station_name":"Kebayoran","station_id":"KBY","line":6,"i_lat":-6.237242,"is_transit":false,"transit":false,"time":8},{"i_lat":-6.207404,"i_long":106.79689,"line":6,"station_id":"PLM","is_transit":false,"time":7,"distance":3737,"transit":false,"station_name":"Palmerah"},{"i_long":106.811091,"is_transit":true,"transit":true,"time":6,"line":1,"distance":3191,"i_lat":-6.185545,"station_id":"THB","station_name":"Tanah Abang"},{"station_name":"Karet","station_id":"KAT","time":5,"i_lat":-6.20132,"transit":false,"line":1,"is_transit":false,"distance":2029,"i_long":106.816351},{"i_long":106.819881,"time":1,"station_id":"SUDB","line":1,"is_transit":false,"station_name":"Sudirman Baru","transit":false,"distance":471,"i_lat":-6.201433},{"transit":false,"i_long":106.822649,"line":1,"distance":280,"i_lat":-6.202263,"is_transit":false,"time":1,"station_id":"SUD","station_name":"Sudirman"},{"is_transit":true,"i_lat":-6.209883,"i_long":106.84912,"transit":true,"station_id":"MRI","line":2,"station_name":"Manggarai","time":4,"distance":3186},{"i_long":106.840169,"time":4,"line":2,"is_transit":false,"transit":false,"station_id":"CKI","station_name":"Cikini","i_lat":-6.198556,"distance":1590},{"i_lat":-6.186295,"station_name":"Gondangdia","transit":false,"time":3,"station_id":"GDD","is_transit":false,"i_long":106.832183,"distance":1750,"line":2},{"distance":2015,"i_long":106.828284,"time":4,"transit":false,"station_name":"Juanda","line":2,"is_transit":false,"i_lat":-6.166716,"station_id":"JUA"},{"i_lat":-6.160725,"station_id":"SW","i_long":106.827103,"time":2,"line":2,"station_name":"Sawah Besar","transit":false,"is_transit":false,"distance":1149},{"transit":false,"line":2,"time":2,"is_transit":false,"station_id":"MGB","station_name":"Manggabesar","distance":906,"i_lat":-6.149769,"i_long":106.82482},{"transit":false,"i_lat":-6.141205,"distance":1080,"station_id":"JAY","line":2,"time":2,"is_transit":false,"i_long":106.820901,"station_name":"Jayakarta"}],[{"station_name":"Serpong","i_lat":-6.319871,"distance":0,"time":0,"is_transit":false,"line":6,"transit":false,"station_id":"SRP","i_long":106.66566},{"station_id":"RU","i_long":106.675475,"distance":2413,"i_lat":-6.314823,"line":6,"time":4,"station_name":"Rawa Buntu","transit":false,"is_transit":false},{"station_name":"Sudimara","station_id":"SDM","is_transit":false,"i_lat":-6.296963,"transit":false,"distance":4566,"i_long":106.712277,"line":6,"time":6},{"distance":1994,"is_transit":false,"i_long":106.728916,"station_name":"Jurangmangu","station_id":"JMU","line":6,"time":4,"transit":false,"i_lat":-6.288927},{"time":3,"station_id":"PDJ","line":6,"i_lat":-6.276362,"is_transit":false,"i_long":106.74273,"distance":2179,"station_name":"Pondokranji","transit":false},{"is_transit":false,"line":6,"time":8,"transit":false,"i_lat":-6.237242,"distance":6218,"station_name":"Kebayoran","i_long":106.780334,"station_id":"KBY"},{"time":7,"station_name":"Palmerah","station_id":"PLM","transit":false,"i_lat":-6.207404,"i_long":106.79689,"line":6,"distance":3737,"is_transit":false},{"distance":3191,"time":6,"is_transit":true,"transit":true,"i_lat":-6.185545,"station_name":"Tanah Abang","i_long":106.811091,"station_id":"THB","line":1},{"i_long":106.816351,"i_lat":-6.20132,"is_transit":false,"station_id":"KAT","station_name":"Karet","transit":false,"distance":2029,"line":1,"time":5},{"distance":471,"line":1,"transit":false,"i_long":106.819881,"is_transit":false,"i_lat":-6.201433,"time":1,"station_name":"Sudirman Baru","station_id":"SUDB"},{"time":1,"station_name":"Sudirman","distance":280,"is_transit":false,"station_id":"SUD","i_lat":-6.202263,"transit":false,"i_long":106.822649,"line":1},{"i_long":106.84912,"time":4,"transit":false,"is_transit":false,"line":2,"distance":3186,"i_lat":-6.209883,"station_name":"Manggarai","station_id":"MRI"},{"transit":false,"line":1,"station_name":"Matraman","i_lat":-6.212485,"is_transit":false,"station_id":"MTR","time":2,"distance":1275,"i_long":106.858896},{"i_long":106.86807400000001,"time":8,"line":1,"i_lat":-6.215091,"is_transit":true,"distance":1377,"station_name":"Jatinegara","station_id":"JNG","transit":true},{"time":2,"station_name":"Pondok Jati","station_id":"POK","i_lat":-6.209188,"distance":1236,"is_transit":false,"transit":false,"i_long":106.861737,"line":11},{"i_long":106.855437,"station_id":"KMT","line":11,"is_transit":false,"i_lat":-6.193792,"time":2,"station_name":"Kramat","distance":1829,"transit":false},{"line":11,"is_transit":false,"time":1,"i_long":106.850107,"distance":973,"station_name":"Gang Sentiong","transit":false,"i_lat":-6.185975,"station_id":"GST"},{"distance":1567,"station_id":"PSE","is_transit":false,"i_long":106.84368,"i_lat":-6.174784,"station_name":"Pasar Senen","time":8,"transit":false,"line":11},{"is_transit":false,"station_name":"Kemayoran","distance":1436,"time":4,"line":11,"transit":false,"station_id":"KMO","i_lat":-6.161728,"i_long":106.839204},{"i_lat":-6.14505,"distance":1901,"is_transit":false,"transit":false,"time":5,"line":11,"station_id":"RJW","station_name":"Rajawali","i_long":106.836569},{"i_lat":-6.132549,"i_long":106.826365,"line":4,"transit":true,"time":3,"station_name":"Kampung Bandan","is_transit":true,"distance":1444,"station_id":"KPB"},{"line":2,"time":3,"distance":1364,"i_long":106.812439,"is_transit":true,"i_lat":-6.137569,"station_id":"JAKK","station_name":"Jakarta Kota","transit":true},{"line":2,"transit":false,"i_long":106.820901,"station_name":"Jayakarta","distance":1264,"station_id":"JAY","is_transit":false,"i_lat":-6.141205,"time":4}],[{"distance":0,"time":0,"i_long":106.66566,"transit":false,"i_lat":-6.319871,"station_id":"SRP","is_transit":false,"line":6,"station_name":"Serpong"},{"i_lat":-6.314823,"station_name":"Rawa Buntu","line":6,"is_transit":false,"station_id":"RU","i_long":106.675475,"transit":false,"distance":2413,"time":4},{"i_long":106.712277,"distance":4566,"is_transit":false,"station_name":"Sudimara","transit":false,"station_id":"SDM","line":6,"i_lat":-6.296963,"time":6},{"distance":1994,"i_long":106.728916,"is_transit":false,"station_id":"JMU","transit":false,"line":6,"i_lat":-6.288927,"time":4,"station_name":"Jurangmangu"},{"line":6,"transit":false,"is_transit":false,"station_name":"Pondokranji","station_id":"PDJ","i_long":106.74273,"time":3,"distance":2179,"i_lat":-6.276362},{"i_lat":-6.237242,"is_transit":false,"i_long":106.780334,"transit":false,"time":8,"station_name":"Kebayoran","station_id":"KBY","distance":6218,"line":6},{"is_transit":false,"distance":3737,"time":7,"line":6,"station_id":"PLM","i_lat":-6.207404,"i_long":106.79689,"transit":false,"station_name":"Palmerah"},{"line":1,"i_lat":-6.185545,"transit":true,"station_name":"Tanah Abang","is_transit":true,"distance":3191,"time":6,"station_id":"THB","i_long":106.811091},{"transit":false,"is_transit":false,"line":1,"distance":3632,"station_id":"DU","i_lat":-6.155215,"station_name":"Duri","i_long":106.800832,"time":8},{"station_name":"Angke","i_long":106.79867,"station_id":"AK","line":1,"distance":1230,"i_lat":-6.144674,"time":4,"is_transit":false,"transit":false},{"distance":4102,"station_id":"KPB","i_long":106.826365,"station_name":"Kampung Bandan","is_transit":true,"time":9,"line":4,"i_lat":-6.132549,"transit":true},{"distance":1444,"line":11,"transit":false,"time":3,"station_id":"RJW","station_name":"Rajawali","i_long":106.836569,"is_transit":false,"i_lat":-6.14505},{"station_id":"KMO","i_lat":-6.161728,"line":11,"time":5,"transit":false,"distance":1901,"station_name":"Kemayoran","is_transit":false,"i_long":106.839204},{"station_name":"Pasar Senen","station_id":"PSE","is_transit":false,"line":11,"transit":false,"i_long":106.84368,"distance":1436,"i_lat":-6.174784,"time":4},{"i_long":106.850107,"station_name":"Gang Sentiong","line":11,"time":8,"i_lat":-6.185975,"distance":1567,"transit":false,"is_transit":false,"station_id":"GST"},{"is_transit":false,"distance":973,"i_lat":-6.193792,"station_name":"Kramat","transit":false,"line":11,"time":1,"station_id":"KMT","i_long":106.855437},{"line":11,"i_lat":-6.209188,"i_long":106.861737,"is_transit":false,"distance":1829,"time":2,"station_id":"POK","transit":false,"station_name":"Pondok Jati"},{"i_lat":-6.215091,"station_name":"Jatinegara","transit":true,"time":9,"line":1,"distance":1236,"station_id":"JNG","is_transit":true,"i_long":106.86807400000001},{"station_name":"Matraman","i_long":106.858896,"is_transit":false,"station_id":"MTR","line":1,"time":2,"transit":false,"i_lat":-6.212485,"distance":1377},{"station_id":"MRI","distance":1275,"station_name":"Manggarai","i_long":106.84912,"transit":true,"is_transit":true,"line":2,"time":2,"i_lat":-6.209883},{"station_name":"Cikini","station_id":"CKI","transit":false,"line":2,"time":4,"distance":1590,"is_transit":false,"i_lat":-6.198556,"i_long":106.840169},{"station_id":"GDD","distance":1750,"i_lat":-6.186295,"i_long":106.832183,"line":2,"is_transit":false,"transit":false,"time":3,"station_name":"Gondangdia"},{"i_lat":-6.166716,"station_name":"Juanda","station_id":"JUA","distance":2015,"transit":false,"i_long":106.828284,"is_transit":false,"line":2,"time":4},{"is_transit":false,"station_name":"Sawah Besar","distance":1149,"line":2,"transit":false,"station_id":"SW","i_lat":-6.160725,"i_long":106.827103,"time":2},{"distance":906,"station_name":"Manggabesar","is_transit":false,"time":2,"transit":false,"i_long":106.82482,"station_id":"MGB","i_lat":-6.149769,"line":2},{"time":2,"line":2,"distance":1080,"i_long":106.820901,"station_name":"Jayakarta","is_transit":false,"transit":false,"i_lat":-6.141205,"station_id":"JAY"}]]}