{"data":[[{"distance":0,"transit":false,"station_id":"SRP","is_transit":false,"time":0,"line":6,"i_long":106.66566,"station_name":"Serpong","i_lat":-6.319871},{"i_lat":-6.32484,"station_name":"Cisauk","i_long":106.640411,"line":3,"transit":false,"station_id":"CSK","is_transit":false,"time":4,"distance":1784},{"i_long":106.617853,"station_id":"CC","line":3,"transit":false,"distance":2519,"is_transit":false,"time":4,"i_lat":-6.329547,"station_name":"Cicayur"},{"transit":false,"station_name":"Parung Panjang","i_lat":-6.3441410000000005,"i_long":106.568863,"is_transit":false,"station_id":"PRP","time":8,"line":6,"distance":5968},{"transit":false,"is_transit":false,"time":9,"i_long":106.508482,"line":3,"station_id":"CJT","distance":7025,"station_name":"Cilejit","i_lat":-6.354349},{"station_id":"DAR","time":6,"i_lat":-6.338021,"i_long":106.491338,"is_transit":false,"line":0,"transit":false,"distance":2675,"station_name":"Daru"},{"transit":false,"station_id":"TEJ","i_lat":-6.327251,"time":5,"line":6,"i_long":106.460812,"station_name":"Tenjo","is_transit":false,"distance":3902},{"i_long":106.425991,"line":6,"station_id":"TGS","station_name":"Tigaraksa","is_transit":false,"distance":2974,"i_lat":-6.328533,"transit":false,"time":5},{"i_lat":-6.33561,"line":3,"transit":false,"station_id":"CKY","distance":2651,"i_long":106.411216,"station_name":"Cikoya","time":3,"is_transit":false},{"line":6,"transit":false,"station_name":"Maja","time":4,"i_lat":-6.332307,"i_long":106.394373,"is_transit":false,"distance":1853,"station_id":"MJ"},{"i_long":106.332092,"time":10,"transit":false,"i_lat":-6.334892,"line":3,"station_name":"Citeras","is_transit":false,"station_id":"CTR","distance":7293},{"i_lat":-6.352675,"station_name":"Rangkasbitung","is_transit":false,"distance":9847,"line":3,"station_id":"RK","i_long":106.250396,"time":13,"transit":false}]]}