{"data":[[{"station_name":"Serpong","line":6,"i_lat":-6.319871,"is_transit":false,"station_id":"SRP","distance":0,"transit":false,"time":0,"i_long":106.66566},{"time":4,"is_transit":false,"distance":2413,"station_name":"Rawa Buntu","transit":false,"i_lat":-6.314823,"i_long":106.675475,"line":6,"station_id":"RU"},{"station_name":"Sudimara","distance":4566,"station_id":"SDM","is_transit":false,"i_lat":-6.296963,"time":6,"i_long":106.712277,"line":6,"transit":false},{"i_lat":-6.288927,"i_long":106.728916,"line":6,"station_id":"JMU","station_name":"Jurangmangu","time":4,"distance":1994,"is_transit":false,"transit":false},{"time":3,"distance":2179,"station_name":"Pondokranji","station_id":"PDJ","i_long":106.74273,"transit":false,"line":6,"is_transit":false,"i_lat":-6.276362},{"i_lat":-6.237242,"distance":6218,"transit":false,"station_id":"KBY","time":8,"i_long":106.780334,"line":6,"station_name":"Kebayoran","is_transit":false},{"is_transit":false,"station_id":"PLM","station_name":"Palmerah","i_lat":-6.207404,"line":6,"distance":3737,"time":7,"transit":false,"i_long":106.79689},{"distance":3191,"station_name":"Tanah Abang","is_transit":true,"i_long":106.811091,"transit":true,"line":1,"time":6,"station_id":"THB","i_lat":-6.185545},{"i_lat":-6.20132,"transit":false,"line":1,"station_name":"Karet","time":5,"i_long":106.816351,"distance":2029,"station_id":"KAT","is_transit":false},{"distance":471,"station_name":"Sudirman Baru","time":1,"i_long":106.819881,"station_id":"SUDB","line":1,"transit":false,"i_lat":-6.201433,"is_transit":false}],[{"i_lat":-6.319871,"i_long":106.66566,"station_name":"Serpong","station_id":"SRP","transit":false,"is_transit":false,"distance":0,"time":0,"line":6},{"time":4,"line":6,"station_name":"Rawa Buntu","is_transit":false,"i_lat":-6.314823,"transit":false,"station_id":"RU","i_long":106.675475,"distance":2413},{"i_long":106.712277,"i_lat":-6.296963,"distance":4566,"is_transit":false,"station_id":"SDM","station_name":"Sudimara","transit":false,"line":6,"time":6},{"transit":false,"i_lat":-6.288927,"is_transit":false,"station_name":"Jurangmangu","time":4,"i_long":106.728916,"distance":1994,"station_id":"JMU","line":6},{"is_transit":false,"station_id":"PDJ","transit":false,"station_name":"Pondokranji","distance":2179,"time":3,"i_long":106.74273,"line":6,"i_lat":-6.276362},{"i_lat":-6.237242,"line":6,"is_transit":false,"distance":6218,"station_id":"KBY","transit":false,"time":8,"station_name":"Kebayoran","i_long":106.780334},{"distance":3737,"i_long":106.79689,"time":7,"station_name":"Palmerah","is_transit":false,"i_lat":-6.207404,"line":6,"station_id":"PLM","transit":false},{"distance":3191,"transit":true,"is_transit":true,"station_id":"THB","line":1,"i_long":106.811091,"i_lat":-6.185545,"station_name":"Tanah Abang","time":6},{"is_transit":true,"i_lat":-6.155215,"transit":true,"time":8,"station_name":"Duri","i_long":106.800832,"line":1,"distance":3632,"station_id":"DU"},{"transit":false,"station_name":"Angke","distance":1230,"is_transit":false,"i_long":106.79867,"line":0,"time":4,"station_id":"AK","i_lat":-6.144674},{"time":9,"i_long":106.826365,"line":0,"i_lat":-6.132549,"is_transit":true,"distance":4102,"station_name":"Kampung Bandan","station_id":"KPB","transit":false},{"i_long":106.812439,"line":0,"i_lat":-6.137569,"is_transit":true,"time":3,"station_name":"Jakarta Kota","station_id":"JAKK","distance":1364,"transit":true},{"is_transit":false,"station_name":"Jayakarta","station_id":"JAY","line":7,"distance":1264,"i_lat":-6.141205,"transit":false,"i_long":106.820901,"time":4},{"time":2,"i_lat":-6.149769,"is_transit":false,"station_name":"Manggabesar","line":2,"distance":1080,"station_id":"MGB","transit":false,"i_long":106.82482},{"transit":false,"i_lat":-6.160725,"station_id":"SW","is_transit":false,"station_name":"Sawah Besar","i_long":106.827103,"time":2,"line":2,"distance":906},{"station_id":"JUA","station_name":"Juanda","distance":1149,"time":2,"i_long":106.828284,"i_lat":-6.166716,"is_transit":false,"line":2,"transit":false},{"transit":false,"is_transit":false,"station_name":"Gondangdia","line":2,"i_long":106.832183,"i_lat":-6.186295,"time":4,"station_id":"GDD","distance":2015},{"i_long":106.840169,"distance":1750,"station_id":"CKI","is_transit":false,"transit":false,"i_lat":-6.198556,"time":3,"line":0,"station_name":"Cikini"},{"line":0,"station_id":"MRI","is_transit":true,"transit":true,"time":4,"distance":1590,"i_lat":-6.209883,"i_long":106.84912,"station_name":"Manggarai"},{"distance":3186,"transit":false,"is_transit":false,"station_name":"Sudirman","station_id":"SUD","time":4,"i_long":106.822649,"i_lat":-6.202263,"line":1},{"is_transit":false,"i_lat":-6.201433,"line":1,"time":1,"station_id":"SUDB","distance":280,"transit":false,"station_name":"Sudirman Baru","i_long":106.819881}],[{"transit":false,"line":6,"i_lat":-6.319871,"is_transit":false,"i_long":106.66566,"station_name":"Serpong","time":0,"station_id":"SRP","distance":0},{"station_name":"Rawa Buntu","line":6,"time":4,"transit":false,"distance":2413,"i_long":106.675475,"station_id":"RU","i_lat":-6.314823,"is_transit":false},{"is_transit":false,"station_id":"SDM","station_name":"Sudimara","transit":false,"distance":4566,"line":6,"i_lat":-6.296963,"time":6,"i_long":106.712277},{"station_name":"Jurangmangu","distance":1994,"is_transit":false,"station_id":"JMU","line":6,"time":4,"i_long":106.728916,"i_lat":-6.288927,"transit":false},{"time":3,"station_id":"PDJ","distance":2179,"line":6,"is_transit":false,"station_name":"Pondokranji","transit":false,"i_lat":-6.276362,"i_long":106.74273},{"station_id":"KBY","line":6,"i_lat":-6.237242,"time":8,"distance":6218,"is_transit":false,"station_name":"Kebayoran","transit":false,"i_long":106.780334},{"transit":false,"station_id":"PLM","i_lat":-6.207404,"time":7,"i_long":106.79689,"station_name":"Palmerah","line":6,"distance":3737,"is_transit":false},{"i_lat":-6.185545,"transit":true,"line":1,"station_name":"Tanah Abang","i_long":106.811091,"distance":3191,"time":6,"station_id":"THB","is_transit":true},{"distance":3632,"i_lat":-6.155215,"station_name":"Duri","i_long":106.800832,"station_id":"DU","time":8,"line":1,"transit":true,"is_transit":true},{"is_transit":false,"transit":false,"i_long":106.79867,"line":0,"station_id":"AK","distance":1230,"station_name":"Angke","time":4,"i_lat":-6.144674},{"i_lat":-6.132549,"station_name":"Kampung Bandan","transit":true,"is_transit":true,"time":9,"distance":4102,"station_id":"KPB","line":0,"i_long":106.826365},{"is_transit":false,"i_long":106.836569,"transit":false,"station_name":"Rajawali","time":3,"line":11,"station_id":"RJW","i_lat":-6.14505,"distance":1444},{"station_id":"KMO","is_transit":false,"distance":1901,"transit":false,"time":5,"i_lat":-6.161728,"station_name":"Kemayoran","line":11,"i_long":106.839204},{"station_id":"PSE","i_lat":-6.174784,"i_long":106.84368,"transit":false,"distance":1436,"line":11,"station_name":"Pasar Senen","time":4,"is_transit":false},{"station_id":"GST","station_name":"Gang Sentiong","i_lat":-6.185975,"transit":false,"distance":1567,"time":8,"i_long":106.850107,"line":11,"is_transit":false},{"distance":973,"transit":false,"station_name":"Kramat","i_lat":-6.193792,"time":1,"station_id":"KMT","i_long":106.855437,"is_transit":false,"line":11},{"distance":1829,"i_lat":-6.209188,"time":2,"line":11,"station_id":"POK","i_long":106.861737,"station_name":"Pondok Jati","transit":false,"is_transit":false},{"time":9,"i_long":106.86807400000001,"is_transit":true,"distance":1236,"i_lat":-6.215091,"station_id":"JNG","station_name":"Jatinegara","transit":true,"line":0},{"distance":1377,"is_transit":false,"station_id":"MTR","line":1,"transit":false,"i_lat":-6.212485,"time":2,"i_long":106.858896,"station_name":"Matraman"},{"station_id":"MRI","line":0,"is_transit":true,"distance":1275,"i_long":106.84912,"i_lat":-6.209883,"transit":false,"time":2,"station_name":"Manggarai"},{"line":1,"i_long":106.822649,"is_transit":false,"transit":false,"i_lat":-6.202263,"station_id":"SUD","time":4,"station_name":"Sudirman","distance":3186},{"is_transit":false,"distance":280,"station_id":"SUDB","time":1,"line":1,"station_name":"Sudirman Baru","transit":false,"i_long":106.819881,"i_lat":-6.201433}]]}