{"data":[[{"time":0,"line":6,"transit":false,"is_transit":false,"i_lat":-6.319871,"station_id":"SRP","i_long":106.66566,"distance":0,"station_name":"Serpong"},{"distance":2413,"line":6,"i_long":106.675475,"is_transit":false,"time":4,"station_id":"RU","station_name":"Rawa Buntu","i_lat":-6.314823,"transit":false},{"transit":false,"line":6,"station_name":"Sudimara","distance":4566,"station_id":"SDM","i_lat":-6.296963,"i_long":106.712277,"is_transit":false,"time":6},{"is_transit":false,"distance":1994,"i_lat":-6.288927,"transit":false,"time":4,"station_id":"JMU","i_long":106.728916,"line":6,"station_name":"Jurangmangu"},{"i_long":106.74273,"is_transit":false,"station_id":"PDJ","i_lat":-6.276362,"distance":2179,"station_name":"Pondokranji","transit":false,"time":3,"line":6},{"is_transit":false,"distance":6218,"station_id":"KBY","transit":false,"station_name":"Kebayoran","time":8,"i_lat":-6.237242,"i_long":106.780334,"line":6},{"i_long":106.79689,"time":7,"line":6,"station_name":"Palmerah","transit":false,"is_transit":false,"station_id":"PLM","distance":3737,"i_lat":-6.207404},{"station_id":"THB","line":1,"i_long":106.811091,"transit":true,"distance":3191,"i_lat":-6.185545,"time":6,"is_transit":true,"station_name":"Tanah Abang"},{"i_long":106.816351,"i_lat":-6.20132,"distance":2029,"is_transit":false,"station_id":"KAT","station_name":"Karet","line":1,"transit":false,"time":5},{"time":1,"transit":false,"is_transit":false,"station_name":"Sudirman Baru","distance":471,"i_long":106.819881,"line":1,"i_lat":-6.201433,"station_id":"SUDB"},{"time":1,"i_long":106.822649,"station_name":"Sudirman","station_id":"SUD","transit":false,"line":1,"distance":280,"is_transit":false,"i_lat":-6.202263},{"distance":3186,"is_transit":true,"transit":true,"i_long":106.84912,"station_name":"Manggarai","station_id":"MRI","line":0,"i_lat":-6.209883,"time":4},{"i_long":106.840169,"time":4,"line":0,"i_lat":-6.198556,"station_name":"Cikini","distance":1590,"is_transit":false,"station_id":"CKI","transit":false},{"i_lat":-6.186295,"distance":1750,"is_transit":false,"station_name":"Gondangdia","transit":false,"station_id":"GDD","i_long":106.832183,"time":3,"line":2},{"distance":2015,"station_name":"Juanda","transit":false,"i_long":106.828284,"line":2,"is_transit":false,"station_id":"JUA","time":4,"i_lat":-6.166716}],[{"station_name":"Serpong","i_long":106.66566,"station_id":"SRP","transit":false,"time":0,"i_lat":-6.319871,"is_transit":false,"line":6,"distance":0},{"is_transit":false,"station_name":"Rawa Buntu","time":4,"i_long":106.675475,"i_lat":-6.314823,"line":6,"transit":false,"station_id":"RU","distance":2413},{"is_transit":false,"line":6,"station_name":"Sudimara","station_id":"SDM","time":6,"transit":false,"i_lat":-6.296963,"distance":4566,"i_long":106.712277},{"station_name":"Jurangmangu","transit":false,"time":4,"i_lat":-6.288927,"station_id":"JMU","distance":1994,"i_long":106.728916,"is_transit":false,"line":6},{"station_name":"Pondokranji","distance":2179,"is_transit":false,"i_long":106.74273,"station_id":"PDJ","transit":false,"time":3,"i_lat":-6.276362,"line":6},{"transit":false,"time":8,"is_transit":false,"station_name":"Kebayoran","station_id":"KBY","i_long":106.780334,"line":6,"distance":6218,"i_lat":-6.237242},{"time":7,"is_transit":false,"i_long":106.79689,"station_name":"Palmerah","i_lat":-6.207404,"distance":3737,"transit":false,"station_id":"PLM","line":6},{"station_name":"Tanah Abang","line":1,"transit":true,"i_long":106.811091,"distance":3191,"is_transit":true,"time":6,"i_lat":-6.185545,"station_id":"THB"},{"time":8,"i_long":106.800832,"is_transit":true,"station_name":"Duri","station_id":"DU","transit":true,"distance":3632,"i_lat":-6.155215,"line":1},{"transit":false,"time":4,"distance":1230,"station_name":"Angke","line":0,"is_transit":false,"station_id":"AK","i_lat":-6.144674,"i_long":106.79867},{"station_id":"KPB","line":0,"distance":4102,"time":9,"is_transit":true,"station_name":"Kampung Bandan","i_long":106.826365,"i_lat":-6.132549,"transit":false},{"station_id":"JAKK","station_name":"Jakarta Kota","line":0,"time":3,"i_long":106.812439,"transit":true,"i_lat":-6.137569,"distance":1364,"is_transit":true},{"station_id":"JAY","i_lat":-6.141205,"time":4,"distance":1264,"station_name":"Jayakarta","i_long":106.820901,"line":7,"is_transit":false,"transit":false},{"i_lat":-6.149769,"i_long":106.82482,"station_id":"MGB","line":2,"is_transit":false,"station_name":"Manggabesar","time":2,"distance":1080,"transit":false},{"transit":false,"i_lat":-6.160725,"i_long":106.827103,"station_name":"Sawah Besar","distance":906,"is_transit":false,"station_id":"SW","line":2,"time":2},{"transit":false,"i_lat":-6.166716,"distance":1149,"is_transit":false,"station_name":"Juanda","time":2,"i_long":106.828284,"station_id":"JUA","line":2}],[{"transit":false,"station_id":"SRP","distance":0,"time":0,"is_transit":false,"i_long":106.66566,"i_lat":-6.319871,"station_name":"Serpong","line":6},{"i_long":106.675475,"station_id":"RU","transit":false,"is_transit":false,"time":4,"distance":2413,"station_name":"Rawa Buntu","i_lat":-6.314823,"line":6},{"distance":4566,"time":6,"i_lat":-6.296963,"i_long":106.712277,"station_name":"Sudimara","is_transit":false,"station_id":"SDM","transit":false,"line":6},{"transit":false,"is_transit":false,"time":4,"station_name":"Jurangmangu","line":6,"i_lat":-6.288927,"distance":1994,"station_id":"JMU","i_long":106.728916},{"transit":false,"time":3,"i_long":106.74273,"station_id":"PDJ","i_lat":-6.276362,"line":6,"is_transit":false,"distance":2179,"station_name":"Pondokranji"},{"time":8,"station_name":"Kebayoran","station_id":"KBY","is_transit":false,"distance":6218,"i_long":106.780334,"i_lat":-6.237242,"line":6,"transit":false},{"time":7,"is_transit":false,"i_long":106.79689,"line":6,"i_lat":-6.207404,"transit":false,"distance":3737,"station_id":"PLM","station_name":"Palmerah"},{"distance":3191,"i_lat":-6.185545,"station_id":"THB","line":1,"transit":true,"is_transit":true,"station_name":"Tanah Abang","time":6,"i_long":106.811091},{"time":8,"distance":3632,"station_name":"Duri","i_long":106.800832,"station_id":"DU","line":1,"i_lat":-6.155215,"transit":true,"is_transit":true},{"time":4,"distance":1230,"is_transit":false,"line":0,"i_lat":-6.144674,"station_id":"AK","station_name":"Angke","i_long":106.79867,"transit":false},{"transit":true,"i_lat":-6.132549,"station_id":"KPB","distance":4102,"is_transit":true,"time":9,"i_long":106.826365,"line":0,"station_name":"Kampung Bandan"},{"is_transit":false,"station_name":"Rajawali","i_long":106.836569,"station_id":"RJW","time":3,"transit":false,"distance":1444,"i_lat":-6.14505,"line":11},{"is_transit":false,"station_name":"Kemayoran","i_lat":-6.161728,"line":11,"station_id":"KMO","transit":false,"time":5,"distance":1901,"i_long":106.839204},{"transit":false,"is_transit":false,"station_name":"Pasar Senen","i_lat":-6.174784,"i_long":106.84368,"station_id":"PSE","line":11,"time":4,"distance":1436},{"transit":false,"station_name":"Gang Sentiong","time":8,"station_id":"GST","i_lat":-6.185975,"is_transit":false,"line":11,"distance":1567,"i_long":106.850107},{"is_transit":false,"transit":false,"distance":973,"time":1,"i_long":106.855437,"i_lat":-6.193792,"line":11,"station_id":"KMT","station_name":"Kramat"},{"i_lat":-6.209188,"station_id":"POK","i_long":106.861737,"time":2,"distance":1829,"line":11,"station_name":"Pondok Jati","transit":false,"is_transit":false},{"station_name":"Jatinegara","distance":1236,"station_id":"JNG","time":9,"is_transit":true,"line":0,"i_long":106.86807400000001,"transit":true,"i_lat":-6.215091},{"station_name":"Matraman","i_long":106.858896,"station_id":"MTR","line":1,"distance":1377,"i_lat":-6.212485,"transit":false,"is_transit":false,"time":2},{"station_name":"Manggarai","is_transit":true,"station_id":"MRI","time":2,"line":0,"transit":true,"distance":1275,"i_lat":-6.209883,"i_long":106.84912},{"transit":false,"distance":1590,"station_name":"Cikini","time":4,"station_id":"CKI","i_long":106.840169,"is_transit":false,"i_lat":-6.198556,"line":0},{"i_lat":-6.186295,"line":2,"i_long":106.832183,"is_transit":false,"station_id":"GDD","distance":1750,"station_name":"Gondangdia","transit":false,"time":3},{"i_lat":-6.166716,"station_id":"JUA","i_long":106.828284,"distance":2015,"station_name":"Juanda","time":4,"is_transit":false,"transit":false,"line":2}],[{"time":0,"i_long":106.66566,"station_name":"Serpong","is_transit":false,"i_lat":-6.319871,"transit":false,"line":6,"distance":0,"station_id":"SRP"},{"i_lat":-6.314823,"is_transit":false,"station_name":"Rawa Buntu","i_long":106.675475,"time":4,"distance":2413,"station_id":"RU","transit":false,"line":6},{"i_long":106.712277,"station_name":"Sudimara","is_transit":false,"distance":4566,"i_lat":-6.296963,"station_id":"SDM","transit":false,"time":6,"line":6},{"time":4,"line":6,"station_id":"JMU","distance":1994,"is_transit":false,"station_name":"Jurangmangu","transit":false,"i_lat":-6.288927,"i_long":106.728916},{"station_id":"PDJ","station_name":"Pondokranji","time":3,"i_lat":-6.276362,"i_long":106.74273,"is_transit":false,"distance":2179,"line":6,"transit":false},{"time":8,"transit":false,"line":6,"i_lat":-6.237242,"distance":6218,"station_name":"Kebayoran","i_long":106.780334,"is_transit":false,"station_id":"KBY"},{"i_long":106.79689,"line":6,"distance":3737,"time":7,"station_id":"PLM","transit":false,"i_lat":-6.207404,"is_transit":false,"station_name":"Palmerah"},{"transit":true,"station_name":"Tanah Abang","time":6,"line":1,"distance":3191,"i_long":106.811091,"i_lat":-6.185545,"station_id":"THB","is_transit":true},{"i_lat":-6.20132,"station_name":"Karet","time":5,"is_transit":false,"distance":2029,"station_id":"KAT","transit":false,"i_long":106.816351,"line":1},{"distance":471,"transit":false,"station_id":"SUDB","i_long":106.819881,"time":1,"line":1,"station_name":"Sudirman Baru","is_transit":false,"i_lat":-6.201433},{"time":1,"line":1,"i_lat":-6.202263,"station_id":"SUD","is_transit":false,"transit":false,"distance":280,"station_name":"Sudirman","i_long":106.822649},{"line":0,"transit":false,"i_lat":-6.209883,"is_transit":true,"distance":3186,"time":4,"station_id":"MRI","i_long":106.84912,"station_name":"Manggarai"},{"station_name":"Matraman","i_lat":-6.212485,"transit":false,"distance":1275,"line":1,"station_id":"MTR","time":2,"i_long":106.858896,"is_transit":false},{"i_long":106.86807400000001,"is_transit":true,"distance":1377,"station_id":"JNG","time":8,"station_name":"Jatinegara","i_lat":-6.215091,"transit":true,"line":0},{"distance":1236,"station_name":"Pondok Jati","i_long":106.861737,"station_id":"POK","i_lat":-6.209188,"is_transit":false,"transit":false,"line":11,"time":2},{"is_transit":false,"station_name":"Kramat","i_lat":-6.193792,"distance":1829,"i_long":106.855437,"time":2,"station_id":"KMT","transit":false,"line":11},{"station_id":"GST","station_name":"Gang Sentiong","transit":false,"i_lat":-6.185975,"is_transit":false,"time":1,"distance":973,"i_long":106.850107,"line":11},{"is_transit":false,"line":11,"transit":false,"distance":1567,"station_name":"Pasar Senen","i_long":106.84368,"station_id":"PSE","time":8,"i_lat":-6.174784},{"station_name":"Kemayoran","distance":1436,"time":4,"i_lat":-6.161728,"i_long":106.839204,"station_id":"KMO","is_transit":false,"line":11,"transit":false},{"station_id":"RJW","station_name":"Rajawali","i_lat":-6.14505,"time":5,"i_long":106.836569,"line":11,"transit":false,"distance":1901,"is_transit":false},{"station_id":"KPB","station_name":"Kampung Bandan","transit":true,"time":3,"i_long":106.826365,"distance":1444,"is_transit":true,"i_lat":-6.132549,"line":0},{"station_name":"Jakarta Kota","is_transit":true,"transit":true,"i_long":106.812439,"station_id":"JAKK","time":3,"i_lat":-6.137569,"line":0,"distance":1364},{"distance":1264,"time":4,"line":7,"i_lat":-6.141205,"station_name":"Jayakarta","is_transit":false,"i_long":106.820901,"station_id":"JAY","transit":false},{"is_transit":false,"time":2,"i_long":106.82482,"transit":false,"i_lat":-6.149769,"station_name":"Manggabesar","line":2,"distance":1080,"station_id":"MGB"},{"line":2,"distance":906,"station_id":"SW","i_lat":-6.160725,"is_transit":false,"station_name":"Sawah Besar","transit":false,"time":2,"i_long":106.827103},{"distance":1149,"station_id":"JUA","station_name":"Juanda","i_lat":-6.166716,"line":2,"i_long":106.828284,"time":2,"is_transit":false,"transit":false}]]}