{"data":[[{"station_name":"Serpong","i_long":106.66566,"station_id":"SRP","transit":false,"i_lat":-6.319871,"time":0,"distance":0,"is_transit":false,"line":6},{"time":4,"station_id":"RU","is_transit":false,"i_lat":-6.314823,"i_long":106.675475,"line":6,"station_name":"Rawa Buntu","distance":2413,"transit":false},{"i_long":106.712277,"i_lat":-6.296963,"line":6,"station_id":"SDM","transit":false,"is_transit":false,"distance":4566,"time":6,"station_name":"Sudimara"},{"time":4,"station_id":"JMU","is_transit":false,"i_lat":-6.288927,"i_long":106.728916,"line":6,"station_name":"Jurangmangu","distance":1994,"transit":false},{"transit":false,"is_transit":false,"time":3,"line":6,"station_id":"PDJ","distance":2179,"station_name":"Pondokranji","i_lat":-6.276362,"i_long":106.74273},{"is_transit":false,"distance":6218,"i_lat":-6.237242,"transit":false,"time":8,"station_name":"Kebayoran","line":6,"i_long":106.780334,"station_id":"KBY"},{"station_name":"Palmerah","distance":3737,"transit":false,"i_lat":-6.207404,"i_long":106.79689,"time":7,"line":6,"station_id":"PLM","is_transit":false},{"transit":true,"station_name":"Tanah Abang","station_id":"THB","distance":3191,"line":1,"i_lat":-6.185545,"i_long":106.811091,"time":6,"is_transit":true},{"line":1,"transit":false,"is_transit":false,"i_long":106.816351,"station_id":"KAT","distance":2029,"station_name":"Karet","time":5,"i_lat":-6.20132},{"line":1,"time":1,"distance":471,"i_lat":-6.201433,"transit":false,"station_name":"Sudirman Baru","i_long":106.819881,"is_transit":false,"station_id":"SUDB"},{"station_name":"Sudirman","distance":280,"i_lat":-6.202263,"is_transit":false,"line":1,"station_id":"SUD","i_long":106.822649,"transit":false,"time":1},{"station_id":"MRI","i_long":106.84912,"distance":3186,"line":2,"transit":true,"station_name":"Manggarai","time":4,"i_lat":-6.209883,"is_transit":true},{"i_long":106.857948,"distance":2610,"is_transit":false,"station_id":"TEB","transit":false,"line":2,"station_name":"Tebet","time":4,"i_lat":-6.226659},{"distance":1230,"i_long":106.856607,"transit":false,"line":2,"time":2,"station_name":"Cawang","i_lat":-6.242512,"is_transit":false,"station_id":"CW"},{"station_id":"DRN","i_lat":-6.255332,"line":2,"distance":1546,"is_transit":false,"transit":false,"station_name":"Duren Kalibata","time":3,"i_long":106.85449},{"transit":false,"is_transit":false,"i_long":106.851577,"distance":824,"station_id":"PSMB","station_name":"Pasar Minggu Baru","i_lat":-6.263214,"time":2,"line":2},{"line":2,"i_long":106.843999,"i_lat":-6.2842400000000005,"station_name":"Pasar Minggu","station_id":"PSM","transit":false,"is_transit":false,"distance":2380,"time":2},{"distance":2820,"station_name":"Tanjung Barat","is_transit":false,"time":4,"line":2,"station_id":"TNT","transit":false,"i_lat":-6.3080680000000005,"i_long":106.838896},{"line":2,"i_long":106.832616,"distance":2671,"transit":false,"is_transit":false,"i_lat":-6.330363,"station_name":"Lenteng Agung","station_id":"LNA","time":3},{"line":2,"i_lat":-6.339291,"is_transit":false,"transit":false,"i_long":106.834175,"station_name":"Univ. Pancasila","distance":1029,"time":2,"station_id":"UP"},{"line":2,"i_long":106.831474,"transit":false,"distance":2264,"station_name":"Univ. Indonesia","i_lat":-6.360749,"is_transit":false,"station_id":"UI","time":3},{"station_name":"Pondok Cina","transit":false,"station_id":"POC","time":2,"distance":1109,"i_long":106.831114,"is_transit":false,"i_lat":-6.369073,"line":2},{"i_lat":-6.391065,"transit":false,"is_transit":false,"i_long":106.819451,"distance":2727,"line":2,"station_name":"Depokbaru","station_id":"DPB","time":4},{"station_name":"Depok","i_lat":-6.405256,"i_long":106.816926,"transit":false,"station_id":"DP","distance":1584,"is_transit":false,"line":2,"time":3},{"i_long":106.800298,"transit":true,"station_name":"Citayam","line":2,"is_transit":true,"i_lat":-6.448811,"time":6,"station_id":"CTA","distance":5084},{"i_lat":-6.460735,"time":0,"station_name":"Pondok Rajeg","distance":0,"transit":false,"is_transit":false,"line":21,"station_id":"PDRG","i_long":106.824374},{"time":0,"station_id":"CBN","i_lat":-6.46424,"distance":0,"is_transit":false,"line":21,"transit":false,"i_long":106.851978,"station_name":"Cibinong"},{"distance":6527,"station_id":"NMO","transit":false,"is_transit":false,"i_lat":-6.466285,"time":10,"line":21,"station_name":"Nambo","i_long":106.905196}],[{"distance":0,"i_long":106.66566,"i_lat":-6.319871,"station_name":"Serpong","station_id":"SRP","transit":false,"time":0,"line":6,"is_transit":false},{"station_name":"Rawa Buntu","station_id":"RU","i_lat":-6.314823,"line":6,"time":4,"transit":false,"i_long":106.675475,"is_transit":false,"distance":2413},{"station_id":"SDM","time":6,"is_transit":false,"line":6,"station_name":"Sudimara","i_lat":-6.296963,"distance":4566,"i_long":106.712277,"transit":false},{"time":4,"i_lat":-6.288927,"station_id":"JMU","i_long":106.728916,"station_name":"Jurangmangu","transit":false,"is_transit":false,"distance":1994,"line":6},{"distance":2179,"transit":false,"station_name":"Pondokranji","is_transit":false,"time":3,"line":6,"station_id":"PDJ","i_long":106.74273,"i_lat":-6.276362},{"distance":6218,"i_long":106.780334,"transit":false,"time":8,"station_name":"Kebayoran","is_transit":false,"line":6,"station_id":"KBY","i_lat":-6.237242},{"i_long":106.79689,"is_transit":false,"distance":3737,"transit":false,"station_name":"Palmerah","i_lat":-6.207404,"line":6,"station_id":"PLM","time":7},{"is_transit":true,"line":1,"i_lat":-6.185545,"distance":3191,"i_long":106.811091,"station_name":"Tanah Abang","time":6,"transit":true,"station_id":"THB"},{"i_lat":-6.155215,"station_name":"Duri","is_transit":false,"station_id":"DU","i_long":106.800832,"line":1,"transit":false,"time":8,"distance":3632},{"station_name":"Angke","i_lat":-6.144674,"i_long":106.79867,"transit":false,"distance":1230,"is_transit":false,"station_id":"AK","line":1,"time":4},{"is_transit":true,"station_id":"KPB","time":9,"i_lat":-6.132549,"i_long":106.826365,"transit":true,"distance":4102,"line":4,"station_name":"Kampung Bandan"},{"line":2,"station_name":"Jakarta Kota","distance":1364,"is_transit":true,"station_id":"JAKK","transit":true,"time":3,"i_lat":-6.137569,"i_long":106.812439},{"station_id":"JAY","station_name":"Jayakarta","is_transit":false,"i_lat":-6.141205,"transit":false,"distance":1264,"line":2,"time":4,"i_long":106.820901},{"time":2,"distance":1080,"i_lat":-6.149769,"i_long":106.82482,"is_transit":false,"line":2,"station_id":"MGB","station_name":"Manggabesar","transit":false},{"distance":906,"station_id":"SW","station_name":"Sawah Besar","is_transit":false,"i_lat":-6.160725,"i_long":106.827103,"line":2,"transit":false,"time":2},{"i_lat":-6.166716,"distance":1149,"station_id":"JUA","is_transit":false,"transit":false,"station_name":"Juanda","i_long":106.828284,"line":2,"time":2},{"distance":2015,"is_transit":false,"i_lat":-6.186295,"i_long":106.832183,"station_name":"Gondangdia","transit":false,"time":4,"line":2,"station_id":"GDD"},{"station_id":"CKI","is_transit":false,"transit":false,"time":3,"i_lat":-6.198556,"distance":1750,"station_name":"Cikini","line":2,"i_long":106.840169},{"station_name":"Manggarai","transit":false,"is_transit":false,"i_lat":-6.209883,"distance":1590,"i_long":106.84912,"time":4,"station_id":"MRI","line":2},{"distance":2610,"i_long":106.857948,"station_id":"TEB","i_lat":-6.226659,"station_name":"Tebet","is_transit":false,"time":4,"transit":false,"line":2},{"i_lat":-6.242512,"time":2,"is_transit":false,"transit":false,"i_long":106.856607,"line":2,"station_name":"Cawang","station_id":"CW","distance":1230},{"transit":false,"i_long":106.85449,"distance":1546,"line":2,"station_name":"Duren Kalibata","i_lat":-6.255332,"is_transit":false,"station_id":"DRN","time":3},{"transit":false,"station_id":"PSMB","distance":824,"i_long":106.851577,"line":2,"is_transit":false,"time":2,"station_name":"Pasar Minggu Baru","i_lat":-6.263214},{"i_long":106.843999,"time":2,"is_transit":false,"distance":2380,"line":2,"station_name":"Pasar Minggu","station_id":"PSM","i_lat":-6.2842400000000005,"transit":false},{"transit":false,"i_lat":-6.3080680000000005,"station_id":"TNT","time":4,"line":2,"is_transit":false,"i_long":106.838896,"station_name":"Tanjung Barat","distance":2820},{"is_transit":false,"i_long":106.832616,"station_name":"Lenteng Agung","transit":false,"time":3,"i_lat":-6.330363,"line":2,"distance":2671,"station_id":"LNA"},{"is_transit":false,"distance":1029,"transit":false,"time":2,"station_name":"Univ. Pancasila","station_id":"UP","i_lat":-6.339291,"i_long":106.834175,"line":2},{"time":3,"i_lat":-6.360749,"station_name":"Univ. Indonesia","line":2,"station_id":"UI","transit":false,"is_transit":false,"distance":2264,"i_long":106.831474},{"is_transit":false,"i_lat":-6.369073,"distance":1109,"time":2,"i_long":106.831114,"transit":false,"station_name":"Pondok Cina","line":2,"station_id":"POC"},{"line":2,"transit":false,"is_transit":false,"time":4,"station_id":"DPB","station_name":"Depokbaru","distance":2727,"i_lat":-6.391065,"i_long":106.819451},{"station_id":"DP","i_long":106.816926,"line":2,"i_lat":-6.405256,"transit":false,"station_name":"Depok","is_transit":false,"time":3,"distance":1584},{"i_lat":-6.448811,"time":6,"is_transit":true,"transit":true,"station_name":"Citayam","i_long":106.800298,"station_id":"CTA","distance":5084,"line":2},{"line":21,"station_name":"Pondok Rajeg","distance":0,"i_lat":-6.460735,"i_long":106.824374,"station_id":"PDRG","is_transit":false,"time":0,"transit":false},{"distance":0,"i_lat":-6.46424,"is_transit":false,"time":0,"i_long":106.851978,"station_id":"CBN","line":21,"station_name":"Cibinong","transit":false},{"i_long":106.905196,"i_lat":-6.466285,"line":21,"station_name":"Nambo","station_id":"NMO","time":10,"is_transit":false,"distance":6527,"transit":false}],[{"time":0,"i_lat":-6.319871,"transit":false,"station_id":"SRP","is_transit":false,"distance":0,"station_name":"Serpong","i_long":106.66566,"line":6},{"station_name":"Rawa Buntu","time":4,"distance":2413,"transit":false,"i_long":106.675475,"station_id":"RU","line":6,"is_transit":false,"i_lat":-6.314823},{"transit":false,"station_name":"Sudimara","is_transit":false,"i_lat":-6.296963,"i_long":106.712277,"line":6,"station_id":"SDM","distance":4566,"time":6},{"transit":false,"time":4,"i_lat":-6.288927,"distance":1994,"is_transit":false,"station_name":"Jurangmangu","station_id":"JMU","i_long":106.728916,"line":6},{"time":3,"is_transit":false,"i_lat":-6.276362,"station_id":"PDJ","line":6,"transit":false,"distance":2179,"station_name":"Pondokranji","i_long":106.74273},{"i_long":106.780334,"is_transit":false,"distance":6218,"station_name":"Kebayoran","time":8,"i_lat":-6.237242,"line":6,"transit":false,"station_id":"KBY"},{"station_id":"PLM","i_long":106.79689,"line":6,"is_transit":false,"transit":false,"time":7,"station_name":"Palmerah","i_lat":-6.207404,"distance":3737},{"distance":3191,"i_lat":-6.185545,"line":1,"transit":true,"station_name":"Tanah Abang","time":6,"is_transit":true,"i_long":106.811091,"station_id":"THB"},{"station_id":"DU","transit":false,"distance":3632,"time":8,"i_lat":-6.155215,"is_transit":false,"station_name":"Duri","line":1,"i_long":106.800832},{"transit":false,"station_id":"AK","is_transit":false,"station_name":"Angke","i_lat":-6.144674,"distance":1230,"i_long":106.79867,"time":4,"line":1},{"transit":true,"station_name":"Kampung Bandan","station_id":"KPB","time":9,"is_transit":true,"i_lat":-6.132549,"distance":4102,"line":4,"i_long":106.826365},{"distance":1444,"station_id":"RJW","time":3,"station_name":"Rajawali","i_lat":-6.14505,"is_transit":false,"i_long":106.836569,"line":11,"transit":false},{"i_lat":-6.161728,"station_id":"KMO","transit":false,"i_long":106.839204,"is_transit":false,"line":11,"distance":1901,"station_name":"Kemayoran","time":5},{"distance":1436,"is_transit":false,"transit":false,"station_id":"PSE","time":4,"station_name":"Pasar Senen","line":11,"i_lat":-6.174784,"i_long":106.84368},{"is_transit":false,"distance":1567,"i_lat":-6.185975,"line":11,"time":8,"i_long":106.850107,"station_name":"Gang Sentiong","station_id":"GST","transit":false},{"station_name":"Kramat","is_transit":false,"station_id":"KMT","transit":false,"line":11,"i_long":106.855437,"time":1,"distance":973,"i_lat":-6.193792},{"transit":false,"time":2,"i_long":106.861737,"i_lat":-6.209188,"line":11,"distance":1829,"station_id":"POK","is_transit":false,"station_name":"Pondok Jati"},{"station_name":"Jatinegara","is_transit":true,"transit":true,"i_lat":-6.215091,"time":9,"i_long":106.86807400000001,"line":1,"station_id":"JNG","distance":1236},{"is_transit":false,"distance":1377,"i_long":106.858896,"line":1,"station_name":"Matraman","transit":false,"station_id":"MTR","i_lat":-6.212485,"time":2},{"i_long":106.84912,"i_lat":-6.209883,"station_name":"Manggarai","transit":true,"is_transit":true,"time":2,"distance":1275,"station_id":"MRI","line":2},{"is_transit":false,"station_name":"Tebet","station_id":"TEB","transit":false,"i_lat":-6.226659,"time":4,"distance":2610,"i_long":106.857948,"line":2},{"station_id":"CW","distance":1230,"station_name":"Cawang","i_lat":-6.242512,"transit":false,"i_long":106.856607,"line":2,"is_transit":false,"time":2},{"time":3,"distance":1546,"i_long":106.85449,"station_id":"DRN","i_lat":-6.255332,"is_transit":false,"line":2,"station_name":"Duren Kalibata","transit":false},{"line":2,"transit":false,"time":2,"station_id":"PSMB","distance":824,"i_lat":-6.263214,"is_transit":false,"i_long":106.851577,"station_name":"Pasar Minggu Baru"},{"time":2,"i_long":106.843999,"i_lat":-6.2842400000000005,"line":2,"transit":false,"station_name":"Pasar Minggu","distance":2380,"station_id":"PSM","is_transit":false},{"line":2,"i_lat":-6.3080680000000005,"i_long":106.838896,"station_id":"TNT","is_transit":false,"time":4,"transit":false,"distance":2820,"station_name":"Tanjung Barat"},{"i_long":106.832616,"time":3,"i_lat":-6.330363,"distance":2671,"line":2,"transit":false,"station_name":"Lenteng Agung","is_transit":false,"station_id":"LNA"},{"i_long":106.834175,"distance":1029,"transit":false,"is_transit":false,"time":2,"i_lat":-6.339291,"station_id":"UP","station_name":"Univ. Pancasila","line":2},{"transit":false,"station_id":"UI","i_lat":-6.360749,"is_transit":false,"line":2,"station_name":"Univ. Indonesia","distance":2264,"time":3,"i_long":106.831474},{"station_name":"Pondok Cina","station_id":"POC","transit":false,"distance":1109,"i_lat":-6.369073,"is_transit":false,"time":2,"i_long":106.831114,"line":2},{"distance":2727,"station_id":"DPB","i_lat":-6.391065,"line":2,"time":4,"i_long":106.819451,"station_name":"Depokbaru","transit":false,"is_transit":false},{"i_lat":-6.405256,"i_long":106.816926,"is_transit":false,"transit":false,"station_name":"Depok","distance":1584,"line":2,"time":3,"station_id":"DP"},{"i_lat":-6.448811,"i_long":106.800298,"is_transit":true,"distance":5084,"station_id":"CTA","station_name":"Citayam","transit":true,"time":6,"line":2},{"distance":0,"station_name":"Pondok Rajeg","transit":false,"station_id":"PDRG","time":0,"i_lat":-6.460735,"line":21,"i_long":106.824374,"is_transit":false},{"station_id":"CBN","time":0,"is_transit":false,"station_name":"Cibinong","distance":0,"i_lat":-6.46424,"line":21,"i_long":106.851978,"transit":false},{"station_name":"Nambo","station_id":"NMO","line":21,"distance":6527,"i_lat":-6.466285,"transit":false,"time":10,"i_long":106.905196,"is_transit":false}]]}