{"data":[[{"time":0,"station_name":"Serpong","station_id":"SRP","i_lat":-6.319871,"i_long":106.66566,"line":6,"distance":0,"is_transit":false,"transit":false},{"i_long":106.675475,"station_name":"Rawa Buntu","time":4,"is_transit":false,"transit":false,"line":6,"distance":2413,"station_id":"RU","i_lat":-6.314823},{"time":6,"station_id":"SDM","is_transit":false,"i_lat":-6.296963,"i_long":106.712277,"line":6,"transit":false,"station_name":"Sudimara","distance":4566},{"is_transit":false,"station_name":"Jurangmangu","distance":1994,"line":6,"station_id":"JMU","i_lat":-6.288927,"time":4,"transit":false,"i_long":106.728916},{"i_lat":-6.276362,"station_name":"Pondokranji","time":3,"is_transit":false,"i_long":106.74273,"line":6,"transit":false,"station_id":"PDJ","distance":2179},{"transit":false,"is_transit":false,"station_name":"Kebayoran","station_id":"KBY","time":8,"i_lat":-6.237242,"i_long":106.780334,"line":6,"distance":6218},{"is_transit":false,"i_long":106.79689,"i_lat":-6.207404,"line":6,"time":7,"station_id":"PLM","distance":3737,"transit":false,"station_name":"Palmerah"},{"distance":3191,"time":6,"station_id":"THB","is_transit":true,"station_name":"Tanah Abang","i_lat":-6.185545,"i_long":106.811091,"line":1,"transit":true},{"distance":3632,"i_lat":-6.155215,"transit":true,"time":8,"line":1,"station_name":"Duri","i_long":106.800832,"station_id":"DU","is_transit":true},{"i_lat":-6.144674,"distance":1230,"i_long":106.79867,"line":0,"is_transit":false,"station_id":"AK","station_name":"Angke","transit":false,"time":4},{"time":9,"i_lat":-6.132549,"distance":4102,"line":0,"is_transit":true,"station_name":"Kampung Bandan","station_id":"KPB","transit":false,"i_long":106.826365},{"station_id":"JAKK","i_lat":-6.137569,"line":0,"transit":true,"time":3,"i_long":106.812439,"station_name":"Jakarta Kota","distance":1364,"is_transit":true},{"i_lat":-6.141205,"station_name":"Jayakarta","is_transit":false,"time":4,"distance":1264,"station_id":"JAY","transit":false,"i_long":106.820901,"line":7}],[{"distance":0,"i_long":106.66566,"i_lat":-6.319871,"transit":false,"line":6,"station_id":"SRP","station_name":"Serpong","time":0,"is_transit":false},{"station_name":"Rawa Buntu","i_long":106.675475,"transit":false,"distance":2413,"is_transit":false,"line":6,"station_id":"RU","time":4,"i_lat":-6.314823},{"distance":4566,"is_transit":false,"station_name":"Sudimara","transit":false,"i_lat":-6.296963,"i_long":106.712277,"station_id":"SDM","time":6,"line":6},{"i_long":106.728916,"is_transit":false,"distance":1994,"transit":false,"time":4,"station_id":"JMU","station_name":"Jurangmangu","line":6,"i_lat":-6.288927},{"distance":2179,"i_lat":-6.276362,"i_long":106.74273,"station_id":"PDJ","line":6,"time":3,"station_name":"Pondokranji","is_transit":false,"transit":false},{"station_name":"Kebayoran","station_id":"KBY","distance":6218,"time":8,"i_lat":-6.237242,"line":6,"i_long":106.780334,"transit":false,"is_transit":false},{"station_name":"Palmerah","station_id":"PLM","is_transit":false,"time":7,"distance":3737,"i_long":106.79689,"line":6,"transit":false,"i_lat":-6.207404},{"is_transit":true,"station_id":"THB","time":6,"i_lat":-6.185545,"distance":3191,"i_long":106.811091,"line":1,"station_name":"Tanah Abang","transit":true},{"station_id":"KAT","is_transit":false,"distance":2029,"station_name":"Karet","line":1,"transit":false,"time":5,"i_lat":-6.20132,"i_long":106.816351},{"station_id":"SUDB","time":1,"transit":false,"i_lat":-6.201433,"station_name":"Sudirman Baru","line":1,"i_long":106.819881,"distance":471,"is_transit":false},{"station_id":"SUD","i_long":106.822649,"distance":280,"line":1,"station_name":"Sudirman","transit":false,"i_lat":-6.202263,"time":1,"is_transit":false},{"time":4,"transit":true,"is_transit":true,"i_lat":-6.209883,"i_long":106.84912,"distance":3186,"station_name":"Manggarai","station_id":"MRI","line":0},{"line":0,"is_transit":false,"station_id":"CKI","transit":false,"station_name":"Cikini","distance":1590,"time":4,"i_lat":-6.198556,"i_long":106.840169},{"distance":1750,"is_transit":false,"i_long":106.832183,"transit":false,"line":2,"time":3,"i_lat":-6.186295,"station_name":"Gondangdia","station_id":"GDD"},{"station_id":"JUA","i_long":106.828284,"line":2,"distance":2015,"i_lat":-6.166716,"time":4,"station_name":"Juanda","is_transit":false,"transit":false},{"line":2,"i_lat":-6.160725,"distance":1149,"station_name":"Sawah Besar","time":2,"transit":false,"is_transit":false,"station_id":"SW","i_long":106.827103},{"transit":false,"i_lat":-6.149769,"distance":906,"station_name":"Manggabesar","is_transit":false,"i_long":106.82482,"station_id":"MGB","time":2,"line":2},{"distance":1080,"line":7,"station_id":"JAY","is_transit":false,"time":2,"station_name":"Jayakarta","transit":false,"i_lat":-6.141205,"i_long":106.820901}],[{"i_lat":-6.319871,"i_long":106.66566,"distance":0,"station_id":"SRP","time":0,"is_transit":false,"line":6,"station_name":"Serpong","transit":false},{"distance":2413,"transit":false,"station_name":"Rawa Buntu","time":4,"i_lat":-6.314823,"is_transit":false,"line":6,"station_id":"RU","i_long":106.675475},{"time":6,"station_id":"SDM","station_name":"Sudimara","distance":4566,"i_lat":-6.296963,"i_long":106.712277,"is_transit":false,"transit":false,"line":6},{"station_name":"Jurangmangu","i_long":106.728916,"time":4,"line":6,"i_lat":-6.288927,"transit":false,"station_id":"JMU","distance":1994,"is_transit":false},{"time":3,"i_long":106.74273,"line":6,"transit":false,"station_id":"PDJ","is_transit":false,"station_name":"Pondokranji","distance":2179,"i_lat":-6.276362},{"is_transit":false,"time":8,"station_name":"Kebayoran","station_id":"KBY","line":6,"transit":false,"distance":6218,"i_long":106.780334,"i_lat":-6.237242},{"distance":3737,"line":6,"transit":false,"time":7,"i_long":106.79689,"station_name":"Palmerah","station_id":"PLM","i_lat":-6.207404,"is_transit":false},{"line":1,"distance":3191,"time":6,"transit":true,"i_lat":-6.185545,"station_id":"THB","i_long":106.811091,"station_name":"Tanah Abang","is_transit":true},{"distance":2029,"i_lat":-6.20132,"station_id":"KAT","time":5,"line":1,"i_long":106.816351,"station_name":"Karet","is_transit":false,"transit":false},{"i_long":106.819881,"i_lat":-6.201433,"line":1,"distance":471,"station_name":"Sudirman Baru","transit":false,"is_transit":false,"time":1,"station_id":"SUDB"},{"i_lat":-6.202263,"distance":280,"line":1,"station_id":"SUD","i_long":106.822649,"is_transit":false,"transit":false,"station_name":"Sudirman","time":1},{"station_id":"MRI","is_transit":true,"transit":false,"i_long":106.84912,"station_name":"Manggarai","distance":3186,"time":4,"i_lat":-6.209883,"line":0},{"transit":false,"i_long":106.858896,"station_id":"MTR","line":1,"distance":1275,"station_name":"Matraman","time":2,"i_lat":-6.212485,"is_transit":false},{"i_lat":-6.215091,"station_id":"JNG","station_name":"Jatinegara","transit":true,"i_long":106.86807400000001,"line":0,"distance":1377,"is_transit":true,"time":8},{"is_transit":false,"transit":false,"i_long":106.861737,"distance":1236,"time":2,"i_lat":-6.209188,"station_name":"Pondok Jati","line":11,"station_id":"POK"},{"line":11,"distance":1829,"station_id":"KMT","i_lat":-6.193792,"station_name":"Kramat","transit":false,"time":2,"i_long":106.855437,"is_transit":false},{"line":11,"station_id":"GST","transit":false,"distance":973,"i_lat":-6.185975,"i_long":106.850107,"station_name":"Gang Sentiong","time":1,"is_transit":false},{"station_name":"Pasar Senen","time":8,"distance":1567,"transit":false,"i_lat":-6.174784,"station_id":"PSE","i_long":106.84368,"is_transit":false,"line":11},{"i_lat":-6.161728,"station_name":"Kemayoran","line":11,"is_transit":false,"transit":false,"station_id":"KMO","distance":1436,"time":4,"i_long":106.839204},{"line":11,"station_id":"RJW","time":5,"transit":false,"is_transit":false,"distance":1901,"station_name":"Rajawali","i_long":106.836569,"i_lat":-6.14505},{"i_long":106.826365,"i_lat":-6.132549,"line":0,"transit":true,"distance":1444,"is_transit":true,"station_id":"KPB","station_name":"Kampung Bandan","time":3},{"distance":1364,"station_id":"JAKK","is_transit":true,"time":3,"i_lat":-6.137569,"line":0,"station_name":"Jakarta Kota","transit":true,"i_long":106.812439},{"transit":false,"station_name":"Jayakarta","i_lat":-6.141205,"line":7,"is_transit":false,"station_id":"JAY","time":4,"i_long":106.820901,"distance":1264}],[{"time":0,"distance":0,"station_name":"Serpong","line":6,"is_transit":false,"transit":false,"i_long":106.66566,"station_id":"SRP","i_lat":-6.319871},{"is_transit":false,"i_lat":-6.314823,"transit":false,"line":6,"station_id":"RU","station_name":"Rawa Buntu","time":4,"i_long":106.675475,"distance":2413},{"time":6,"line":6,"i_long":106.712277,"transit":false,"i_lat":-6.296963,"distance":4566,"station_id":"SDM","station_name":"Sudimara","is_transit":false},{"is_transit":false,"transit":false,"i_long":106.728916,"distance":1994,"i_lat":-6.288927,"time":4,"line":6,"station_id":"JMU","station_name":"Jurangmangu"},{"station_name":"Pondokranji","i_lat":-6.276362,"is_transit":false,"line":6,"station_id":"PDJ","i_long":106.74273,"transit":false,"distance":2179,"time":3},{"station_name":"Kebayoran","is_transit":false,"station_id":"KBY","transit":false,"i_long":106.780334,"i_lat":-6.237242,"time":8,"distance":6218,"line":6},{"line":6,"distance":3737,"station_id":"PLM","station_name":"Palmerah","time":7,"i_lat":-6.207404,"transit":false,"i_long":106.79689,"is_transit":false},{"distance":3191,"i_lat":-6.185545,"is_transit":true,"transit":true,"time":6,"station_name":"Tanah Abang","station_id":"THB","i_long":106.811091,"line":1},{"i_long":106.800832,"line":1,"station_id":"DU","transit":true,"station_name":"Duri","i_lat":-6.155215,"distance":3632,"is_transit":true,"time":8},{"line":0,"distance":1230,"time":4,"station_name":"Angke","transit":false,"i_long":106.79867,"is_transit":false,"station_id":"AK","i_lat":-6.144674},{"station_id":"KPB","distance":4102,"transit":true,"line":0,"i_long":106.826365,"station_name":"Kampung Bandan","i_lat":-6.132549,"is_transit":true,"time":9},{"transit":false,"i_lat":-6.14505,"station_name":"Rajawali","time":3,"i_long":106.836569,"is_transit":false,"line":11,"distance":1444,"station_id":"RJW"},{"line":11,"i_long":106.839204,"i_lat":-6.161728,"time":5,"transit":false,"is_transit":false,"distance":1901,"station_id":"KMO","station_name":"Kemayoran"},{"distance":1436,"i_lat":-6.174784,"is_transit":false,"station_name":"Pasar Senen","transit":false,"i_long":106.84368,"station_id":"PSE","line":11,"time":4},{"time":8,"is_transit":false,"station_id":"GST","distance":1567,"transit":false,"i_lat":-6.185975,"i_long":106.850107,"line":11,"station_name":"Gang Sentiong"},{"line":11,"transit":false,"distance":973,"station_name":"Kramat","time":1,"is_transit":false,"i_lat":-6.193792,"i_long":106.855437,"station_id":"KMT"},{"distance":1829,"is_transit":false,"transit":false,"station_name":"Pondok Jati","i_lat":-6.209188,"i_long":106.861737,"line":11,"station_id":"POK","time":2},{"line":0,"distance":1236,"time":9,"station_id":"JNG","transit":true,"i_lat":-6.215091,"station_name":"Jatinegara","i_long":106.86807400000001,"is_transit":true},{"time":2,"i_lat":-6.212485,"distance":1377,"transit":false,"station_name":"Matraman","line":1,"is_transit":false,"station_id":"MTR","i_long":106.858896},{"line":0,"station_id":"MRI","is_transit":true,"i_lat":-6.209883,"distance":1275,"time":2,"transit":true,"station_name":"Manggarai","i_long":106.84912},{"station_name":"Cikini","station_id":"CKI","is_transit":false,"i_long":106.840169,"time":4,"line":0,"transit":false,"distance":1590,"i_lat":-6.198556},{"station_id":"GDD","is_transit":false,"line":2,"time":3,"station_name":"Gondangdia","transit":false,"i_lat":-6.186295,"i_long":106.832183,"distance":1750},{"distance":2015,"station_name":"Juanda","i_long":106.828284,"station_id":"JUA","i_lat":-6.166716,"transit":false,"is_transit":false,"line":2,"time":4},{"station_id":"SW","i_long":106.827103,"i_lat":-6.160725,"time":2,"distance":1149,"is_transit":false,"line":2,"station_name":"Sawah Besar","transit":false},{"is_transit":false,"station_name":"Manggabesar","time":2,"line":2,"transit":false,"station_id":"MGB","i_long":106.82482,"i_lat":-6.149769,"distance":906},{"line":7,"distance":1080,"transit":false,"station_name":"Jayakarta","i_lat":-6.141205,"is_transit":false,"time":2,"station_id":"JAY","i_long":106.820901}]]}