{"data":[[{"line":6,"distance":0,"station_id":"SRP","is_transit":false,"transit":false,"time":0,"i_long":106.66566,"i_lat":-6.319871,"station_name":"Serpong"},{"i_long":106.675475,"is_transit":false,"distance":2413,"station_name":"Rawa Buntu","transit":false,"time":4,"station_id":"RU","line":6,"i_lat":-6.314823},{"transit":false,"station_name":"Sudimara","is_transit":false,"i_long":106.712277,"time":6,"station_id":"SDM","distance":4566,"line":6,"i_lat":-6.296963},{"i_lat":-6.288927,"distance":1994,"station_id":"JMU","line":6,"transit":false,"is_transit":false,"time":4,"station_name":"Jurangmangu","i_long":106.728916},{"time":3,"i_long":106.74273,"line":6,"distance":2179,"is_transit":false,"station_name":"Pondokranji","station_id":"PDJ","transit":false,"i_lat":-6.276362},{"i_lat":-6.237242,"distance":6218,"station_id":"KBY","station_name":"Kebayoran","line":6,"is_transit":false,"i_long":106.780334,"transit":false,"time":8},{"distance":3737,"i_long":106.79689,"is_transit":false,"line":6,"station_id":"PLM","time":7,"transit":false,"i_lat":-6.207404,"station_name":"Palmerah"},{"distance":3191,"is_transit":true,"i_long":106.811091,"time":6,"station_id":"THB","station_name":"Tanah Abang","transit":true,"i_lat":-6.185545,"line":1},{"i_long":106.816351,"transit":false,"time":5,"station_id":"KAT","line":1,"distance":2029,"i_lat":-6.20132,"station_name":"Karet","is_transit":false},{"line":1,"is_transit":false,"i_long":106.819881,"station_id":"SUDB","station_name":"Sudirman Baru","transit":false,"time":1,"i_lat":-6.201433,"distance":471},{"i_long":106.822649,"time":1,"transit":false,"is_transit":false,"station_name":"Sudirman","line":1,"i_lat":-6.202263,"station_id":"SUD","distance":280},{"station_id":"MRI","i_lat":-6.209883,"transit":true,"is_transit":true,"i_long":106.84912,"distance":3186,"line":0,"time":4,"station_name":"Manggarai"},{"transit":false,"is_transit":false,"i_lat":-6.226659,"time":4,"station_name":"Tebet","i_long":106.857948,"station_id":"TEB","distance":2610,"line":2},{"time":2,"i_lat":-6.242512,"line":0,"station_id":"CW","distance":1230,"station_name":"Cawang","i_long":106.856607,"is_transit":false,"transit":false},{"transit":false,"distance":1546,"line":0,"is_transit":false,"station_id":"DRN","time":3,"station_name":"Duren Kalibata","i_lat":-6.255332,"i_long":106.85449},{"distance":824,"time":2,"is_transit":false,"station_id":"PSMB","transit":false,"i_long":106.851577,"station_name":"Pasar Minggu Baru","line":2,"i_lat":-6.263214},{"distance":2380,"station_id":"PSM","transit":false,"time":2,"i_lat":-6.2842400000000005,"line":2,"is_transit":false,"station_name":"Pasar Minggu","i_long":106.843999},{"i_lat":-6.3080680000000005,"is_transit":false,"station_id":"TNT","time":4,"distance":2820,"i_long":106.838896,"line":2,"transit":false,"station_name":"Tanjung Barat"},{"time":3,"i_long":106.832616,"i_lat":-6.330363,"station_name":"Lenteng Agung","transit":false,"is_transit":false,"station_id":"LNA","line":2,"distance":2671},{"i_long":106.834175,"station_id":"UP","transit":false,"time":2,"is_transit":false,"station_name":"Univ. Pancasila","line":2,"distance":1029,"i_lat":-6.339291},{"line":2,"station_id":"UI","transit":false,"time":3,"distance":2264,"i_lat":-6.360749,"station_name":"Univ. Indonesia","is_transit":false,"i_long":106.831474},{"i_lat":-6.369073,"is_transit":false,"i_long":106.831114,"line":2,"distance":1109,"station_id":"POC","station_name":"Pondok Cina","transit":false,"time":2},{"station_name":"Depokbaru","i_lat":-6.391065,"line":0,"i_long":106.819451,"time":4,"station_id":"DPB","transit":false,"distance":2727,"is_transit":false},{"is_transit":false,"station_id":"DP","station_name":"Depok","distance":1584,"line":0,"time":3,"transit":false,"i_lat":-6.405256,"i_long":106.816926},{"distance":5084,"station_id":"CTA","transit":false,"i_long":106.800298,"is_transit":true,"station_name":"Citayam","line":1,"time":6,"i_lat":-6.448811},{"i_lat":-6.46424,"time":10,"distance":6740,"transit":false,"i_long":106.851978,"line":0,"is_transit":false,"station_id":"CBN","station_name":"Cibinong"}],[{"i_lat":-6.319871,"distance":0,"station_id":"SRP","is_transit":false,"time":0,"station_name":"Serpong","i_long":106.66566,"line":6,"transit":false},{"station_name":"Rawa Buntu","i_lat":-6.314823,"is_transit":false,"distance":2413,"i_long":106.675475,"time":4,"transit":false,"line":6,"station_id":"RU"},{"transit":false,"time":6,"is_transit":false,"station_id":"SDM","i_long":106.712277,"station_name":"Sudimara","line":6,"i_lat":-6.296963,"distance":4566},{"time":4,"distance":1994,"station_id":"JMU","line":6,"is_transit":false,"station_name":"Jurangmangu","transit":false,"i_lat":-6.288927,"i_long":106.728916},{"station_name":"Pondokranji","station_id":"PDJ","distance":2179,"i_long":106.74273,"line":6,"i_lat":-6.276362,"time":3,"is_transit":false,"transit":false},{"time":8,"line":6,"station_id":"KBY","station_name":"Kebayoran","distance":6218,"transit":false,"i_lat":-6.237242,"i_long":106.780334,"is_transit":false},{"time":7,"transit":false,"i_long":106.79689,"line":6,"station_id":"PLM","i_lat":-6.207404,"station_name":"Palmerah","is_transit":false,"distance":3737},{"time":6,"line":1,"transit":true,"is_transit":true,"i_lat":-6.185545,"station_id":"THB","i_long":106.811091,"distance":3191,"station_name":"Tanah Abang"},{"distance":3632,"line":1,"i_long":106.800832,"is_transit":true,"time":8,"station_id":"DU","station_name":"Duri","i_lat":-6.155215,"transit":true},{"transit":false,"line":0,"station_name":"Angke","distance":1230,"station_id":"AK","i_lat":-6.144674,"i_long":106.79867,"is_transit":false,"time":4},{"is_transit":true,"distance":4102,"i_lat":-6.132549,"transit":false,"time":9,"station_id":"KPB","i_long":106.826365,"line":0,"station_name":"Kampung Bandan"},{"i_long":106.812439,"is_transit":true,"station_id":"JAKK","i_lat":-6.137569,"distance":1364,"station_name":"Jakarta Kota","transit":true,"time":3,"line":0},{"is_transit":false,"distance":1264,"station_id":"JAY","transit":false,"station_name":"Jayakarta","time":4,"i_lat":-6.141205,"i_long":106.820901,"line":7},{"i_long":106.82482,"time":2,"line":2,"station_name":"Manggabesar","transit":false,"is_transit":false,"station_id":"MGB","distance":1080,"i_lat":-6.149769},{"station_id":"SW","line":2,"i_long":106.827103,"transit":false,"distance":906,"i_lat":-6.160725,"time":2,"is_transit":false,"station_name":"Sawah Besar"},{"i_long":106.828284,"i_lat":-6.166716,"distance":1149,"is_transit":false,"station_id":"JUA","station_name":"Juanda","line":2,"transit":false,"time":2},{"time":4,"transit":false,"is_transit":false,"station_name":"Gondangdia","distance":2015,"i_long":106.832183,"line":2,"i_lat":-6.186295,"station_id":"GDD"},{"distance":1750,"is_transit":false,"station_id":"CKI","time":3,"station_name":"Cikini","i_lat":-6.198556,"transit":false,"i_long":106.840169,"line":0},{"station_name":"Manggarai","distance":1590,"i_lat":-6.209883,"i_long":106.84912,"line":0,"station_id":"MRI","time":4,"transit":true,"is_transit":true},{"time":4,"i_lat":-6.226659,"transit":false,"i_long":106.857948,"distance":2610,"station_name":"Tebet","station_id":"TEB","line":2,"is_transit":false},{"is_transit":false,"line":0,"i_lat":-6.242512,"station_id":"CW","i_long":106.856607,"distance":1230,"station_name":"Cawang","transit":false,"time":2},{"transit":false,"distance":1546,"i_lat":-6.255332,"line":0,"is_transit":false,"station_id":"DRN","time":3,"i_long":106.85449,"station_name":"Duren Kalibata"},{"is_transit":false,"transit":false,"distance":824,"line":2,"station_name":"Pasar Minggu Baru","time":2,"i_long":106.851577,"i_lat":-6.263214,"station_id":"PSMB"},{"i_lat":-6.2842400000000005,"is_transit":false,"time":2,"station_name":"Pasar Minggu","i_long":106.843999,"distance":2380,"line":2,"station_id":"PSM","transit":false},{"station_name":"Tanjung Barat","station_id":"TNT","line":2,"is_transit":false,"transit":false,"i_lat":-6.3080680000000005,"time":4,"distance":2820,"i_long":106.838896},{"is_transit":false,"station_id":"LNA","distance":2671,"time":3,"i_lat":-6.330363,"station_name":"Lenteng Agung","transit":false,"i_long":106.832616,"line":2},{"distance":1029,"i_lat":-6.339291,"station_id":"UP","i_long":106.834175,"is_transit":false,"station_name":"Univ. Pancasila","time":2,"line":2,"transit":false},{"line":2,"is_transit":false,"station_name":"Univ. Indonesia","time":3,"transit":false,"i_long":106.831474,"station_id":"UI","distance":2264,"i_lat":-6.360749},{"i_long":106.831114,"transit":false,"station_id":"POC","distance":1109,"station_name":"Pondok Cina","time":2,"line":2,"i_lat":-6.369073,"is_transit":false},{"is_transit":false,"station_id":"DPB","i_long":106.819451,"distance":2727,"i_lat":-6.391065,"time":4,"station_name":"Depokbaru","transit":false,"line":0},{"distance":1584,"line":0,"time":3,"i_lat":-6.405256,"transit":false,"is_transit":false,"i_long":106.816926,"station_id":"DP","station_name":"Depok"},{"line":1,"is_transit":true,"distance":5084,"transit":false,"station_name":"Citayam","time":6,"i_lat":-6.448811,"station_id":"CTA","i_long":106.800298},{"transit":false,"i_long":106.851978,"time":10,"distance":6740,"is_transit":false,"station_id":"CBN","station_name":"Cibinong","i_lat":-6.46424,"line":0}],[{"station_name":"Serpong","time":0,"i_long":106.66566,"transit":false,"i_lat":-6.319871,"line":6,"is_transit":false,"distance":0,"station_id":"SRP"},{"time":4,"i_long":106.675475,"distance":2413,"transit":false,"station_id":"RU","is_transit":false,"line":6,"station_name":"Rawa Buntu","i_lat":-6.314823},{"station_name":"Sudimara","distance":4566,"station_id":"SDM","transit":false,"line":6,"i_long":106.712277,"is_transit":false,"i_lat":-6.296963,"time":6},{"station_name":"Jurangmangu","line":6,"time":4,"transit":false,"i_lat":-6.288927,"distance":1994,"station_id":"JMU","i_long":106.728916,"is_transit":false},{"distance":2179,"i_long":106.74273,"time":3,"station_id":"PDJ","is_transit":false,"i_lat":-6.276362,"line":6,"station_name":"Pondokranji","transit":false},{"distance":6218,"station_name":"Kebayoran","line":6,"station_id":"KBY","time":8,"is_transit":false,"transit":false,"i_lat":-6.237242,"i_long":106.780334},{"station_name":"Palmerah","transit":false,"i_long":106.79689,"i_lat":-6.207404,"is_transit":false,"distance":3737,"line":6,"station_id":"PLM","time":7},{"distance":3191,"i_long":106.811091,"is_transit":true,"i_lat":-6.185545,"time":6,"transit":true,"line":1,"station_id":"THB","station_name":"Tanah Abang"},{"station_id":"DU","station_name":"Duri","i_long":106.800832,"transit":true,"i_lat":-6.155215,"line":1,"time":8,"distance":3632,"is_transit":true},{"i_lat":-6.144674,"station_name":"Angke","station_id":"AK","distance":1230,"is_transit":false,"time":4,"i_long":106.79867,"line":0,"transit":false},{"station_name":"Kampung Bandan","is_transit":true,"i_lat":-6.132549,"line":0,"distance":4102,"station_id":"KPB","transit":true,"i_long":106.826365,"time":9},{"i_long":106.836569,"station_id":"RJW","transit":false,"station_name":"Rajawali","line":11,"time":3,"distance":1444,"i_lat":-6.14505,"is_transit":false},{"station_id":"KMO","i_long":106.839204,"station_name":"Kemayoran","is_transit":false,"i_lat":-6.161728,"distance":1901,"time":5,"transit":false,"line":11},{"i_lat":-6.174784,"time":4,"transit":false,"station_id":"PSE","i_long":106.84368,"line":11,"distance":1436,"is_transit":false,"station_name":"Pasar Senen"},{"is_transit":false,"transit":false,"time":8,"distance":1567,"station_name":"Gang Sentiong","line":11,"station_id":"GST","i_lat":-6.185975,"i_long":106.850107},{"i_lat":-6.193792,"transit":false,"distance":973,"station_name":"Kramat","time":1,"station_id":"KMT","i_long":106.855437,"line":11,"is_transit":false},{"i_long":106.861737,"transit":false,"distance":1829,"time":2,"line":11,"station_name":"Pondok Jati","station_id":"POK","i_lat":-6.209188,"is_transit":false},{"i_lat":-6.215091,"line":0,"distance":1236,"transit":true,"time":9,"i_long":106.86807400000001,"is_transit":true,"station_name":"Jatinegara","station_id":"JNG"},{"transit":false,"i_lat":-6.212485,"line":1,"is_transit":false,"time":2,"station_name":"Matraman","i_long":106.858896,"distance":1377,"station_id":"MTR"},{"transit":true,"is_transit":true,"station_id":"MRI","i_long":106.84912,"i_lat":-6.209883,"line":0,"time":2,"distance":1275,"station_name":"Manggarai"},{"station_name":"Tebet","transit":false,"station_id":"TEB","time":4,"line":2,"i_long":106.857948,"is_transit":false,"i_lat":-6.226659,"distance":2610},{"time":2,"i_long":106.856607,"is_transit":false,"distance":1230,"station_id":"CW","i_lat":-6.242512,"line":0,"station_name":"Cawang","transit":false},{"line":0,"station_id":"DRN","station_name":"Duren Kalibata","is_transit":false,"transit":false,"time":3,"i_long":106.85449,"distance":1546,"i_lat":-6.255332},{"is_transit":false,"line":2,"station_id":"PSMB","transit":false,"distance":824,"time":2,"i_lat":-6.263214,"station_name":"Pasar Minggu Baru","i_long":106.851577},{"station_id":"PSM","distance":2380,"is_transit":false,"time":2,"line":2,"i_lat":-6.2842400000000005,"station_name":"Pasar Minggu","transit":false,"i_long":106.843999},{"i_lat":-6.3080680000000005,"distance":2820,"i_long":106.838896,"station_name":"Tanjung Barat","line":2,"station_id":"TNT","is_transit":false,"transit":false,"time":4},{"transit":false,"line":2,"distance":2671,"station_id":"LNA","is_transit":false,"time":3,"station_name":"Lenteng Agung","i_lat":-6.330363,"i_long":106.832616},{"line":2,"is_transit":false,"transit":false,"time":2,"station_name":"Univ. Pancasila","distance":1029,"i_long":106.834175,"station_id":"UP","i_lat":-6.339291},{"i_lat":-6.360749,"time":3,"i_long":106.831474,"station_id":"UI","distance":2264,"line":2,"transit":false,"is_transit":false,"station_name":"Univ. Indonesia"},{"i_long":106.831114,"station_name":"Pondok Cina","transit":false,"is_transit":false,"distance":1109,"line":2,"station_id":"POC","time":2,"i_lat":-6.369073},{"distance":2727,"transit":false,"is_transit":false,"time":4,"i_lat":-6.391065,"line":0,"station_id":"DPB","station_name":"Depokbaru","i_long":106.819451},{"i_lat":-6.405256,"line":0,"station_id":"DP","station_name":"Depok","i_long":106.816926,"is_transit":false,"transit":false,"time":3,"distance":1584},{"station_name":"Citayam","is_transit":true,"station_id":"CTA","distance":5084,"time":6,"i_lat":-6.448811,"line":1,"transit":false,"i_long":106.800298},{"line":0,"distance":6740,"is_transit":false,"station_name":"Cibinong","time":10,"station_id":"CBN","i_lat":-6.46424,"transit":false,"i_long":106.851978}]]}