{"data":[[{"distance":0,"i_lat":-6.319871,"time":0,"station_id":"SRP","line":6,"station_name":"Serpong","is_transit":false,"transit":false,"i_long":106.66566},{"is_transit":false,"station_name":"Rawa Buntu","i_long":106.675475,"distance":2413,"line":6,"i_lat":-6.314823,"transit":false,"station_id":"RU","time":4},{"i_lat":-6.296963,"line":6,"station_id":"SDM","time":6,"distance":4566,"is_transit":false,"transit":false,"i_long":106.712277,"station_name":"Sudimara"},{"is_transit":false,"distance":1994,"transit":false,"station_name":"Jurangmangu","i_long":106.728916,"line":6,"station_id":"JMU","time":4,"i_lat":-6.288927},{"transit":false,"i_long":106.74273,"station_name":"Pondokranji","line":6,"station_id":"PDJ","i_lat":-6.276362,"distance":2179,"time":3,"is_transit":false},{"i_lat":-6.237242,"time":8,"i_long":106.780334,"transit":false,"is_transit":false,"station_name":"Kebayoran","distance":6218,"station_id":"KBY","line":6},{"time":7,"line":6,"i_lat":-6.207404,"i_long":106.79689,"station_id":"PLM","station_name":"Palmerah","transit":false,"is_transit":false,"distance":3737},{"station_id":"THB","i_lat":-6.185545,"i_long":106.811091,"is_transit":true,"station_name":"Tanah Abang","line":1,"time":6,"transit":true,"distance":3191},{"time":5,"station_name":"Karet","transit":false,"i_long":106.816351,"station_id":"KAT","distance":2029,"is_transit":false,"i_lat":-6.20132,"line":1},{"transit":false,"line":1,"distance":471,"is_transit":false,"time":1,"station_id":"SUDB","i_lat":-6.201433,"station_name":"Sudirman Baru","i_long":106.819881},{"distance":280,"line":1,"station_name":"Sudirman","i_long":106.822649,"time":1,"transit":false,"is_transit":false,"station_id":"SUD","i_lat":-6.202263},{"transit":true,"station_id":"MRI","i_long":106.84912,"line":2,"is_transit":true,"station_name":"Manggarai","i_lat":-6.209883,"distance":3186,"time":4},{"i_long":106.857948,"transit":false,"time":4,"station_id":"TEB","line":2,"distance":2610,"is_transit":false,"station_name":"Tebet","i_lat":-6.226659},{"distance":1230,"station_id":"CW","transit":false,"i_lat":-6.242512,"station_name":"Cawang","time":2,"is_transit":false,"i_long":106.856607,"line":2},{"transit":false,"station_name":"Duren Kalibata","i_long":106.85449,"station_id":"DRN","i_lat":-6.255332,"line":2,"is_transit":false,"distance":1546,"time":3}],[{"i_lat":-6.319871,"station_id":"SRP","line":6,"is_transit":false,"station_name":"Serpong","distance":0,"transit":false,"i_long":106.66566,"time":0},{"station_name":"Rawa Buntu","station_id":"RU","is_transit":false,"i_lat":-6.314823,"line":6,"distance":2413,"i_long":106.675475,"transit":false,"time":4},{"time":6,"is_transit":false,"line":6,"transit":false,"station_name":"Sudimara","i_lat":-6.296963,"i_long":106.712277,"distance":4566,"station_id":"SDM"},{"i_long":106.728916,"line":6,"station_id":"JMU","i_lat":-6.288927,"distance":1994,"is_transit":false,"time":4,"transit":false,"station_name":"Jurangmangu"},{"i_lat":-6.276362,"station_id":"PDJ","i_long":106.74273,"line":6,"station_name":"Pondokranji","is_transit":false,"transit":false,"distance":2179,"time":3},{"i_lat":-6.237242,"station_id":"KBY","distance":6218,"time":8,"transit":false,"i_long":106.780334,"is_transit":false,"station_name":"Kebayoran","line":6},{"time":7,"line":6,"i_long":106.79689,"i_lat":-6.207404,"is_transit":false,"transit":false,"station_name":"Palmerah","station_id":"PLM","distance":3737},{"time":6,"is_transit":true,"transit":true,"i_lat":-6.185545,"line":1,"distance":3191,"station_name":"Tanah Abang","station_id":"THB","i_long":106.811091},{"time":8,"i_lat":-6.155215,"distance":3632,"station_id":"DU","is_transit":false,"transit":false,"station_name":"Duri","i_long":106.800832,"line":1},{"i_long":106.79867,"time":4,"transit":false,"line":1,"is_transit":false,"station_name":"Angke","station_id":"AK","i_lat":-6.144674,"distance":1230},{"transit":true,"distance":4102,"i_lat":-6.132549,"i_long":106.826365,"is_transit":true,"time":9,"line":4,"station_id":"KPB","station_name":"Kampung Bandan"},{"i_long":106.812439,"line":2,"transit":true,"time":3,"station_name":"Jakarta Kota","i_lat":-6.137569,"is_transit":true,"distance":1364,"station_id":"JAKK"},{"is_transit":false,"transit":false,"station_name":"Jayakarta","i_long":106.820901,"line":2,"distance":1264,"station_id":"JAY","time":4,"i_lat":-6.141205},{"station_name":"Manggabesar","is_transit":false,"i_lat":-6.149769,"time":2,"transit":false,"i_long":106.82482,"line":2,"distance":1080,"station_id":"MGB"},{"is_transit":false,"distance":906,"i_lat":-6.160725,"i_long":106.827103,"transit":false,"line":2,"station_name":"Sawah Besar","station_id":"SW","time":2},{"distance":1149,"transit":false,"i_long":106.828284,"station_name":"Juanda","line":2,"station_id":"JUA","is_transit":false,"i_lat":-6.166716,"time":2},{"is_transit":false,"station_name":"Gondangdia","distance":2015,"transit":false,"station_id":"GDD","i_long":106.832183,"time":4,"i_lat":-6.186295,"line":2},{"is_transit":false,"distance":1750,"station_id":"CKI","i_lat":-6.198556,"station_name":"Cikini","i_long":106.840169,"transit":false,"line":2,"time":3},{"i_long":106.84912,"transit":false,"i_lat":-6.209883,"distance":1590,"line":2,"station_id":"MRI","station_name":"Manggarai","is_transit":false,"time":4},{"time":4,"i_long":106.857948,"station_name":"Tebet","distance":2610,"transit":false,"is_transit":false,"station_id":"TEB","i_lat":-6.226659,"line":2},{"station_id":"CW","time":2,"station_name":"Cawang","i_lat":-6.242512,"i_long":106.856607,"is_transit":false,"transit":false,"line":2,"distance":1230},{"line":2,"transit":false,"station_id":"DRN","is_transit":false,"i_lat":-6.255332,"station_name":"Duren Kalibata","i_long":106.85449,"time":3,"distance":1546}],[{"station_name":"Serpong","distance":0,"time":0,"station_id":"SRP","i_lat":-6.319871,"i_long":106.66566,"line":6,"transit":false,"is_transit":false},{"is_transit":false,"transit":false,"i_lat":-6.314823,"time":4,"i_long":106.675475,"line":6,"distance":2413,"station_id":"RU","station_name":"Rawa Buntu"},{"transit":false,"is_transit":false,"station_name":"Sudimara","i_lat":-6.296963,"i_long":106.712277,"station_id":"SDM","distance":4566,"time":6,"line":6},{"i_lat":-6.288927,"transit":false,"distance":1994,"is_transit":false,"line":6,"station_id":"JMU","time":4,"i_long":106.728916,"station_name":"Jurangmangu"},{"distance":2179,"line":6,"station_name":"Pondokranji","time":3,"i_lat":-6.276362,"i_long":106.74273,"transit":false,"station_id":"PDJ","is_transit":false},{"i_long":106.780334,"i_lat":-6.237242,"station_id":"KBY","time":8,"station_name":"Kebayoran","is_transit":false,"distance":6218,"line":6,"transit":false},{"distance":3737,"time":7,"i_lat":-6.207404,"is_transit":false,"station_id":"PLM","station_name":"Palmerah","i_long":106.79689,"line":6,"transit":false},{"is_transit":true,"station_id":"THB","transit":true,"distance":3191,"line":1,"station_name":"Tanah Abang","i_lat":-6.185545,"time":6,"i_long":106.811091},{"time":8,"transit":false,"is_transit":false,"line":1,"station_id":"DU","i_lat":-6.155215,"distance":3632,"i_long":106.800832,"station_name":"Duri"},{"station_name":"Angke","is_transit":false,"distance":1230,"i_lat":-6.144674,"station_id":"AK","transit":false,"line":1,"i_long":106.79867,"time":4},{"transit":true,"time":9,"line":4,"i_lat":-6.132549,"distance":4102,"station_id":"KPB","is_transit":true,"i_long":106.826365,"station_name":"Kampung Bandan"},{"station_name":"Rajawali","i_lat":-6.14505,"station_id":"RJW","line":11,"i_long":106.836569,"transit":false,"time":3,"is_transit":false,"distance":1444},{"transit":false,"is_transit":false,"station_name":"Kemayoran","time":5,"distance":1901,"i_lat":-6.161728,"i_long":106.839204,"line":11,"station_id":"KMO"},{"i_long":106.84368,"station_name":"Pasar Senen","station_id":"PSE","distance":1436,"i_lat":-6.174784,"line":11,"transit":false,"is_transit":false,"time":4},{"i_lat":-6.185975,"station_name":"Gang Sentiong","transit":false,"station_id":"GST","line":11,"time":8,"distance":1567,"i_long":106.850107,"is_transit":false},{"transit":false,"line":11,"distance":973,"i_lat":-6.193792,"station_name":"Kramat","i_long":106.855437,"time":1,"is_transit":false,"station_id":"KMT"},{"transit":false,"time":2,"is_transit":false,"i_long":106.861737,"station_id":"POK","distance":1829,"i_lat":-6.209188,"station_name":"Pondok Jati","line":11},{"is_transit":true,"i_long":106.86807400000001,"transit":true,"i_lat":-6.215091,"station_id":"JNG","station_name":"Jatinegara","line":1,"distance":1236,"time":9},{"station_name":"Matraman","station_id":"MTR","i_long":106.858896,"is_transit":false,"distance":1377,"time":2,"transit":false,"i_lat":-6.212485,"line":1},{"distance":1275,"time":2,"i_long":106.84912,"station_name":"Manggarai","is_transit":true,"station_id":"MRI","transit":true,"i_lat":-6.209883,"line":2},{"i_long":106.857948,"transit":false,"station_id":"TEB","time":4,"station_name":"Tebet","line":2,"is_transit":false,"i_lat":-6.226659,"distance":2610},{"i_long":106.856607,"time":2,"station_name":"Cawang","distance":1230,"line":2,"station_id":"CW","transit":false,"is_transit":false,"i_lat":-6.242512},{"is_transit":false,"transit":false,"distance":1546,"station_id":"DRN","i_lat":-6.255332,"i_long":106.85449,"time":3,"line":2,"station_name":"Duren Kalibata"}]]}