{"data":[[{"time":0,"station_id":"SRP","station_name":"Serpong","distance":0,"i_lat":-6.319871,"i_long":106.66566,"is_transit":false,"transit":false,"line":6},{"station_name":"Rawa Buntu","i_long":106.675475,"time":4,"line":6,"i_lat":-6.314823,"transit":false,"station_id":"RU","distance":2413,"is_transit":false},{"time":6,"i_long":106.712277,"line":6,"transit":false,"station_id":"SDM","is_transit":false,"station_name":"Sudimara","distance":4566,"i_lat":-6.296963},{"is_transit":false,"time":4,"station_name":"Jurangmangu","station_id":"JMU","line":6,"transit":false,"distance":1994,"i_long":106.728916,"i_lat":-6.288927},{"distance":2179,"line":6,"transit":false,"time":3,"i_long":106.74273,"station_name":"Pondokranji","station_id":"PDJ","i_lat":-6.276362,"is_transit":false},{"line":6,"distance":6218,"time":8,"transit":false,"i_lat":-6.237242,"station_id":"KBY","i_long":106.780334,"station_name":"Kebayoran","is_transit":false},{"distance":3737,"i_lat":-6.207404,"station_id":"PLM","time":7,"line":6,"i_long":106.79689,"station_name":"Palmerah","is_transit":false,"transit":false},{"i_long":106.811091,"i_lat":-6.185545,"line":1,"distance":3191,"station_name":"Tanah Abang","transit":true,"is_transit":true,"time":6,"station_id":"THB"},{"i_lat":-6.20132,"distance":2029,"line":1,"station_id":"KAT","i_long":106.816351,"is_transit":false,"transit":false,"station_name":"Karet","time":5},{"station_id":"SUDB","is_transit":false,"transit":false,"i_long":106.819881,"station_name":"Sudirman Baru","distance":471,"time":1,"i_lat":-6.201433,"line":1},{"transit":false,"i_long":106.822649,"station_id":"SUD","line":1,"distance":280,"station_name":"Sudirman","time":1,"i_lat":-6.202263,"is_transit":false},{"i_lat":-6.209883,"station_id":"MRI","station_name":"Manggarai","transit":true,"i_long":106.84912,"line":0,"distance":3186,"is_transit":true,"time":4},{"is_transit":false,"transit":false,"i_long":106.857948,"distance":2610,"time":4,"i_lat":-6.226659,"station_name":"Tebet","line":2,"station_id":"TEB"},{"line":0,"distance":1230,"station_id":"CW","i_lat":-6.242512,"station_name":"Cawang","transit":false,"time":2,"i_long":106.856607,"is_transit":false},{"line":0,"station_id":"DRN","transit":false,"distance":1546,"i_lat":-6.255332,"i_long":106.85449,"station_name":"Duren Kalibata","time":3,"is_transit":false},{"station_id":"PSMB","i_lat":-6.263214,"time":2,"line":2,"is_transit":false,"station_name":"Pasar Minggu Baru","transit":false,"i_long":106.851577,"distance":824},{"station_name":"Pasar Minggu","i_lat":-6.2842400000000005,"line":2,"transit":false,"station_id":"PSM","distance":2380,"i_long":106.843999,"time":2,"is_transit":false}],[{"line":6,"station_id":"SRP","time":0,"transit":false,"is_transit":false,"distance":0,"station_name":"Serpong","i_long":106.66566,"i_lat":-6.319871},{"i_long":106.675475,"i_lat":-6.314823,"line":6,"transit":false,"distance":2413,"is_transit":false,"station_id":"RU","station_name":"Rawa Buntu","time":4},{"distance":4566,"station_id":"SDM","is_transit":false,"time":6,"i_lat":-6.296963,"line":6,"station_name":"Sudimara","transit":false,"i_long":106.712277},{"transit":false,"station_name":"Jurangmangu","i_lat":-6.288927,"line":6,"is_transit":false,"station_id":"JMU","time":4,"i_long":106.728916,"distance":1994},{"time":3,"distance":2179,"station_name":"Pondokranji","line":6,"is_transit":false,"transit":false,"i_long":106.74273,"station_id":"PDJ","i_lat":-6.276362},{"is_transit":false,"i_lat":-6.237242,"transit":false,"line":6,"station_id":"KBY","station_name":"Kebayoran","time":8,"i_long":106.780334,"distance":6218},{"time":7,"line":6,"i_long":106.79689,"transit":false,"i_lat":-6.207404,"distance":3737,"station_id":"PLM","station_name":"Palmerah","is_transit":false},{"is_transit":true,"transit":true,"i_long":106.811091,"distance":3191,"i_lat":-6.185545,"time":6,"line":1,"station_id":"THB","station_name":"Tanah Abang"},{"station_name":"Duri","i_lat":-6.155215,"is_transit":true,"line":1,"station_id":"DU","i_long":106.800832,"transit":true,"distance":3632,"time":8},{"station_name":"Angke","is_transit":false,"station_id":"AK","transit":false,"i_long":106.79867,"i_lat":-6.144674,"time":4,"distance":1230,"line":0},{"line":0,"distance":4102,"station_id":"KPB","station_name":"Kampung Bandan","time":9,"i_lat":-6.132549,"transit":false,"i_long":106.826365,"is_transit":true},{"distance":1364,"i_lat":-6.137569,"is_transit":true,"transit":true,"time":3,"station_name":"Jakarta Kota","station_id":"JAKK","i_long":106.812439,"line":0},{"i_long":106.820901,"line":7,"station_id":"JAY","transit":false,"station_name":"Jayakarta","i_lat":-6.141205,"distance":1264,"is_transit":false,"time":4},{"line":2,"distance":1080,"time":2,"station_name":"Manggabesar","transit":false,"i_long":106.82482,"is_transit":false,"station_id":"MGB","i_lat":-6.149769},{"station_id":"SW","distance":906,"transit":false,"line":2,"i_long":106.827103,"station_name":"Sawah Besar","i_lat":-6.160725,"is_transit":false,"time":2},{"transit":false,"i_lat":-6.166716,"station_name":"Juanda","time":2,"i_long":106.828284,"is_transit":false,"line":2,"distance":1149,"station_id":"JUA"},{"line":2,"i_long":106.832183,"i_lat":-6.186295,"time":4,"transit":false,"is_transit":false,"distance":2015,"station_id":"GDD","station_name":"Gondangdia"},{"i_lat":-6.198556,"distance":1750,"time":3,"is_transit":false,"station_id":"CKI","station_name":"Cikini","i_long":106.840169,"line":0,"transit":false},{"station_id":"MRI","is_transit":true,"transit":true,"i_long":106.84912,"distance":1590,"line":0,"station_name":"Manggarai","i_lat":-6.209883,"time":4},{"transit":false,"line":2,"station_id":"TEB","time":4,"i_long":106.857948,"distance":2610,"i_lat":-6.226659,"is_transit":false,"station_name":"Tebet"},{"i_long":106.856607,"station_id":"CW","station_name":"Cawang","transit":false,"line":0,"distance":1230,"i_lat":-6.242512,"is_transit":false,"time":2},{"line":0,"distance":1546,"time":3,"station_id":"DRN","transit":false,"i_lat":-6.255332,"station_name":"Duren Kalibata","i_long":106.85449,"is_transit":false},{"time":2,"i_lat":-6.263214,"distance":824,"transit":false,"station_name":"Pasar Minggu Baru","line":2,"is_transit":false,"station_id":"PSMB","i_long":106.851577},{"line":2,"station_id":"PSM","is_transit":false,"i_lat":-6.2842400000000005,"distance":2380,"time":2,"transit":false,"station_name":"Pasar Minggu","i_long":106.843999}],[{"station_name":"Serpong","station_id":"SRP","is_transit":false,"i_long":106.66566,"time":0,"line":6,"transit":false,"distance":0,"i_lat":-6.319871},{"station_id":"RU","is_transit":false,"line":6,"time":4,"station_name":"Rawa Buntu","transit":false,"i_lat":-6.314823,"i_long":106.675475,"distance":2413},{"distance":4566,"station_name":"Sudimara","i_long":106.712277,"station_id":"SDM","i_lat":-6.296963,"transit":false,"is_transit":false,"line":6,"time":6},{"station_id":"JMU","i_long":106.728916,"i_lat":-6.288927,"time":4,"distance":1994,"is_transit":false,"line":6,"station_name":"Jurangmangu","transit":false},{"is_transit":false,"station_name":"Pondokranji","time":3,"line":6,"transit":false,"station_id":"PDJ","i_long":106.74273,"i_lat":-6.276362,"distance":2179},{"line":6,"distance":6218,"transit":false,"station_name":"Kebayoran","i_lat":-6.237242,"is_transit":false,"time":8,"station_id":"KBY","i_long":106.780334},{"i_long":106.79689,"station_id":"PLM","line":6,"distance":3737,"is_transit":false,"transit":false,"station_name":"Palmerah","time":7,"i_lat":-6.207404},{"i_lat":-6.185545,"station_id":"THB","transit":true,"distance":3191,"station_name":"Tanah Abang","i_long":106.811091,"line":1,"time":6,"is_transit":true},{"station_name":"Duri","i_lat":-6.155215,"time":8,"line":1,"station_id":"DU","is_transit":true,"distance":3632,"transit":true,"i_long":106.800832},{"transit":false,"is_transit":false,"distance":1230,"station_id":"AK","station_name":"Angke","line":0,"i_long":106.79867,"i_lat":-6.144674,"time":4},{"is_transit":true,"time":9,"i_long":106.826365,"station_name":"Kampung Bandan","station_id":"KPB","line":0,"distance":4102,"i_lat":-6.132549,"transit":true},{"i_long":106.836569,"station_name":"Rajawali","distance":1444,"is_transit":false,"i_lat":-6.14505,"time":3,"station_id":"RJW","line":11,"transit":false},{"time":5,"i_lat":-6.161728,"station_name":"Kemayoran","i_long":106.839204,"line":11,"distance":1901,"transit":false,"is_transit":false,"station_id":"KMO"},{"station_name":"Pasar Senen","i_lat":-6.174784,"distance":1436,"transit":false,"time":4,"is_transit":false,"station_id":"PSE","line":11,"i_long":106.84368},{"line":11,"distance":1567,"i_lat":-6.185975,"station_name":"Gang Sentiong","i_long":106.850107,"transit":false,"time":8,"is_transit":false,"station_id":"GST"},{"station_id":"KMT","line":11,"distance":973,"station_name":"Kramat","transit":false,"i_lat":-6.193792,"i_long":106.855437,"time":1,"is_transit":false},{"transit":false,"time":2,"i_long":106.861737,"station_id":"POK","is_transit":false,"line":11,"i_lat":-6.209188,"station_name":"Pondok Jati","distance":1829},{"line":0,"transit":true,"station_name":"Jatinegara","is_transit":true,"station_id":"JNG","i_long":106.86807400000001,"distance":1236,"time":9,"i_lat":-6.215091},{"line":1,"is_transit":false,"time":2,"station_id":"MTR","i_lat":-6.212485,"i_long":106.858896,"distance":1377,"station_name":"Matraman","transit":false},{"station_name":"Manggarai","station_id":"MRI","i_long":106.84912,"transit":true,"time":2,"i_lat":-6.209883,"distance":1275,"line":0,"is_transit":true},{"distance":2610,"line":2,"i_lat":-6.226659,"time":4,"i_long":106.857948,"station_id":"TEB","station_name":"Tebet","is_transit":false,"transit":false},{"line":0,"i_long":106.856607,"i_lat":-6.242512,"transit":false,"is_transit":false,"station_id":"CW","distance":1230,"time":2,"station_name":"Cawang"},{"transit":false,"i_lat":-6.255332,"i_long":106.85449,"time":3,"line":0,"station_name":"Duren Kalibata","distance":1546,"is_transit":false,"station_id":"DRN"},{"station_name":"Pasar Minggu Baru","i_lat":-6.263214,"distance":824,"is_transit":false,"i_long":106.851577,"time":2,"line":2,"transit":false,"station_id":"PSMB"},{"transit":false,"station_id":"PSM","i_long":106.843999,"time":2,"distance":2380,"is_transit":false,"line":2,"station_name":"Pasar Minggu","i_lat":-6.2842400000000005}]]}