{"data":[[{"distance":0,"is_transit":false,"station_id":"SRP","i_long":106.66566,"transit":false,"station_name":"Serpong","time":0,"i_lat":-6.319871,"line":6},{"station_id":"RU","time":4,"i_lat":-6.314823,"line":6,"is_transit":false,"station_name":"Rawa Buntu","i_long":106.675475,"transit":false,"distance":2413},{"is_transit":false,"transit":false,"station_name":"Sudimara","station_id":"SDM","line":6,"distance":4566,"i_lat":-6.296963,"i_long":106.712277,"time":6},{"line":6,"transit":false,"distance":1994,"station_id":"JMU","time":4,"station_name":"Jurangmangu","is_transit":false,"i_lat":-6.288927,"i_long":106.728916},{"i_lat":-6.276362,"line":6,"is_transit":false,"station_id":"PDJ","transit":false,"distance":2179,"i_long":106.74273,"station_name":"Pondokranji","time":3},{"i_lat":-6.237242,"i_long":106.780334,"line":6,"time":8,"station_id":"KBY","station_name":"Kebayoran","distance":6218,"is_transit":false,"transit":false},{"is_transit":false,"i_lat":-6.207404,"distance":3737,"transit":false,"station_name":"Palmerah","i_long":106.79689,"line":6,"time":7,"station_id":"PLM"}]]}