{"data":[[{"line":6,"transit":false,"is_transit":false,"i_long":106.66566,"station_id":"SRP","station_name":"Serpong","time":0,"distance":0,"i_lat":-6.319871},{"is_transit":false,"station_id":"RU","line":6,"station_name":"Rawa Buntu","i_long":106.675475,"distance":2413,"time":4,"i_lat":-6.314823,"transit":false},{"distance":4566,"line":6,"i_lat":-6.296963,"i_long":106.712277,"station_id":"SDM","transit":false,"station_name":"Sudimara","is_transit":false,"time":6},{"i_lat":-6.288927,"i_long":106.728916,"is_transit":false,"time":4,"transit":false,"station_name":"Jurangmangu","line":6,"station_id":"JMU","distance":1994},{"station_name":"Pondokranji","time":3,"i_lat":-6.276362,"station_id":"PDJ","is_transit":false,"i_long":106.74273,"line":6,"transit":false,"distance":2179},{"line":6,"transit":false,"station_id":"KBY","station_name":"Kebayoran","time":8,"is_transit":false,"distance":6218,"i_lat":-6.237242,"i_long":106.780334},{"station_name":"Palmerah","is_transit":false,"transit":false,"time":7,"line":6,"distance":3737,"i_lat":-6.207404,"i_long":106.79689,"station_id":"PLM"},{"i_long":106.811091,"station_id":"THB","line":1,"distance":3191,"transit":true,"station_name":"Tanah Abang","is_transit":true,"time":6,"i_lat":-6.185545},{"i_long":106.816351,"station_id":"KAT","is_transit":false,"line":1,"transit":false,"distance":2029,"i_lat":-6.20132,"station_name":"Karet","time":5},{"i_lat":-6.201433,"time":1,"distance":471,"is_transit":false,"i_long":106.819881,"station_name":"Sudirman Baru","line":1,"station_id":"SUDB","transit":false},{"i_lat":-6.202263,"line":1,"i_long":106.822649,"is_transit":false,"station_id":"SUD","station_name":"Sudirman","transit":false,"time":1,"distance":280},{"is_transit":true,"transit":true,"time":4,"distance":3186,"i_long":106.84912,"station_name":"Manggarai","i_lat":-6.209883,"line":2,"station_id":"MRI"},{"station_id":"TEB","distance":2610,"transit":false,"is_transit":false,"i_lat":-6.226659,"line":2,"time":4,"i_long":106.857948,"station_name":"Tebet"},{"station_name":"Cawang","time":2,"i_long":106.856607,"line":2,"i_lat":-6.242512,"station_id":"CW","transit":false,"distance":1230,"is_transit":false},{"time":3,"line":2,"transit":false,"is_transit":false,"i_long":106.85449,"i_lat":-6.255332,"station_id":"DRN","station_name":"Duren Kalibata","distance":1546},{"is_transit":false,"time":2,"transit":false,"distance":824,"i_long":106.851577,"line":2,"station_name":"Pasar Minggu Baru","i_lat":-6.263214,"station_id":"PSMB"},{"time":2,"transit":false,"station_name":"Pasar Minggu","is_transit":false,"i_long":106.843999,"station_id":"PSM","distance":2380,"i_lat":-6.2842400000000005,"line":2}],[{"station_name":"Serpong","line":6,"distance":0,"i_lat":-6.319871,"i_long":106.66566,"transit":false,"time":0,"is_transit":false,"station_id":"SRP"},{"station_name":"Rawa Buntu","line":6,"distance":2413,"station_id":"RU","time":4,"is_transit":false,"transit":false,"i_lat":-6.314823,"i_long":106.675475},{"station_name":"Sudimara","line":6,"transit":false,"distance":4566,"i_lat":-6.296963,"i_long":106.712277,"is_transit":false,"station_id":"SDM","time":6},{"i_long":106.728916,"distance":1994,"time":4,"transit":false,"is_transit":false,"station_name":"Jurangmangu","i_lat":-6.288927,"line":6,"station_id":"JMU"},{"transit":false,"distance":2179,"i_lat":-6.276362,"i_long":106.74273,"line":6,"time":3,"station_name":"Pondokranji","is_transit":false,"station_id":"PDJ"},{"distance":6218,"i_lat":-6.237242,"line":6,"is_transit":false,"station_name":"Kebayoran","transit":false,"station_id":"KBY","time":8,"i_long":106.780334},{"distance":3737,"transit":false,"station_name":"Palmerah","i_lat":-6.207404,"i_long":106.79689,"is_transit":false,"line":6,"station_id":"PLM","time":7},{"station_id":"THB","is_transit":true,"distance":3191,"transit":true,"station_name":"Tanah Abang","i_lat":-6.185545,"line":1,"i_long":106.811091,"time":6},{"is_transit":false,"i_lat":-6.155215,"station_id":"DU","i_long":106.800832,"line":1,"transit":false,"distance":3632,"time":8,"station_name":"Duri"},{"transit":false,"is_transit":false,"station_id":"AK","distance":1230,"station_name":"Angke","time":4,"i_long":106.79867,"line":1,"i_lat":-6.144674},{"i_long":106.826365,"line":4,"transit":true,"station_name":"Kampung Bandan","is_transit":true,"time":9,"station_id":"KPB","distance":4102,"i_lat":-6.132549},{"i_long":106.812439,"line":2,"station_id":"JAKK","transit":true,"i_lat":-6.137569,"time":3,"distance":1364,"station_name":"Jakarta Kota","is_transit":true},{"time":4,"station_id":"JAY","line":2,"is_transit":false,"station_name":"Jayakarta","distance":1264,"i_lat":-6.141205,"i_long":106.820901,"transit":false},{"line":2,"distance":1080,"i_lat":-6.149769,"time":2,"station_name":"Manggabesar","station_id":"MGB","transit":false,"is_transit":false,"i_long":106.82482},{"time":2,"i_long":106.827103,"line":2,"transit":false,"distance":906,"station_name":"Sawah Besar","station_id":"SW","is_transit":false,"i_lat":-6.160725},{"time":2,"line":2,"is_transit":false,"station_id":"JUA","transit":false,"distance":1149,"i_lat":-6.166716,"station_name":"Juanda","i_long":106.828284},{"station_id":"GDD","is_transit":false,"transit":false,"line":2,"distance":2015,"station_name":"Gondangdia","time":4,"i_lat":-6.186295,"i_long":106.832183},{"station_name":"Cikini","i_long":106.840169,"distance":1750,"station_id":"CKI","is_transit":false,"time":3,"line":2,"transit":false,"i_lat":-6.198556},{"line":2,"transit":false,"is_transit":false,"i_lat":-6.209883,"i_long":106.84912,"distance":1590,"time":4,"station_name":"Manggarai","station_id":"MRI"},{"i_lat":-6.226659,"line":2,"is_transit":false,"time":4,"transit":false,"station_name":"Tebet","i_long":106.857948,"distance":2610,"station_id":"TEB"},{"station_name":"Cawang","i_long":106.856607,"time":2,"line":2,"distance":1230,"transit":false,"station_id":"CW","i_lat":-6.242512,"is_transit":false},{"station_name":"Duren Kalibata","is_transit":false,"i_long":106.85449,"i_lat":-6.255332,"station_id":"DRN","line":2,"transit":false,"distance":1546,"time":3},{"i_long":106.851577,"transit":false,"station_id":"PSMB","i_lat":-6.263214,"distance":824,"is_transit":false,"line":2,"time":2,"station_name":"Pasar Minggu Baru"},{"line":2,"distance":2380,"station_id":"PSM","time":2,"is_transit":false,"transit":false,"i_lat":-6.2842400000000005,"i_long":106.843999,"station_name":"Pasar Minggu"}],[{"station_id":"SRP","station_name":"Serpong","time":0,"transit":false,"i_long":106.66566,"i_lat":-6.319871,"distance":0,"line":6,"is_transit":false},{"is_transit":false,"transit":false,"station_id":"RU","i_long":106.675475,"time":4,"station_name":"Rawa Buntu","i_lat":-6.314823,"line":6,"distance":2413},{"i_long":106.712277,"station_name":"Sudimara","line":6,"is_transit":false,"station_id":"SDM","time":6,"transit":false,"distance":4566,"i_lat":-6.296963},{"line":6,"station_name":"Jurangmangu","i_lat":-6.288927,"time":4,"distance":1994,"is_transit":false,"station_id":"JMU","i_long":106.728916,"transit":false},{"station_id":"PDJ","station_name":"Pondokranji","transit":false,"time":3,"is_transit":false,"i_lat":-6.276362,"i_long":106.74273,"line":6,"distance":2179},{"is_transit":false,"station_name":"Kebayoran","station_id":"KBY","time":8,"distance":6218,"i_lat":-6.237242,"i_long":106.780334,"transit":false,"line":6},{"line":6,"time":7,"distance":3737,"i_lat":-6.207404,"station_name":"Palmerah","is_transit":false,"transit":false,"station_id":"PLM","i_long":106.79689},{"line":1,"transit":true,"distance":3191,"station_id":"THB","time":6,"station_name":"Tanah Abang","i_long":106.811091,"i_lat":-6.185545,"is_transit":true},{"i_lat":-6.155215,"station_id":"DU","transit":false,"distance":3632,"i_long":106.800832,"is_transit":false,"line":1,"time":8,"station_name":"Duri"},{"is_transit":false,"distance":1230,"station_id":"AK","transit":false,"time":4,"i_long":106.79867,"line":1,"i_lat":-6.144674,"station_name":"Angke"},{"time":9,"line":4,"transit":true,"station_name":"Kampung Bandan","is_transit":true,"station_id":"KPB","i_lat":-6.132549,"i_long":106.826365,"distance":4102},{"station_id":"RJW","time":3,"i_lat":-6.14505,"i_long":106.836569,"is_transit":false,"station_name":"Rajawali","line":11,"transit":false,"distance":1444},{"transit":false,"station_name":"Kemayoran","is_transit":false,"i_long":106.839204,"line":11,"i_lat":-6.161728,"station_id":"KMO","time":5,"distance":1901},{"station_name":"Pasar Senen","line":11,"distance":1436,"i_lat":-6.174784,"transit":false,"i_long":106.84368,"is_transit":false,"time":4,"station_id":"PSE"},{"is_transit":false,"station_name":"Gang Sentiong","i_long":106.850107,"line":11,"time":8,"station_id":"GST","distance":1567,"i_lat":-6.185975,"transit":false},{"station_name":"Kramat","i_long":106.855437,"line":11,"transit":false,"station_id":"KMT","i_lat":-6.193792,"distance":973,"is_transit":false,"time":1},{"is_transit":false,"distance":1829,"station_id":"POK","time":2,"transit":false,"station_name":"Pondok Jati","i_long":106.861737,"line":11,"i_lat":-6.209188},{"time":9,"station_name":"Jatinegara","is_transit":true,"i_lat":-6.215091,"distance":1236,"line":1,"transit":true,"station_id":"JNG","i_long":106.86807400000001},{"time":2,"station_name":"Matraman","distance":1377,"station_id":"MTR","i_long":106.858896,"is_transit":false,"line":1,"transit":false,"i_lat":-6.212485},{"time":2,"is_transit":true,"station_name":"Manggarai","station_id":"MRI","i_lat":-6.209883,"line":2,"i_long":106.84912,"distance":1275,"transit":true},{"is_transit":false,"time":4,"i_lat":-6.226659,"station_name":"Tebet","transit":false,"distance":2610,"station_id":"TEB","i_long":106.857948,"line":2},{"time":2,"is_transit":false,"i_lat":-6.242512,"line":2,"station_id":"CW","i_long":106.856607,"distance":1230,"station_name":"Cawang","transit":false},{"distance":1546,"transit":false,"station_name":"Duren Kalibata","time":3,"station_id":"DRN","i_long":106.85449,"line":2,"i_lat":-6.255332,"is_transit":false},{"transit":false,"distance":824,"station_id":"PSMB","i_lat":-6.263214,"line":2,"i_long":106.851577,"time":2,"station_name":"Pasar Minggu Baru","is_transit":false},{"station_name":"Pasar Minggu","is_transit":false,"transit":false,"i_lat":-6.2842400000000005,"station_id":"PSM","distance":2380,"line":2,"i_long":106.843999,"time":2}]]}