{"data":[[{"time":0,"distance":0,"station_id":"SRP","is_transit":false,"transit":false,"i_lat":-6.319871,"station_name":"Serpong","i_long":106.66566,"line":6},{"transit":false,"time":4,"line":6,"i_long":106.675475,"station_id":"RU","is_transit":false,"distance":2413,"i_lat":-6.314823,"station_name":"Rawa Buntu"},{"line":6,"is_transit":false,"transit":false,"time":6,"distance":4566,"i_lat":-6.296963,"station_name":"Sudimara","i_long":106.712277,"station_id":"SDM"},{"transit":false,"line":6,"i_lat":-6.288927,"is_transit":false,"i_long":106.728916,"station_id":"JMU","station_name":"Jurangmangu","time":4,"distance":1994},{"distance":2179,"time":3,"i_lat":-6.276362,"line":6,"station_id":"PDJ","station_name":"Pondokranji","transit":false,"is_transit":false,"i_long":106.74273},{"transit":false,"time":8,"line":6,"distance":6218,"i_lat":-6.237242,"is_transit":false,"station_id":"KBY","i_long":106.780334,"station_name":"Kebayoran"},{"i_lat":-6.207404,"transit":false,"time":7,"i_long":106.79689,"station_id":"PLM","is_transit":false,"station_name":"Palmerah","distance":3737,"line":6},{"i_lat":-6.185545,"line":1,"i_long":106.811091,"station_id":"THB","distance":3191,"is_transit":true,"transit":true,"time":6,"station_name":"Tanah Abang"},{"i_long":106.816351,"line":1,"is_transit":false,"transit":false,"i_lat":-6.20132,"time":5,"distance":2029,"station_name":"Karet","station_id":"KAT"},{"distance":471,"transit":false,"time":1,"station_name":"Sudirman Baru","station_id":"SUDB","is_transit":false,"i_long":106.819881,"line":1,"i_lat":-6.201433},{"station_id":"SUD","station_name":"Sudirman","distance":280,"i_long":106.822649,"line":1,"is_transit":false,"time":1,"i_lat":-6.202263,"transit":false},{"i_lat":-6.209883,"station_id":"MRI","line":2,"time":4,"transit":false,"station_name":"Manggarai","distance":3186,"i_long":106.84912,"is_transit":false},{"distance":1275,"i_lat":-6.212485,"transit":false,"station_name":"Matraman","station_id":"MTR","is_transit":false,"time":2,"line":1,"i_long":106.858896},{"distance":1377,"time":8,"line":1,"is_transit":false,"station_name":"Jatinegara","i_lat":-6.215091,"station_id":"JNG","i_long":106.86807400000001,"transit":false}],[{"i_lat":-6.319871,"is_transit":false,"line":6,"station_name":"Serpong","station_id":"SRP","time":0,"i_long":106.66566,"transit":false,"distance":0},{"i_lat":-6.314823,"station_name":"Rawa Buntu","line":6,"station_id":"RU","i_long":106.675475,"transit":false,"distance":2413,"time":4,"is_transit":false},{"i_long":106.712277,"station_name":"Sudimara","time":6,"station_id":"SDM","distance":4566,"line":6,"transit":false,"i_lat":-6.296963,"is_transit":false},{"i_long":106.728916,"station_name":"Jurangmangu","transit":false,"time":4,"i_lat":-6.288927,"station_id":"JMU","distance":1994,"line":6,"is_transit":false},{"line":6,"transit":false,"station_id":"PDJ","station_name":"Pondokranji","i_long":106.74273,"time":3,"distance":2179,"i_lat":-6.276362,"is_transit":false},{"line":6,"i_lat":-6.237242,"station_id":"KBY","is_transit":false,"transit":false,"time":8,"station_name":"Kebayoran","distance":6218,"i_long":106.780334},{"i_lat":-6.207404,"station_id":"PLM","station_name":"Palmerah","is_transit":false,"distance":3737,"line":6,"transit":false,"time":7,"i_long":106.79689},{"transit":true,"i_lat":-6.185545,"i_long":106.811091,"time":6,"station_name":"Tanah Abang","is_transit":true,"line":1,"station_id":"THB","distance":3191},{"i_lat":-6.155215,"station_id":"DU","i_long":106.800832,"line":1,"station_name":"Duri","distance":3632,"is_transit":false,"time":8,"transit":false},{"station_id":"AK","line":1,"time":4,"i_lat":-6.144674,"i_long":106.79867,"station_name":"Angke","distance":1230,"is_transit":false,"transit":false},{"distance":4102,"transit":true,"time":9,"i_lat":-6.132549,"is_transit":true,"station_id":"KPB","station_name":"Kampung Bandan","line":4,"i_long":106.826365},{"station_id":"RJW","time":3,"distance":1444,"i_lat":-6.14505,"station_name":"Rajawali","i_long":106.836569,"line":11,"is_transit":false,"transit":false},{"line":11,"transit":false,"station_name":"Kemayoran","i_lat":-6.161728,"is_transit":false,"i_long":106.839204,"time":5,"station_id":"KMO","distance":1901},{"transit":false,"time":4,"line":11,"station_id":"PSE","station_name":"Pasar Senen","is_transit":false,"i_long":106.84368,"distance":1436,"i_lat":-6.174784},{"station_name":"Gang Sentiong","i_long":106.850107,"time":8,"station_id":"GST","i_lat":-6.185975,"line":11,"transit":false,"distance":1567,"is_transit":false},{"i_long":106.855437,"transit":false,"station_id":"KMT","distance":973,"is_transit":false,"station_name":"Kramat","i_lat":-6.193792,"line":11,"time":1},{"station_id":"POK","i_lat":-6.209188,"distance":1829,"station_name":"Pondok Jati","i_long":106.861737,"transit":false,"time":2,"line":11,"is_transit":false},{"i_lat":-6.215091,"line":1,"distance":1236,"station_id":"JNG","time":9,"is_transit":false,"transit":false,"station_name":"Jatinegara","i_long":106.86807400000001}],[{"is_transit":false,"station_id":"SRP","i_long":106.66566,"time":0,"station_name":"Serpong","line":6,"distance":0,"i_lat":-6.319871,"transit":false},{"is_transit":false,"station_name":"Rawa Buntu","station_id":"RU","distance":2413,"time":4,"transit":false,"i_lat":-6.314823,"i_long":106.675475,"line":6},{"is_transit":false,"station_name":"Sudimara","transit":false,"distance":4566,"time":6,"i_lat":-6.296963,"line":6,"station_id":"SDM","i_long":106.712277},{"is_transit":false,"i_long":106.728916,"time":4,"distance":1994,"transit":false,"i_lat":-6.288927,"line":6,"station_id":"JMU","station_name":"Jurangmangu"},{"is_transit":false,"time":3,"distance":2179,"i_lat":-6.276362,"transit":false,"i_long":106.74273,"station_id":"PDJ","line":6,"station_name":"Pondokranji"},{"distance":6218,"time":8,"i_lat":-6.237242,"line":6,"is_transit":false,"station_id":"KBY","i_long":106.780334,"station_name":"Kebayoran","transit":false},{"i_long":106.79689,"i_lat":-6.207404,"line":6,"transit":false,"station_name":"Palmerah","is_transit":false,"distance":3737,"station_id":"PLM","time":7},{"station_id":"THB","time":6,"transit":true,"station_name":"Tanah Abang","is_transit":true,"i_long":106.811091,"line":1,"i_lat":-6.185545,"distance":3191},{"transit":false,"line":1,"distance":3632,"time":8,"is_transit":false,"station_name":"Duri","i_long":106.800832,"i_lat":-6.155215,"station_id":"DU"},{"distance":1230,"i_lat":-6.144674,"i_long":106.79867,"time":4,"line":1,"is_transit":false,"transit":false,"station_id":"AK","station_name":"Angke"},{"station_id":"KPB","i_long":106.826365,"line":4,"time":9,"is_transit":true,"transit":true,"station_name":"Kampung Bandan","distance":4102,"i_lat":-6.132549},{"distance":1364,"i_lat":-6.137569,"line":2,"station_id":"JAKK","is_transit":true,"transit":true,"station_name":"Jakarta Kota","time":3,"i_long":106.812439},{"station_id":"JAY","station_name":"Jayakarta","i_long":106.820901,"transit":false,"time":4,"distance":1264,"is_transit":false,"line":2,"i_lat":-6.141205},{"is_transit":false,"station_id":"MGB","transit":false,"i_long":106.82482,"station_name":"Manggabesar","time":2,"i_lat":-6.149769,"distance":1080,"line":2},{"distance":906,"station_id":"SW","is_transit":false,"station_name":"Sawah Besar","i_long":106.827103,"time":2,"line":2,"transit":false,"i_lat":-6.160725},{"line":2,"is_transit":false,"distance":1149,"time":2,"station_name":"Juanda","transit":false,"i_long":106.828284,"station_id":"JUA","i_lat":-6.166716},{"distance":2015,"station_id":"GDD","time":4,"is_transit":false,"line":2,"transit":false,"station_name":"Gondangdia","i_lat":-6.186295,"i_long":106.832183},{"is_transit":false,"station_name":"Cikini","line":2,"transit":false,"i_long":106.840169,"station_id":"CKI","distance":1750,"time":3,"i_lat":-6.198556},{"station_name":"Manggarai","time":4,"is_transit":true,"distance":1590,"station_id":"MRI","transit":true,"i_lat":-6.209883,"i_long":106.84912,"line":2},{"i_lat":-6.212485,"i_long":106.858896,"line":1,"distance":1275,"station_name":"Matraman","is_transit":false,"station_id":"MTR","transit":false,"time":2},{"i_long":106.86807400000001,"distance":1377,"is_transit":false,"station_name":"Jatinegara","line":1,"station_id":"JNG","time":8,"i_lat":-6.215091,"transit":false}],[{"i_long":106.66566,"time":0,"is_transit":false,"station_id":"SRP","transit":false,"station_name":"Serpong","distance":0,"i_lat":-6.319871,"line":6},{"station_name":"Rawa Buntu","i_lat":-6.314823,"i_long":106.675475,"line":6,"time":4,"station_id":"RU","distance":2413,"is_transit":false,"transit":false},{"distance":4566,"station_name":"Sudimara","i_long":106.712277,"line":6,"time":6,"is_transit":false,"station_id":"SDM","transit":false,"i_lat":-6.296963},{"station_id":"JMU","i_long":106.728916,"is_transit":false,"transit":false,"station_name":"Jurangmangu","line":6,"i_lat":-6.288927,"distance":1994,"time":4},{"station_id":"PDJ","is_transit":false,"distance":2179,"line":6,"i_long":106.74273,"time":3,"transit":false,"i_lat":-6.276362,"station_name":"Pondokranji"},{"time":8,"is_transit":false,"transit":false,"station_name":"Kebayoran","distance":6218,"line":6,"station_id":"KBY","i_lat":-6.237242,"i_long":106.780334},{"is_transit":false,"line":6,"i_long":106.79689,"station_id":"PLM","transit":false,"station_name":"Palmerah","i_lat":-6.207404,"distance":3737,"time":7},{"i_lat":-6.185545,"line":1,"station_name":"Tanah Abang","station_id":"THB","is_transit":true,"distance":3191,"time":6,"transit":true,"i_long":106.811091},{"is_transit":false,"station_name":"Karet","line":1,"i_lat":-6.20132,"i_long":106.816351,"distance":2029,"transit":false,"station_id":"KAT","time":5},{"time":1,"distance":471,"station_name":"Sudirman Baru","i_lat":-6.201433,"line":1,"station_id":"SUDB","transit":false,"i_long":106.819881,"is_transit":false},{"station_name":"Sudirman","time":1,"station_id":"SUD","transit":false,"line":1,"i_lat":-6.202263,"is_transit":false,"i_long":106.822649,"distance":280},{"transit":true,"i_long":106.84912,"line":2,"distance":3186,"station_id":"MRI","time":4,"station_name":"Manggarai","i_lat":-6.209883,"is_transit":true},{"is_transit":false,"i_lat":-6.198556,"line":2,"transit":false,"station_name":"Cikini","time":4,"i_long":106.840169,"distance":1590,"station_id":"CKI"},{"transit":false,"i_lat":-6.186295,"line":2,"station_id":"GDD","station_name":"Gondangdia","i_long":106.832183,"time":3,"distance":1750,"is_transit":false},{"is_transit":false,"transit":false,"station_id":"JUA","i_lat":-6.166716,"station_name":"Juanda","i_long":106.828284,"line":2,"distance":2015,"time":4},{"distance":1149,"i_lat":-6.160725,"station_name":"Sawah Besar","time":2,"station_id":"SW","is_transit":false,"line":2,"i_long":106.827103,"transit":false},{"i_long":106.82482,"distance":906,"transit":false,"i_lat":-6.149769,"line":2,"station_id":"MGB","is_transit":false,"time":2,"station_name":"Manggabesar"},{"distance":1080,"station_id":"JAY","i_long":106.820901,"i_lat":-6.141205,"transit":false,"station_name":"Jayakarta","line":2,"is_transit":false,"time":2},{"station_name":"Jakarta Kota","i_lat":-6.137569,"station_id":"JAKK","time":4,"transit":true,"distance":1264,"is_transit":true,"i_long":106.812439,"line":2},{"station_id":"KPB","time":3,"is_transit":true,"station_name":"Kampung Bandan","distance":1364,"transit":true,"i_lat":-6.132549,"i_long":106.826365,"line":4},{"station_id":"RJW","i_long":106.836569,"time":3,"is_transit":false,"transit":false,"station_name":"Rajawali","i_lat":-6.14505,"line":11,"distance":1444},{"distance":1901,"i_long":106.839204,"line":11,"time":5,"station_id":"KMO","i_lat":-6.161728,"is_transit":false,"transit":false,"station_name":"Kemayoran"},{"station_name":"Pasar Senen","i_long":106.84368,"distance":1436,"i_lat":-6.174784,"station_id":"PSE","line":11,"transit":false,"time":4,"is_transit":false},{"station_name":"Gang Sentiong","is_transit":false,"line":11,"distance":1567,"i_long":106.850107,"time":8,"station_id":"GST","transit":false,"i_lat":-6.185975},{"i_lat":-6.193792,"transit":false,"station_id":"KMT","is_transit":false,"distance":973,"station_name":"Kramat","i_long":106.855437,"line":11,"time":1},{"is_transit":false,"station_id":"POK","time":2,"distance":1829,"transit":false,"line":11,"i_long":106.861737,"station_name":"Pondok Jati","i_lat":-6.209188},{"time":9,"i_lat":-6.215091,"station_name":"Jatinegara","line":1,"station_id":"JNG","distance":1236,"is_transit":false,"i_long":106.86807400000001,"transit":false}]]}