{"data":[[{"transit":false,"i_long":106.66566,"time":0,"station_id":"SRP","is_transit":false,"distance":0,"line":6,"i_lat":-6.319871,"station_name":"Serpong"},{"distance":2413,"i_long":106.675475,"line":6,"station_name":"Rawa Buntu","is_transit":false,"i_lat":-6.314823,"time":4,"station_id":"RU","transit":false},{"i_lat":-6.296963,"station_name":"Sudimara","transit":false,"distance":4566,"i_long":106.712277,"time":6,"line":6,"is_transit":false,"station_id":"SDM"},{"station_name":"Jurangmangu","distance":1994,"transit":false,"i_long":106.728916,"is_transit":false,"i_lat":-6.288927,"line":6,"time":4,"station_id":"JMU"},{"transit":false,"station_id":"PDJ","is_transit":false,"distance":2179,"station_name":"Pondokranji","i_lat":-6.276362,"i_long":106.74273,"time":3,"line":6},{"i_lat":-6.237242,"is_transit":false,"time":8,"distance":6218,"i_long":106.780334,"station_id":"KBY","line":6,"transit":false,"station_name":"Kebayoran"},{"distance":3737,"time":7,"transit":false,"line":6,"station_id":"PLM","station_name":"Palmerah","is_transit":false,"i_long":106.79689,"i_lat":-6.207404},{"line":1,"time":6,"distance":3191,"station_name":"Tanah Abang","i_lat":-6.185545,"i_long":106.811091,"station_id":"THB","is_transit":true,"transit":true},{"station_name":"Karet","i_long":106.816351,"transit":false,"i_lat":-6.20132,"station_id":"KAT","time":5,"is_transit":false,"distance":2029,"line":1},{"transit":false,"station_id":"SUDB","line":1,"is_transit":false,"station_name":"Sudirman Baru","time":1,"distance":471,"i_long":106.819881,"i_lat":-6.201433},{"line":1,"station_id":"SUD","transit":false,"is_transit":false,"i_lat":-6.202263,"i_long":106.822649,"station_name":"Sudirman","time":1,"distance":280},{"distance":3186,"i_lat":-6.209883,"station_name":"Manggarai","is_transit":true,"time":4,"line":2,"i_long":106.84912,"station_id":"MRI","transit":true},{"i_long":106.857948,"time":4,"i_lat":-6.226659,"is_transit":false,"transit":false,"station_id":"TEB","station_name":"Tebet","distance":2610,"line":2},{"line":2,"transit":false,"station_id":"CW","station_name":"Cawang","is_transit":false,"time":2,"distance":1230,"i_long":106.856607,"i_lat":-6.242512},{"is_transit":false,"i_long":106.85449,"transit":false,"station_name":"Duren Kalibata","time":3,"i_lat":-6.255332,"station_id":"DRN","distance":1546,"line":2},{"station_name":"Pasar Minggu Baru","i_lat":-6.263214,"transit":false,"station_id":"PSMB","is_transit":false,"time":2,"line":2,"distance":824,"i_long":106.851577},{"is_transit":false,"time":2,"station_name":"Pasar Minggu","distance":2380,"i_long":106.843999,"station_id":"PSM","transit":false,"line":2,"i_lat":-6.2842400000000005},{"i_lat":-6.3080680000000005,"station_id":"TNT","time":4,"is_transit":false,"i_long":106.838896,"transit":false,"distance":2820,"line":2,"station_name":"Tanjung Barat"},{"i_long":106.832616,"line":2,"is_transit":false,"time":3,"i_lat":-6.330363,"station_id":"LNA","station_name":"Lenteng Agung","transit":false,"distance":2671},{"i_lat":-6.339291,"station_name":"Univ. Pancasila","is_transit":false,"i_long":106.834175,"time":2,"distance":1029,"station_id":"UP","transit":false,"line":2},{"transit":false,"i_lat":-6.360749,"station_id":"UI","time":3,"is_transit":false,"i_long":106.831474,"line":2,"station_name":"Univ. Indonesia","distance":2264},{"distance":1109,"time":2,"station_name":"Pondok Cina","line":2,"i_long":106.831114,"i_lat":-6.369073,"station_id":"POC","is_transit":false,"transit":false},{"is_transit":false,"i_long":106.819451,"i_lat":-6.391065,"station_name":"Depokbaru","time":4,"line":2,"station_id":"DPB","transit":false,"distance":2727},{"i_long":106.816926,"distance":1584,"i_lat":-6.405256,"line":2,"transit":false,"is_transit":false,"time":3,"station_id":"DP","station_name":"Depok"},{"transit":false,"i_long":106.800298,"station_id":"CTA","i_lat":-6.448811,"time":6,"station_name":"Citayam","distance":5084,"line":2,"is_transit":false},{"station_name":"Bojonggede","i_lat":-6.493243,"time":5,"i_long":106.792719,"distance":5197,"is_transit":false,"station_id":"BJD","line":2,"transit":false},{"i_lat":-6.530544,"station_name":"Cilebut","time":5,"line":2,"i_long":106.800016,"is_transit":false,"station_id":"CLT","distance":4331,"transit":false},{"time":9,"transit":false,"i_lat":-6.594596,"station_id":"BOO","station_name":"Bogor","line":2,"distance":7514,"i_long":106.790574,"is_transit":false}],[{"is_transit":false,"i_lat":-6.319871,"transit":false,"distance":0,"i_long":106.66566,"station_name":"Serpong","line":6,"time":0,"station_id":"SRP"},{"time":4,"distance":2413,"station_id":"RU","is_transit":false,"station_name":"Rawa Buntu","transit":false,"i_long":106.675475,"line":6,"i_lat":-6.314823},{"station_id":"SDM","i_lat":-6.296963,"i_long":106.712277,"transit":false,"line":6,"station_name":"Sudimara","is_transit":false,"distance":4566,"time":6},{"transit":false,"i_lat":-6.288927,"i_long":106.728916,"line":6,"is_transit":false,"distance":1994,"time":4,"station_id":"JMU","station_name":"Jurangmangu"},{"is_transit":false,"line":6,"distance":2179,"i_long":106.74273,"station_id":"PDJ","transit":false,"time":3,"station_name":"Pondokranji","i_lat":-6.276362},{"time":8,"station_id":"KBY","distance":6218,"i_lat":-6.237242,"i_long":106.780334,"station_name":"Kebayoran","line":6,"is_transit":false,"transit":false},{"station_id":"PLM","line":6,"time":7,"transit":false,"i_long":106.79689,"is_transit":false,"distance":3737,"i_lat":-6.207404,"station_name":"Palmerah"},{"is_transit":true,"line":1,"transit":true,"time":6,"i_lat":-6.185545,"station_name":"Tanah Abang","station_id":"THB","i_long":106.811091,"distance":3191},{"transit":false,"station_name":"Duri","distance":3632,"line":1,"is_transit":false,"station_id":"DU","i_lat":-6.155215,"i_long":106.800832,"time":8},{"time":4,"transit":false,"station_id":"AK","i_lat":-6.144674,"distance":1230,"i_long":106.79867,"is_transit":false,"line":1,"station_name":"Angke"},{"is_transit":true,"time":9,"station_id":"KPB","i_long":106.826365,"i_lat":-6.132549,"transit":true,"station_name":"Kampung Bandan","distance":4102,"line":4},{"station_name":"Jakarta Kota","i_lat":-6.137569,"station_id":"JAKK","i_long":106.812439,"time":3,"transit":true,"distance":1364,"line":2,"is_transit":true},{"is_transit":false,"i_long":106.820901,"line":2,"transit":false,"distance":1264,"i_lat":-6.141205,"station_id":"JAY","station_name":"Jayakarta","time":4},{"line":2,"i_lat":-6.149769,"time":2,"station_id":"MGB","i_long":106.82482,"distance":1080,"station_name":"Manggabesar","transit":false,"is_transit":false},{"time":2,"i_long":106.827103,"transit":false,"distance":906,"station_id":"SW","i_lat":-6.160725,"line":2,"is_transit":false,"station_name":"Sawah Besar"},{"distance":1149,"time":2,"transit":false,"station_name":"Juanda","i_long":106.828284,"is_transit":false,"i_lat":-6.166716,"line":2,"station_id":"JUA"},{"i_lat":-6.186295,"distance":2015,"is_transit":false,"station_name":"Gondangdia","station_id":"GDD","i_long":106.832183,"transit":false,"line":2,"time":4},{"transit":false,"is_transit":false,"time":3,"i_lat":-6.198556,"i_long":106.840169,"distance":1750,"station_id":"CKI","station_name":"Cikini","line":2},{"transit":false,"line":2,"time":4,"i_lat":-6.209883,"i_long":106.84912,"is_transit":false,"station_id":"MRI","station_name":"Manggarai","distance":1590},{"transit":false,"station_id":"TEB","station_name":"Tebet","distance":2610,"i_long":106.857948,"time":4,"is_transit":false,"i_lat":-6.226659,"line":2},{"station_name":"Cawang","is_transit":false,"i_lat":-6.242512,"i_long":106.856607,"line":2,"distance":1230,"station_id":"CW","time":2,"transit":false},{"station_name":"Duren Kalibata","time":3,"transit":false,"is_transit":false,"distance":1546,"i_long":106.85449,"i_lat":-6.255332,"station_id":"DRN","line":2},{"station_name":"Pasar Minggu Baru","is_transit":false,"i_long":106.851577,"transit":false,"i_lat":-6.263214,"line":2,"station_id":"PSMB","time":2,"distance":824},{"i_lat":-6.2842400000000005,"station_id":"PSM","i_long":106.843999,"is_transit":false,"line":2,"time":2,"transit":false,"distance":2380,"station_name":"Pasar Minggu"},{"station_id":"TNT","time":4,"transit":false,"i_lat":-6.3080680000000005,"is_transit":false,"station_name":"Tanjung Barat","distance":2820,"line":2,"i_long":106.838896},{"i_lat":-6.330363,"distance":2671,"line":2,"transit":false,"time":3,"station_id":"LNA","is_transit":false,"station_name":"Lenteng Agung","i_long":106.832616},{"line":2,"is_transit":false,"time":2,"station_id":"UP","transit":false,"distance":1029,"i_lat":-6.339291,"station_name":"Univ. Pancasila","i_long":106.834175},{"time":3,"i_long":106.831474,"distance":2264,"station_name":"Univ. Indonesia","station_id":"UI","is_transit":false,"i_lat":-6.360749,"line":2,"transit":false},{"i_lat":-6.369073,"transit":false,"station_id":"POC","distance":1109,"station_name":"Pondok Cina","i_long":106.831114,"time":2,"is_transit":false,"line":2},{"i_long":106.819451,"distance":2727,"time":4,"line":2,"station_id":"DPB","station_name":"Depokbaru","transit":false,"is_transit":false,"i_lat":-6.391065},{"is_transit":false,"station_name":"Depok","line":2,"transit":false,"i_lat":-6.405256,"station_id":"DP","distance":1584,"i_long":106.816926,"time":3},{"i_long":106.800298,"time":6,"transit":false,"i_lat":-6.448811,"station_name":"Citayam","station_id":"CTA","distance":5084,"line":2,"is_transit":false},{"line":2,"transit":false,"distance":5197,"station_id":"BJD","i_long":106.792719,"station_name":"Bojonggede","time":5,"i_lat":-6.493243,"is_transit":false},{"line":2,"is_transit":false,"transit":false,"i_long":106.800016,"station_name":"Cilebut","time":5,"station_id":"CLT","distance":4331,"i_lat":-6.530544},{"line":2,"station_id":"BOO","distance":7514,"station_name":"Bogor","time":9,"i_lat":-6.594596,"is_transit":false,"i_long":106.790574,"transit":false}],[{"i_lat":-6.319871,"i_long":106.66566,"time":0,"line":6,"station_id":"SRP","station_name":"Serpong","is_transit":false,"transit":false,"distance":0},{"station_name":"Rawa Buntu","i_long":106.675475,"time":4,"station_id":"RU","distance":2413,"i_lat":-6.314823,"transit":false,"line":6,"is_transit":false},{"station_id":"SDM","distance":4566,"i_lat":-6.296963,"is_transit":false,"i_long":106.712277,"time":6,"line":6,"station_name":"Sudimara","transit":false},{"is_transit":false,"i_long":106.728916,"i_lat":-6.288927,"time":4,"transit":false,"station_id":"JMU","station_name":"Jurangmangu","line":6,"distance":1994},{"is_transit":false,"station_id":"PDJ","i_lat":-6.276362,"time":3,"transit":false,"station_name":"Pondokranji","i_long":106.74273,"line":6,"distance":2179},{"i_long":106.780334,"transit":false,"distance":6218,"i_lat":-6.237242,"station_id":"KBY","station_name":"Kebayoran","line":6,"is_transit":false,"time":8},{"line":6,"transit":false,"distance":3737,"i_long":106.79689,"station_name":"Palmerah","is_transit":false,"time":7,"station_id":"PLM","i_lat":-6.207404},{"station_id":"THB","i_lat":-6.185545,"is_transit":true,"station_name":"Tanah Abang","i_long":106.811091,"distance":3191,"transit":true,"time":6,"line":1},{"station_name":"Duri","transit":false,"i_long":106.800832,"distance":3632,"line":1,"time":8,"station_id":"DU","is_transit":false,"i_lat":-6.155215},{"i_lat":-6.144674,"station_name":"Angke","time":4,"i_long":106.79867,"station_id":"AK","is_transit":false,"line":1,"transit":false,"distance":1230},{"is_transit":true,"station_id":"KPB","i_long":106.826365,"station_name":"Kampung Bandan","transit":true,"i_lat":-6.132549,"line":4,"time":9,"distance":4102},{"is_transit":false,"i_long":106.836569,"time":3,"station_name":"Rajawali","distance":1444,"i_lat":-6.14505,"station_id":"RJW","line":11,"transit":false},{"station_name":"Kemayoran","time":5,"distance":1901,"i_lat":-6.161728,"i_long":106.839204,"is_transit":false,"station_id":"KMO","line":11,"transit":false},{"time":4,"station_name":"Pasar Senen","transit":false,"station_id":"PSE","i_long":106.84368,"line":11,"i_lat":-6.174784,"is_transit":false,"distance":1436},{"i_lat":-6.185975,"distance":1567,"transit":false,"is_transit":false,"i_long":106.850107,"station_name":"Gang Sentiong","time":8,"line":11,"station_id":"GST"},{"i_lat":-6.193792,"transit":false,"is_transit":false,"station_name":"Kramat","line":11,"time":1,"station_id":"KMT","distance":973,"i_long":106.855437},{"i_long":106.861737,"station_id":"POK","station_name":"Pondok Jati","transit":false,"i_lat":-6.209188,"is_transit":false,"line":11,"distance":1829,"time":2},{"time":9,"is_transit":true,"station_id":"JNG","line":1,"distance":1236,"transit":true,"i_lat":-6.215091,"station_name":"Jatinegara","i_long":106.86807400000001},{"i_lat":-6.212485,"station_id":"MTR","line":1,"transit":false,"distance":1377,"time":2,"is_transit":false,"station_name":"Matraman","i_long":106.858896},{"station_id":"MRI","distance":1275,"station_name":"Manggarai","i_lat":-6.209883,"time":2,"line":2,"i_long":106.84912,"is_transit":true,"transit":true},{"i_long":106.857948,"distance":2610,"line":2,"time":4,"is_transit":false,"station_name":"Tebet","transit":false,"station_id":"TEB","i_lat":-6.226659},{"is_transit":false,"station_name":"Cawang","distance":1230,"i_long":106.856607,"station_id":"CW","transit":false,"time":2,"line":2,"i_lat":-6.242512},{"transit":false,"distance":1546,"time":3,"i_lat":-6.255332,"station_id":"DRN","station_name":"Duren Kalibata","is_transit":false,"i_long":106.85449,"line":2},{"transit":false,"line":2,"station_id":"PSMB","is_transit":false,"i_lat":-6.263214,"i_long":106.851577,"station_name":"Pasar Minggu Baru","time":2,"distance":824},{"station_id":"PSM","transit":false,"i_lat":-6.2842400000000005,"is_transit":false,"distance":2380,"i_long":106.843999,"line":2,"station_name":"Pasar Minggu","time":2},{"line":2,"station_name":"Tanjung Barat","station_id":"TNT","i_long":106.838896,"transit":false,"distance":2820,"time":4,"is_transit":false,"i_lat":-6.3080680000000005},{"line":2,"is_transit":false,"time":3,"i_lat":-6.330363,"transit":false,"station_name":"Lenteng Agung","distance":2671,"station_id":"LNA","i_long":106.832616},{"transit":false,"distance":1029,"time":2,"is_transit":false,"station_name":"Univ. Pancasila","i_long":106.834175,"i_lat":-6.339291,"station_id":"UP","line":2},{"i_lat":-6.360749,"station_name":"Univ. Indonesia","distance":2264,"i_long":106.831474,"line":2,"is_transit":false,"time":3,"transit":false,"station_id":"UI"},{"time":2,"i_long":106.831114,"transit":false,"distance":1109,"i_lat":-6.369073,"station_id":"POC","is_transit":false,"station_name":"Pondok Cina","line":2},{"transit":false,"is_transit":false,"station_name":"Depokbaru","i_long":106.819451,"station_id":"DPB","line":2,"distance":2727,"i_lat":-6.391065,"time":4},{"station_name":"Depok","i_long":106.816926,"line":2,"transit":false,"i_lat":-6.405256,"station_id":"DP","distance":1584,"time":3,"is_transit":false},{"station_id":"CTA","time":6,"i_long":106.800298,"station_name":"Citayam","line":2,"transit":false,"distance":5084,"is_transit":false,"i_lat":-6.448811},{"time":5,"is_transit":false,"transit":false,"station_name":"Bojonggede","distance":5197,"line":2,"station_id":"BJD","i_lat":-6.493243,"i_long":106.792719},{"is_transit":false,"line":2,"i_long":106.800016,"station_id":"CLT","transit":false,"station_name":"Cilebut","i_lat":-6.530544,"distance":4331,"time":5},{"i_lat":-6.594596,"line":2,"station_name":"Bogor","station_id":"BOO","is_transit":false,"time":9,"distance":7514,"transit":false,"i_long":106.790574}]]}