{"data":[[{"transit":false,"i_lat":-6.319871,"is_transit":false,"station_name":"Serpong","distance":0,"station_id":"SRP","i_long":106.66566,"line":6,"time":0},{"station_id":"RU","station_name":"Rawa Buntu","transit":false,"line":6,"time":4,"i_lat":-6.314823,"i_long":106.675475,"distance":2413,"is_transit":false},{"time":6,"i_long":106.712277,"station_id":"SDM","station_name":"Sudimara","transit":false,"i_lat":-6.296963,"is_transit":false,"line":6,"distance":4566},{"i_lat":-6.288927,"distance":1994,"is_transit":false,"station_name":"Jurangmangu","transit":false,"station_id":"JMU","i_long":106.728916,"line":6,"time":4},{"is_transit":false,"station_id":"PDJ","transit":false,"time":3,"i_long":106.74273,"line":6,"station_name":"Pondokranji","i_lat":-6.276362,"distance":2179},{"station_id":"KBY","is_transit":false,"transit":false,"time":8,"i_long":106.780334,"line":6,"distance":6218,"station_name":"Kebayoran","i_lat":-6.237242},{"line":6,"i_lat":-6.207404,"i_long":106.79689,"station_name":"Palmerah","station_id":"PLM","transit":false,"is_transit":false,"distance":3737,"time":7},{"line":1,"distance":3191,"is_transit":true,"transit":true,"time":6,"i_lat":-6.185545,"i_long":106.811091,"station_id":"THB","station_name":"Tanah Abang"},{"transit":false,"station_name":"Karet","station_id":"KAT","i_lat":-6.20132,"i_long":106.816351,"line":1,"distance":2029,"is_transit":false,"time":5},{"transit":false,"time":1,"i_lat":-6.201433,"i_long":106.819881,"distance":471,"station_id":"SUDB","is_transit":false,"station_name":"Sudirman Baru","line":1},{"station_id":"SUD","is_transit":false,"transit":false,"i_long":106.822649,"time":1,"i_lat":-6.202263,"distance":280,"line":1,"station_name":"Sudirman"},{"i_lat":-6.209883,"i_long":106.84912,"station_name":"Manggarai","station_id":"MRI","line":0,"time":4,"is_transit":true,"distance":3186,"transit":false},{"is_transit":false,"distance":1275,"time":2,"station_id":"MTR","line":1,"station_name":"Matraman","transit":false,"i_long":106.858896,"i_lat":-6.212485},{"line":0,"distance":1377,"transit":false,"i_long":106.86807400000001,"i_lat":-6.215091,"station_id":"JNG","station_name":"Jatinegara","time":8,"is_transit":true}],[{"station_name":"Serpong","i_long":106.66566,"i_lat":-6.319871,"line":6,"time":0,"transit":false,"distance":0,"is_transit":false,"station_id":"SRP"},{"i_long":106.675475,"line":6,"transit":false,"distance":2413,"station_id":"RU","station_name":"Rawa Buntu","is_transit":false,"time":4,"i_lat":-6.314823},{"station_name":"Sudimara","station_id":"SDM","time":6,"distance":4566,"i_long":106.712277,"transit":false,"line":6,"i_lat":-6.296963,"is_transit":false},{"is_transit":false,"distance":1994,"time":4,"i_long":106.728916,"station_name":"Jurangmangu","transit":false,"i_lat":-6.288927,"station_id":"JMU","line":6},{"transit":false,"station_id":"PDJ","time":3,"station_name":"Pondokranji","distance":2179,"line":6,"is_transit":false,"i_lat":-6.276362,"i_long":106.74273},{"distance":6218,"station_id":"KBY","transit":false,"i_lat":-6.237242,"time":8,"line":6,"is_transit":false,"station_name":"Kebayoran","i_long":106.780334},{"transit":false,"distance":3737,"time":7,"line":6,"is_transit":false,"i_lat":-6.207404,"station_name":"Palmerah","station_id":"PLM","i_long":106.79689},{"station_name":"Tanah Abang","station_id":"THB","transit":true,"i_long":106.811091,"i_lat":-6.185545,"time":6,"distance":3191,"line":1,"is_transit":true},{"line":1,"time":8,"station_id":"DU","i_lat":-6.155215,"distance":3632,"transit":true,"is_transit":true,"i_long":106.800832,"station_name":"Duri"},{"station_name":"Angke","i_lat":-6.144674,"is_transit":false,"i_long":106.79867,"transit":false,"line":0,"station_id":"AK","distance":1230,"time":4},{"station_name":"Kampung Bandan","line":0,"time":9,"distance":4102,"i_long":106.826365,"i_lat":-6.132549,"station_id":"KPB","is_transit":true,"transit":true},{"time":3,"line":11,"i_lat":-6.14505,"station_id":"RJW","station_name":"Rajawali","transit":false,"i_long":106.836569,"distance":1444,"is_transit":false},{"distance":1901,"i_long":106.839204,"line":11,"is_transit":false,"station_name":"Kemayoran","station_id":"KMO","transit":false,"time":5,"i_lat":-6.161728},{"i_long":106.84368,"is_transit":false,"i_lat":-6.174784,"transit":false,"station_name":"Pasar Senen","line":11,"time":4,"distance":1436,"station_id":"PSE"},{"station_name":"Gang Sentiong","is_transit":false,"line":11,"station_id":"GST","transit":false,"time":8,"i_long":106.850107,"distance":1567,"i_lat":-6.185975},{"distance":973,"transit":false,"line":11,"time":1,"station_name":"Kramat","is_transit":false,"station_id":"KMT","i_lat":-6.193792,"i_long":106.855437},{"distance":1829,"is_transit":false,"i_lat":-6.209188,"i_long":106.861737,"time":2,"transit":false,"line":11,"station_id":"POK","station_name":"Pondok Jati"},{"i_lat":-6.215091,"station_name":"Jatinegara","line":0,"i_long":106.86807400000001,"time":9,"transit":false,"station_id":"JNG","distance":1236,"is_transit":true}],[{"is_transit":false,"i_long":106.66566,"line":6,"distance":0,"i_lat":-6.319871,"time":0,"station_id":"SRP","transit":false,"station_name":"Serpong"},{"i_long":106.675475,"station_id":"RU","station_name":"Rawa Buntu","distance":2413,"time":4,"i_lat":-6.314823,"transit":false,"is_transit":false,"line":6},{"station_id":"SDM","is_transit":false,"distance":4566,"i_lat":-6.296963,"i_long":106.712277,"line":6,"time":6,"transit":false,"station_name":"Sudimara"},{"distance":1994,"i_lat":-6.288927,"is_transit":false,"i_long":106.728916,"station_name":"Jurangmangu","line":6,"time":4,"station_id":"JMU","transit":false},{"is_transit":false,"line":6,"i_lat":-6.276362,"station_id":"PDJ","transit":false,"time":3,"station_name":"Pondokranji","distance":2179,"i_long":106.74273},{"time":8,"station_name":"Kebayoran","station_id":"KBY","is_transit":false,"i_lat":-6.237242,"line":6,"transit":false,"i_long":106.780334,"distance":6218},{"i_lat":-6.207404,"line":6,"distance":3737,"station_id":"PLM","i_long":106.79689,"station_name":"Palmerah","transit":false,"time":7,"is_transit":false},{"distance":3191,"station_name":"Tanah Abang","time":6,"i_lat":-6.185545,"station_id":"THB","is_transit":true,"i_long":106.811091,"transit":true,"line":1},{"distance":3632,"line":1,"time":8,"station_name":"Duri","i_long":106.800832,"transit":true,"is_transit":true,"station_id":"DU","i_lat":-6.155215},{"transit":false,"i_lat":-6.144674,"distance":1230,"i_long":106.79867,"station_name":"Angke","is_transit":false,"time":4,"line":0,"station_id":"AK"},{"line":0,"station_id":"KPB","time":9,"distance":4102,"station_name":"Kampung Bandan","i_lat":-6.132549,"transit":false,"i_long":106.826365,"is_transit":true},{"transit":true,"distance":1364,"station_name":"Jakarta Kota","i_long":106.812439,"is_transit":true,"i_lat":-6.137569,"station_id":"JAKK","line":0,"time":3},{"is_transit":false,"station_id":"JAY","time":4,"distance":1264,"station_name":"Jayakarta","line":7,"i_lat":-6.141205,"transit":false,"i_long":106.820901},{"i_long":106.82482,"line":2,"station_id":"MGB","station_name":"Manggabesar","is_transit":false,"transit":false,"time":2,"distance":1080,"i_lat":-6.149769},{"line":2,"is_transit":false,"distance":906,"station_id":"SW","station_name":"Sawah Besar","time":2,"i_lat":-6.160725,"transit":false,"i_long":106.827103},{"i_long":106.828284,"line":2,"is_transit":false,"station_name":"Juanda","distance":1149,"station_id":"JUA","transit":false,"time":2,"i_lat":-6.166716},{"i_lat":-6.186295,"is_transit":false,"distance":2015,"station_id":"GDD","i_long":106.832183,"transit":false,"time":4,"line":2,"station_name":"Gondangdia"},{"station_name":"Cikini","transit":false,"station_id":"CKI","i_long":106.840169,"line":0,"is_transit":false,"i_lat":-6.198556,"time":3,"distance":1750},{"distance":1590,"transit":true,"time":4,"i_lat":-6.209883,"is_transit":true,"i_long":106.84912,"station_id":"MRI","station_name":"Manggarai","line":0},{"line":1,"time":2,"transit":false,"station_id":"MTR","distance":1275,"station_name":"Matraman","i_lat":-6.212485,"is_transit":false,"i_long":106.858896},{"line":0,"station_name":"Jatinegara","is_transit":true,"station_id":"JNG","distance":1377,"time":8,"transit":false,"i_long":106.86807400000001,"i_lat":-6.215091}],[{"transit":false,"i_lat":-6.319871,"time":0,"i_long":106.66566,"is_transit":false,"distance":0,"station_id":"SRP","station_name":"Serpong","line":6},{"is_transit":false,"station_name":"Rawa Buntu","transit":false,"i_long":106.675475,"time":4,"station_id":"RU","line":6,"i_lat":-6.314823,"distance":2413},{"line":6,"i_lat":-6.296963,"i_long":106.712277,"time":6,"distance":4566,"transit":false,"is_transit":false,"station_name":"Sudimara","station_id":"SDM"},{"transit":false,"i_lat":-6.288927,"line":6,"station_name":"Jurangmangu","time":4,"i_long":106.728916,"distance":1994,"is_transit":false,"station_id":"JMU"},{"station_id":"PDJ","distance":2179,"is_transit":false,"time":3,"transit":false,"i_lat":-6.276362,"line":6,"i_long":106.74273,"station_name":"Pondokranji"},{"line":6,"i_lat":-6.237242,"station_id":"KBY","is_transit":false,"distance":6218,"station_name":"Kebayoran","transit":false,"time":8,"i_long":106.780334},{"station_name":"Palmerah","i_lat":-6.207404,"transit":false,"station_id":"PLM","is_transit":false,"i_long":106.79689,"distance":3737,"line":6,"time":7},{"station_id":"THB","time":6,"transit":true,"line":1,"is_transit":true,"i_long":106.811091,"i_lat":-6.185545,"distance":3191,"station_name":"Tanah Abang"},{"station_name":"Karet","line":1,"station_id":"KAT","is_transit":false,"distance":2029,"transit":false,"time":5,"i_lat":-6.20132,"i_long":106.816351},{"distance":471,"transit":false,"station_name":"Sudirman Baru","time":1,"i_lat":-6.201433,"line":1,"is_transit":false,"i_long":106.819881,"station_id":"SUDB"},{"i_lat":-6.202263,"transit":false,"is_transit":false,"line":1,"time":1,"distance":280,"station_name":"Sudirman","station_id":"SUD","i_long":106.822649},{"station_id":"MRI","is_transit":true,"station_name":"Manggarai","transit":true,"i_long":106.84912,"line":0,"time":4,"distance":3186,"i_lat":-6.209883},{"station_name":"Cikini","distance":1590,"is_transit":false,"transit":false,"i_long":106.840169,"time":4,"i_lat":-6.198556,"station_id":"CKI","line":0},{"station_id":"GDD","time":3,"transit":false,"i_long":106.832183,"i_lat":-6.186295,"line":2,"distance":1750,"is_transit":false,"station_name":"Gondangdia"},{"station_name":"Juanda","i_long":106.828284,"station_id":"JUA","distance":2015,"transit":false,"i_lat":-6.166716,"is_transit":false,"time":4,"line":2},{"i_long":106.827103,"is_transit":false,"distance":1149,"time":2,"line":2,"station_id":"SW","i_lat":-6.160725,"station_name":"Sawah Besar","transit":false},{"i_lat":-6.149769,"distance":906,"station_name":"Manggabesar","transit":false,"line":2,"station_id":"MGB","i_long":106.82482,"is_transit":false,"time":2},{"station_id":"JAY","i_lat":-6.141205,"time":2,"distance":1080,"station_name":"Jayakarta","i_long":106.820901,"transit":false,"line":7,"is_transit":false},{"station_name":"Jakarta Kota","line":0,"time":4,"station_id":"JAKK","transit":true,"i_long":106.812439,"is_transit":true,"distance":1264,"i_lat":-6.137569},{"station_id":"KPB","line":0,"is_transit":true,"time":3,"transit":true,"i_lat":-6.132549,"distance":1364,"station_name":"Kampung Bandan","i_long":106.826365},{"time":3,"i_lat":-6.14505,"station_id":"RJW","line":11,"transit":false,"is_transit":false,"distance":1444,"station_name":"Rajawali","i_long":106.836569},{"station_name":"Kemayoran","is_transit":false,"transit":false,"i_lat":-6.161728,"distance":1901,"i_long":106.839204,"time":5,"line":11,"station_id":"KMO"},{"transit":false,"time":4,"i_lat":-6.174784,"i_long":106.84368,"station_name":"Pasar Senen","is_transit":false,"line":11,"distance":1436,"station_id":"PSE"},{"station_name":"Gang Sentiong","transit":false,"i_long":106.850107,"line":11,"i_lat":-6.185975,"distance":1567,"station_id":"GST","is_transit":false,"time":8},{"distance":973,"station_id":"KMT","line":11,"time":1,"is_transit":false,"transit":false,"station_name":"Kramat","i_lat":-6.193792,"i_long":106.855437},{"i_long":106.861737,"transit":false,"line":11,"time":2,"station_name":"Pondok Jati","is_transit":false,"distance":1829,"station_id":"POK","i_lat":-6.209188},{"i_lat":-6.215091,"line":0,"transit":false,"station_id":"JNG","is_transit":true,"time":9,"station_name":"Jatinegara","i_long":106.86807400000001,"distance":1236}]]}