{"data":[[{"time":0,"distance":0,"i_long":106.66566,"station_id":"SRP","station_name":"Serpong","transit":false,"is_transit":false,"line":6,"i_lat":-6.319871},{"is_transit":false,"i_lat":-6.314823,"distance":2413,"time":4,"line":6,"station_name":"Rawa Buntu","i_long":106.675475,"station_id":"RU","transit":false},{"is_transit":false,"station_id":"SDM","i_long":106.712277,"i_lat":-6.296963,"time":6,"line":6,"station_name":"Sudimara","transit":false,"distance":4566},{"line":6,"i_long":106.728916,"transit":false,"i_lat":-6.288927,"station_id":"JMU","station_name":"Jurangmangu","distance":1994,"time":4,"is_transit":false},{"i_lat":-6.276362,"transit":false,"i_long":106.74273,"distance":2179,"station_id":"PDJ","line":6,"is_transit":false,"station_name":"Pondokranji","time":3},{"transit":false,"time":8,"station_id":"KBY","station_name":"Kebayoran","is_transit":false,"i_lat":-6.237242,"i_long":106.780334,"line":6,"distance":6218},{"station_name":"Palmerah","is_transit":false,"line":6,"time":7,"station_id":"PLM","i_long":106.79689,"transit":false,"i_lat":-6.207404,"distance":3737},{"is_transit":true,"transit":true,"distance":3191,"station_id":"THB","i_lat":-6.185545,"station_name":"Tanah Abang","time":6,"i_long":106.811091,"line":1},{"transit":false,"time":5,"i_long":106.816351,"is_transit":false,"i_lat":-6.20132,"line":1,"station_name":"Karet","station_id":"KAT","distance":2029},{"transit":false,"i_long":106.819881,"time":1,"station_name":"Sudirman Baru","station_id":"SUDB","is_transit":false,"distance":471,"i_lat":-6.201433,"line":1},{"station_id":"SUD","transit":false,"time":1,"i_lat":-6.202263,"is_transit":false,"i_long":106.822649,"station_name":"Sudirman","line":1,"distance":280},{"distance":3186,"station_id":"MRI","is_transit":true,"station_name":"Manggarai","i_lat":-6.209883,"line":2,"time":4,"i_long":106.84912,"transit":true},{"transit":false,"line":2,"time":4,"station_name":"Cikini","distance":1590,"is_transit":false,"i_lat":-6.198556,"i_long":106.840169,"station_id":"CKI"},{"i_lat":-6.186295,"is_transit":false,"line":2,"i_long":106.832183,"station_name":"Gondangdia","transit":false,"distance":1750,"station_id":"GDD","time":3},{"distance":2015,"is_transit":false,"transit":false,"station_name":"Juanda","i_lat":-6.166716,"i_long":106.828284,"line":2,"time":4,"station_id":"JUA"}],[{"i_lat":-6.319871,"i_long":106.66566,"distance":0,"station_name":"Serpong","line":6,"time":0,"station_id":"SRP","is_transit":false,"transit":false},{"is_transit":false,"station_name":"Rawa Buntu","i_lat":-6.314823,"transit":false,"station_id":"RU","i_long":106.675475,"time":4,"line":6,"distance":2413},{"distance":4566,"time":6,"station_id":"SDM","is_transit":false,"station_name":"Sudimara","i_lat":-6.296963,"i_long":106.712277,"line":6,"transit":false},{"i_long":106.728916,"time":4,"station_name":"Jurangmangu","line":6,"distance":1994,"is_transit":false,"transit":false,"i_lat":-6.288927,"station_id":"JMU"},{"line":6,"station_name":"Pondokranji","station_id":"PDJ","is_transit":false,"transit":false,"i_lat":-6.276362,"time":3,"distance":2179,"i_long":106.74273},{"is_transit":false,"line":6,"time":8,"station_name":"Kebayoran","distance":6218,"station_id":"KBY","i_lat":-6.237242,"transit":false,"i_long":106.780334},{"line":6,"i_long":106.79689,"i_lat":-6.207404,"station_id":"PLM","is_transit":false,"time":7,"distance":3737,"transit":false,"station_name":"Palmerah"},{"time":6,"distance":3191,"is_transit":true,"station_name":"Tanah Abang","i_long":106.811091,"station_id":"THB","line":1,"i_lat":-6.185545,"transit":true},{"station_name":"Duri","line":1,"is_transit":false,"time":8,"station_id":"DU","distance":3632,"transit":false,"i_long":106.800832,"i_lat":-6.155215},{"station_name":"Angke","i_lat":-6.144674,"line":1,"distance":1230,"time":4,"i_long":106.79867,"is_transit":false,"station_id":"AK","transit":false},{"time":9,"is_transit":true,"station_id":"KPB","i_lat":-6.132549,"distance":4102,"transit":true,"line":4,"station_name":"Kampung Bandan","i_long":106.826365},{"i_long":106.812439,"distance":1364,"station_name":"Jakarta Kota","line":2,"time":3,"station_id":"JAKK","is_transit":true,"transit":true,"i_lat":-6.137569},{"line":2,"i_long":106.820901,"station_name":"Jayakarta","transit":false,"time":4,"distance":1264,"is_transit":false,"station_id":"JAY","i_lat":-6.141205},{"station_name":"Manggabesar","distance":1080,"time":2,"i_long":106.82482,"transit":false,"i_lat":-6.149769,"is_transit":false,"station_id":"MGB","line":2},{"is_transit":false,"i_long":106.827103,"transit":false,"distance":906,"i_lat":-6.160725,"time":2,"station_name":"Sawah Besar","line":2,"station_id":"SW"},{"station_id":"JUA","i_long":106.828284,"distance":1149,"is_transit":false,"station_name":"Juanda","i_lat":-6.166716,"time":2,"line":2,"transit":false}],[{"time":0,"station_id":"SRP","line":6,"is_transit":false,"distance":0,"station_name":"Serpong","i_long":106.66566,"transit":false,"i_lat":-6.319871},{"distance":2413,"transit":false,"station_id":"RU","line":6,"is_transit":false,"station_name":"Rawa Buntu","time":4,"i_long":106.675475,"i_lat":-6.314823},{"station_name":"Sudimara","i_long":106.712277,"is_transit":false,"station_id":"SDM","time":6,"i_lat":-6.296963,"line":6,"distance":4566,"transit":false},{"transit":false,"is_transit":false,"i_long":106.728916,"time":4,"line":6,"distance":1994,"station_id":"JMU","station_name":"Jurangmangu","i_lat":-6.288927},{"station_id":"PDJ","time":3,"distance":2179,"i_lat":-6.276362,"transit":false,"is_transit":false,"i_long":106.74273,"line":6,"station_name":"Pondokranji"},{"time":8,"is_transit":false,"station_name":"Kebayoran","transit":false,"distance":6218,"i_long":106.780334,"line":6,"station_id":"KBY","i_lat":-6.237242},{"i_long":106.79689,"transit":false,"line":6,"time":7,"station_name":"Palmerah","distance":3737,"station_id":"PLM","i_lat":-6.207404,"is_transit":false},{"i_long":106.811091,"distance":3191,"line":1,"time":6,"station_name":"Tanah Abang","i_lat":-6.185545,"station_id":"THB","is_transit":true,"transit":true},{"distance":3632,"transit":false,"station_id":"DU","i_lat":-6.155215,"station_name":"Duri","i_long":106.800832,"is_transit":false,"line":1,"time":8},{"distance":1230,"time":4,"station_id":"AK","is_transit":false,"transit":false,"line":1,"i_lat":-6.144674,"i_long":106.79867,"station_name":"Angke"},{"i_long":106.826365,"time":9,"is_transit":true,"station_name":"Kampung Bandan","distance":4102,"i_lat":-6.132549,"line":4,"transit":true,"station_id":"KPB"},{"is_transit":false,"i_lat":-6.14505,"distance":1444,"transit":false,"time":3,"i_long":106.836569,"line":11,"station_id":"RJW","station_name":"Rajawali"},{"i_long":106.839204,"i_lat":-6.161728,"station_name":"Kemayoran","station_id":"KMO","is_transit":false,"distance":1901,"line":11,"time":5,"transit":false},{"transit":false,"i_long":106.84368,"station_id":"PSE","is_transit":false,"i_lat":-6.174784,"distance":1436,"station_name":"Pasar Senen","time":4,"line":11},{"distance":1567,"station_id":"GST","i_lat":-6.185975,"i_long":106.850107,"line":11,"transit":false,"is_transit":false,"time":8,"station_name":"Gang Sentiong"},{"i_long":106.855437,"line":11,"station_name":"Kramat","distance":973,"time":1,"is_transit":false,"station_id":"KMT","transit":false,"i_lat":-6.193792},{"is_transit":false,"station_id":"POK","station_name":"Pondok Jati","transit":false,"time":2,"i_lat":-6.209188,"i_long":106.861737,"line":11,"distance":1829},{"distance":1236,"is_transit":true,"station_id":"JNG","line":1,"station_name":"Jatinegara","i_lat":-6.215091,"i_long":106.86807400000001,"transit":true,"time":9},{"station_id":"MTR","transit":false,"distance":1377,"i_lat":-6.212485,"i_long":106.858896,"is_transit":false,"station_name":"Matraman","time":2,"line":1},{"transit":true,"time":2,"i_lat":-6.209883,"distance":1275,"is_transit":true,"i_long":106.84912,"line":2,"station_name":"Manggarai","station_id":"MRI"},{"is_transit":false,"line":2,"station_id":"CKI","station_name":"Cikini","time":4,"transit":false,"distance":1590,"i_lat":-6.198556,"i_long":106.840169},{"transit":false,"i_lat":-6.186295,"time":3,"line":2,"station_name":"Gondangdia","station_id":"GDD","is_transit":false,"i_long":106.832183,"distance":1750},{"i_long":106.828284,"line":2,"station_name":"Juanda","distance":2015,"time":4,"station_id":"JUA","is_transit":false,"i_lat":-6.166716,"transit":false}],[{"distance":0,"time":0,"station_name":"Serpong","transit":false,"is_transit":false,"i_long":106.66566,"station_id":"SRP","i_lat":-6.319871,"line":6},{"station_name":"Rawa Buntu","line":6,"time":4,"station_id":"RU","i_lat":-6.314823,"transit":false,"distance":2413,"i_long":106.675475,"is_transit":false},{"station_id":"SDM","line":6,"i_long":106.712277,"station_name":"Sudimara","time":6,"distance":4566,"i_lat":-6.296963,"is_transit":false,"transit":false},{"i_long":106.728916,"distance":1994,"line":6,"station_name":"Jurangmangu","station_id":"JMU","i_lat":-6.288927,"time":4,"is_transit":false,"transit":false},{"i_lat":-6.276362,"is_transit":false,"station_id":"PDJ","distance":2179,"i_long":106.74273,"time":3,"transit":false,"station_name":"Pondokranji","line":6},{"station_id":"KBY","time":8,"transit":false,"i_long":106.780334,"line":6,"station_name":"Kebayoran","distance":6218,"is_transit":false,"i_lat":-6.237242},{"station_name":"Palmerah","i_long":106.79689,"time":7,"i_lat":-6.207404,"line":6,"is_transit":false,"transit":false,"distance":3737,"station_id":"PLM"},{"transit":true,"station_id":"THB","time":6,"station_name":"Tanah Abang","line":1,"i_long":106.811091,"distance":3191,"is_transit":true,"i_lat":-6.185545},{"is_transit":false,"station_id":"KAT","i_long":106.816351,"time":5,"transit":false,"station_name":"Karet","line":1,"distance":2029,"i_lat":-6.20132},{"station_id":"SUDB","time":1,"station_name":"Sudirman Baru","transit":false,"distance":471,"is_transit":false,"i_lat":-6.201433,"i_long":106.819881,"line":1},{"is_transit":false,"i_lat":-6.202263,"station_name":"Sudirman","transit":false,"i_long":106.822649,"line":1,"station_id":"SUD","time":1,"distance":280},{"distance":3186,"time":4,"is_transit":false,"i_lat":-6.209883,"line":2,"station_name":"Manggarai","transit":false,"station_id":"MRI","i_long":106.84912},{"time":2,"station_name":"Matraman","station_id":"MTR","is_transit":false,"i_lat":-6.212485,"i_long":106.858896,"transit":false,"distance":1275,"line":1},{"time":8,"station_id":"JNG","line":1,"transit":true,"is_transit":true,"i_lat":-6.215091,"distance":1377,"i_long":106.86807400000001,"station_name":"Jatinegara"},{"transit":false,"station_name":"Pondok Jati","time":2,"station_id":"POK","distance":1236,"i_lat":-6.209188,"i_long":106.861737,"line":11,"is_transit":false},{"is_transit":false,"time":2,"distance":1829,"line":11,"i_lat":-6.193792,"station_name":"Kramat","station_id":"KMT","i_long":106.855437,"transit":false},{"i_lat":-6.185975,"time":1,"station_id":"GST","distance":973,"transit":false,"line":11,"is_transit":false,"station_name":"Gang Sentiong","i_long":106.850107},{"station_id":"PSE","time":8,"is_transit":false,"transit":false,"i_lat":-6.174784,"i_long":106.84368,"line":11,"station_name":"Pasar Senen","distance":1567},{"line":11,"station_name":"Kemayoran","station_id":"KMO","time":4,"i_long":106.839204,"i_lat":-6.161728,"transit":false,"distance":1436,"is_transit":false},{"is_transit":false,"i_long":106.836569,"i_lat":-6.14505,"line":11,"time":5,"station_id":"RJW","station_name":"Rajawali","transit":false,"distance":1901},{"line":4,"i_lat":-6.132549,"time":3,"station_id":"KPB","station_name":"Kampung Bandan","i_long":106.826365,"is_transit":true,"transit":true,"distance":1444},{"station_id":"JAKK","i_long":106.812439,"transit":true,"time":3,"is_transit":true,"i_lat":-6.137569,"line":2,"station_name":"Jakarta Kota","distance":1364},{"line":2,"station_name":"Jayakarta","is_transit":false,"i_lat":-6.141205,"time":4,"distance":1264,"i_long":106.820901,"station_id":"JAY","transit":false},{"station_id":"MGB","distance":1080,"i_long":106.82482,"line":2,"time":2,"station_name":"Manggabesar","is_transit":false,"transit":false,"i_lat":-6.149769},{"time":2,"i_lat":-6.160725,"line":2,"i_long":106.827103,"transit":false,"station_id":"SW","station_name":"Sawah Besar","distance":906,"is_transit":false},{"i_long":106.828284,"distance":1149,"station_id":"JUA","i_lat":-6.166716,"time":2,"is_transit":false,"station_name":"Juanda","line":2,"transit":false}]]}