{"data":[[{"i_long":106.66566,"i_lat":-6.319871,"station_id":"SRP","is_transit":false,"transit":false,"time":0,"distance":0,"line":6,"station_name":"Serpong"},{"station_id":"RU","transit":false,"is_transit":false,"i_long":106.675475,"time":4,"i_lat":-6.314823,"station_name":"Rawa Buntu","distance":2413,"line":6},{"transit":false,"line":6,"i_long":106.712277,"i_lat":-6.296963,"station_id":"SDM","station_name":"Sudimara","distance":4566,"time":6,"is_transit":false},{"line":6,"time":4,"transit":false,"is_transit":false,"station_name":"Jurangmangu","distance":1994,"i_lat":-6.288927,"station_id":"JMU","i_long":106.728916},{"distance":2179,"station_name":"Pondokranji","i_lat":-6.276362,"i_long":106.74273,"line":6,"is_transit":false,"transit":false,"station_id":"PDJ","time":3},{"i_long":106.780334,"time":8,"distance":6218,"station_name":"Kebayoran","i_lat":-6.237242,"transit":false,"station_id":"KBY","is_transit":false,"line":6},{"station_name":"Palmerah","transit":false,"distance":3737,"i_lat":-6.207404,"time":7,"station_id":"PLM","i_long":106.79689,"line":6,"is_transit":false},{"time":6,"station_name":"Tanah Abang","distance":3191,"i_lat":-6.185545,"is_transit":true,"i_long":106.811091,"station_id":"THB","line":1,"transit":true},{"i_long":106.816351,"distance":2029,"station_id":"KAT","transit":false,"i_lat":-6.20132,"line":1,"time":5,"is_transit":false,"station_name":"Karet"},{"time":1,"i_lat":-6.201433,"line":1,"distance":471,"i_long":106.819881,"transit":false,"station_id":"SUDB","is_transit":false,"station_name":"Sudirman Baru"},{"transit":false,"i_lat":-6.202263,"time":1,"station_name":"Sudirman","line":1,"is_transit":false,"station_id":"SUD","i_long":106.822649,"distance":280},{"time":4,"transit":true,"station_id":"MRI","line":0,"i_long":106.84912,"is_transit":true,"station_name":"Manggarai","distance":3186,"i_lat":-6.209883},{"distance":2610,"station_id":"TEB","i_lat":-6.226659,"i_long":106.857948,"line":2,"transit":false,"time":4,"is_transit":false,"station_name":"Tebet"}],[{"i_long":106.66566,"line":6,"i_lat":-6.319871,"is_transit":false,"station_name":"Serpong","time":0,"station_id":"SRP","distance":0,"transit":false},{"i_long":106.675475,"station_name":"Rawa Buntu","station_id":"RU","time":4,"is_transit":false,"transit":false,"distance":2413,"i_lat":-6.314823,"line":6},{"station_id":"SDM","line":6,"time":6,"transit":false,"i_lat":-6.296963,"station_name":"Sudimara","i_long":106.712277,"distance":4566,"is_transit":false},{"i_long":106.728916,"is_transit":false,"line":6,"time":4,"i_lat":-6.288927,"distance":1994,"transit":false,"station_id":"JMU","station_name":"Jurangmangu"},{"is_transit":false,"station_id":"PDJ","line":6,"distance":2179,"transit":false,"time":3,"i_long":106.74273,"i_lat":-6.276362,"station_name":"Pondokranji"},{"station_id":"KBY","time":8,"i_long":106.780334,"i_lat":-6.237242,"line":6,"is_transit":false,"distance":6218,"transit":false,"station_name":"Kebayoran"},{"i_long":106.79689,"i_lat":-6.207404,"line":6,"station_id":"PLM","is_transit":false,"distance":3737,"station_name":"Palmerah","transit":false,"time":7},{"station_name":"Tanah Abang","transit":true,"time":6,"i_lat":-6.185545,"distance":3191,"line":1,"is_transit":true,"station_id":"THB","i_long":106.811091},{"i_long":106.800832,"station_name":"Duri","station_id":"DU","line":1,"time":8,"is_transit":true,"distance":3632,"i_lat":-6.155215,"transit":true},{"station_name":"Angke","is_transit":false,"time":4,"i_long":106.79867,"transit":false,"i_lat":-6.144674,"line":0,"station_id":"AK","distance":1230},{"time":9,"i_long":106.826365,"station_name":"Kampung Bandan","i_lat":-6.132549,"line":0,"station_id":"KPB","is_transit":true,"distance":4102,"transit":false},{"transit":true,"i_long":106.812439,"i_lat":-6.137569,"time":3,"line":0,"station_name":"Jakarta Kota","station_id":"JAKK","distance":1364,"is_transit":true},{"station_id":"JAY","distance":1264,"time":4,"line":7,"station_name":"Jayakarta","transit":false,"is_transit":false,"i_long":106.820901,"i_lat":-6.141205},{"is_transit":false,"station_id":"MGB","time":2,"transit":false,"station_name":"Manggabesar","line":2,"distance":1080,"i_long":106.82482,"i_lat":-6.149769},{"station_name":"Sawah Besar","is_transit":false,"line":2,"time":2,"station_id":"SW","distance":906,"transit":false,"i_lat":-6.160725,"i_long":106.827103},{"time":2,"i_lat":-6.166716,"line":2,"transit":false,"is_transit":false,"i_long":106.828284,"station_id":"JUA","distance":1149,"station_name":"Juanda"},{"is_transit":false,"station_id":"GDD","station_name":"Gondangdia","i_lat":-6.186295,"transit":false,"time":4,"line":2,"i_long":106.832183,"distance":2015},{"transit":false,"station_name":"Cikini","distance":1750,"is_transit":false,"time":3,"i_lat":-6.198556,"line":0,"station_id":"CKI","i_long":106.840169},{"i_lat":-6.209883,"distance":1590,"i_long":106.84912,"transit":true,"time":4,"is_transit":true,"station_id":"MRI","station_name":"Manggarai","line":0},{"station_id":"TEB","is_transit":false,"time":4,"i_lat":-6.226659,"transit":false,"line":2,"distance":2610,"station_name":"Tebet","i_long":106.857948}],[{"transit":false,"i_long":106.66566,"station_name":"Serpong","line":6,"distance":0,"i_lat":-6.319871,"time":0,"station_id":"SRP","is_transit":false},{"i_lat":-6.314823,"line":6,"station_name":"Rawa Buntu","transit":false,"time":4,"i_long":106.675475,"is_transit":false,"distance":2413,"station_id":"RU"},{"time":6,"line":6,"station_id":"SDM","is_transit":false,"station_name":"Sudimara","transit":false,"distance":4566,"i_long":106.712277,"i_lat":-6.296963},{"i_lat":-6.288927,"distance":1994,"time":4,"station_id":"JMU","transit":false,"i_long":106.728916,"is_transit":false,"station_name":"Jurangmangu","line":6},{"station_id":"PDJ","line":6,"station_name":"Pondokranji","distance":2179,"transit":false,"is_transit":false,"time":3,"i_lat":-6.276362,"i_long":106.74273},{"station_name":"Kebayoran","i_lat":-6.237242,"line":6,"station_id":"KBY","i_long":106.780334,"distance":6218,"is_transit":false,"transit":false,"time":8},{"station_id":"PLM","is_transit":false,"station_name":"Palmerah","i_lat":-6.207404,"line":6,"i_long":106.79689,"time":7,"distance":3737,"transit":false},{"distance":3191,"i_lat":-6.185545,"is_transit":true,"time":6,"transit":true,"station_id":"THB","i_long":106.811091,"station_name":"Tanah Abang","line":1},{"station_name":"Duri","transit":true,"i_long":106.800832,"line":1,"time":8,"i_lat":-6.155215,"is_transit":true,"distance":3632,"station_id":"DU"},{"i_long":106.79867,"is_transit":false,"station_id":"AK","station_name":"Angke","time":4,"i_lat":-6.144674,"distance":1230,"line":0,"transit":false},{"i_long":106.826365,"transit":true,"i_lat":-6.132549,"is_transit":true,"station_id":"KPB","line":0,"station_name":"Kampung Bandan","distance":4102,"time":9},{"time":3,"station_name":"Rajawali","i_long":106.836569,"is_transit":false,"distance":1444,"station_id":"RJW","transit":false,"line":11,"i_lat":-6.14505},{"is_transit":false,"distance":1901,"transit":false,"i_long":106.839204,"station_id":"KMO","i_lat":-6.161728,"line":11,"station_name":"Kemayoran","time":5},{"transit":false,"time":4,"line":11,"station_id":"PSE","is_transit":false,"i_long":106.84368,"i_lat":-6.174784,"distance":1436,"station_name":"Pasar Senen"},{"is_transit":false,"station_name":"Gang Sentiong","i_lat":-6.185975,"distance":1567,"station_id":"GST","time":8,"i_long":106.850107,"line":11,"transit":false},{"is_transit":false,"station_id":"KMT","station_name":"Kramat","transit":false,"i_long":106.855437,"line":11,"time":1,"distance":973,"i_lat":-6.193792},{"distance":1829,"time":2,"station_id":"POK","i_long":106.861737,"transit":false,"i_lat":-6.209188,"is_transit":false,"line":11,"station_name":"Pondok Jati"},{"i_lat":-6.215091,"distance":1236,"transit":true,"time":9,"station_name":"Jatinegara","is_transit":true,"i_long":106.86807400000001,"line":0,"station_id":"JNG"},{"i_long":106.858896,"is_transit":false,"station_name":"Matraman","transit":false,"time":2,"distance":1377,"station_id":"MTR","i_lat":-6.212485,"line":1},{"station_id":"MRI","is_transit":true,"station_name":"Manggarai","transit":true,"line":0,"time":2,"i_lat":-6.209883,"i_long":106.84912,"distance":1275},{"transit":false,"station_name":"Tebet","is_transit":false,"time":4,"line":2,"i_lat":-6.226659,"distance":2610,"station_id":"TEB","i_long":106.857948}]]}