{"data":[[{"line":6,"distance":0,"transit":false,"time":0,"i_long":106.66566,"i_lat":-6.319871,"is_transit":false,"station_name":"Serpong","station_id":"SRP"},{"i_long":106.675475,"station_name":"Rawa Buntu","station_id":"RU","is_transit":false,"transit":false,"i_lat":-6.314823,"line":6,"distance":2413,"time":4},{"station_name":"Sudimara","is_transit":false,"station_id":"SDM","distance":4566,"time":6,"i_lat":-6.296963,"i_long":106.712277,"line":6,"transit":false},{"line":6,"is_transit":false,"distance":1994,"transit":false,"station_name":"Jurangmangu","i_lat":-6.288927,"i_long":106.728916,"time":4,"station_id":"JMU"},{"line":6,"is_transit":false,"distance":2179,"time":3,"station_id":"PDJ","transit":false,"station_name":"Pondokranji","i_lat":-6.276362,"i_long":106.74273},{"i_lat":-6.237242,"station_name":"Kebayoran","is_transit":false,"time":8,"distance":6218,"station_id":"KBY","i_long":106.780334,"line":6,"transit":false},{"is_transit":false,"time":7,"distance":3737,"i_long":106.79689,"transit":false,"station_name":"Palmerah","line":6,"station_id":"PLM","i_lat":-6.207404},{"station_id":"THB","line":1,"station_name":"Tanah Abang","time":6,"i_lat":-6.185545,"is_transit":true,"i_long":106.811091,"transit":true,"distance":3191},{"transit":true,"time":8,"station_name":"Duri","is_transit":true,"i_long":106.800832,"distance":3632,"i_lat":-6.155215,"station_id":"DU","line":1},{"transit":false,"station_name":"Grogol","distance":1700,"i_lat":-6.162021,"line":5,"is_transit":false,"i_long":106.788277,"station_id":"GGL","time":3},{"station_name":"Pesing","station_id":"PSG","distance":2036,"transit":false,"i_lat":-6.161433,"is_transit":false,"i_long":106.771379,"time":2,"line":5},{"i_long":106.756522,"transit":false,"is_transit":false,"i_lat":-6.1587309999999995,"station_id":"TKO","time":2,"distance":1614,"line":5,"station_name":"Taman Kota"},{"is_transit":false,"i_long":106.737035,"station_id":"BOI","time":2,"distance":2334,"i_lat":-6.159876,"line":5,"transit":false,"station_name":"Bojongindah"},{"distance":1152,"i_lat":-6.162758,"transit":false,"line":5,"is_transit":false,"time":4,"i_long":106.723064,"station_name":"Rawa Buaya","station_id":"RW"},{"time":3,"is_transit":false,"line":5,"i_lat":-6.166068,"i_long":106.701612,"station_id":"KDS","station_name":"Kalideres","transit":false,"distance":2504},{"distance":2548,"line":5,"transit":false,"is_transit":false,"i_lat":-6.169933,"station_id":"PI","time":3,"i_long":106.679458,"station_name":"Poris"},{"transit":false,"station_name":"Batuceper","distance":1834,"i_long":106.665036,"i_lat":-6.171811,"time":3,"line":5,"station_id":"BPR","is_transit":false},{"i_long":106.64657,"is_transit":false,"transit":false,"i_lat":-6.17331,"distance":2028,"station_name":"Tanah Tinggi","station_id":"TTI","time":3,"line":5}],[{"line":6,"i_lat":-6.319871,"is_transit":false,"transit":false,"station_id":"SRP","time":0,"distance":0,"station_name":"Serpong","i_long":106.66566},{"is_transit":false,"transit":false,"time":4,"station_name":"Rawa Buntu","station_id":"RU","i_lat":-6.314823,"i_long":106.675475,"distance":2413,"line":6},{"transit":false,"station_name":"Sudimara","station_id":"SDM","is_transit":false,"distance":4566,"i_long":106.712277,"time":6,"i_lat":-6.296963,"line":6},{"transit":false,"i_long":106.728916,"station_id":"JMU","distance":1994,"is_transit":false,"station_name":"Jurangmangu","i_lat":-6.288927,"time":4,"line":6},{"transit":false,"station_name":"Pondokranji","is_transit":false,"time":3,"station_id":"PDJ","distance":2179,"i_lat":-6.276362,"i_long":106.74273,"line":6},{"is_transit":false,"station_id":"KBY","time":8,"line":6,"distance":6218,"i_lat":-6.237242,"i_long":106.780334,"transit":false,"station_name":"Kebayoran"},{"time":7,"i_long":106.79689,"transit":false,"is_transit":false,"station_id":"PLM","distance":3737,"line":6,"station_name":"Palmerah","i_lat":-6.207404},{"distance":3191,"i_long":106.811091,"line":1,"station_id":"THB","transit":true,"is_transit":true,"time":6,"station_name":"Tanah Abang","i_lat":-6.185545},{"i_lat":-6.20132,"station_name":"Karet","transit":false,"i_long":106.816351,"line":1,"station_id":"KAT","time":5,"distance":2029,"is_transit":false},{"distance":471,"transit":false,"line":1,"station_id":"SUDB","is_transit":false,"station_name":"Sudirman Baru","i_long":106.819881,"i_lat":-6.201433,"time":1},{"transit":false,"station_id":"SUD","distance":280,"i_long":106.822649,"time":1,"line":1,"station_name":"Sudirman","is_transit":false,"i_lat":-6.202263},{"line":2,"is_transit":true,"distance":3186,"station_id":"MRI","time":4,"transit":true,"i_lat":-6.209883,"station_name":"Manggarai","i_long":106.84912},{"time":4,"transit":false,"line":2,"station_id":"CKI","i_long":106.840169,"is_transit":false,"station_name":"Cikini","distance":1590,"i_lat":-6.198556},{"station_id":"GDD","station_name":"Gondangdia","is_transit":false,"transit":false,"distance":1750,"i_long":106.832183,"i_lat":-6.186295,"time":3,"line":2},{"distance":2015,"i_long":106.828284,"i_lat":-6.166716,"station_name":"Juanda","transit":false,"is_transit":false,"time":4,"line":2,"station_id":"JUA"},{"i_long":106.827103,"distance":1149,"time":2,"line":2,"transit":false,"station_id":"SW","is_transit":false,"station_name":"Sawah Besar","i_lat":-6.160725},{"transit":false,"line":2,"is_transit":false,"distance":906,"time":2,"i_lat":-6.149769,"i_long":106.82482,"station_name":"Manggabesar","station_id":"MGB"},{"time":2,"transit":false,"line":2,"is_transit":false,"i_lat":-6.141205,"station_name":"Jayakarta","station_id":"JAY","distance":1080,"i_long":106.820901},{"station_id":"JAKK","i_lat":-6.137569,"time":4,"line":2,"station_name":"Jakarta Kota","is_transit":true,"transit":true,"distance":1264,"i_long":106.812439},{"i_lat":-6.132549,"station_name":"Kampung Bandan","i_long":106.826365,"is_transit":true,"transit":true,"station_id":"KPB","line":4,"distance":1364,"time":3},{"is_transit":false,"time":9,"station_name":"Angke","i_lat":-6.144674,"i_long":106.79867,"station_id":"AK","line":1,"distance":4102,"transit":false},{"station_name":"Duri","time":4,"distance":1230,"station_id":"DU","transit":true,"i_lat":-6.155215,"i_long":106.800832,"is_transit":true,"line":1},{"station_id":"GGL","station_name":"Grogol","line":5,"is_transit":false,"i_lat":-6.162021,"transit":false,"distance":1700,"i_long":106.788277,"time":3},{"is_transit":false,"time":2,"i_long":106.771379,"line":5,"station_id":"PSG","distance":2036,"i_lat":-6.161433,"station_name":"Pesing","transit":false},{"transit":false,"is_transit":false,"time":2,"distance":1614,"i_lat":-6.1587309999999995,"i_long":106.756522,"line":5,"station_id":"TKO","station_name":"Taman Kota"},{"station_id":"BOI","i_long":106.737035,"i_lat":-6.159876,"is_transit":false,"distance":2334,"station_name":"Bojongindah","line":5,"time":2,"transit":false},{"time":4,"station_name":"Rawa Buaya","distance":1152,"is_transit":false,"i_long":106.723064,"transit":false,"line":5,"station_id":"RW","i_lat":-6.162758},{"time":3,"transit":false,"station_name":"Kalideres","station_id":"KDS","i_long":106.701612,"line":5,"distance":2504,"is_transit":false,"i_lat":-6.166068},{"i_lat":-6.169933,"distance":2548,"transit":false,"i_long":106.679458,"station_id":"PI","line":5,"time":3,"station_name":"Poris","is_transit":false},{"i_long":106.665036,"station_name":"Batuceper","line":5,"is_transit":false,"transit":false,"station_id":"BPR","i_lat":-6.171811,"time":3,"distance":1834},{"line":5,"transit":false,"station_name":"Tanah Tinggi","i_lat":-6.17331,"distance":2028,"i_long":106.64657,"station_id":"TTI","is_transit":false,"time":3}],[{"distance":0,"station_id":"SRP","is_transit":false,"i_long":106.66566,"time":0,"transit":false,"line":6,"i_lat":-6.319871,"station_name":"Serpong"},{"distance":2413,"transit":false,"station_name":"Rawa Buntu","time":4,"is_transit":false,"i_lat":-6.314823,"i_long":106.675475,"line":6,"station_id":"RU"},{"is_transit":false,"time":6,"transit":false,"station_id":"SDM","i_long":106.712277,"station_name":"Sudimara","distance":4566,"i_lat":-6.296963,"line":6},{"i_long":106.728916,"station_name":"Jurangmangu","station_id":"JMU","distance":1994,"i_lat":-6.288927,"line":6,"time":4,"transit":false,"is_transit":false},{"transit":false,"station_name":"Pondokranji","is_transit":false,"i_long":106.74273,"distance":2179,"time":3,"i_lat":-6.276362,"line":6,"station_id":"PDJ"},{"line":6,"i_long":106.780334,"time":8,"distance":6218,"is_transit":false,"i_lat":-6.237242,"station_name":"Kebayoran","station_id":"KBY","transit":false},{"i_long":106.79689,"station_id":"PLM","distance":3737,"line":6,"is_transit":false,"transit":false,"station_name":"Palmerah","time":7,"i_lat":-6.207404},{"is_transit":true,"time":6,"station_name":"Tanah Abang","station_id":"THB","i_lat":-6.185545,"line":1,"transit":true,"distance":3191,"i_long":106.811091},{"distance":2029,"station_name":"Karet","i_lat":-6.20132,"transit":false,"station_id":"KAT","is_transit":false,"line":1,"i_long":106.816351,"time":5},{"station_name":"Sudirman Baru","time":1,"i_long":106.819881,"line":1,"station_id":"SUDB","i_lat":-6.201433,"transit":false,"is_transit":false,"distance":471},{"i_long":106.822649,"time":1,"transit":false,"i_lat":-6.202263,"station_id":"SUD","is_transit":false,"station_name":"Sudirman","line":1,"distance":280},{"line":2,"distance":3186,"station_name":"Manggarai","station_id":"MRI","transit":false,"i_long":106.84912,"is_transit":false,"time":4,"i_lat":-6.209883},{"is_transit":false,"transit":false,"station_name":"Matraman","station_id":"MTR","time":2,"distance":1275,"line":1,"i_lat":-6.212485,"i_long":106.858896},{"station_name":"Jatinegara","distance":1377,"i_lat":-6.215091,"line":1,"is_transit":true,"transit":true,"i_long":106.86807400000001,"station_id":"JNG","time":8},{"i_lat":-6.209188,"line":11,"i_long":106.861737,"station_name":"Pondok Jati","is_transit":false,"transit":false,"distance":1236,"time":2,"station_id":"POK"},{"line":11,"station_id":"KMT","i_long":106.855437,"is_transit":false,"station_name":"Kramat","time":2,"distance":1829,"i_lat":-6.193792,"transit":false},{"i_lat":-6.185975,"i_long":106.850107,"station_name":"Gang Sentiong","is_transit":false,"line":11,"transit":false,"station_id":"GST","time":1,"distance":973},{"line":11,"station_id":"PSE","i_long":106.84368,"transit":false,"time":8,"is_transit":false,"distance":1567,"i_lat":-6.174784,"station_name":"Pasar Senen"},{"distance":1436,"station_id":"KMO","line":11,"is_transit":false,"i_long":106.839204,"transit":false,"time":4,"i_lat":-6.161728,"station_name":"Kemayoran"},{"station_name":"Rajawali","station_id":"RJW","time":5,"i_long":106.836569,"distance":1901,"transit":false,"i_lat":-6.14505,"is_transit":false,"line":11},{"distance":1444,"transit":true,"i_lat":-6.132549,"i_long":106.826365,"line":4,"time":3,"is_transit":true,"station_id":"KPB","station_name":"Kampung Bandan"},{"distance":4102,"i_lat":-6.144674,"time":9,"station_id":"AK","is_transit":false,"transit":false,"station_name":"Angke","line":1,"i_long":106.79867},{"line":1,"distance":1230,"station_name":"Duri","i_long":106.800832,"station_id":"DU","transit":true,"i_lat":-6.155215,"is_transit":true,"time":4},{"transit":false,"station_name":"Grogol","station_id":"GGL","time":3,"distance":1700,"i_lat":-6.162021,"i_long":106.788277,"line":5,"is_transit":false},{"station_id":"PSG","transit":false,"is_transit":false,"station_name":"Pesing","time":2,"i_long":106.771379,"line":5,"distance":2036,"i_lat":-6.161433},{"time":2,"transit":false,"i_lat":-6.1587309999999995,"station_id":"TKO","distance":1614,"i_long":106.756522,"is_transit":false,"line":5,"station_name":"Taman Kota"},{"line":5,"station_id":"BOI","station_name":"Bojongindah","i_long":106.737035,"distance":2334,"transit":false,"time":2,"i_lat":-6.159876,"is_transit":false},{"i_long":106.723064,"station_id":"RW","distance":1152,"i_lat":-6.162758,"line":5,"station_name":"Rawa Buaya","time":4,"transit":false,"is_transit":false},{"station_name":"Kalideres","is_transit":false,"distance":2504,"station_id":"KDS","i_lat":-6.166068,"time":3,"line":5,"i_long":106.701612,"transit":false},{"station_id":"PI","distance":2548,"i_lat":-6.169933,"i_long":106.679458,"station_name":"Poris","line":5,"is_transit":false,"time":3,"transit":false},{"station_name":"Batuceper","station_id":"BPR","transit":false,"is_transit":false,"time":3,"i_lat":-6.171811,"line":5,"i_long":106.665036,"distance":1834},{"is_transit":false,"distance":2028,"i_lat":-6.17331,"transit":false,"line":5,"station_id":"TTI","i_long":106.64657,"time":3,"station_name":"Tanah Tinggi"}]]}