{"data":[[{"station_name":"Serpong","i_long":106.66566,"line":6,"time":0,"is_transit":false,"transit":false,"distance":0,"i_lat":-6.319871,"station_id":"SRP"},{"time":4,"i_long":106.675475,"i_lat":-6.314823,"distance":2413,"is_transit":false,"line":6,"station_name":"Rawa Buntu","transit":false,"station_id":"RU"},{"time":6,"distance":4566,"station_name":"Sudimara","station_id":"SDM","i_lat":-6.296963,"is_transit":false,"i_long":106.712277,"line":6,"transit":false},{"distance":1994,"transit":false,"i_lat":-6.288927,"line":6,"station_id":"JMU","i_long":106.728916,"station_name":"Jurangmangu","time":4,"is_transit":false},{"distance":2179,"station_name":"Pondokranji","line":6,"is_transit":false,"time":3,"station_id":"PDJ","i_lat":-6.276362,"transit":false,"i_long":106.74273},{"is_transit":false,"time":8,"i_long":106.780334,"transit":false,"i_lat":-6.237242,"station_name":"Kebayoran","distance":6218,"station_id":"KBY","line":6},{"is_transit":false,"line":6,"station_name":"Palmerah","transit":false,"station_id":"PLM","i_long":106.79689,"time":7,"distance":3737,"i_lat":-6.207404},{"time":6,"is_transit":true,"i_lat":-6.185545,"i_long":106.811091,"distance":3191,"line":1,"station_id":"THB","transit":true,"station_name":"Tanah Abang"},{"i_long":106.816351,"line":1,"time":5,"transit":false,"i_lat":-6.20132,"distance":2029,"is_transit":false,"station_name":"Karet","station_id":"KAT"},{"station_name":"Sudirman Baru","station_id":"SUDB","is_transit":false,"transit":false,"i_lat":-6.201433,"time":1,"line":1,"i_long":106.819881,"distance":471},{"station_id":"SUD","station_name":"Sudirman","transit":false,"time":1,"distance":280,"i_lat":-6.202263,"i_long":106.822649,"line":1,"is_transit":false},{"time":4,"transit":true,"station_name":"Manggarai","station_id":"MRI","i_long":106.84912,"is_transit":true,"i_lat":-6.209883,"distance":3186,"line":2},{"station_name":"Tebet","transit":false,"i_lat":-6.226659,"distance":2610,"station_id":"TEB","i_long":106.857948,"time":4,"line":2,"is_transit":false}],[{"i_long":106.66566,"is_transit":false,"station_name":"Serpong","time":0,"line":6,"i_lat":-6.319871,"distance":0,"transit":false,"station_id":"SRP"},{"time":4,"station_id":"RU","transit":false,"is_transit":false,"station_name":"Rawa Buntu","i_long":106.675475,"line":6,"i_lat":-6.314823,"distance":2413},{"transit":false,"line":6,"time":6,"is_transit":false,"station_name":"Sudimara","i_long":106.712277,"distance":4566,"station_id":"SDM","i_lat":-6.296963},{"station_name":"Jurangmangu","line":6,"station_id":"JMU","is_transit":false,"i_long":106.728916,"time":4,"transit":false,"i_lat":-6.288927,"distance":1994},{"is_transit":false,"transit":false,"station_name":"Pondokranji","i_lat":-6.276362,"distance":2179,"time":3,"i_long":106.74273,"line":6,"station_id":"PDJ"},{"time":8,"i_long":106.780334,"station_id":"KBY","station_name":"Kebayoran","transit":false,"i_lat":-6.237242,"is_transit":false,"line":6,"distance":6218},{"i_long":106.79689,"line":6,"transit":false,"i_lat":-6.207404,"is_transit":false,"time":7,"distance":3737,"station_id":"PLM","station_name":"Palmerah"},{"distance":3191,"transit":true,"station_name":"Tanah Abang","time":6,"station_id":"THB","is_transit":true,"i_lat":-6.185545,"i_long":106.811091,"line":1},{"i_long":106.800832,"distance":3632,"transit":false,"station_id":"DU","line":1,"is_transit":false,"station_name":"Duri","time":8,"i_lat":-6.155215},{"station_id":"AK","distance":1230,"line":1,"i_lat":-6.144674,"transit":false,"time":4,"is_transit":false,"station_name":"Angke","i_long":106.79867},{"time":9,"distance":4102,"i_long":106.826365,"i_lat":-6.132549,"is_transit":true,"station_name":"Kampung Bandan","station_id":"KPB","transit":true,"line":4},{"is_transit":true,"i_long":106.812439,"time":3,"line":2,"i_lat":-6.137569,"transit":true,"distance":1364,"station_name":"Jakarta Kota","station_id":"JAKK"},{"line":2,"station_name":"Jayakarta","distance":1264,"i_long":106.820901,"time":4,"i_lat":-6.141205,"station_id":"JAY","transit":false,"is_transit":false},{"i_lat":-6.149769,"station_name":"Manggabesar","line":2,"station_id":"MGB","transit":false,"is_transit":false,"i_long":106.82482,"time":2,"distance":1080},{"is_transit":false,"time":2,"station_id":"SW","i_long":106.827103,"line":2,"transit":false,"station_name":"Sawah Besar","distance":906,"i_lat":-6.160725},{"is_transit":false,"distance":1149,"station_id":"JUA","station_name":"Juanda","time":2,"i_long":106.828284,"line":2,"transit":false,"i_lat":-6.166716},{"is_transit":false,"station_id":"GDD","line":2,"i_lat":-6.186295,"transit":false,"distance":2015,"i_long":106.832183,"station_name":"Gondangdia","time":4},{"station_id":"CKI","i_long":106.840169,"transit":false,"is_transit":false,"line":2,"distance":1750,"station_name":"Cikini","time":3,"i_lat":-6.198556},{"time":4,"distance":1590,"station_id":"MRI","i_lat":-6.209883,"station_name":"Manggarai","i_long":106.84912,"line":2,"transit":false,"is_transit":false},{"i_long":106.857948,"line":2,"i_lat":-6.226659,"distance":2610,"time":4,"station_name":"Tebet","station_id":"TEB","transit":false,"is_transit":false}],[{"station_name":"Serpong","distance":0,"is_transit":false,"i_lat":-6.319871,"i_long":106.66566,"line":6,"time":0,"station_id":"SRP","transit":false},{"transit":false,"line":6,"i_long":106.675475,"distance":2413,"time":4,"station_id":"RU","station_name":"Rawa Buntu","is_transit":false,"i_lat":-6.314823},{"is_transit":false,"transit":false,"station_name":"Sudimara","line":6,"distance":4566,"time":6,"i_long":106.712277,"station_id":"SDM","i_lat":-6.296963},{"distance":1994,"line":6,"transit":false,"station_name":"Jurangmangu","time":4,"is_transit":false,"i_long":106.728916,"i_lat":-6.288927,"station_id":"JMU"},{"transit":false,"station_id":"PDJ","time":3,"i_long":106.74273,"i_lat":-6.276362,"line":6,"distance":2179,"station_name":"Pondokranji","is_transit":false},{"i_long":106.780334,"station_id":"KBY","time":8,"is_transit":false,"station_name":"Kebayoran","line":6,"i_lat":-6.237242,"distance":6218,"transit":false},{"station_id":"PLM","i_lat":-6.207404,"time":7,"distance":3737,"is_transit":false,"line":6,"station_name":"Palmerah","i_long":106.79689,"transit":false},{"transit":true,"i_long":106.811091,"station_id":"THB","time":6,"is_transit":true,"i_lat":-6.185545,"line":1,"distance":3191,"station_name":"Tanah Abang"},{"i_lat":-6.155215,"time":8,"transit":false,"i_long":106.800832,"line":1,"is_transit":false,"distance":3632,"station_id":"DU","station_name":"Duri"},{"time":4,"distance":1230,"is_transit":false,"i_lat":-6.144674,"station_id":"AK","i_long":106.79867,"transit":false,"station_name":"Angke","line":1},{"i_lat":-6.132549,"station_id":"KPB","is_transit":true,"station_name":"Kampung Bandan","distance":4102,"transit":true,"time":9,"i_long":106.826365,"line":4},{"line":11,"time":3,"station_id":"RJW","transit":false,"station_name":"Rajawali","is_transit":false,"distance":1444,"i_lat":-6.14505,"i_long":106.836569},{"station_name":"Kemayoran","station_id":"KMO","i_lat":-6.161728,"is_transit":false,"time":5,"transit":false,"line":11,"i_long":106.839204,"distance":1901},{"distance":1436,"station_name":"Pasar Senen","time":4,"transit":false,"i_long":106.84368,"line":11,"i_lat":-6.174784,"station_id":"PSE","is_transit":false},{"i_long":106.850107,"transit":false,"is_transit":false,"i_lat":-6.185975,"station_id":"GST","station_name":"Gang Sentiong","time":8,"distance":1567,"line":11},{"station_name":"Kramat","time":1,"station_id":"KMT","is_transit":false,"i_lat":-6.193792,"i_long":106.855437,"line":11,"distance":973,"transit":false},{"i_lat":-6.209188,"is_transit":false,"time":2,"station_name":"Pondok Jati","transit":false,"station_id":"POK","distance":1829,"line":11,"i_long":106.861737},{"time":9,"station_id":"JNG","is_transit":true,"line":1,"i_lat":-6.215091,"station_name":"Jatinegara","transit":true,"i_long":106.86807400000001,"distance":1236},{"i_lat":-6.212485,"i_long":106.858896,"is_transit":false,"time":2,"line":1,"station_name":"Matraman","station_id":"MTR","transit":false,"distance":1377},{"transit":true,"station_name":"Manggarai","time":2,"i_lat":-6.209883,"i_long":106.84912,"station_id":"MRI","distance":1275,"is_transit":true,"line":2},{"line":2,"time":4,"station_id":"TEB","i_lat":-6.226659,"is_transit":false,"distance":2610,"i_long":106.857948,"station_name":"Tebet","transit":false}]]}