{"data":[[{"i_lat":-6.319871,"distance":0,"is_transit":false,"station_name":"Serpong","time":0,"i_long":106.66566,"line":6,"transit":false,"station_id":"SRP"},{"distance":2413,"is_transit":false,"transit":false,"station_id":"RU","station_name":"Rawa Buntu","i_lat":-6.314823,"i_long":106.675475,"line":6,"time":4},{"time":6,"distance":4566,"i_long":106.712277,"station_name":"Sudimara","i_lat":-6.296963,"transit":false,"line":6,"is_transit":false,"station_id":"SDM"},{"line":6,"station_id":"JMU","time":4,"i_lat":-6.288927,"transit":false,"is_transit":false,"i_long":106.728916,"distance":1994,"station_name":"Jurangmangu"},{"time":3,"i_long":106.74273,"station_name":"Pondokranji","is_transit":false,"i_lat":-6.276362,"line":6,"station_id":"PDJ","distance":2179,"transit":false},{"time":8,"distance":6218,"transit":false,"station_name":"Kebayoran","is_transit":false,"i_lat":-6.237242,"i_long":106.780334,"line":6,"station_id":"KBY"},{"time":7,"is_transit":false,"line":6,"distance":3737,"i_long":106.79689,"transit":false,"station_id":"PLM","station_name":"Palmerah","i_lat":-6.207404},{"transit":true,"station_name":"Tanah Abang","is_transit":true,"i_lat":-6.185545,"line":1,"time":6,"distance":3191,"station_id":"THB","i_long":106.811091},{"station_id":"KAT","i_lat":-6.20132,"line":1,"i_long":106.816351,"is_transit":false,"time":5,"distance":2029,"transit":false,"station_name":"Karet"},{"is_transit":false,"time":1,"i_lat":-6.201433,"i_long":106.819881,"station_id":"SUDB","distance":471,"station_name":"Sudirman Baru","transit":false,"line":1},{"transit":false,"i_long":106.822649,"station_name":"Sudirman","line":1,"station_id":"SUD","is_transit":false,"distance":280,"time":1,"i_lat":-6.202263},{"line":2,"transit":true,"is_transit":true,"station_name":"Manggarai","distance":3186,"i_lat":-6.209883,"i_long":106.84912,"time":4,"station_id":"MRI"},{"i_lat":-6.226659,"i_long":106.857948,"station_id":"TEB","distance":2610,"transit":false,"is_transit":false,"station_name":"Tebet","line":2,"time":4},{"i_long":106.856607,"distance":1230,"time":2,"station_id":"CW","station_name":"Cawang","is_transit":false,"transit":false,"line":2,"i_lat":-6.242512},{"i_long":106.85449,"line":2,"time":3,"i_lat":-6.255332,"is_transit":false,"distance":1546,"station_id":"DRN","transit":false,"station_name":"Duren Kalibata"},{"station_name":"Pasar Minggu Baru","i_long":106.851577,"i_lat":-6.263214,"time":2,"distance":824,"line":2,"is_transit":false,"station_id":"PSMB","transit":false},{"station_id":"PSM","station_name":"Pasar Minggu","time":2,"i_long":106.843999,"distance":2380,"line":2,"transit":false,"is_transit":false,"i_lat":-6.2842400000000005},{"station_id":"TNT","i_long":106.838896,"transit":false,"time":4,"i_lat":-6.3080680000000005,"line":2,"station_name":"Tanjung Barat","is_transit":false,"distance":2820},{"station_id":"LNA","station_name":"Lenteng Agung","i_long":106.832616,"time":3,"transit":false,"distance":2671,"is_transit":false,"line":2,"i_lat":-6.330363},{"line":2,"distance":1029,"i_long":106.834175,"station_name":"Univ. Pancasila","transit":false,"is_transit":false,"i_lat":-6.339291,"time":2,"station_id":"UP"},{"i_lat":-6.360749,"i_long":106.831474,"is_transit":false,"line":2,"distance":2264,"time":3,"station_name":"Univ. Indonesia","transit":false,"station_id":"UI"},{"time":2,"distance":1109,"station_name":"Pondok Cina","station_id":"POC","i_long":106.831114,"transit":false,"i_lat":-6.369073,"line":2,"is_transit":false},{"line":2,"time":4,"i_long":106.819451,"transit":false,"station_name":"Depokbaru","station_id":"DPB","is_transit":false,"distance":2727,"i_lat":-6.391065},{"line":2,"station_id":"DP","is_transit":false,"time":3,"distance":1584,"i_lat":-6.405256,"transit":false,"i_long":106.816926,"station_name":"Depok"},{"is_transit":true,"distance":5084,"station_name":"Citayam","i_lat":-6.448811,"station_id":"CTA","transit":true,"time":6,"i_long":106.800298,"line":2},{"transit":false,"i_lat":-6.460735,"time":0,"station_name":"Pondok Rajeg","station_id":"PDRG","line":21,"distance":0,"i_long":106.824374,"is_transit":false},{"line":21,"transit":false,"is_transit":false,"distance":0,"i_long":106.851978,"station_name":"Cibinong","station_id":"CBN","i_lat":-6.46424,"time":0},{"station_id":"NMO","distance":6527,"i_lat":-6.466285,"transit":false,"time":10,"station_name":"Nambo","i_long":106.905196,"is_transit":false,"line":21}],[{"i_long":106.66566,"station_name":"Serpong","is_transit":false,"i_lat":-6.319871,"line":6,"station_id":"SRP","distance":0,"time":0,"transit":false},{"time":4,"distance":2413,"i_lat":-6.314823,"transit":false,"station_id":"RU","line":6,"is_transit":false,"station_name":"Rawa Buntu","i_long":106.675475},{"i_long":106.712277,"station_name":"Sudimara","transit":false,"distance":4566,"station_id":"SDM","i_lat":-6.296963,"line":6,"is_transit":false,"time":6},{"line":6,"station_id":"JMU","i_lat":-6.288927,"is_transit":false,"i_long":106.728916,"transit":false,"time":4,"distance":1994,"station_name":"Jurangmangu"},{"distance":2179,"line":6,"station_name":"Pondokranji","time":3,"i_long":106.74273,"i_lat":-6.276362,"is_transit":false,"transit":false,"station_id":"PDJ"},{"i_lat":-6.237242,"i_long":106.780334,"station_id":"KBY","line":6,"transit":false,"time":8,"is_transit":false,"distance":6218,"station_name":"Kebayoran"},{"i_lat":-6.207404,"is_transit":false,"station_id":"PLM","transit":false,"i_long":106.79689,"distance":3737,"line":6,"station_name":"Palmerah","time":7},{"time":6,"i_long":106.811091,"station_id":"THB","is_transit":true,"distance":3191,"i_lat":-6.185545,"transit":true,"line":1,"station_name":"Tanah Abang"},{"is_transit":false,"time":8,"distance":3632,"station_name":"Duri","i_lat":-6.155215,"i_long":106.800832,"line":1,"transit":false,"station_id":"DU"},{"i_long":106.79867,"transit":false,"i_lat":-6.144674,"time":4,"station_id":"AK","station_name":"Angke","distance":1230,"is_transit":false,"line":1},{"station_name":"Kampung Bandan","distance":4102,"station_id":"KPB","i_long":106.826365,"line":4,"transit":true,"is_transit":true,"time":9,"i_lat":-6.132549},{"transit":true,"line":2,"distance":1364,"station_name":"Jakarta Kota","i_long":106.812439,"is_transit":true,"i_lat":-6.137569,"time":3,"station_id":"JAKK"},{"station_id":"JAY","i_lat":-6.141205,"station_name":"Jayakarta","i_long":106.820901,"line":2,"distance":1264,"transit":false,"is_transit":false,"time":4},{"station_id":"MGB","transit":false,"i_long":106.82482,"distance":1080,"time":2,"is_transit":false,"station_name":"Manggabesar","i_lat":-6.149769,"line":2},{"station_name":"Sawah Besar","distance":906,"transit":false,"is_transit":false,"time":2,"station_id":"SW","i_long":106.827103,"i_lat":-6.160725,"line":2},{"distance":1149,"transit":false,"time":2,"i_lat":-6.166716,"station_name":"Juanda","station_id":"JUA","i_long":106.828284,"is_transit":false,"line":2},{"station_name":"Gondangdia","i_long":106.832183,"line":2,"is_transit":false,"time":4,"i_lat":-6.186295,"station_id":"GDD","distance":2015,"transit":false},{"is_transit":false,"transit":false,"i_lat":-6.198556,"line":2,"station_id":"CKI","i_long":106.840169,"time":3,"distance":1750,"station_name":"Cikini"},{"distance":1590,"transit":false,"is_transit":false,"line":2,"station_name":"Manggarai","time":4,"station_id":"MRI","i_lat":-6.209883,"i_long":106.84912},{"time":4,"is_transit":false,"station_name":"Tebet","station_id":"TEB","i_long":106.857948,"i_lat":-6.226659,"distance":2610,"line":2,"transit":false},{"i_long":106.856607,"distance":1230,"line":2,"station_name":"Cawang","transit":false,"station_id":"CW","time":2,"i_lat":-6.242512,"is_transit":false},{"station_name":"Duren Kalibata","i_long":106.85449,"is_transit":false,"time":3,"station_id":"DRN","i_lat":-6.255332,"distance":1546,"line":2,"transit":false},{"station_name":"Pasar Minggu Baru","i_long":106.851577,"is_transit":false,"line":2,"time":2,"i_lat":-6.263214,"transit":false,"station_id":"PSMB","distance":824},{"transit":false,"i_lat":-6.2842400000000005,"i_long":106.843999,"time":2,"station_id":"PSM","distance":2380,"station_name":"Pasar Minggu","line":2,"is_transit":false},{"line":2,"is_transit":false,"station_id":"TNT","i_long":106.838896,"time":4,"distance":2820,"station_name":"Tanjung Barat","transit":false,"i_lat":-6.3080680000000005},{"distance":2671,"station_id":"LNA","i_lat":-6.330363,"i_long":106.832616,"is_transit":false,"time":3,"station_name":"Lenteng Agung","line":2,"transit":false},{"station_name":"Univ. Pancasila","transit":false,"is_transit":false,"distance":1029,"i_lat":-6.339291,"line":2,"i_long":106.834175,"time":2,"station_id":"UP"},{"station_id":"UI","distance":2264,"is_transit":false,"i_lat":-6.360749,"line":2,"transit":false,"time":3,"i_long":106.831474,"station_name":"Univ. Indonesia"},{"i_lat":-6.369073,"distance":1109,"station_name":"Pondok Cina","line":2,"time":2,"station_id":"POC","transit":false,"i_long":106.831114,"is_transit":false},{"transit":false,"station_name":"Depokbaru","is_transit":false,"line":2,"station_id":"DPB","time":4,"distance":2727,"i_lat":-6.391065,"i_long":106.819451},{"i_lat":-6.405256,"i_long":106.816926,"line":2,"time":3,"distance":1584,"station_name":"Depok","is_transit":false,"station_id":"DP","transit":false},{"station_name":"Citayam","i_long":106.800298,"distance":5084,"i_lat":-6.448811,"is_transit":true,"line":2,"station_id":"CTA","transit":true,"time":6},{"transit":false,"station_id":"PDRG","line":21,"distance":0,"station_name":"Pondok Rajeg","i_lat":-6.460735,"time":0,"i_long":106.824374,"is_transit":false},{"time":0,"line":21,"transit":false,"i_lat":-6.46424,"is_transit":false,"distance":0,"station_name":"Cibinong","station_id":"CBN","i_long":106.851978},{"time":10,"station_id":"NMO","distance":6527,"i_lat":-6.466285,"line":21,"is_transit":false,"station_name":"Nambo","i_long":106.905196,"transit":false}],[{"time":0,"i_long":106.66566,"line":6,"distance":0,"i_lat":-6.319871,"station_name":"Serpong","is_transit":false,"transit":false,"station_id":"SRP"},{"time":4,"station_id":"RU","transit":false,"distance":2413,"station_name":"Rawa Buntu","line":6,"i_lat":-6.314823,"is_transit":false,"i_long":106.675475},{"is_transit":false,"i_long":106.712277,"distance":4566,"station_name":"Sudimara","station_id":"SDM","transit":false,"time":6,"i_lat":-6.296963,"line":6},{"line":6,"station_name":"Jurangmangu","is_transit":false,"time":4,"i_lat":-6.288927,"i_long":106.728916,"distance":1994,"transit":false,"station_id":"JMU"},{"time":3,"i_lat":-6.276362,"line":6,"i_long":106.74273,"transit":false,"is_transit":false,"station_name":"Pondokranji","station_id":"PDJ","distance":2179},{"line":6,"station_id":"KBY","distance":6218,"transit":false,"time":8,"is_transit":false,"i_lat":-6.237242,"station_name":"Kebayoran","i_long":106.780334},{"distance":3737,"station_id":"PLM","i_long":106.79689,"transit":false,"is_transit":false,"station_name":"Palmerah","i_lat":-6.207404,"time":7,"line":6},{"distance":3191,"time":6,"line":1,"i_long":106.811091,"is_transit":true,"station_name":"Tanah Abang","transit":true,"i_lat":-6.185545,"station_id":"THB"},{"is_transit":false,"time":8,"distance":3632,"station_id":"DU","i_long":106.800832,"station_name":"Duri","i_lat":-6.155215,"line":1,"transit":false},{"station_name":"Angke","distance":1230,"station_id":"AK","is_transit":false,"i_long":106.79867,"time":4,"line":1,"transit":false,"i_lat":-6.144674},{"time":9,"is_transit":true,"station_id":"KPB","station_name":"Kampung Bandan","line":4,"i_lat":-6.132549,"i_long":106.826365,"transit":true,"distance":4102},{"i_lat":-6.14505,"transit":false,"distance":1444,"is_transit":false,"time":3,"i_long":106.836569,"station_name":"Rajawali","line":11,"station_id":"RJW"},{"time":5,"transit":false,"i_long":106.839204,"i_lat":-6.161728,"line":11,"is_transit":false,"distance":1901,"station_name":"Kemayoran","station_id":"KMO"},{"is_transit":false,"distance":1436,"i_lat":-6.174784,"i_long":106.84368,"line":11,"transit":false,"station_name":"Pasar Senen","station_id":"PSE","time":4},{"time":8,"line":11,"i_lat":-6.185975,"station_name":"Gang Sentiong","is_transit":false,"i_long":106.850107,"transit":false,"distance":1567,"station_id":"GST"},{"time":1,"distance":973,"station_id":"KMT","i_long":106.855437,"transit":false,"is_transit":false,"i_lat":-6.193792,"line":11,"station_name":"Kramat"},{"time":2,"station_name":"Pondok Jati","transit":false,"line":11,"distance":1829,"is_transit":false,"i_lat":-6.209188,"i_long":106.861737,"station_id":"POK"},{"time":9,"is_transit":true,"i_long":106.86807400000001,"station_name":"Jatinegara","line":1,"transit":true,"station_id":"JNG","distance":1236,"i_lat":-6.215091},{"distance":1377,"transit":false,"i_long":106.858896,"station_id":"MTR","time":2,"line":1,"is_transit":false,"station_name":"Matraman","i_lat":-6.212485},{"transit":true,"distance":1275,"i_long":106.84912,"line":2,"station_name":"Manggarai","station_id":"MRI","time":2,"i_lat":-6.209883,"is_transit":true},{"station_id":"TEB","transit":false,"i_long":106.857948,"station_name":"Tebet","is_transit":false,"line":2,"distance":2610,"i_lat":-6.226659,"time":4},{"time":2,"station_id":"CW","line":2,"distance":1230,"i_long":106.856607,"station_name":"Cawang","transit":false,"i_lat":-6.242512,"is_transit":false},{"is_transit":false,"i_lat":-6.255332,"line":2,"transit":false,"distance":1546,"i_long":106.85449,"station_id":"DRN","station_name":"Duren Kalibata","time":3},{"station_id":"PSMB","transit":false,"i_lat":-6.263214,"distance":824,"station_name":"Pasar Minggu Baru","is_transit":false,"i_long":106.851577,"line":2,"time":2},{"distance":2380,"station_name":"Pasar Minggu","i_lat":-6.2842400000000005,"i_long":106.843999,"time":2,"transit":false,"line":2,"is_transit":false,"station_id":"PSM"},{"transit":false,"is_transit":false,"distance":2820,"line":2,"i_long":106.838896,"station_id":"TNT","i_lat":-6.3080680000000005,"time":4,"station_name":"Tanjung Barat"},{"is_transit":false,"i_lat":-6.330363,"line":2,"transit":false,"distance":2671,"station_name":"Lenteng Agung","i_long":106.832616,"station_id":"LNA","time":3},{"station_id":"UP","transit":false,"distance":1029,"time":2,"station_name":"Univ. Pancasila","is_transit":false,"i_lat":-6.339291,"i_long":106.834175,"line":2},{"i_long":106.831474,"transit":false,"time":3,"station_name":"Univ. Indonesia","i_lat":-6.360749,"distance":2264,"station_id":"UI","line":2,"is_transit":false},{"is_transit":false,"line":2,"transit":false,"station_name":"Pondok Cina","distance":1109,"time":2,"station_id":"POC","i_lat":-6.369073,"i_long":106.831114},{"time":4,"station_name":"Depokbaru","station_id":"DPB","transit":false,"i_lat":-6.391065,"line":2,"is_transit":false,"i_long":106.819451,"distance":2727},{"is_transit":false,"i_lat":-6.405256,"station_id":"DP","i_long":106.816926,"distance":1584,"time":3,"transit":false,"station_name":"Depok","line":2},{"station_id":"CTA","is_transit":true,"station_name":"Citayam","i_lat":-6.448811,"line":2,"transit":true,"i_long":106.800298,"distance":5084,"time":6},{"i_long":106.824374,"i_lat":-6.460735,"is_transit":false,"line":21,"time":0,"transit":false,"station_name":"Pondok Rajeg","station_id":"PDRG","distance":0},{"distance":0,"transit":false,"station_id":"CBN","station_name":"Cibinong","i_lat":-6.46424,"line":21,"is_transit":false,"time":0,"i_long":106.851978},{"line":21,"i_lat":-6.466285,"is_transit":false,"time":10,"station_id":"NMO","distance":6527,"i_long":106.905196,"transit":false,"station_name":"Nambo"}]]}