{"data":[[{"i_long":106.66566,"time":0,"is_transit":false,"transit":false,"line":6,"station_name":"Serpong","i_lat":-6.319871,"station_id":"SRP","distance":0},{"station_id":"RU","i_lat":-6.314823,"i_long":106.675475,"station_name":"Rawa Buntu","time":4,"transit":false,"line":6,"is_transit":false,"distance":2413},{"i_lat":-6.296963,"distance":4566,"i_long":106.712277,"line":6,"transit":false,"station_id":"SDM","is_transit":false,"station_name":"Sudimara","time":6},{"transit":false,"time":4,"is_transit":false,"station_name":"Jurangmangu","distance":1994,"station_id":"JMU","i_lat":-6.288927,"i_long":106.728916,"line":6},{"line":6,"i_long":106.74273,"is_transit":false,"time":3,"station_id":"PDJ","i_lat":-6.276362,"distance":2179,"transit":false,"station_name":"Pondokranji"},{"i_lat":-6.237242,"time":8,"line":6,"i_long":106.780334,"distance":6218,"station_id":"KBY","is_transit":false,"transit":false,"station_name":"Kebayoran"},{"transit":false,"is_transit":false,"distance":3737,"line":6,"station_name":"Palmerah","station_id":"PLM","time":7,"i_long":106.79689,"i_lat":-6.207404},{"i_long":106.811091,"transit":true,"time":6,"i_lat":-6.185545,"line":1,"distance":3191,"is_transit":true,"station_name":"Tanah Abang","station_id":"THB"},{"station_name":"Karet","transit":false,"i_long":106.816351,"distance":2029,"station_id":"KAT","line":1,"time":5,"i_lat":-6.20132,"is_transit":false},{"station_name":"Sudirman Baru","is_transit":false,"i_lat":-6.201433,"distance":471,"time":1,"line":1,"transit":false,"station_id":"SUDB","i_long":106.819881},{"station_name":"Sudirman","time":1,"is_transit":false,"i_long":106.822649,"i_lat":-6.202263,"transit":false,"distance":280,"line":1,"station_id":"SUD"},{"i_lat":-6.209883,"i_long":106.84912,"station_name":"Manggarai","station_id":"MRI","line":2,"time":4,"transit":false,"distance":3186,"is_transit":false},{"station_id":"MTR","i_lat":-6.212485,"station_name":"Matraman","i_long":106.858896,"transit":false,"is_transit":false,"line":1,"time":2,"distance":1275}],[{"station_name":"Serpong","line":6,"i_lat":-6.319871,"time":0,"is_transit":false,"distance":0,"station_id":"SRP","i_long":106.66566,"transit":false},{"is_transit":false,"i_lat":-6.314823,"station_id":"RU","time":4,"i_long":106.675475,"distance":2413,"transit":false,"line":6,"station_name":"Rawa Buntu"},{"transit":false,"station_name":"Sudimara","distance":4566,"station_id":"SDM","time":6,"i_long":106.712277,"line":6,"is_transit":false,"i_lat":-6.296963},{"distance":1994,"station_id":"JMU","i_long":106.728916,"line":6,"i_lat":-6.288927,"transit":false,"is_transit":false,"station_name":"Jurangmangu","time":4},{"station_name":"Pondokranji","is_transit":false,"station_id":"PDJ","distance":2179,"i_lat":-6.276362,"time":3,"i_long":106.74273,"transit":false,"line":6},{"is_transit":false,"i_lat":-6.237242,"distance":6218,"i_long":106.780334,"line":6,"time":8,"transit":false,"station_name":"Kebayoran","station_id":"KBY"},{"i_long":106.79689,"is_transit":false,"time":7,"i_lat":-6.207404,"station_name":"Palmerah","distance":3737,"station_id":"PLM","line":6,"transit":false},{"i_lat":-6.185545,"time":6,"i_long":106.811091,"station_id":"THB","transit":true,"line":1,"distance":3191,"is_transit":true,"station_name":"Tanah Abang"},{"distance":3632,"i_long":106.800832,"line":1,"station_id":"DU","station_name":"Duri","transit":false,"time":8,"is_transit":false,"i_lat":-6.155215},{"i_long":106.79867,"is_transit":false,"line":1,"transit":false,"station_id":"AK","distance":1230,"i_lat":-6.144674,"station_name":"Angke","time":4},{"i_lat":-6.132549,"i_long":106.826365,"station_name":"Kampung Bandan","distance":4102,"station_id":"KPB","line":4,"time":9,"is_transit":true,"transit":true},{"station_name":"Rajawali","is_transit":false,"station_id":"RJW","time":3,"i_long":106.836569,"line":11,"distance":1444,"transit":false,"i_lat":-6.14505},{"i_long":106.839204,"line":11,"is_transit":false,"station_name":"Kemayoran","transit":false,"distance":1901,"station_id":"KMO","time":5,"i_lat":-6.161728},{"is_transit":false,"distance":1436,"station_id":"PSE","station_name":"Pasar Senen","i_long":106.84368,"time":4,"transit":false,"i_lat":-6.174784,"line":11},{"station_id":"GST","time":8,"i_long":106.850107,"distance":1567,"line":11,"i_lat":-6.185975,"station_name":"Gang Sentiong","is_transit":false,"transit":false},{"i_long":106.855437,"transit":false,"station_id":"KMT","time":1,"line":11,"station_name":"Kramat","is_transit":false,"distance":973,"i_lat":-6.193792},{"station_name":"Pondok Jati","i_lat":-6.209188,"distance":1829,"is_transit":false,"station_id":"POK","line":11,"transit":false,"time":2,"i_long":106.861737},{"station_name":"Jatinegara","is_transit":true,"time":9,"distance":1236,"transit":true,"i_lat":-6.215091,"i_long":106.86807400000001,"station_id":"JNG","line":1},{"transit":false,"i_lat":-6.212485,"i_long":106.858896,"time":2,"station_name":"Matraman","line":1,"station_id":"MTR","distance":1377,"is_transit":false}],[{"station_name":"Serpong","transit":false,"station_id":"SRP","is_transit":false,"i_long":106.66566,"time":0,"line":6,"distance":0,"i_lat":-6.319871},{"line":6,"time":4,"transit":false,"i_lat":-6.314823,"station_name":"Rawa Buntu","distance":2413,"is_transit":false,"i_long":106.675475,"station_id":"RU"},{"transit":false,"distance":4566,"i_lat":-6.296963,"i_long":106.712277,"is_transit":false,"station_id":"SDM","time":6,"station_name":"Sudimara","line":6},{"station_id":"JMU","line":6,"time":4,"transit":false,"i_lat":-6.288927,"distance":1994,"is_transit":false,"i_long":106.728916,"station_name":"Jurangmangu"},{"station_name":"Pondokranji","distance":2179,"is_transit":false,"transit":false,"i_lat":-6.276362,"i_long":106.74273,"time":3,"station_id":"PDJ","line":6},{"is_transit":false,"station_name":"Kebayoran","line":6,"i_long":106.780334,"transit":false,"station_id":"KBY","time":8,"i_lat":-6.237242,"distance":6218},{"i_lat":-6.207404,"distance":3737,"is_transit":false,"transit":false,"time":7,"i_long":106.79689,"station_name":"Palmerah","line":6,"station_id":"PLM"},{"is_transit":true,"i_lat":-6.185545,"distance":3191,"transit":true,"line":1,"i_long":106.811091,"station_name":"Tanah Abang","station_id":"THB","time":6},{"station_name":"Duri","station_id":"DU","distance":3632,"is_transit":false,"time":8,"transit":false,"i_long":106.800832,"i_lat":-6.155215,"line":1},{"station_name":"Angke","distance":1230,"is_transit":false,"i_lat":-6.144674,"station_id":"AK","transit":false,"line":1,"i_long":106.79867,"time":4},{"distance":4102,"station_name":"Kampung Bandan","is_transit":true,"i_long":106.826365,"line":4,"transit":true,"time":9,"i_lat":-6.132549,"station_id":"KPB"},{"line":2,"station_id":"JAKK","distance":1364,"is_transit":true,"i_lat":-6.137569,"time":3,"i_long":106.812439,"station_name":"Jakarta Kota","transit":true},{"distance":1264,"transit":false,"i_long":106.820901,"i_lat":-6.141205,"station_name":"Jayakarta","station_id":"JAY","time":4,"line":2,"is_transit":false},{"station_name":"Manggabesar","distance":1080,"is_transit":false,"transit":false,"time":2,"line":2,"i_lat":-6.149769,"station_id":"MGB","i_long":106.82482},{"station_id":"SW","distance":906,"i_lat":-6.160725,"line":2,"is_transit":false,"i_long":106.827103,"station_name":"Sawah Besar","transit":false,"time":2},{"time":2,"transit":false,"i_long":106.828284,"i_lat":-6.166716,"is_transit":false,"line":2,"distance":1149,"station_id":"JUA","station_name":"Juanda"},{"station_id":"GDD","transit":false,"i_lat":-6.186295,"i_long":106.832183,"line":2,"distance":2015,"time":4,"is_transit":false,"station_name":"Gondangdia"},{"i_long":106.840169,"time":3,"line":2,"transit":false,"i_lat":-6.198556,"station_name":"Cikini","distance":1750,"station_id":"CKI","is_transit":false},{"line":2,"time":4,"transit":true,"station_id":"MRI","distance":1590,"station_name":"Manggarai","i_long":106.84912,"is_transit":true,"i_lat":-6.209883},{"transit":false,"station_id":"MTR","i_long":106.858896,"station_name":"Matraman","is_transit":false,"i_lat":-6.212485,"line":1,"distance":1275,"time":2}],[{"distance":0,"i_long":106.66566,"transit":false,"is_transit":false,"i_lat":-6.319871,"station_name":"Serpong","line":6,"time":0,"station_id":"SRP"},{"station_id":"RU","i_long":106.675475,"is_transit":false,"line":6,"time":4,"transit":false,"station_name":"Rawa Buntu","distance":2413,"i_lat":-6.314823},{"line":6,"time":6,"station_id":"SDM","distance":4566,"transit":false,"i_lat":-6.296963,"station_name":"Sudimara","is_transit":false,"i_long":106.712277},{"station_name":"Jurangmangu","station_id":"JMU","time":4,"distance":1994,"is_transit":false,"transit":false,"i_long":106.728916,"i_lat":-6.288927,"line":6},{"station_name":"Pondokranji","is_transit":false,"i_long":106.74273,"time":3,"i_lat":-6.276362,"line":6,"transit":false,"station_id":"PDJ","distance":2179},{"station_id":"KBY","transit":false,"station_name":"Kebayoran","is_transit":false,"i_long":106.780334,"i_lat":-6.237242,"line":6,"time":8,"distance":6218},{"is_transit":false,"time":7,"i_lat":-6.207404,"station_name":"Palmerah","line":6,"transit":false,"distance":3737,"station_id":"PLM","i_long":106.79689},{"i_lat":-6.185545,"distance":3191,"station_id":"THB","station_name":"Tanah Abang","is_transit":true,"time":6,"transit":true,"i_long":106.811091,"line":1},{"station_name":"Karet","time":5,"line":1,"transit":false,"station_id":"KAT","is_transit":false,"i_lat":-6.20132,"distance":2029,"i_long":106.816351},{"station_name":"Sudirman Baru","time":1,"transit":false,"line":1,"distance":471,"i_long":106.819881,"i_lat":-6.201433,"is_transit":false,"station_id":"SUDB"},{"station_id":"SUD","is_transit":false,"line":1,"transit":false,"distance":280,"station_name":"Sudirman","i_lat":-6.202263,"time":1,"i_long":106.822649},{"i_long":106.84912,"station_id":"MRI","time":4,"station_name":"Manggarai","line":2,"is_transit":true,"i_lat":-6.209883,"transit":true,"distance":3186},{"i_long":106.840169,"time":4,"transit":false,"line":2,"station_id":"CKI","station_name":"Cikini","distance":1590,"is_transit":false,"i_lat":-6.198556},{"line":2,"distance":1750,"is_transit":false,"i_long":106.832183,"station_name":"Gondangdia","time":3,"station_id":"GDD","transit":false,"i_lat":-6.186295},{"line":2,"station_id":"JUA","i_long":106.828284,"is_transit":false,"time":4,"transit":false,"i_lat":-6.166716,"station_name":"Juanda","distance":2015},{"time":2,"transit":false,"distance":1149,"line":2,"station_id":"SW","i_long":106.827103,"station_name":"Sawah Besar","is_transit":false,"i_lat":-6.160725},{"distance":906,"station_name":"Manggabesar","station_id":"MGB","i_lat":-6.149769,"line":2,"i_long":106.82482,"time":2,"is_transit":false,"transit":false},{"i_long":106.820901,"line":2,"station_name":"Jayakarta","transit":false,"time":2,"station_id":"JAY","distance":1080,"is_transit":false,"i_lat":-6.141205},{"station_id":"JAKK","distance":1264,"i_lat":-6.137569,"i_long":106.812439,"station_name":"Jakarta Kota","time":4,"line":2,"is_transit":true,"transit":true},{"transit":true,"distance":1364,"station_name":"Kampung Bandan","is_transit":true,"i_lat":-6.132549,"line":4,"station_id":"KPB","time":3,"i_long":106.826365},{"i_lat":-6.14505,"time":3,"station_name":"Rajawali","i_long":106.836569,"transit":false,"line":11,"distance":1444,"station_id":"RJW","is_transit":false},{"distance":1901,"transit":false,"line":11,"station_name":"Kemayoran","i_lat":-6.161728,"i_long":106.839204,"station_id":"KMO","is_transit":false,"time":5},{"station_id":"PSE","i_lat":-6.174784,"i_long":106.84368,"line":11,"is_transit":false,"time":4,"distance":1436,"transit":false,"station_name":"Pasar Senen"},{"line":11,"is_transit":false,"station_id":"GST","time":8,"distance":1567,"transit":false,"i_long":106.850107,"station_name":"Gang Sentiong","i_lat":-6.185975},{"distance":973,"station_name":"Kramat","transit":false,"is_transit":false,"i_lat":-6.193792,"i_long":106.855437,"line":11,"station_id":"KMT","time":1},{"i_long":106.861737,"station_id":"POK","station_name":"Pondok Jati","time":2,"transit":false,"distance":1829,"i_lat":-6.209188,"line":11,"is_transit":false},{"line":1,"station_id":"JNG","i_lat":-6.215091,"transit":true,"distance":1236,"time":9,"station_name":"Jatinegara","i_long":106.86807400000001,"is_transit":true},{"is_transit":false,"station_id":"MTR","i_lat":-6.212485,"i_long":106.858896,"transit":false,"time":2,"distance":1377,"station_name":"Matraman","line":1}]]}