{"data":[[{"distance":0,"transit":false,"time":0,"i_lat":-6.319871,"is_transit":false,"line":6,"station_id":"SRP","station_name":"Serpong","i_long":106.66566},{"transit":false,"i_lat":-6.314823,"i_long":106.675475,"distance":2413,"station_name":"Rawa Buntu","line":6,"is_transit":false,"station_id":"RU","time":4},{"station_name":"Sudimara","time":6,"is_transit":false,"station_id":"SDM","i_lat":-6.296963,"i_long":106.712277,"distance":4566,"line":6,"transit":false},{"station_id":"JMU","i_lat":-6.288927,"time":4,"station_name":"Jurangmangu","line":6,"transit":false,"distance":1994,"i_long":106.728916,"is_transit":false},{"station_id":"PDJ","i_lat":-6.276362,"line":6,"transit":false,"i_long":106.74273,"is_transit":false,"distance":2179,"station_name":"Pondokranji","time":3},{"station_name":"Kebayoran","transit":false,"time":8,"i_lat":-6.237242,"distance":6218,"i_long":106.780334,"line":6,"is_transit":false,"station_id":"KBY"},{"transit":false,"station_id":"PLM","distance":3737,"is_transit":false,"time":7,"station_name":"Palmerah","i_lat":-6.207404,"i_long":106.79689,"line":6},{"line":1,"i_lat":-6.185545,"transit":true,"station_name":"Tanah Abang","is_transit":true,"station_id":"THB","time":6,"i_long":106.811091,"distance":3191},{"i_lat":-6.20132,"is_transit":false,"station_id":"KAT","distance":2029,"time":5,"line":1,"transit":false,"station_name":"Karet","i_long":106.816351},{"transit":false,"time":1,"station_name":"Sudirman Baru","is_transit":false,"station_id":"SUDB","distance":471,"i_lat":-6.201433,"line":1,"i_long":106.819881},{"line":1,"is_transit":false,"transit":false,"distance":280,"station_id":"SUD","station_name":"Sudirman","i_long":106.822649,"time":1,"i_lat":-6.202263},{"distance":3186,"station_name":"Manggarai","time":4,"i_lat":-6.209883,"line":0,"transit":true,"is_transit":true,"i_long":106.84912,"station_id":"MRI"},{"time":4,"i_long":106.857948,"line":2,"is_transit":false,"station_id":"TEB","i_lat":-6.226659,"transit":false,"station_name":"Tebet","distance":2610},{"station_id":"CW","line":0,"time":2,"is_transit":false,"i_lat":-6.242512,"i_long":106.856607,"station_name":"Cawang","distance":1230,"transit":false}],[{"i_lat":-6.319871,"line":6,"distance":0,"i_long":106.66566,"time":0,"station_id":"SRP","is_transit":false,"station_name":"Serpong","transit":false},{"station_id":"RU","distance":2413,"station_name":"Rawa Buntu","i_long":106.675475,"line":6,"is_transit":false,"i_lat":-6.314823,"transit":false,"time":4},{"transit":false,"distance":4566,"station_name":"Sudimara","time":6,"station_id":"SDM","i_lat":-6.296963,"i_long":106.712277,"line":6,"is_transit":false},{"i_long":106.728916,"distance":1994,"station_id":"JMU","station_name":"Jurangmangu","line":6,"i_lat":-6.288927,"is_transit":false,"transit":false,"time":4},{"transit":false,"i_long":106.74273,"line":6,"station_id":"PDJ","time":3,"distance":2179,"station_name":"Pondokranji","is_transit":false,"i_lat":-6.276362},{"i_lat":-6.237242,"is_transit":false,"line":6,"transit":false,"time":8,"i_long":106.780334,"distance":6218,"station_id":"KBY","station_name":"Kebayoran"},{"i_lat":-6.207404,"i_long":106.79689,"station_name":"Palmerah","is_transit":false,"station_id":"PLM","line":6,"transit":false,"distance":3737,"time":7},{"station_name":"Tanah Abang","time":6,"distance":3191,"is_transit":true,"transit":true,"i_lat":-6.185545,"i_long":106.811091,"station_id":"THB","line":1},{"i_long":106.800832,"line":1,"station_id":"DU","i_lat":-6.155215,"distance":3632,"is_transit":true,"transit":true,"time":8,"station_name":"Duri"},{"station_name":"Angke","i_lat":-6.144674,"station_id":"AK","distance":1230,"is_transit":false,"time":4,"line":0,"transit":false,"i_long":106.79867},{"station_id":"KPB","station_name":"Kampung Bandan","distance":4102,"i_lat":-6.132549,"i_long":106.826365,"is_transit":true,"transit":false,"line":0,"time":9},{"station_id":"JAKK","time":3,"line":0,"station_name":"Jakarta Kota","distance":1364,"i_long":106.812439,"transit":true,"i_lat":-6.137569,"is_transit":true},{"is_transit":false,"station_name":"Jayakarta","station_id":"JAY","time":4,"distance":1264,"transit":false,"i_long":106.820901,"line":7,"i_lat":-6.141205},{"line":2,"is_transit":false,"station_id":"MGB","time":2,"station_name":"Manggabesar","transit":false,"i_long":106.82482,"distance":1080,"i_lat":-6.149769},{"i_long":106.827103,"transit":false,"is_transit":false,"distance":906,"i_lat":-6.160725,"station_name":"Sawah Besar","station_id":"SW","time":2,"line":2},{"station_name":"Juanda","station_id":"JUA","i_lat":-6.166716,"transit":false,"time":2,"i_long":106.828284,"is_transit":false,"distance":1149,"line":2},{"transit":false,"i_long":106.832183,"station_id":"GDD","i_lat":-6.186295,"distance":2015,"time":4,"is_transit":false,"station_name":"Gondangdia","line":2},{"transit":false,"time":3,"distance":1750,"station_id":"CKI","line":0,"is_transit":false,"i_long":106.840169,"station_name":"Cikini","i_lat":-6.198556},{"distance":1590,"i_lat":-6.209883,"line":0,"i_long":106.84912,"is_transit":true,"station_id":"MRI","transit":true,"station_name":"Manggarai","time":4},{"distance":2610,"i_long":106.857948,"station_id":"TEB","transit":false,"time":4,"is_transit":false,"line":2,"station_name":"Tebet","i_lat":-6.226659},{"station_id":"CW","i_lat":-6.242512,"transit":false,"time":2,"i_long":106.856607,"line":0,"is_transit":false,"station_name":"Cawang","distance":1230}],[{"station_name":"Serpong","i_long":106.66566,"distance":0,"transit":false,"line":6,"time":0,"station_id":"SRP","i_lat":-6.319871,"is_transit":false},{"i_long":106.675475,"distance":2413,"transit":false,"i_lat":-6.314823,"station_name":"Rawa Buntu","time":4,"line":6,"is_transit":false,"station_id":"RU"},{"i_lat":-6.296963,"station_name":"Sudimara","is_transit":false,"i_long":106.712277,"distance":4566,"station_id":"SDM","transit":false,"time":6,"line":6},{"is_transit":false,"transit":false,"station_name":"Jurangmangu","time":4,"i_lat":-6.288927,"i_long":106.728916,"distance":1994,"line":6,"station_id":"JMU"},{"distance":2179,"transit":false,"i_lat":-6.276362,"is_transit":false,"time":3,"station_id":"PDJ","line":6,"station_name":"Pondokranji","i_long":106.74273},{"transit":false,"i_long":106.780334,"line":6,"distance":6218,"station_id":"KBY","is_transit":false,"time":8,"station_name":"Kebayoran","i_lat":-6.237242},{"i_lat":-6.207404,"line":6,"station_id":"PLM","station_name":"Palmerah","is_transit":false,"time":7,"distance":3737,"transit":false,"i_long":106.79689},{"transit":true,"i_lat":-6.185545,"i_long":106.811091,"line":1,"is_transit":true,"time":6,"station_id":"THB","distance":3191,"station_name":"Tanah Abang"},{"station_id":"DU","is_transit":true,"transit":true,"i_long":106.800832,"line":1,"distance":3632,"station_name":"Duri","time":8,"i_lat":-6.155215},{"i_lat":-6.144674,"station_name":"Angke","distance":1230,"transit":false,"line":0,"i_long":106.79867,"station_id":"AK","time":4,"is_transit":false},{"station_id":"KPB","distance":4102,"is_transit":true,"line":0,"time":9,"transit":true,"i_long":106.826365,"station_name":"Kampung Bandan","i_lat":-6.132549},{"transit":false,"station_name":"Rajawali","is_transit":false,"i_long":106.836569,"distance":1444,"i_lat":-6.14505,"line":11,"time":3,"station_id":"RJW"},{"transit":false,"distance":1901,"is_transit":false,"time":5,"i_lat":-6.161728,"station_id":"KMO","i_long":106.839204,"station_name":"Kemayoran","line":11},{"distance":1436,"transit":false,"line":11,"is_transit":false,"i_lat":-6.174784,"station_id":"PSE","time":4,"station_name":"Pasar Senen","i_long":106.84368},{"transit":false,"i_lat":-6.185975,"time":8,"i_long":106.850107,"distance":1567,"line":11,"is_transit":false,"station_name":"Gang Sentiong","station_id":"GST"},{"i_long":106.855437,"is_transit":false,"transit":false,"station_name":"Kramat","i_lat":-6.193792,"line":11,"distance":973,"station_id":"KMT","time":1},{"station_name":"Pondok Jati","is_transit":false,"station_id":"POK","line":11,"i_long":106.861737,"transit":false,"distance":1829,"time":2,"i_lat":-6.209188},{"station_name":"Jatinegara","time":9,"line":0,"i_long":106.86807400000001,"distance":1236,"station_id":"JNG","is_transit":true,"transit":true,"i_lat":-6.215091},{"station_id":"MTR","station_name":"Matraman","line":1,"is_transit":false,"distance":1377,"transit":false,"i_lat":-6.212485,"i_long":106.858896,"time":2},{"line":0,"time":2,"is_transit":true,"transit":true,"distance":1275,"station_id":"MRI","i_long":106.84912,"station_name":"Manggarai","i_lat":-6.209883},{"is_transit":false,"station_id":"TEB","station_name":"Tebet","time":4,"distance":2610,"i_lat":-6.226659,"i_long":106.857948,"line":2,"transit":false},{"line":0,"distance":1230,"i_lat":-6.242512,"station_name":"Cawang","i_long":106.856607,"transit":false,"station_id":"CW","is_transit":false,"time":2}]]}