{"data":[[{"time":0,"distance":0,"i_long":106.66566,"station_id":"SRP","i_lat":-6.319871,"line":6,"is_transit":false,"transit":false,"station_name":"Serpong"},{"is_transit":false,"station_name":"Rawa Buntu","i_long":106.675475,"distance":2413,"transit":false,"station_id":"RU","i_lat":-6.314823,"line":6,"time":4},{"transit":false,"distance":4566,"station_name":"Sudimara","i_lat":-6.296963,"i_long":106.712277,"station_id":"SDM","line":6,"time":6,"is_transit":false},{"transit":false,"distance":1994,"line":6,"station_id":"JMU","is_transit":false,"time":4,"i_lat":-6.288927,"i_long":106.728916,"station_name":"Jurangmangu"},{"distance":2179,"is_transit":false,"station_name":"Pondokranji","time":3,"transit":false,"i_lat":-6.276362,"i_long":106.74273,"station_id":"PDJ","line":6},{"station_name":"Kebayoran","line":6,"distance":6218,"station_id":"KBY","time":8,"i_lat":-6.237242,"transit":false,"is_transit":false,"i_long":106.780334},{"is_transit":false,"transit":false,"line":6,"time":7,"i_long":106.79689,"i_lat":-6.207404,"station_name":"Palmerah","distance":3737,"station_id":"PLM"}]]}