{"data":[[{"transit":false,"is_transit":false,"distance":0,"station_name":"Serpong","line":6,"time":0,"i_lat":-6.319871,"i_long":106.66566,"station_id":"SRP"},{"distance":2413,"i_long":106.675475,"transit":false,"station_name":"Rawa Buntu","i_lat":-6.314823,"station_id":"RU","is_transit":false,"time":4,"line":6},{"station_id":"SDM","station_name":"Sudimara","is_transit":false,"line":6,"distance":4566,"time":6,"i_long":106.712277,"transit":false,"i_lat":-6.296963},{"station_id":"JMU","distance":1994,"time":4,"i_lat":-6.288927,"i_long":106.728916,"line":6,"transit":false,"station_name":"Jurangmangu","is_transit":false},{"time":3,"line":6,"i_lat":-6.276362,"i_long":106.74273,"transit":false,"station_id":"PDJ","distance":2179,"station_name":"Pondokranji","is_transit":false},{"time":8,"station_id":"KBY","station_name":"Kebayoran","i_long":106.780334,"distance":6218,"i_lat":-6.237242,"is_transit":false,"line":6,"transit":false}]]}