{"data":[[{"station_id":"SRP","transit":false,"time":0,"station_name":"Serpong","is_transit":false,"i_lat":-6.319871,"i_long":106.66566,"line":6,"distance":0},{"line":6,"i_lat":-6.314823,"is_transit":false,"time":4,"transit":false,"station_id":"RU","distance":2413,"i_long":106.675475,"station_name":"Rawa Buntu"},{"station_name":"Sudimara","time":6,"transit":false,"distance":4566,"line":6,"i_lat":-6.296963,"station_id":"SDM","is_transit":false,"i_long":106.712277},{"station_id":"JMU","station_name":"Jurangmangu","i_lat":-6.288927,"time":4,"distance":1994,"transit":false,"is_transit":false,"line":6,"i_long":106.728916},{"station_id":"PDJ","i_long":106.74273,"transit":false,"distance":2179,"line":6,"time":3,"station_name":"Pondokranji","i_lat":-6.276362,"is_transit":false},{"i_lat":-6.237242,"station_id":"KBY","i_long":106.780334,"line":6,"time":8,"distance":6218,"transit":false,"is_transit":false,"station_name":"Kebayoran"},{"station_name":"Palmerah","time":7,"i_lat":-6.207404,"i_long":106.79689,"line":6,"distance":3737,"transit":false,"station_id":"PLM","is_transit":false},{"time":6,"line":1,"station_name":"Tanah Abang","is_transit":true,"station_id":"THB","distance":3191,"transit":true,"i_long":106.811091,"i_lat":-6.185545},{"is_transit":false,"distance":2029,"i_lat":-6.20132,"line":1,"i_long":106.816351,"station_id":"KAT","transit":false,"station_name":"Karet","time":5},{"i_long":106.819881,"is_transit":false,"station_id":"SUDB","time":1,"line":1,"transit":false,"distance":471,"i_lat":-6.201433,"station_name":"Sudirman Baru"},{"i_long":106.822649,"station_name":"Sudirman","time":1,"distance":280,"line":1,"transit":false,"i_lat":-6.202263,"station_id":"SUD","is_transit":false},{"is_transit":false,"distance":3186,"i_long":106.84912,"line":2,"transit":false,"station_name":"Manggarai","station_id":"MRI","i_lat":-6.209883,"time":4}],[{"i_lat":-6.319871,"station_id":"SRP","transit":false,"time":0,"is_transit":false,"line":6,"station_name":"Serpong","distance":0,"i_long":106.66566},{"i_lat":-6.314823,"transit":false,"distance":2413,"station_id":"RU","line":6,"i_long":106.675475,"station_name":"Rawa Buntu","is_transit":false,"time":4},{"i_lat":-6.296963,"i_long":106.712277,"station_name":"Sudimara","line":6,"station_id":"SDM","is_transit":false,"distance":4566,"time":6,"transit":false},{"station_name":"Jurangmangu","distance":1994,"i_lat":-6.288927,"transit":false,"i_long":106.728916,"line":6,"station_id":"JMU","is_transit":false,"time":4},{"station_id":"PDJ","is_transit":false,"time":3,"i_long":106.74273,"line":6,"i_lat":-6.276362,"station_name":"Pondokranji","transit":false,"distance":2179},{"i_long":106.780334,"transit":false,"line":6,"distance":6218,"station_name":"Kebayoran","is_transit":false,"i_lat":-6.237242,"station_id":"KBY","time":8},{"time":7,"station_id":"PLM","line":6,"station_name":"Palmerah","distance":3737,"transit":false,"is_transit":false,"i_lat":-6.207404,"i_long":106.79689},{"time":6,"transit":true,"station_name":"Tanah Abang","distance":3191,"i_lat":-6.185545,"i_long":106.811091,"is_transit":true,"line":1,"station_id":"THB"},{"transit":false,"station_id":"DU","line":1,"i_long":106.800832,"i_lat":-6.155215,"time":8,"station_name":"Duri","distance":3632,"is_transit":false},{"transit":false,"i_long":106.79867,"is_transit":false,"line":1,"station_name":"Angke","station_id":"AK","distance":1230,"time":4,"i_lat":-6.144674},{"distance":4102,"station_name":"Kampung Bandan","time":9,"i_lat":-6.132549,"line":4,"transit":true,"is_transit":true,"i_long":106.826365,"station_id":"KPB"},{"transit":true,"station_name":"Jakarta Kota","line":2,"station_id":"JAKK","is_transit":true,"i_long":106.812439,"distance":1364,"time":3,"i_lat":-6.137569},{"time":4,"distance":1264,"i_lat":-6.141205,"transit":false,"is_transit":false,"station_name":"Jayakarta","station_id":"JAY","i_long":106.820901,"line":2},{"i_long":106.82482,"station_id":"MGB","is_transit":false,"time":2,"line":2,"transit":false,"station_name":"Manggabesar","distance":1080,"i_lat":-6.149769},{"is_transit":false,"i_long":106.827103,"i_lat":-6.160725,"line":2,"transit":false,"station_id":"SW","station_name":"Sawah Besar","time":2,"distance":906},{"time":2,"is_transit":false,"line":2,"transit":false,"distance":1149,"station_id":"JUA","i_long":106.828284,"i_lat":-6.166716,"station_name":"Juanda"},{"station_name":"Gondangdia","is_transit":false,"line":2,"i_long":106.832183,"station_id":"GDD","distance":2015,"transit":false,"i_lat":-6.186295,"time":4},{"i_long":106.840169,"line":2,"transit":false,"time":3,"i_lat":-6.198556,"station_id":"CKI","is_transit":false,"station_name":"Cikini","distance":1750},{"transit":false,"station_id":"MRI","time":4,"distance":1590,"i_long":106.84912,"is_transit":false,"line":2,"i_lat":-6.209883,"station_name":"Manggarai"}],[{"transit":false,"station_name":"Serpong","time":0,"i_lat":-6.319871,"i_long":106.66566,"is_transit":false,"line":6,"station_id":"SRP","distance":0},{"i_lat":-6.314823,"transit":false,"i_long":106.675475,"is_transit":false,"station_id":"RU","station_name":"Rawa Buntu","time":4,"line":6,"distance":2413},{"line":6,"transit":false,"station_name":"Sudimara","is_transit":false,"i_lat":-6.296963,"station_id":"SDM","time":6,"distance":4566,"i_long":106.712277},{"i_lat":-6.288927,"distance":1994,"is_transit":false,"i_long":106.728916,"transit":false,"time":4,"station_id":"JMU","station_name":"Jurangmangu","line":6},{"time":3,"distance":2179,"i_lat":-6.276362,"i_long":106.74273,"is_transit":false,"station_name":"Pondokranji","line":6,"transit":false,"station_id":"PDJ"},{"station_id":"KBY","i_lat":-6.237242,"distance":6218,"is_transit":false,"transit":false,"line":6,"i_long":106.780334,"station_name":"Kebayoran","time":8},{"transit":false,"line":6,"time":7,"distance":3737,"i_lat":-6.207404,"i_long":106.79689,"station_name":"Palmerah","station_id":"PLM","is_transit":false},{"distance":3191,"time":6,"station_name":"Tanah Abang","station_id":"THB","i_long":106.811091,"line":1,"is_transit":true,"transit":true,"i_lat":-6.185545},{"line":1,"distance":3632,"time":8,"i_lat":-6.155215,"transit":false,"station_name":"Duri","is_transit":false,"i_long":106.800832,"station_id":"DU"},{"station_id":"AK","time":4,"i_long":106.79867,"transit":false,"distance":1230,"i_lat":-6.144674,"is_transit":false,"line":1,"station_name":"Angke"},{"time":9,"distance":4102,"i_lat":-6.132549,"line":4,"transit":true,"station_name":"Kampung Bandan","station_id":"KPB","i_long":106.826365,"is_transit":true},{"station_name":"Rajawali","station_id":"RJW","time":3,"i_lat":-6.14505,"i_long":106.836569,"transit":false,"line":11,"distance":1444,"is_transit":false},{"station_id":"KMO","transit":false,"is_transit":false,"time":5,"i_long":106.839204,"i_lat":-6.161728,"station_name":"Kemayoran","line":11,"distance":1901},{"station_name":"Pasar Senen","i_lat":-6.174784,"i_long":106.84368,"transit":false,"line":11,"time":4,"is_transit":false,"station_id":"PSE","distance":1436},{"i_lat":-6.185975,"station_name":"Gang Sentiong","distance":1567,"is_transit":false,"i_long":106.850107,"line":11,"transit":false,"station_id":"GST","time":8},{"station_id":"KMT","time":1,"distance":973,"i_lat":-6.193792,"line":11,"station_name":"Kramat","i_long":106.855437,"is_transit":false,"transit":false},{"station_name":"Pondok Jati","station_id":"POK","time":2,"i_lat":-6.209188,"i_long":106.861737,"line":11,"distance":1829,"transit":false,"is_transit":false},{"is_transit":true,"i_long":106.86807400000001,"station_id":"JNG","time":9,"distance":1236,"i_lat":-6.215091,"line":1,"transit":true,"station_name":"Jatinegara"},{"distance":1377,"i_lat":-6.212485,"transit":false,"line":1,"is_transit":false,"time":2,"i_long":106.858896,"station_name":"Matraman","station_id":"MTR"},{"time":2,"is_transit":false,"line":2,"i_lat":-6.209883,"i_long":106.84912,"station_id":"MRI","station_name":"Manggarai","transit":false,"distance":1275}]]}