{"data":[[{"line":6,"transit":false,"time":0,"distance":0,"station_name":"Serpong","is_transit":false,"i_lat":-6.319871,"i_long":106.66566,"station_id":"SRP"},{"station_id":"RU","i_lat":-6.314823,"station_name":"Rawa Buntu","i_long":106.675475,"transit":false,"line":6,"is_transit":false,"time":4,"distance":2413},{"station_id":"SDM","time":6,"line":6,"i_lat":-6.296963,"distance":4566,"i_long":106.712277,"transit":false,"station_name":"Sudimara","is_transit":false},{"transit":false,"station_name":"Jurangmangu","distance":1994,"is_transit":false,"i_lat":-6.288927,"i_long":106.728916,"time":4,"station_id":"JMU","line":6},{"line":6,"i_lat":-6.276362,"i_long":106.74273,"is_transit":false,"station_name":"Pondokranji","station_id":"PDJ","distance":2179,"time":3,"transit":false},{"i_lat":-6.237242,"i_long":106.780334,"is_transit":false,"station_name":"Kebayoran","transit":false,"time":8,"station_id":"KBY","distance":6218,"line":6},{"transit":false,"station_name":"Palmerah","is_transit":false,"i_long":106.79689,"station_id":"PLM","time":7,"i_lat":-6.207404,"line":6,"distance":3737},{"station_name":"Tanah Abang","line":1,"i_lat":-6.185545,"distance":3191,"time":6,"transit":true,"i_long":106.811091,"station_id":"THB","is_transit":true},{"station_name":"Duri","station_id":"DU","line":1,"is_transit":false,"i_lat":-6.155215,"time":8,"transit":false,"i_long":106.800832,"distance":3632},{"distance":1230,"line":1,"transit":false,"station_id":"AK","time":4,"is_transit":false,"i_lat":-6.144674,"station_name":"Angke","i_long":106.79867},{"time":9,"line":4,"is_transit":true,"distance":4102,"i_lat":-6.132549,"i_long":106.826365,"station_name":"Kampung Bandan","transit":true,"station_id":"KPB"},{"transit":false,"distance":1364,"i_lat":-6.137569,"line":2,"i_long":106.812439,"is_transit":false,"station_id":"JAKK","station_name":"Jakarta Kota","time":3}],[{"station_id":"SRP","transit":false,"distance":0,"i_lat":-6.319871,"line":6,"i_long":106.66566,"station_name":"Serpong","time":0,"is_transit":false},{"station_name":"Rawa Buntu","time":4,"i_lat":-6.314823,"i_long":106.675475,"distance":2413,"is_transit":false,"station_id":"RU","line":6,"transit":false},{"i_lat":-6.296963,"transit":false,"station_name":"Sudimara","is_transit":false,"distance":4566,"station_id":"SDM","i_long":106.712277,"line":6,"time":6},{"time":4,"transit":false,"is_transit":false,"station_name":"Jurangmangu","distance":1994,"i_long":106.728916,"i_lat":-6.288927,"line":6,"station_id":"JMU"},{"i_lat":-6.276362,"time":3,"station_id":"PDJ","i_long":106.74273,"transit":false,"distance":2179,"is_transit":false,"line":6,"station_name":"Pondokranji"},{"i_long":106.780334,"line":6,"i_lat":-6.237242,"station_id":"KBY","is_transit":false,"station_name":"Kebayoran","distance":6218,"transit":false,"time":8},{"station_id":"PLM","transit":false,"line":6,"distance":3737,"station_name":"Palmerah","time":7,"is_transit":false,"i_long":106.79689,"i_lat":-6.207404},{"transit":true,"i_long":106.811091,"i_lat":-6.185545,"is_transit":true,"station_id":"THB","distance":3191,"line":1,"station_name":"Tanah Abang","time":6},{"distance":2029,"station_id":"KAT","transit":false,"is_transit":false,"time":5,"i_lat":-6.20132,"i_long":106.816351,"station_name":"Karet","line":1},{"station_name":"Sudirman Baru","distance":471,"i_lat":-6.201433,"i_long":106.819881,"line":1,"time":1,"transit":false,"station_id":"SUDB","is_transit":false},{"station_name":"Sudirman","station_id":"SUD","time":1,"distance":280,"line":1,"i_long":106.822649,"i_lat":-6.202263,"transit":false,"is_transit":false},{"distance":3186,"i_lat":-6.209883,"line":2,"i_long":106.84912,"station_id":"MRI","station_name":"Manggarai","is_transit":true,"transit":true,"time":4},{"transit":false,"station_id":"CKI","station_name":"Cikini","distance":1590,"is_transit":false,"i_lat":-6.198556,"i_long":106.840169,"time":4,"line":2},{"line":2,"transit":false,"i_long":106.832183,"i_lat":-6.186295,"distance":1750,"time":3,"station_id":"GDD","is_transit":false,"station_name":"Gondangdia"},{"is_transit":false,"transit":false,"station_id":"JUA","i_lat":-6.166716,"station_name":"Juanda","i_long":106.828284,"line":2,"time":4,"distance":2015},{"time":2,"station_id":"SW","station_name":"Sawah Besar","i_long":106.827103,"i_lat":-6.160725,"is_transit":false,"line":2,"transit":false,"distance":1149},{"transit":false,"i_long":106.82482,"station_name":"Manggabesar","station_id":"MGB","is_transit":false,"time":2,"distance":906,"i_lat":-6.149769,"line":2},{"is_transit":false,"station_name":"Jayakarta","distance":1080,"station_id":"JAY","i_long":106.820901,"transit":false,"line":2,"time":2,"i_lat":-6.141205},{"distance":1264,"station_id":"JAKK","station_name":"Jakarta Kota","line":2,"time":4,"i_long":106.812439,"i_lat":-6.137569,"transit":false,"is_transit":false}],[{"i_lat":-6.319871,"distance":0,"station_name":"Serpong","transit":false,"is_transit":false,"time":0,"i_long":106.66566,"station_id":"SRP","line":6},{"transit":false,"i_lat":-6.314823,"distance":2413,"time":4,"line":6,"is_transit":false,"station_name":"Rawa Buntu","station_id":"RU","i_long":106.675475},{"station_name":"Sudimara","transit":false,"line":6,"station_id":"SDM","distance":4566,"i_lat":-6.296963,"is_transit":false,"time":6,"i_long":106.712277},{"is_transit":false,"i_lat":-6.288927,"line":6,"time":4,"transit":false,"i_long":106.728916,"distance":1994,"station_id":"JMU","station_name":"Jurangmangu"},{"distance":2179,"station_name":"Pondokranji","station_id":"PDJ","transit":false,"is_transit":false,"i_lat":-6.276362,"i_long":106.74273,"line":6,"time":3},{"transit":false,"distance":6218,"i_lat":-6.237242,"station_name":"Kebayoran","is_transit":false,"station_id":"KBY","time":8,"line":6,"i_long":106.780334},{"is_transit":false,"line":6,"i_lat":-6.207404,"transit":false,"distance":3737,"station_name":"Palmerah","i_long":106.79689,"time":7,"station_id":"PLM"},{"station_name":"Tanah Abang","transit":true,"distance":3191,"i_lat":-6.185545,"time":6,"station_id":"THB","i_long":106.811091,"is_transit":true,"line":1},{"i_lat":-6.20132,"time":5,"station_id":"KAT","i_long":106.816351,"transit":false,"station_name":"Karet","distance":2029,"line":1,"is_transit":false},{"is_transit":false,"distance":471,"i_lat":-6.201433,"station_id":"SUDB","station_name":"Sudirman Baru","line":1,"time":1,"i_long":106.819881,"transit":false},{"distance":280,"station_name":"Sudirman","line":1,"station_id":"SUD","is_transit":false,"transit":false,"time":1,"i_lat":-6.202263,"i_long":106.822649},{"transit":false,"i_lat":-6.209883,"i_long":106.84912,"distance":3186,"station_id":"MRI","is_transit":false,"line":2,"time":4,"station_name":"Manggarai"},{"transit":false,"distance":1275,"i_lat":-6.212485,"station_id":"MTR","i_long":106.858896,"is_transit":false,"line":1,"time":2,"station_name":"Matraman"},{"time":8,"transit":true,"line":1,"i_long":106.86807400000001,"distance":1377,"is_transit":true,"station_id":"JNG","i_lat":-6.215091,"station_name":"Jatinegara"},{"distance":1236,"line":11,"i_lat":-6.209188,"is_transit":false,"time":2,"transit":false,"station_id":"POK","station_name":"Pondok Jati","i_long":106.861737},{"transit":false,"i_lat":-6.193792,"station_name":"Kramat","distance":1829,"i_long":106.855437,"is_transit":false,"station_id":"KMT","line":11,"time":2},{"distance":973,"i_long":106.850107,"transit":false,"station_id":"GST","line":11,"time":1,"station_name":"Gang Sentiong","i_lat":-6.185975,"is_transit":false},{"is_transit":false,"station_id":"PSE","time":8,"i_long":106.84368,"line":11,"station_name":"Pasar Senen","transit":false,"distance":1567,"i_lat":-6.174784},{"line":11,"transit":false,"is_transit":false,"station_name":"Kemayoran","i_long":106.839204,"i_lat":-6.161728,"station_id":"KMO","distance":1436,"time":4},{"transit":false,"distance":1901,"time":5,"station_name":"Rajawali","i_lat":-6.14505,"is_transit":false,"i_long":106.836569,"station_id":"RJW","line":11},{"distance":1444,"time":3,"line":4,"is_transit":true,"station_id":"KPB","station_name":"Kampung Bandan","i_lat":-6.132549,"i_long":106.826365,"transit":true},{"transit":false,"time":3,"i_lat":-6.137569,"line":2,"i_long":106.812439,"distance":1364,"is_transit":false,"station_name":"Jakarta Kota","station_id":"JAKK"}],[{"station_id":"SRP","is_transit":false,"station_name":"Serpong","i_long":106.66566,"time":0,"transit":false,"distance":0,"line":6,"i_lat":-6.319871},{"line":6,"distance":2413,"station_id":"RU","i_long":106.675475,"i_lat":-6.314823,"is_transit":false,"time":4,"transit":false,"station_name":"Rawa Buntu"},{"i_lat":-6.296963,"transit":false,"i_long":106.712277,"distance":4566,"line":6,"station_name":"Sudimara","time":6,"is_transit":false,"station_id":"SDM"},{"station_name":"Jurangmangu","distance":1994,"i_lat":-6.288927,"transit":false,"is_transit":false,"station_id":"JMU","i_long":106.728916,"time":4,"line":6},{"i_lat":-6.276362,"station_id":"PDJ","line":6,"transit":false,"is_transit":false,"i_long":106.74273,"time":3,"station_name":"Pondokranji","distance":2179},{"i_lat":-6.237242,"i_long":106.780334,"transit":false,"distance":6218,"station_id":"KBY","is_transit":false,"station_name":"Kebayoran","line":6,"time":8},{"i_long":106.79689,"distance":3737,"time":7,"transit":false,"is_transit":false,"station_name":"Palmerah","station_id":"PLM","i_lat":-6.207404,"line":6},{"transit":true,"distance":3191,"station_name":"Tanah Abang","station_id":"THB","is_transit":true,"line":1,"i_long":106.811091,"time":6,"i_lat":-6.185545},{"is_transit":false,"i_lat":-6.155215,"i_long":106.800832,"station_name":"Duri","station_id":"DU","time":8,"transit":false,"distance":3632,"line":1},{"station_name":"Angke","line":1,"time":4,"distance":1230,"is_transit":false,"station_id":"AK","i_long":106.79867,"i_lat":-6.144674,"transit":false},{"distance":4102,"i_long":106.826365,"line":4,"i_lat":-6.132549,"is_transit":true,"time":9,"station_id":"KPB","transit":true,"station_name":"Kampung Bandan"},{"station_name":"Rajawali","is_transit":false,"line":11,"time":3,"transit":false,"station_id":"RJW","i_lat":-6.14505,"distance":1444,"i_long":106.836569},{"distance":1901,"time":5,"station_name":"Kemayoran","transit":false,"i_lat":-6.161728,"station_id":"KMO","is_transit":false,"i_long":106.839204,"line":11},{"i_lat":-6.174784,"station_id":"PSE","line":11,"transit":false,"is_transit":false,"station_name":"Pasar Senen","i_long":106.84368,"distance":1436,"time":4},{"transit":false,"station_name":"Gang Sentiong","station_id":"GST","i_long":106.850107,"is_transit":false,"distance":1567,"time":8,"i_lat":-6.185975,"line":11},{"i_long":106.855437,"station_name":"Kramat","line":11,"transit":false,"distance":973,"time":1,"is_transit":false,"station_id":"KMT","i_lat":-6.193792},{"distance":1829,"station_id":"POK","transit":false,"is_transit":false,"station_name":"Pondok Jati","i_long":106.861737,"i_lat":-6.209188,"line":11,"time":2},{"is_transit":true,"i_lat":-6.215091,"station_id":"JNG","station_name":"Jatinegara","distance":1236,"i_long":106.86807400000001,"transit":true,"line":1,"time":9},{"time":2,"transit":false,"i_long":106.858896,"station_id":"MTR","is_transit":false,"distance":1377,"station_name":"Matraman","i_lat":-6.212485,"line":1},{"time":2,"i_lat":-6.209883,"line":2,"i_long":106.84912,"transit":true,"is_transit":true,"station_name":"Manggarai","distance":1275,"station_id":"MRI"},{"time":4,"i_lat":-6.198556,"line":2,"i_long":106.840169,"transit":false,"is_transit":false,"distance":1590,"station_id":"CKI","station_name":"Cikini"},{"is_transit":false,"i_lat":-6.186295,"station_id":"GDD","station_name":"Gondangdia","line":2,"distance":1750,"transit":false,"time":3,"i_long":106.832183},{"i_long":106.828284,"is_transit":false,"station_id":"JUA","transit":false,"line":2,"time":4,"i_lat":-6.166716,"station_name":"Juanda","distance":2015},{"transit":false,"distance":1149,"station_id":"SW","station_name":"Sawah Besar","i_long":106.827103,"is_transit":false,"time":2,"i_lat":-6.160725,"line":2},{"time":2,"station_name":"Manggabesar","transit":false,"is_transit":false,"i_long":106.82482,"line":2,"station_id":"MGB","distance":906,"i_lat":-6.149769},{"is_transit":false,"i_long":106.820901,"transit":false,"station_name":"Jayakarta","time":2,"line":2,"distance":1080,"station_id":"JAY","i_lat":-6.141205},{"i_lat":-6.137569,"transit":false,"is_transit":false,"station_name":"Jakarta Kota","station_id":"JAKK","distance":1264,"i_long":106.812439,"line":2,"time":4}]]}