{"data":[[{"time":0,"station_name":"Serpong","station_id":"SRP","i_long":106.66566,"line":6,"is_transit":false,"i_lat":-6.319871,"transit":false,"distance":0},{"time":4,"distance":2413,"line":6,"station_id":"RU","transit":false,"station_name":"Rawa Buntu","is_transit":false,"i_long":106.675475,"i_lat":-6.314823},{"i_lat":-6.296963,"i_long":106.712277,"line":6,"station_name":"Sudimara","station_id":"SDM","time":6,"transit":false,"is_transit":false,"distance":4566},{"distance":1994,"line":6,"station_id":"JMU","i_long":106.728916,"time":4,"transit":false,"i_lat":-6.288927,"station_name":"Jurangmangu","is_transit":false},{"transit":false,"time":3,"i_lat":-6.276362,"i_long":106.74273,"station_id":"PDJ","station_name":"Pondokranji","distance":2179,"line":6,"is_transit":false},{"distance":6218,"line":6,"is_transit":false,"i_lat":-6.237242,"station_name":"Kebayoran","transit":false,"station_id":"KBY","time":8,"i_long":106.780334},{"time":7,"distance":3737,"station_name":"Palmerah","transit":false,"is_transit":false,"i_lat":-6.207404,"i_long":106.79689,"line":6,"station_id":"PLM"},{"is_transit":true,"i_long":106.811091,"i_lat":-6.185545,"line":1,"distance":3191,"transit":true,"station_id":"THB","time":6,"station_name":"Tanah Abang"},{"time":5,"line":1,"is_transit":false,"transit":false,"i_long":106.816351,"station_id":"KAT","distance":2029,"i_lat":-6.20132,"station_name":"Karet"},{"transit":false,"is_transit":false,"distance":471,"i_long":106.819881,"i_lat":-6.201433,"line":1,"time":1,"station_id":"SUDB","station_name":"Sudirman Baru"},{"transit":false,"i_long":106.822649,"i_lat":-6.202263,"station_name":"Sudirman","is_transit":false,"time":1,"distance":280,"line":1,"station_id":"SUD"},{"is_transit":false,"i_long":106.84912,"time":4,"line":2,"i_lat":-6.209883,"station_id":"MRI","transit":false,"station_name":"Manggarai","distance":3186},{"distance":1275,"i_long":106.858896,"line":1,"is_transit":false,"time":2,"station_name":"Matraman","transit":false,"station_id":"MTR","i_lat":-6.212485}],[{"time":0,"is_transit":false,"i_lat":-6.319871,"transit":false,"station_name":"Serpong","distance":0,"station_id":"SRP","line":6,"i_long":106.66566},{"station_id":"RU","i_lat":-6.314823,"station_name":"Rawa Buntu","time":4,"transit":false,"distance":2413,"i_long":106.675475,"line":6,"is_transit":false},{"i_lat":-6.296963,"distance":4566,"line":6,"i_long":106.712277,"station_id":"SDM","time":6,"transit":false,"is_transit":false,"station_name":"Sudimara"},{"transit":false,"station_name":"Jurangmangu","distance":1994,"i_long":106.728916,"time":4,"i_lat":-6.288927,"station_id":"JMU","is_transit":false,"line":6},{"distance":2179,"line":6,"is_transit":false,"i_long":106.74273,"station_id":"PDJ","station_name":"Pondokranji","transit":false,"i_lat":-6.276362,"time":3},{"time":8,"i_long":106.780334,"distance":6218,"is_transit":false,"line":6,"station_id":"KBY","i_lat":-6.237242,"transit":false,"station_name":"Kebayoran"},{"time":7,"distance":3737,"i_lat":-6.207404,"line":6,"station_name":"Palmerah","i_long":106.79689,"transit":false,"is_transit":false,"station_id":"PLM"},{"i_lat":-6.185545,"station_name":"Tanah Abang","line":1,"station_id":"THB","transit":true,"distance":3191,"i_long":106.811091,"time":6,"is_transit":true},{"distance":3632,"time":8,"station_name":"Duri","station_id":"DU","transit":false,"is_transit":false,"i_long":106.800832,"i_lat":-6.155215,"line":1},{"station_id":"AK","is_transit":false,"station_name":"Angke","transit":false,"i_lat":-6.144674,"line":1,"time":4,"i_long":106.79867,"distance":1230},{"distance":4102,"line":4,"station_name":"Kampung Bandan","transit":true,"station_id":"KPB","i_long":106.826365,"time":9,"i_lat":-6.132549,"is_transit":true},{"line":11,"is_transit":false,"transit":false,"station_name":"Rajawali","station_id":"RJW","distance":1444,"i_long":106.836569,"i_lat":-6.14505,"time":3},{"distance":1901,"time":5,"station_id":"KMO","station_name":"Kemayoran","transit":false,"is_transit":false,"i_long":106.839204,"line":11,"i_lat":-6.161728},{"station_name":"Pasar Senen","station_id":"PSE","i_lat":-6.174784,"is_transit":false,"distance":1436,"i_long":106.84368,"transit":false,"time":4,"line":11},{"i_lat":-6.185975,"transit":false,"station_name":"Gang Sentiong","station_id":"GST","time":8,"distance":1567,"line":11,"is_transit":false,"i_long":106.850107},{"station_name":"Kramat","line":11,"distance":973,"station_id":"KMT","i_lat":-6.193792,"is_transit":false,"i_long":106.855437,"time":1,"transit":false},{"line":11,"station_name":"Pondok Jati","is_transit":false,"distance":1829,"i_lat":-6.209188,"station_id":"POK","time":2,"transit":false,"i_long":106.861737},{"is_transit":true,"line":1,"station_name":"Jatinegara","station_id":"JNG","i_long":106.86807400000001,"transit":true,"i_lat":-6.215091,"time":9,"distance":1236},{"transit":false,"station_name":"Matraman","i_long":106.858896,"i_lat":-6.212485,"distance":1377,"time":2,"station_id":"MTR","line":1,"is_transit":false}],[{"station_id":"SRP","station_name":"Serpong","time":0,"line":6,"is_transit":false,"transit":false,"i_lat":-6.319871,"i_long":106.66566,"distance":0},{"time":4,"transit":false,"station_name":"Rawa Buntu","station_id":"RU","i_long":106.675475,"line":6,"is_transit":false,"distance":2413,"i_lat":-6.314823},{"distance":4566,"is_transit":false,"station_name":"Sudimara","time":6,"i_lat":-6.296963,"i_long":106.712277,"station_id":"SDM","line":6,"transit":false},{"station_id":"JMU","i_long":106.728916,"time":4,"station_name":"Jurangmangu","i_lat":-6.288927,"is_transit":false,"line":6,"distance":1994,"transit":false},{"line":6,"is_transit":false,"i_lat":-6.276362,"station_id":"PDJ","distance":2179,"transit":false,"station_name":"Pondokranji","time":3,"i_long":106.74273},{"i_lat":-6.237242,"station_id":"KBY","time":8,"distance":6218,"station_name":"Kebayoran","i_long":106.780334,"is_transit":false,"line":6,"transit":false},{"time":7,"station_name":"Palmerah","transit":false,"line":6,"i_long":106.79689,"distance":3737,"i_lat":-6.207404,"is_transit":false,"station_id":"PLM"},{"distance":3191,"is_transit":true,"line":1,"i_long":106.811091,"transit":true,"station_name":"Tanah Abang","station_id":"THB","time":6,"i_lat":-6.185545},{"station_name":"Duri","i_lat":-6.155215,"i_long":106.800832,"time":8,"is_transit":false,"distance":3632,"transit":false,"line":1,"station_id":"DU"},{"is_transit":false,"time":4,"station_name":"Angke","i_long":106.79867,"line":1,"distance":1230,"transit":false,"station_id":"AK","i_lat":-6.144674},{"is_transit":true,"i_lat":-6.132549,"distance":4102,"station_name":"Kampung Bandan","line":4,"i_long":106.826365,"time":9,"transit":true,"station_id":"KPB"},{"transit":true,"i_long":106.812439,"line":2,"i_lat":-6.137569,"station_name":"Jakarta Kota","time":3,"distance":1364,"station_id":"JAKK","is_transit":true},{"transit":false,"i_long":106.820901,"line":2,"distance":1264,"is_transit":false,"time":4,"station_name":"Jayakarta","station_id":"JAY","i_lat":-6.141205},{"station_name":"Manggabesar","transit":false,"time":2,"i_long":106.82482,"distance":1080,"i_lat":-6.149769,"is_transit":false,"station_id":"MGB","line":2},{"i_long":106.827103,"time":2,"distance":906,"station_name":"Sawah Besar","is_transit":false,"i_lat":-6.160725,"line":2,"station_id":"SW","transit":false},{"station_name":"Juanda","time":2,"station_id":"JUA","transit":false,"i_long":106.828284,"i_lat":-6.166716,"line":2,"is_transit":false,"distance":1149},{"transit":false,"line":2,"i_long":106.832183,"is_transit":false,"station_name":"Gondangdia","time":4,"distance":2015,"i_lat":-6.186295,"station_id":"GDD"},{"distance":1750,"station_name":"Cikini","station_id":"CKI","line":2,"is_transit":false,"transit":false,"i_lat":-6.198556,"time":3,"i_long":106.840169},{"time":4,"line":2,"station_id":"MRI","i_long":106.84912,"i_lat":-6.209883,"transit":true,"station_name":"Manggarai","is_transit":true,"distance":1590},{"station_name":"Matraman","line":1,"station_id":"MTR","is_transit":false,"transit":false,"i_long":106.858896,"time":2,"distance":1275,"i_lat":-6.212485}],[{"distance":0,"transit":false,"time":0,"station_id":"SRP","i_lat":-6.319871,"is_transit":false,"i_long":106.66566,"station_name":"Serpong","line":6},{"station_id":"RU","time":4,"is_transit":false,"station_name":"Rawa Buntu","i_long":106.675475,"transit":false,"line":6,"i_lat":-6.314823,"distance":2413},{"time":6,"line":6,"i_lat":-6.296963,"i_long":106.712277,"station_id":"SDM","distance":4566,"transit":false,"is_transit":false,"station_name":"Sudimara"},{"i_lat":-6.288927,"station_id":"JMU","line":6,"i_long":106.728916,"time":4,"transit":false,"is_transit":false,"station_name":"Jurangmangu","distance":1994},{"station_id":"PDJ","i_lat":-6.276362,"time":3,"transit":false,"i_long":106.74273,"is_transit":false,"distance":2179,"station_name":"Pondokranji","line":6},{"transit":false,"station_id":"KBY","is_transit":false,"distance":6218,"line":6,"station_name":"Kebayoran","i_lat":-6.237242,"i_long":106.780334,"time":8},{"line":6,"is_transit":false,"distance":3737,"station_name":"Palmerah","i_long":106.79689,"time":7,"i_lat":-6.207404,"transit":false,"station_id":"PLM"},{"line":1,"station_id":"THB","is_transit":true,"transit":true,"distance":3191,"i_lat":-6.185545,"i_long":106.811091,"time":6,"station_name":"Tanah Abang"},{"distance":2029,"station_name":"Karet","transit":false,"station_id":"KAT","i_lat":-6.20132,"line":1,"time":5,"i_long":106.816351,"is_transit":false},{"station_name":"Sudirman Baru","i_lat":-6.201433,"time":1,"i_long":106.819881,"distance":471,"is_transit":false,"transit":false,"station_id":"SUDB","line":1},{"time":1,"line":1,"is_transit":false,"distance":280,"i_long":106.822649,"i_lat":-6.202263,"transit":false,"station_id":"SUD","station_name":"Sudirman"},{"time":4,"distance":3186,"station_id":"MRI","is_transit":true,"i_long":106.84912,"i_lat":-6.209883,"station_name":"Manggarai","line":2,"transit":true},{"time":4,"distance":1590,"station_id":"CKI","transit":false,"i_lat":-6.198556,"is_transit":false,"station_name":"Cikini","i_long":106.840169,"line":2},{"distance":1750,"transit":false,"station_id":"GDD","line":2,"station_name":"Gondangdia","time":3,"is_transit":false,"i_lat":-6.186295,"i_long":106.832183},{"is_transit":false,"station_id":"JUA","line":2,"station_name":"Juanda","i_lat":-6.166716,"i_long":106.828284,"distance":2015,"transit":false,"time":4},{"time":2,"transit":false,"is_transit":false,"distance":1149,"station_id":"SW","i_lat":-6.160725,"i_long":106.827103,"station_name":"Sawah Besar","line":2},{"station_id":"MGB","transit":false,"station_name":"Manggabesar","time":2,"is_transit":false,"line":2,"i_long":106.82482,"i_lat":-6.149769,"distance":906},{"transit":false,"distance":1080,"line":2,"i_lat":-6.141205,"time":2,"is_transit":false,"station_name":"Jayakarta","i_long":106.820901,"station_id":"JAY"},{"distance":1264,"line":2,"is_transit":true,"station_name":"Jakarta Kota","time":4,"transit":true,"i_lat":-6.137569,"i_long":106.812439,"station_id":"JAKK"},{"station_id":"KPB","transit":true,"line":4,"is_transit":true,"i_lat":-6.132549,"time":3,"distance":1364,"station_name":"Kampung Bandan","i_long":106.826365},{"station_name":"Rajawali","time":3,"transit":false,"i_long":106.836569,"station_id":"RJW","i_lat":-6.14505,"is_transit":false,"line":11,"distance":1444},{"station_id":"KMO","station_name":"Kemayoran","transit":false,"line":11,"is_transit":false,"i_long":106.839204,"distance":1901,"i_lat":-6.161728,"time":5},{"station_id":"PSE","i_lat":-6.174784,"is_transit":false,"distance":1436,"transit":false,"station_name":"Pasar Senen","i_long":106.84368,"time":4,"line":11},{"distance":1567,"is_transit":false,"line":11,"station_name":"Gang Sentiong","station_id":"GST","i_lat":-6.185975,"i_long":106.850107,"transit":false,"time":8},{"station_name":"Kramat","station_id":"KMT","i_long":106.855437,"distance":973,"line":11,"transit":false,"i_lat":-6.193792,"is_transit":false,"time":1},{"i_lat":-6.209188,"line":11,"is_transit":false,"i_long":106.861737,"station_name":"Pondok Jati","distance":1829,"time":2,"station_id":"POK","transit":false},{"transit":true,"is_transit":true,"time":9,"i_long":106.86807400000001,"station_name":"Jatinegara","i_lat":-6.215091,"distance":1236,"line":1,"station_id":"JNG"},{"transit":false,"distance":1377,"is_transit":false,"i_long":106.858896,"station_name":"Matraman","station_id":"MTR","i_lat":-6.212485,"time":2,"line":1}]]}