{"data":[[{"is_transit":false,"station_name":"Serpong","transit":false,"time":0,"distance":0,"station_id":"SRP","i_lat":-6.319871,"line":6,"i_long":106.66566},{"station_id":"CSK","station_name":"Cisauk","line":3,"distance":1784,"is_transit":false,"i_lat":-6.32484,"time":4,"i_long":106.640411,"transit":false},{"i_long":106.617853,"distance":2519,"station_name":"Cicayur","transit":false,"is_transit":false,"station_id":"CC","line":3,"i_lat":-6.329547,"time":4},{"line":6,"station_id":"PRP","station_name":"Parung Panjang","distance":5968,"i_lat":-6.3441410000000005,"time":8,"is_transit":false,"i_long":106.568863,"transit":false},{"distance":7025,"is_transit":false,"line":3,"time":9,"transit":false,"station_name":"Cilejit","i_long":106.508482,"i_lat":-6.354349,"station_id":"CJT"},{"line":0,"station_id":"DAR","transit":false,"is_transit":false,"station_name":"Daru","i_long":106.491338,"distance":2675,"time":6,"i_lat":-6.338021},{"transit":false,"distance":3902,"i_long":106.460812,"station_id":"TEJ","is_transit":false,"time":5,"station_name":"Tenjo","line":6,"i_lat":-6.327251},{"time":5,"is_transit":false,"distance":2974,"station_id":"TGS","line":6,"i_lat":-6.328533,"transit":false,"station_name":"Tigaraksa","i_long":106.425991},{"time":3,"line":3,"station_id":"CKY","distance":2651,"transit":false,"is_transit":false,"station_name":"Cikoya","i_lat":-6.33561,"i_long":106.411216},{"is_transit":false,"i_long":106.394373,"time":4,"station_id":"MJ","i_lat":-6.332307,"line":6,"station_name":"Maja","distance":1853,"transit":false},{"distance":7293,"time":10,"station_name":"Citeras","i_lat":-6.334892,"station_id":"CTR","line":3,"i_long":106.332092,"transit":false,"is_transit":false},{"distance":9847,"time":13,"is_transit":false,"line":3,"transit":false,"station_id":"RK","i_lat":-6.352675,"station_name":"Rangkasbitung","i_long":106.250396}]]}