{"data":[[{"transit":false,"i_lat":-6.319871,"distance":0,"time":0,"line":6,"is_transit":false,"station_name":"Serpong","station_id":"SRP","i_long":106.66566},{"station_name":"Rawa Buntu","transit":false,"line":6,"station_id":"RU","distance":2413,"i_lat":-6.314823,"is_transit":false,"time":4,"i_long":106.675475},{"is_transit":false,"i_lat":-6.296963,"line":6,"time":6,"transit":false,"i_long":106.712277,"distance":4566,"station_id":"SDM","station_name":"Sudimara"},{"distance":1994,"station_name":"Jurangmangu","station_id":"JMU","transit":false,"is_transit":false,"i_lat":-6.288927,"i_long":106.728916,"line":6,"time":4},{"transit":false,"distance":2179,"i_lat":-6.276362,"station_name":"Pondokranji","is_transit":false,"station_id":"PDJ","time":3,"line":6,"i_long":106.74273},{"is_transit":false,"line":6,"i_lat":-6.237242,"transit":false,"distance":6218,"station_name":"Kebayoran","i_long":106.780334,"time":8,"station_id":"KBY"},{"station_name":"Palmerah","transit":false,"distance":3737,"i_lat":-6.207404,"station_id":"PLM","time":7,"i_long":106.79689,"is_transit":false,"line":6},{"i_lat":-6.185545,"time":6,"station_id":"THB","i_long":106.811091,"transit":true,"station_name":"Tanah Abang","distance":3191,"line":1,"is_transit":true},{"is_transit":true,"distance":3632,"i_lat":-6.155215,"station_id":"DU","station_name":"Duri","line":1,"time":8,"i_long":106.800832,"transit":true},{"distance":1700,"station_name":"Grogol","line":5,"station_id":"GGL","is_transit":false,"transit":false,"time":3,"i_lat":-6.162021,"i_long":106.788277},{"transit":false,"i_lat":-6.161433,"i_long":106.771379,"station_id":"PSG","distance":2036,"is_transit":false,"line":5,"time":2,"station_name":"Pesing"},{"transit":false,"distance":1614,"i_lat":-6.1587309999999995,"station_id":"TKO","i_long":106.756522,"is_transit":false,"line":5,"time":2,"station_name":"Taman Kota"},{"time":2,"transit":false,"line":5,"i_long":106.737035,"distance":2334,"is_transit":false,"station_id":"BOI","i_lat":-6.159876,"station_name":"Bojongindah"},{"distance":1152,"line":5,"i_lat":-6.162758,"is_transit":false,"time":4,"transit":false,"station_id":"RW","station_name":"Rawa Buaya","i_long":106.723064},{"transit":false,"i_lat":-6.166068,"station_name":"Kalideres","distance":2504,"i_long":106.701612,"is_transit":false,"station_id":"KDS","line":5,"time":3},{"distance":2548,"i_long":106.679458,"transit":false,"station_id":"PI","line":5,"station_name":"Poris","time":3,"i_lat":-6.169933,"is_transit":false}],[{"distance":0,"i_long":106.66566,"line":6,"i_lat":-6.319871,"station_name":"Serpong","station_id":"SRP","is_transit":false,"time":0,"transit":false},{"distance":2413,"i_long":106.675475,"transit":false,"is_transit":false,"i_lat":-6.314823,"line":6,"station_name":"Rawa Buntu","time":4,"station_id":"RU"},{"line":6,"distance":4566,"time":6,"i_long":106.712277,"i_lat":-6.296963,"station_id":"SDM","station_name":"Sudimara","is_transit":false,"transit":false},{"i_lat":-6.288927,"i_long":106.728916,"line":6,"distance":1994,"station_name":"Jurangmangu","is_transit":false,"transit":false,"station_id":"JMU","time":4},{"is_transit":false,"time":3,"i_long":106.74273,"transit":false,"station_id":"PDJ","line":6,"station_name":"Pondokranji","distance":2179,"i_lat":-6.276362},{"i_lat":-6.237242,"i_long":106.780334,"station_id":"KBY","line":6,"transit":false,"station_name":"Kebayoran","distance":6218,"time":8,"is_transit":false},{"line":6,"i_lat":-6.207404,"station_name":"Palmerah","is_transit":false,"i_long":106.79689,"distance":3737,"transit":false,"station_id":"PLM","time":7},{"transit":true,"station_name":"Tanah Abang","is_transit":true,"station_id":"THB","i_lat":-6.185545,"time":6,"distance":3191,"i_long":106.811091,"line":1},{"station_id":"KAT","i_lat":-6.20132,"station_name":"Karet","is_transit":false,"time":5,"distance":2029,"i_long":106.816351,"line":1,"transit":false},{"i_long":106.819881,"station_name":"Sudirman Baru","line":1,"transit":false,"distance":471,"i_lat":-6.201433,"time":1,"station_id":"SUDB","is_transit":false},{"transit":false,"station_id":"SUD","is_transit":false,"station_name":"Sudirman","distance":280,"i_long":106.822649,"line":1,"time":1,"i_lat":-6.202263},{"i_lat":-6.209883,"station_id":"MRI","station_name":"Manggarai","time":4,"distance":3186,"i_long":106.84912,"transit":true,"is_transit":true,"line":2},{"distance":1590,"i_lat":-6.198556,"transit":false,"line":2,"station_name":"Cikini","station_id":"CKI","is_transit":false,"i_long":106.840169,"time":4},{"station_id":"GDD","distance":1750,"transit":false,"line":2,"time":3,"i_long":106.832183,"i_lat":-6.186295,"is_transit":false,"station_name":"Gondangdia"},{"time":4,"i_lat":-6.166716,"i_long":106.828284,"distance":2015,"line":2,"transit":false,"station_name":"Juanda","is_transit":false,"station_id":"JUA"},{"transit":false,"is_transit":false,"time":2,"distance":1149,"i_lat":-6.160725,"i_long":106.827103,"line":2,"station_id":"SW","station_name":"Sawah Besar"},{"i_lat":-6.149769,"station_name":"Manggabesar","distance":906,"i_long":106.82482,"station_id":"MGB","is_transit":false,"line":2,"transit":false,"time":2},{"distance":1080,"time":2,"transit":false,"station_name":"Jayakarta","i_lat":-6.141205,"is_transit":false,"station_id":"JAY","i_long":106.820901,"line":2},{"is_transit":true,"transit":true,"i_long":106.812439,"station_name":"Jakarta Kota","time":4,"distance":1264,"station_id":"JAKK","i_lat":-6.137569,"line":2},{"i_lat":-6.132549,"distance":1364,"i_long":106.826365,"line":4,"time":3,"station_id":"KPB","transit":true,"is_transit":true,"station_name":"Kampung Bandan"},{"time":9,"distance":4102,"station_name":"Angke","is_transit":false,"i_lat":-6.144674,"transit":false,"line":1,"i_long":106.79867,"station_id":"AK"},{"distance":1230,"station_name":"Duri","time":4,"i_lat":-6.155215,"transit":true,"is_transit":true,"station_id":"DU","i_long":106.800832,"line":1},{"i_lat":-6.162021,"is_transit":false,"distance":1700,"transit":false,"i_long":106.788277,"line":5,"station_name":"Grogol","time":3,"station_id":"GGL"},{"i_lat":-6.161433,"i_long":106.771379,"time":2,"distance":2036,"station_name":"Pesing","station_id":"PSG","is_transit":false,"line":5,"transit":false},{"is_transit":false,"time":2,"station_name":"Taman Kota","distance":1614,"i_long":106.756522,"transit":false,"station_id":"TKO","line":5,"i_lat":-6.1587309999999995},{"i_lat":-6.159876,"is_transit":false,"i_long":106.737035,"line":5,"time":2,"station_id":"BOI","station_name":"Bojongindah","distance":2334,"transit":false},{"transit":false,"station_name":"Rawa Buaya","i_long":106.723064,"line":5,"time":4,"station_id":"RW","i_lat":-6.162758,"distance":1152,"is_transit":false},{"station_id":"KDS","distance":2504,"i_long":106.701612,"transit":false,"station_name":"Kalideres","time":3,"is_transit":false,"line":5,"i_lat":-6.166068},{"i_long":106.679458,"station_id":"PI","station_name":"Poris","i_lat":-6.169933,"line":5,"distance":2548,"time":3,"is_transit":false,"transit":false}],[{"i_long":106.66566,"time":0,"station_name":"Serpong","transit":false,"is_transit":false,"i_lat":-6.319871,"line":6,"distance":0,"station_id":"SRP"},{"station_name":"Rawa Buntu","i_lat":-6.314823,"line":6,"transit":false,"is_transit":false,"distance":2413,"i_long":106.675475,"station_id":"RU","time":4},{"transit":false,"i_lat":-6.296963,"is_transit":false,"time":6,"line":6,"station_name":"Sudimara","station_id":"SDM","i_long":106.712277,"distance":4566},{"i_long":106.728916,"time":4,"transit":false,"distance":1994,"line":6,"station_id":"JMU","is_transit":false,"station_name":"Jurangmangu","i_lat":-6.288927},{"time":3,"station_name":"Pondokranji","i_lat":-6.276362,"station_id":"PDJ","transit":false,"i_long":106.74273,"line":6,"distance":2179,"is_transit":false},{"distance":6218,"transit":false,"station_name":"Kebayoran","time":8,"station_id":"KBY","i_lat":-6.237242,"i_long":106.780334,"is_transit":false,"line":6},{"time":7,"is_transit":false,"i_lat":-6.207404,"i_long":106.79689,"transit":false,"line":6,"station_id":"PLM","station_name":"Palmerah","distance":3737},{"station_id":"THB","i_long":106.811091,"distance":3191,"transit":true,"i_lat":-6.185545,"station_name":"Tanah Abang","time":6,"line":1,"is_transit":true},{"i_long":106.816351,"station_id":"KAT","station_name":"Karet","i_lat":-6.20132,"transit":false,"time":5,"line":1,"is_transit":false,"distance":2029},{"station_name":"Sudirman Baru","distance":471,"station_id":"SUDB","i_lat":-6.201433,"i_long":106.819881,"line":1,"transit":false,"is_transit":false,"time":1},{"station_id":"SUD","i_lat":-6.202263,"is_transit":false,"line":1,"station_name":"Sudirman","i_long":106.822649,"transit":false,"distance":280,"time":1},{"i_long":106.84912,"station_id":"MRI","time":4,"i_lat":-6.209883,"is_transit":false,"distance":3186,"transit":false,"station_name":"Manggarai","line":2},{"time":2,"line":1,"station_name":"Matraman","station_id":"MTR","i_lat":-6.212485,"transit":false,"i_long":106.858896,"is_transit":false,"distance":1275},{"line":1,"station_id":"JNG","transit":true,"time":8,"is_transit":true,"distance":1377,"i_lat":-6.215091,"station_name":"Jatinegara","i_long":106.86807400000001},{"i_lat":-6.209188,"i_long":106.861737,"line":11,"station_name":"Pondok Jati","station_id":"POK","distance":1236,"time":2,"is_transit":false,"transit":false},{"is_transit":false,"time":2,"transit":false,"distance":1829,"i_long":106.855437,"line":11,"i_lat":-6.193792,"station_id":"KMT","station_name":"Kramat"},{"i_lat":-6.185975,"time":1,"i_long":106.850107,"station_id":"GST","line":11,"transit":false,"distance":973,"station_name":"Gang Sentiong","is_transit":false},{"is_transit":false,"line":11,"transit":false,"time":8,"station_name":"Pasar Senen","i_lat":-6.174784,"i_long":106.84368,"distance":1567,"station_id":"PSE"},{"station_id":"KMO","is_transit":false,"i_long":106.839204,"station_name":"Kemayoran","line":11,"transit":false,"time":4,"i_lat":-6.161728,"distance":1436},{"transit":false,"i_long":106.836569,"station_name":"Rajawali","distance":1901,"is_transit":false,"line":11,"i_lat":-6.14505,"station_id":"RJW","time":5},{"is_transit":true,"distance":1444,"station_name":"Kampung Bandan","time":3,"station_id":"KPB","i_lat":-6.132549,"transit":true,"i_long":106.826365,"line":4},{"is_transit":false,"station_id":"AK","station_name":"Angke","distance":4102,"time":9,"i_long":106.79867,"transit":false,"i_lat":-6.144674,"line":1},{"station_name":"Duri","distance":1230,"transit":true,"line":1,"is_transit":true,"i_lat":-6.155215,"time":4,"station_id":"DU","i_long":106.800832},{"transit":false,"time":3,"is_transit":false,"line":5,"station_name":"Grogol","i_lat":-6.162021,"i_long":106.788277,"station_id":"GGL","distance":1700},{"i_long":106.771379,"distance":2036,"station_name":"Pesing","is_transit":false,"transit":false,"time":2,"i_lat":-6.161433,"station_id":"PSG","line":5},{"station_name":"Taman Kota","i_lat":-6.1587309999999995,"time":2,"transit":false,"station_id":"TKO","is_transit":false,"i_long":106.756522,"distance":1614,"line":5},{"station_id":"BOI","time":2,"transit":false,"i_long":106.737035,"distance":2334,"is_transit":false,"station_name":"Bojongindah","line":5,"i_lat":-6.159876},{"station_name":"Rawa Buaya","line":5,"transit":false,"time":4,"distance":1152,"station_id":"RW","i_lat":-6.162758,"is_transit":false,"i_long":106.723064},{"line":5,"distance":2504,"transit":false,"i_lat":-6.166068,"time":3,"station_name":"Kalideres","station_id":"KDS","is_transit":false,"i_long":106.701612},{"i_long":106.679458,"distance":2548,"transit":false,"is_transit":false,"station_name":"Poris","line":5,"time":3,"i_lat":-6.169933,"station_id":"PI"}]]}