{"data":[[{"i_lat":-6.319871,"station_id":"SRP","time":0,"transit":false,"is_transit":false,"station_name":"Serpong","line":6,"i_long":106.66566,"distance":0},{"time":4,"distance":2413,"i_lat":-6.314823,"i_long":106.675475,"line":6,"is_transit":false,"station_name":"Rawa Buntu","transit":false,"station_id":"RU"},{"distance":4566,"i_lat":-6.296963,"time":6,"station_id":"SDM","station_name":"Sudimara","line":6,"transit":false,"i_long":106.712277,"is_transit":false},{"is_transit":false,"time":4,"station_id":"JMU","distance":1994,"i_lat":-6.288927,"transit":false,"line":6,"station_name":"Jurangmangu","i_long":106.728916},{"station_id":"PDJ","station_name":"Pondokranji","is_transit":false,"i_long":106.74273,"transit":false,"line":6,"i_lat":-6.276362,"distance":2179,"time":3},{"time":8,"distance":6218,"i_long":106.780334,"station_name":"Kebayoran","i_lat":-6.237242,"line":6,"transit":false,"station_id":"KBY","is_transit":false},{"time":7,"distance":3737,"station_id":"PLM","i_long":106.79689,"transit":false,"is_transit":false,"line":6,"station_name":"Palmerah","i_lat":-6.207404},{"distance":3191,"station_name":"Tanah Abang","station_id":"THB","line":1,"is_transit":true,"time":6,"transit":true,"i_lat":-6.185545,"i_long":106.811091},{"is_transit":false,"station_name":"Karet","time":5,"distance":2029,"i_long":106.816351,"station_id":"KAT","transit":false,"line":1,"i_lat":-6.20132},{"distance":471,"i_lat":-6.201433,"station_name":"Sudirman Baru","transit":false,"time":1,"is_transit":false,"i_long":106.819881,"line":1,"station_id":"SUDB"},{"transit":false,"station_name":"Sudirman","is_transit":false,"i_long":106.822649,"station_id":"SUD","distance":280,"line":1,"time":1,"i_lat":-6.202263},{"i_lat":-6.209883,"i_long":106.84912,"transit":false,"station_id":"MRI","is_transit":false,"line":2,"station_name":"Manggarai","time":4,"distance":3186},{"is_transit":false,"station_name":"Matraman","line":1,"station_id":"MTR","time":2,"i_long":106.858896,"transit":false,"distance":1275,"i_lat":-6.212485},{"station_name":"Jatinegara","transit":false,"is_transit":false,"distance":1377,"station_id":"JNG","i_lat":-6.215091,"time":8,"line":1,"i_long":106.86807400000001}],[{"i_long":106.66566,"line":6,"distance":0,"station_id":"SRP","transit":false,"is_transit":false,"station_name":"Serpong","time":0,"i_lat":-6.319871},{"station_id":"RU","i_lat":-6.314823,"is_transit":false,"line":6,"i_long":106.675475,"station_name":"Rawa Buntu","distance":2413,"transit":false,"time":4},{"station_id":"SDM","time":6,"transit":false,"i_lat":-6.296963,"i_long":106.712277,"is_transit":false,"distance":4566,"station_name":"Sudimara","line":6},{"i_lat":-6.288927,"distance":1994,"line":6,"station_id":"JMU","transit":false,"is_transit":false,"time":4,"station_name":"Jurangmangu","i_long":106.728916},{"i_long":106.74273,"time":3,"i_lat":-6.276362,"line":6,"station_id":"PDJ","transit":false,"station_name":"Pondokranji","is_transit":false,"distance":2179},{"time":8,"distance":6218,"station_id":"KBY","transit":false,"i_long":106.780334,"station_name":"Kebayoran","i_lat":-6.237242,"is_transit":false,"line":6},{"distance":3737,"line":6,"is_transit":false,"transit":false,"station_name":"Palmerah","i_lat":-6.207404,"i_long":106.79689,"station_id":"PLM","time":7},{"station_id":"THB","transit":true,"distance":3191,"i_long":106.811091,"line":1,"is_transit":true,"station_name":"Tanah Abang","i_lat":-6.185545,"time":6},{"station_id":"DU","i_long":106.800832,"distance":3632,"line":1,"transit":false,"station_name":"Duri","is_transit":false,"time":8,"i_lat":-6.155215},{"time":4,"i_lat":-6.144674,"distance":1230,"station_name":"Angke","is_transit":false,"line":1,"transit":false,"station_id":"AK","i_long":106.79867},{"time":9,"i_lat":-6.132549,"i_long":106.826365,"transit":true,"line":4,"distance":4102,"is_transit":true,"station_name":"Kampung Bandan","station_id":"KPB"},{"is_transit":false,"time":3,"i_long":106.836569,"line":11,"distance":1444,"i_lat":-6.14505,"transit":false,"station_id":"RJW","station_name":"Rajawali"},{"station_name":"Kemayoran","station_id":"KMO","is_transit":false,"i_lat":-6.161728,"distance":1901,"transit":false,"time":5,"line":11,"i_long":106.839204},{"station_name":"Pasar Senen","i_lat":-6.174784,"line":11,"station_id":"PSE","i_long":106.84368,"transit":false,"is_transit":false,"time":4,"distance":1436},{"line":11,"station_name":"Gang Sentiong","transit":false,"station_id":"GST","is_transit":false,"time":8,"distance":1567,"i_lat":-6.185975,"i_long":106.850107},{"distance":973,"i_lat":-6.193792,"transit":false,"station_id":"KMT","time":1,"is_transit":false,"line":11,"station_name":"Kramat","i_long":106.855437},{"transit":false,"i_lat":-6.209188,"station_name":"Pondok Jati","time":2,"i_long":106.861737,"station_id":"POK","is_transit":false,"line":11,"distance":1829},{"time":9,"transit":false,"is_transit":false,"i_long":106.86807400000001,"i_lat":-6.215091,"line":1,"station_id":"JNG","distance":1236,"station_name":"Jatinegara"}],[{"distance":0,"station_name":"Serpong","station_id":"SRP","is_transit":false,"i_long":106.66566,"time":0,"line":6,"transit":false,"i_lat":-6.319871},{"is_transit":false,"transit":false,"time":4,"line":6,"station_id":"RU","i_long":106.675475,"distance":2413,"i_lat":-6.314823,"station_name":"Rawa Buntu"},{"is_transit":false,"line":6,"station_id":"SDM","i_long":106.712277,"distance":4566,"i_lat":-6.296963,"time":6,"transit":false,"station_name":"Sudimara"},{"time":4,"distance":1994,"i_lat":-6.288927,"i_long":106.728916,"line":6,"station_name":"Jurangmangu","station_id":"JMU","is_transit":false,"transit":false},{"line":6,"is_transit":false,"time":3,"station_name":"Pondokranji","i_lat":-6.276362,"i_long":106.74273,"station_id":"PDJ","transit":false,"distance":2179},{"station_name":"Kebayoran","station_id":"KBY","distance":6218,"is_transit":false,"time":8,"i_lat":-6.237242,"i_long":106.780334,"line":6,"transit":false},{"distance":3737,"time":7,"station_name":"Palmerah","line":6,"is_transit":false,"i_long":106.79689,"station_id":"PLM","i_lat":-6.207404,"transit":false},{"station_id":"THB","i_lat":-6.185545,"is_transit":true,"time":6,"transit":true,"station_name":"Tanah Abang","distance":3191,"line":1,"i_long":106.811091},{"is_transit":false,"i_long":106.800832,"transit":false,"line":1,"time":8,"station_name":"Duri","i_lat":-6.155215,"distance":3632,"station_id":"DU"},{"distance":1230,"is_transit":false,"i_lat":-6.144674,"line":1,"i_long":106.79867,"transit":false,"station_id":"AK","station_name":"Angke","time":4},{"station_name":"Kampung Bandan","i_long":106.826365,"station_id":"KPB","line":4,"transit":true,"i_lat":-6.132549,"time":9,"is_transit":true,"distance":4102},{"time":3,"transit":true,"is_transit":true,"distance":1364,"i_lat":-6.137569,"station_id":"JAKK","line":2,"i_long":106.812439,"station_name":"Jakarta Kota"},{"time":4,"i_lat":-6.141205,"station_name":"Jayakarta","i_long":106.820901,"line":2,"transit":false,"is_transit":false,"station_id":"JAY","distance":1264},{"i_lat":-6.149769,"i_long":106.82482,"line":2,"is_transit":false,"transit":false,"station_name":"Manggabesar","distance":1080,"station_id":"MGB","time":2},{"i_long":106.827103,"distance":906,"transit":false,"line":2,"station_name":"Sawah Besar","station_id":"SW","time":2,"is_transit":false,"i_lat":-6.160725},{"is_transit":false,"distance":1149,"station_name":"Juanda","station_id":"JUA","time":2,"i_long":106.828284,"i_lat":-6.166716,"transit":false,"line":2},{"distance":2015,"is_transit":false,"station_name":"Gondangdia","time":4,"i_long":106.832183,"station_id":"GDD","line":2,"i_lat":-6.186295,"transit":false},{"transit":false,"station_name":"Cikini","time":3,"distance":1750,"i_long":106.840169,"line":2,"station_id":"CKI","is_transit":false,"i_lat":-6.198556},{"time":4,"is_transit":true,"i_lat":-6.209883,"station_name":"Manggarai","distance":1590,"i_long":106.84912,"station_id":"MRI","transit":true,"line":2},{"i_lat":-6.212485,"i_long":106.858896,"distance":1275,"transit":false,"time":2,"station_name":"Matraman","station_id":"MTR","is_transit":false,"line":1},{"i_lat":-6.215091,"line":1,"i_long":106.86807400000001,"transit":false,"station_id":"JNG","station_name":"Jatinegara","distance":1377,"time":8,"is_transit":false}],[{"i_long":106.66566,"line":6,"station_id":"SRP","is_transit":false,"transit":false,"station_name":"Serpong","time":0,"i_lat":-6.319871,"distance":0},{"transit":false,"i_lat":-6.314823,"time":4,"line":6,"station_id":"RU","distance":2413,"station_name":"Rawa Buntu","is_transit":false,"i_long":106.675475},{"i_long":106.712277,"distance":4566,"station_id":"SDM","time":6,"line":6,"transit":false,"is_transit":false,"i_lat":-6.296963,"station_name":"Sudimara"},{"is_transit":false,"station_name":"Jurangmangu","station_id":"JMU","transit":false,"i_lat":-6.288927,"distance":1994,"time":4,"line":6,"i_long":106.728916},{"time":3,"station_id":"PDJ","is_transit":false,"station_name":"Pondokranji","i_lat":-6.276362,"distance":2179,"line":6,"i_long":106.74273,"transit":false},{"station_name":"Kebayoran","i_lat":-6.237242,"station_id":"KBY","i_long":106.780334,"transit":false,"line":6,"time":8,"is_transit":false,"distance":6218},{"time":7,"station_id":"PLM","i_lat":-6.207404,"transit":false,"station_name":"Palmerah","distance":3737,"i_long":106.79689,"line":6,"is_transit":false},{"i_lat":-6.185545,"i_long":106.811091,"station_id":"THB","is_transit":true,"line":1,"distance":3191,"station_name":"Tanah Abang","transit":true,"time":6},{"station_name":"Karet","distance":2029,"i_long":106.816351,"time":5,"is_transit":false,"i_lat":-6.20132,"transit":false,"station_id":"KAT","line":1},{"distance":471,"line":1,"transit":false,"station_name":"Sudirman Baru","i_long":106.819881,"time":1,"i_lat":-6.201433,"is_transit":false,"station_id":"SUDB"},{"distance":280,"is_transit":false,"line":1,"time":1,"transit":false,"station_name":"Sudirman","i_long":106.822649,"i_lat":-6.202263,"station_id":"SUD"},{"station_name":"Manggarai","is_transit":true,"distance":3186,"i_long":106.84912,"line":2,"transit":true,"i_lat":-6.209883,"time":4,"station_id":"MRI"},{"time":4,"line":2,"transit":false,"station_id":"CKI","is_transit":false,"i_long":106.840169,"distance":1590,"i_lat":-6.198556,"station_name":"Cikini"},{"distance":1750,"i_long":106.832183,"transit":false,"is_transit":false,"i_lat":-6.186295,"station_id":"GDD","time":3,"station_name":"Gondangdia","line":2},{"station_id":"JUA","is_transit":false,"transit":false,"time":4,"i_lat":-6.166716,"i_long":106.828284,"line":2,"distance":2015,"station_name":"Juanda"},{"line":2,"is_transit":false,"distance":1149,"i_lat":-6.160725,"time":2,"transit":false,"station_name":"Sawah Besar","station_id":"SW","i_long":106.827103},{"is_transit":false,"distance":906,"i_lat":-6.149769,"time":2,"station_id":"MGB","station_name":"Manggabesar","transit":false,"i_long":106.82482,"line":2},{"is_transit":false,"transit":false,"time":2,"line":2,"distance":1080,"station_name":"Jayakarta","station_id":"JAY","i_lat":-6.141205,"i_long":106.820901},{"distance":1264,"is_transit":true,"i_long":106.812439,"station_name":"Jakarta Kota","line":2,"time":4,"station_id":"JAKK","transit":true,"i_lat":-6.137569},{"transit":true,"i_long":106.826365,"station_id":"KPB","station_name":"Kampung Bandan","is_transit":true,"line":4,"distance":1364,"i_lat":-6.132549,"time":3},{"is_transit":false,"line":11,"distance":1444,"i_lat":-6.14505,"time":3,"station_name":"Rajawali","station_id":"RJW","i_long":106.836569,"transit":false},{"line":11,"distance":1901,"station_id":"KMO","transit":false,"station_name":"Kemayoran","is_transit":false,"time":5,"i_lat":-6.161728,"i_long":106.839204},{"i_long":106.84368,"distance":1436,"station_name":"Pasar Senen","station_id":"PSE","i_lat":-6.174784,"line":11,"is_transit":false,"transit":false,"time":4},{"distance":1567,"transit":false,"i_long":106.850107,"is_transit":false,"time":8,"line":11,"station_id":"GST","station_name":"Gang Sentiong","i_lat":-6.185975},{"station_id":"KMT","distance":973,"line":11,"i_lat":-6.193792,"transit":false,"i_long":106.855437,"station_name":"Kramat","time":1,"is_transit":false},{"i_lat":-6.209188,"transit":false,"station_name":"Pondok Jati","station_id":"POK","distance":1829,"i_long":106.861737,"line":11,"is_transit":false,"time":2},{"station_id":"JNG","distance":1236,"i_long":106.86807400000001,"line":1,"i_lat":-6.215091,"transit":false,"is_transit":false,"time":9,"station_name":"Jatinegara"}]]}