{"data":[[{"transit":false,"station_name":"Sudirman","line":1,"station_id":"SUD","i_long":106.822649,"is_transit":false,"time":0,"i_lat":-6.202263,"distance":0},{"i_lat":-6.201433,"distance":280,"transit":false,"time":1,"station_id":"SUDB","is_transit":false,"i_long":106.819881,"line":1,"station_name":"Sudirman Baru"},{"distance":471,"line":1,"i_lat":-6.20132,"i_long":106.816351,"transit":false,"station_name":"Karet","is_transit":false,"station_id":"KAT","time":1},{"line":1,"station_id":"THB","i_long":106.811091,"distance":2029,"is_transit":true,"transit":true,"station_name":"Tanah Abang","i_lat":-6.185545,"time":5},{"station_name":"Palmerah","station_id":"PLM","i_long":106.79689,"transit":false,"i_lat":-6.207404,"is_transit":false,"distance":3191,"line":6,"time":6},{"is_transit":false,"i_lat":-6.237242,"transit":false,"station_name":"Kebayoran","station_id":"KBY","line":6,"distance":3737,"i_long":106.780334,"time":7},{"transit":false,"station_id":"PDJ","distance":6218,"i_lat":-6.276362,"i_long":106.74273,"station_name":"Pondokranji","is_transit":false,"time":8,"line":6},{"is_transit":false,"transit":false,"station_name":"Jurangmangu","line":6,"station_id":"JMU","time":3,"distance":2179,"i_lat":-6.288927,"i_long":106.728916},{"time":4,"i_lat":-6.296963,"is_transit":false,"i_long":106.712277,"station_name":"Sudimara","distance":1994,"line":6,"station_id":"SDM","transit":false},{"time":6,"is_transit":false,"distance":4566,"line":6,"i_long":106.675475,"transit":false,"station_name":"Rawa Buntu","i_lat":-6.314823,"station_id":"RU"},{"transit":false,"line":6,"time":4,"i_long":106.66566,"station_name":"Serpong","is_transit":false,"station_id":"SRP","i_lat":-6.319871,"distance":2413},{"time":4,"station_id":"CSK","distance":1784,"is_transit":false,"i_long":106.640411,"line":3,"i_lat":-6.32484,"transit":false,"station_name":"Cisauk"},{"station_id":"CC","is_transit":false,"transit":false,"i_lat":-6.329547,"i_long":106.617853,"station_name":"Cicayur","line":3,"time":4,"distance":2519},{"transit":false,"station_id":"PRP","is_transit":false,"i_lat":-6.3441410000000005,"distance":5968,"station_name":"Parung Panjang","i_long":106.568863,"line":6,"time":8},{"transit":false,"i_lat":-6.354349,"station_id":"CJT","line":3,"time":9,"i_long":106.508482,"is_transit":false,"station_name":"Cilejit","distance":7025},{"i_long":106.491338,"time":6,"is_transit":false,"station_name":"Daru","station_id":"DAR","line":0,"distance":2675,"transit":false,"i_lat":-6.338021},{"station_name":"Tenjo","distance":3902,"line":6,"i_lat":-6.327251,"i_long":106.460812,"station_id":"TEJ","time":5,"transit":false,"is_transit":false},{"station_id":"TGS","transit":false,"i_long":106.425991,"station_name":"Tigaraksa","line":6,"is_transit":false,"i_lat":-6.328533,"distance":2974,"time":5},{"i_lat":-6.33561,"i_long":106.411216,"time":3,"distance":2651,"line":3,"station_name":"Cikoya","is_transit":false,"transit":false,"station_id":"CKY"},{"transit":false,"time":4,"station_name":"Maja","is_transit":false,"i_lat":-6.332307,"distance":1853,"i_long":106.394373,"line":6,"station_id":"MJ"},{"is_transit":false,"distance":7293,"i_long":106.332092,"i_lat":-6.334892,"station_name":"Citeras","line":3,"station_id":"CTR","transit":false,"time":10},{"distance":9847,"station_id":"RK","station_name":"Rangkasbitung","i_lat":-6.352675,"is_transit":false,"i_long":106.250396,"transit":false,"time":13,"line":3}],[{"is_transit":false,"time":0,"transit":false,"distance":0,"i_lat":-6.202263,"i_long":106.822649,"line":1,"station_id":"SUD","station_name":"Sudirman"},{"i_lat":-6.209883,"transit":true,"is_transit":true,"station_id":"MRI","time":4,"distance":3186,"i_long":106.84912,"line":2,"station_name":"Manggarai"},{"station_name":"Cikini","is_transit":false,"transit":false,"station_id":"CKI","time":4,"line":2,"i_long":106.840169,"distance":1590,"i_lat":-6.198556},{"time":3,"line":2,"distance":1750,"transit":false,"station_id":"GDD","i_long":106.832183,"station_name":"Gondangdia","is_transit":false,"i_lat":-6.186295},{"line":2,"time":4,"distance":2015,"station_name":"Juanda","station_id":"JUA","i_lat":-6.166716,"transit":false,"is_transit":false,"i_long":106.828284},{"line":2,"station_name":"Sawah Besar","i_long":106.827103,"transit":false,"station_id":"SW","distance":1149,"is_transit":false,"time":2,"i_lat":-6.160725},{"transit":false,"is_transit":false,"i_long":106.82482,"station_name":"Manggabesar","distance":906,"line":2,"time":2,"i_lat":-6.149769,"station_id":"MGB"},{"time":2,"distance":1080,"transit":false,"is_transit":false,"i_lat":-6.141205,"station_id":"JAY","i_long":106.820901,"station_name":"Jayakarta","line":2},{"distance":1264,"is_transit":true,"time":4,"transit":true,"station_name":"Jakarta Kota","i_long":106.812439,"line":2,"station_id":"JAKK","i_lat":-6.137569},{"i_lat":-6.132549,"line":4,"station_name":"Kampung Bandan","station_id":"KPB","distance":1364,"transit":true,"is_transit":true,"i_long":106.826365,"time":3},{"distance":4102,"i_long":106.79867,"i_lat":-6.144674,"is_transit":false,"time":9,"station_name":"Angke","transit":false,"line":1,"station_id":"AK"},{"station_id":"DU","line":1,"transit":false,"is_transit":false,"i_lat":-6.155215,"time":4,"distance":1230,"station_name":"Duri","i_long":106.800832},{"line":1,"time":8,"is_transit":true,"station_id":"THB","transit":true,"i_lat":-6.185545,"i_long":106.811091,"distance":3632,"station_name":"Tanah Abang"},{"station_id":"PLM","i_long":106.79689,"i_lat":-6.207404,"line":6,"transit":false,"station_name":"Palmerah","is_transit":false,"time":6,"distance":3191},{"is_transit":false,"distance":3737,"station_name":"Kebayoran","transit":false,"time":7,"i_lat":-6.237242,"station_id":"KBY","i_long":106.780334,"line":6},{"is_transit":false,"i_lat":-6.276362,"line":6,"station_id":"PDJ","time":8,"transit":false,"i_long":106.74273,"station_name":"Pondokranji","distance":6218},{"time":3,"i_long":106.728916,"station_name":"Jurangmangu","distance":2179,"i_lat":-6.288927,"transit":false,"is_transit":false,"station_id":"JMU","line":6},{"transit":false,"time":4,"station_name":"Sudimara","distance":1994,"station_id":"SDM","i_long":106.712277,"i_lat":-6.296963,"is_transit":false,"line":6},{"line":6,"transit":false,"time":6,"distance":4566,"station_name":"Rawa Buntu","i_lat":-6.314823,"station_id":"RU","is_transit":false,"i_long":106.675475},{"time":4,"line":6,"station_name":"Serpong","is_transit":false,"transit":false,"station_id":"SRP","distance":2413,"i_lat":-6.319871,"i_long":106.66566},{"time":4,"i_lat":-6.32484,"line":3,"distance":1784,"i_long":106.640411,"transit":false,"station_name":"Cisauk","station_id":"CSK","is_transit":false},{"time":4,"i_lat":-6.329547,"station_id":"CC","line":3,"i_long":106.617853,"station_name":"Cicayur","transit":false,"is_transit":false,"distance":2519},{"i_lat":-6.3441410000000005,"distance":5968,"time":8,"transit":false,"station_name":"Parung Panjang","is_transit":false,"line":6,"i_long":106.568863,"station_id":"PRP"},{"station_id":"CJT","distance":7025,"is_transit":false,"time":9,"i_long":106.508482,"station_name":"Cilejit","i_lat":-6.354349,"transit":false,"line":3},{"i_lat":-6.338021,"line":0,"is_transit":false,"transit":false,"station_id":"DAR","station_name":"Daru","time":6,"i_long":106.491338,"distance":2675},{"station_name":"Tenjo","i_lat":-6.327251,"line":6,"transit":false,"i_long":106.460812,"station_id":"TEJ","is_transit":false,"time":5,"distance":3902},{"is_transit":false,"line":6,"station_id":"TGS","transit":false,"i_lat":-6.328533,"time":5,"distance":2974,"i_long":106.425991,"station_name":"Tigaraksa"},{"station_name":"Cikoya","i_lat":-6.33561,"i_long":106.411216,"time":3,"distance":2651,"transit":false,"station_id":"CKY","line":3,"is_transit":false},{"distance":1853,"station_name":"Maja","time":4,"transit":false,"i_long":106.394373,"i_lat":-6.332307,"line":6,"station_id":"MJ","is_transit":false},{"i_long":106.332092,"line":3,"is_transit":false,"time":10,"station_id":"CTR","i_lat":-6.334892,"transit":false,"distance":7293,"station_name":"Citeras"},{"station_name":"Rangkasbitung","i_long":106.250396,"line":3,"time":13,"is_transit":false,"distance":9847,"station_id":"RK","transit":false,"i_lat":-6.352675}],[{"station_id":"SUD","distance":0,"station_name":"Sudirman","time":0,"i_lat":-6.202263,"line":1,"is_transit":false,"i_long":106.822649,"transit":false},{"i_long":106.84912,"distance":3186,"station_name":"Manggarai","station_id":"MRI","is_transit":false,"transit":false,"time":4,"i_lat":-6.209883,"line":2},{"is_transit":false,"i_lat":-6.212485,"i_long":106.858896,"station_id":"MTR","line":1,"time":2,"transit":false,"distance":1275,"station_name":"Matraman"},{"i_lat":-6.215091,"station_id":"JNG","i_long":106.86807400000001,"line":1,"transit":true,"time":8,"station_name":"Jatinegara","is_transit":true,"distance":1377},{"transit":false,"distance":1236,"i_long":106.861737,"is_transit":false,"time":2,"station_id":"POK","line":11,"station_name":"Pondok Jati","i_lat":-6.209188},{"time":2,"station_name":"Kramat","transit":false,"is_transit":false,"i_lat":-6.193792,"station_id":"KMT","i_long":106.855437,"line":11,"distance":1829},{"station_name":"Gang Sentiong","station_id":"GST","is_transit":false,"time":1,"i_long":106.850107,"transit":false,"distance":973,"i_lat":-6.185975,"line":11},{"station_name":"Pasar Senen","line":11,"i_lat":-6.174784,"distance":1567,"is_transit":false,"station_id":"PSE","time":8,"i_long":106.84368,"transit":false},{"station_name":"Kemayoran","station_id":"KMO","line":11,"is_transit":false,"transit":false,"distance":1436,"i_lat":-6.161728,"time":4,"i_long":106.839204},{"station_name":"Rajawali","transit":false,"i_lat":-6.14505,"time":5,"is_transit":false,"distance":1901,"i_long":106.836569,"station_id":"RJW","line":11},{"distance":1444,"time":3,"line":4,"station_id":"KPB","i_lat":-6.132549,"station_name":"Kampung Bandan","i_long":106.826365,"is_transit":true,"transit":true},{"is_transit":false,"distance":4102,"station_id":"AK","i_lat":-6.144674,"line":1,"i_long":106.79867,"station_name":"Angke","time":9,"transit":false},{"is_transit":false,"line":1,"i_lat":-6.155215,"time":4,"i_long":106.800832,"station_name":"Duri","station_id":"DU","distance":1230,"transit":false},{"station_name":"Tanah Abang","station_id":"THB","i_lat":-6.185545,"i_long":106.811091,"line":1,"is_transit":true,"transit":true,"distance":3632,"time":8},{"distance":3191,"time":6,"station_name":"Palmerah","station_id":"PLM","line":6,"transit":false,"is_transit":false,"i_long":106.79689,"i_lat":-6.207404},{"transit":false,"station_id":"KBY","is_transit":false,"time":7,"i_lat":-6.237242,"i_long":106.780334,"line":6,"station_name":"Kebayoran","distance":3737},{"station_id":"PDJ","time":8,"distance":6218,"transit":false,"i_long":106.74273,"line":6,"i_lat":-6.276362,"station_name":"Pondokranji","is_transit":false},{"transit":false,"is_transit":false,"time":3,"line":6,"i_lat":-6.288927,"distance":2179,"station_name":"Jurangmangu","station_id":"JMU","i_long":106.728916},{"transit":false,"line":6,"i_long":106.712277,"time":4,"i_lat":-6.296963,"distance":1994,"station_name":"Sudimara","is_transit":false,"station_id":"SDM"},{"station_name":"Rawa Buntu","station_id":"RU","distance":4566,"i_long":106.675475,"line":6,"transit":false,"is_transit":false,"time":6,"i_lat":-6.314823},{"station_name":"Serpong","time":4,"station_id":"SRP","transit":false,"distance":2413,"is_transit":false,"i_lat":-6.319871,"i_long":106.66566,"line":6},{"i_long":106.640411,"i_lat":-6.32484,"station_id":"CSK","line":3,"transit":false,"station_name":"Cisauk","is_transit":false,"time":4,"distance":1784},{"distance":2519,"i_long":106.617853,"station_id":"CC","time":4,"is_transit":false,"line":3,"transit":false,"i_lat":-6.329547,"station_name":"Cicayur"},{"i_long":106.568863,"station_id":"PRP","i_lat":-6.3441410000000005,"line":6,"is_transit":false,"station_name":"Parung Panjang","time":8,"distance":5968,"transit":false},{"time":9,"i_long":106.508482,"station_id":"CJT","i_lat":-6.354349,"line":3,"transit":false,"station_name":"Cilejit","is_transit":false,"distance":7025},{"station_id":"DAR","station_name":"Daru","is_transit":false,"i_lat":-6.338021,"distance":2675,"i_long":106.491338,"time":6,"transit":false,"line":0},{"is_transit":false,"station_id":"TEJ","line":6,"transit":false,"station_name":"Tenjo","distance":3902,"time":5,"i_lat":-6.327251,"i_long":106.460812},{"i_long":106.425991,"time":5,"station_id":"TGS","transit":false,"line":6,"station_name":"Tigaraksa","i_lat":-6.328533,"is_transit":false,"distance":2974},{"time":3,"distance":2651,"is_transit":false,"i_lat":-6.33561,"station_id":"CKY","transit":false,"i_long":106.411216,"line":3,"station_name":"Cikoya"},{"time":4,"transit":false,"station_name":"Maja","distance":1853,"i_long":106.394373,"i_lat":-6.332307,"is_transit":false,"line":6,"station_id":"MJ"},{"i_lat":-6.334892,"line":3,"station_name":"Citeras","transit":false,"station_id":"CTR","time":10,"distance":7293,"i_long":106.332092,"is_transit":false},{"is_transit":false,"line":3,"time":13,"transit":false,"station_id":"RK","station_name":"Rangkasbitung","distance":9847,"i_long":106.250396,"i_lat":-6.352675}]]}