{"data":[[{"transit":false,"station_id":"SUD","i_lat":-6.202263,"is_transit":false,"time":0,"distance":0,"station_name":"Sudirman","line":1,"i_long":106.822649},{"transit":false,"station_id":"MRI","station_name":"Manggarai","time":4,"line":2,"is_transit":false,"i_lat":-6.209883,"i_long":106.84912,"distance":3186},{"station_id":"MTR","line":1,"time":2,"is_transit":false,"distance":1275,"i_long":106.858896,"station_name":"Matraman","transit":false,"i_lat":-6.212485},{"i_long":106.86807400000001,"transit":false,"line":1,"is_transit":false,"i_lat":-6.215091,"time":8,"station_id":"JNG","distance":1377,"station_name":"Jatinegara"},{"time":3,"is_transit":false,"distance":3395,"i_lat":-6.2135,"station_id":"KLD","transit":false,"i_long":106.899548,"station_name":"Klender","line":1},{"is_transit":false,"i_lat":-6.215568,"i_long":106.922662,"time":2,"station_name":"Buaran","transit":false,"distance":3100,"station_id":"BUA","line":1},{"line":1,"is_transit":false,"distance":1305,"time":1,"i_long":106.939679,"station_id":"KLDB","transit":false,"station_name":"Klenderbaru","i_lat":-6.217455},{"transit":false,"station_name":"Cakung","distance":1385,"i_long":106.951283,"line":1,"station_id":"CUK","is_transit":false,"i_lat":-6.219053,"time":8}],[{"i_long":106.822649,"time":0,"transit":false,"distance":0,"station_id":"SUD","i_lat":-6.202263,"line":1,"station_name":"Sudirman","is_transit":false},{"distance":280,"transit":false,"line":1,"i_lat":-6.201433,"station_id":"SUDB","station_name":"Sudirman Baru","i_long":106.819881,"time":1,"is_transit":false},{"i_long":106.816351,"is_transit":false,"distance":471,"station_name":"Karet","i_lat":-6.20132,"line":1,"station_id":"KAT","time":1,"transit":false},{"line":1,"transit":false,"is_transit":false,"i_long":106.811091,"i_lat":-6.185545,"time":5,"station_id":"THB","distance":2029,"station_name":"Tanah Abang"},{"i_long":106.800832,"line":1,"is_transit":false,"transit":false,"i_lat":-6.155215,"station_id":"DU","station_name":"Duri","distance":3632,"time":8},{"station_id":"AK","is_transit":false,"transit":false,"line":1,"i_long":106.79867,"distance":1230,"i_lat":-6.144674,"time":4,"station_name":"Angke"},{"transit":true,"distance":4102,"i_lat":-6.132549,"i_long":106.826365,"line":4,"time":9,"is_transit":true,"station_id":"KPB","station_name":"Kampung Bandan"},{"time":3,"station_name":"Rajawali","distance":1444,"station_id":"RJW","line":11,"transit":false,"i_lat":-6.14505,"is_transit":false,"i_long":106.836569},{"station_name":"Kemayoran","station_id":"KMO","i_lat":-6.161728,"transit":false,"time":5,"i_long":106.839204,"distance":1901,"line":11,"is_transit":false},{"i_lat":-6.174784,"station_id":"PSE","distance":1436,"transit":false,"line":11,"time":4,"is_transit":false,"station_name":"Pasar Senen","i_long":106.84368},{"station_name":"Gang Sentiong","transit":false,"line":11,"time":8,"station_id":"GST","is_transit":false,"distance":1567,"i_lat":-6.185975,"i_long":106.850107},{"station_name":"Kramat","i_lat":-6.193792,"i_long":106.855437,"distance":973,"is_transit":false,"station_id":"KMT","time":1,"transit":false,"line":11},{"line":11,"time":2,"station_id":"POK","transit":false,"station_name":"Pondok Jati","i_lat":-6.209188,"distance":1829,"i_long":106.861737,"is_transit":false},{"distance":1236,"station_id":"JNG","is_transit":true,"transit":true,"station_name":"Jatinegara","line":1,"i_long":106.86807400000001,"time":9,"i_lat":-6.215091},{"time":3,"i_long":106.899548,"i_lat":-6.2135,"transit":false,"line":1,"distance":3395,"station_id":"KLD","is_transit":false,"station_name":"Klender"},{"distance":3100,"i_lat":-6.215568,"time":2,"line":1,"station_id":"BUA","station_name":"Buaran","is_transit":false,"transit":false,"i_long":106.922662},{"i_long":106.939679,"line":1,"distance":1305,"i_lat":-6.217455,"is_transit":false,"station_id":"KLDB","transit":false,"station_name":"Klenderbaru","time":1},{"line":1,"i_lat":-6.219053,"is_transit":false,"time":8,"transit":false,"station_id":"CUK","distance":1385,"i_long":106.951283,"station_name":"Cakung"}],[{"station_name":"Sudirman","line":1,"distance":0,"i_long":106.822649,"is_transit":false,"transit":false,"station_id":"SUD","time":0,"i_lat":-6.202263},{"line":1,"station_id":"SUDB","i_long":106.819881,"transit":false,"time":1,"i_lat":-6.201433,"is_transit":false,"station_name":"Sudirman Baru","distance":280},{"transit":false,"is_transit":false,"i_long":106.816351,"line":1,"time":1,"distance":471,"station_id":"KAT","station_name":"Karet","i_lat":-6.20132},{"is_transit":false,"distance":2029,"transit":false,"i_lat":-6.185545,"station_name":"Tanah Abang","time":5,"line":1,"i_long":106.811091,"station_id":"THB"},{"line":1,"time":8,"distance":3632,"i_long":106.800832,"transit":false,"station_name":"Duri","i_lat":-6.155215,"is_transit":false,"station_id":"DU"},{"i_long":106.79867,"is_transit":false,"station_id":"AK","station_name":"Angke","time":4,"transit":false,"distance":1230,"line":1,"i_lat":-6.144674},{"station_name":"Kampung Bandan","i_long":106.826365,"is_transit":true,"transit":true,"line":4,"time":9,"distance":4102,"station_id":"KPB","i_lat":-6.132549},{"line":2,"transit":true,"station_name":"Jakarta Kota","station_id":"JAKK","distance":1364,"i_lat":-6.137569,"time":3,"i_long":106.812439,"is_transit":true},{"time":4,"station_id":"JAY","station_name":"Jayakarta","i_long":106.820901,"line":2,"is_transit":false,"distance":1264,"transit":false,"i_lat":-6.141205},{"time":2,"station_id":"MGB","station_name":"Manggabesar","line":2,"is_transit":false,"i_lat":-6.149769,"distance":1080,"i_long":106.82482,"transit":false},{"i_lat":-6.160725,"line":2,"is_transit":false,"transit":false,"station_id":"SW","station_name":"Sawah Besar","time":2,"distance":906,"i_long":106.827103},{"station_id":"JUA","i_lat":-6.166716,"line":2,"time":2,"distance":1149,"i_long":106.828284,"station_name":"Juanda","is_transit":false,"transit":false},{"distance":2015,"is_transit":false,"i_long":106.832183,"transit":false,"i_lat":-6.186295,"time":4,"station_name":"Gondangdia","station_id":"GDD","line":2},{"station_id":"CKI","i_lat":-6.198556,"line":2,"time":3,"transit":false,"is_transit":false,"distance":1750,"i_long":106.840169,"station_name":"Cikini"},{"distance":1590,"i_lat":-6.209883,"is_transit":true,"transit":true,"station_name":"Manggarai","station_id":"MRI","i_long":106.84912,"line":2,"time":4},{"i_lat":-6.212485,"is_transit":false,"transit":false,"station_id":"MTR","station_name":"Matraman","i_long":106.858896,"line":1,"time":2,"distance":1275},{"time":8,"transit":false,"distance":1377,"is_transit":false,"station_id":"JNG","line":1,"i_long":106.86807400000001,"i_lat":-6.215091,"station_name":"Jatinegara"},{"line":1,"station_id":"KLD","distance":3395,"transit":false,"time":3,"i_long":106.899548,"i_lat":-6.2135,"is_transit":false,"station_name":"Klender"},{"station_id":"BUA","station_name":"Buaran","distance":3100,"i_lat":-6.215568,"line":1,"i_long":106.922662,"is_transit":false,"time":2,"transit":false},{"distance":1305,"time":1,"i_lat":-6.217455,"i_long":106.939679,"station_id":"KLDB","station_name":"Klenderbaru","line":1,"transit":false,"is_transit":false},{"station_id":"CUK","is_transit":false,"line":1,"transit":false,"i_lat":-6.219053,"time":8,"station_name":"Cakung","distance":1385,"i_long":106.951283}],[{"transit":false,"i_lat":-6.202263,"is_transit":false,"i_long":106.822649,"time":0,"line":1,"station_id":"SUD","station_name":"Sudirman","distance":0},{"station_name":"Manggarai","time":4,"i_long":106.84912,"is_transit":true,"line":2,"transit":true,"station_id":"MRI","distance":3186,"i_lat":-6.209883},{"i_long":106.840169,"line":2,"is_transit":false,"station_id":"CKI","distance":1590,"i_lat":-6.198556,"station_name":"Cikini","transit":false,"time":4},{"station_name":"Gondangdia","time":3,"i_long":106.832183,"line":2,"station_id":"GDD","transit":false,"i_lat":-6.186295,"distance":1750,"is_transit":false},{"transit":false,"line":2,"distance":2015,"is_transit":false,"station_id":"JUA","station_name":"Juanda","i_long":106.828284,"time":4,"i_lat":-6.166716},{"station_name":"Sawah Besar","distance":1149,"i_lat":-6.160725,"time":2,"line":2,"transit":false,"is_transit":false,"station_id":"SW","i_long":106.827103},{"time":2,"i_long":106.82482,"i_lat":-6.149769,"transit":false,"distance":906,"station_id":"MGB","station_name":"Manggabesar","line":2,"is_transit":false},{"transit":false,"time":2,"is_transit":false,"distance":1080,"station_name":"Jayakarta","i_lat":-6.141205,"station_id":"JAY","line":2,"i_long":106.820901},{"transit":true,"station_name":"Jakarta Kota","time":4,"is_transit":true,"i_long":106.812439,"i_lat":-6.137569,"distance":1264,"line":2,"station_id":"JAKK"},{"line":4,"is_transit":true,"i_long":106.826365,"transit":true,"distance":1364,"station_name":"Kampung Bandan","time":3,"station_id":"KPB","i_lat":-6.132549},{"transit":false,"distance":1444,"is_transit":false,"time":3,"i_lat":-6.14505,"line":11,"station_name":"Rajawali","i_long":106.836569,"station_id":"RJW"},{"line":11,"distance":1901,"transit":false,"station_id":"KMO","station_name":"Kemayoran","time":5,"is_transit":false,"i_lat":-6.161728,"i_long":106.839204},{"is_transit":false,"line":11,"time":4,"station_name":"Pasar Senen","transit":false,"station_id":"PSE","i_lat":-6.174784,"i_long":106.84368,"distance":1436},{"line":11,"i_long":106.850107,"transit":false,"station_name":"Gang Sentiong","is_transit":false,"station_id":"GST","distance":1567,"time":8,"i_lat":-6.185975},{"station_name":"Kramat","i_lat":-6.193792,"i_long":106.855437,"line":11,"is_transit":false,"distance":973,"time":1,"transit":false,"station_id":"KMT"},{"is_transit":false,"time":2,"line":11,"station_id":"POK","i_long":106.861737,"transit":false,"station_name":"Pondok Jati","i_lat":-6.209188,"distance":1829},{"station_id":"JNG","station_name":"Jatinegara","is_transit":true,"i_lat":-6.215091,"i_long":106.86807400000001,"distance":1236,"line":1,"time":9,"transit":true},{"time":3,"station_name":"Klender","distance":3395,"is_transit":false,"station_id":"KLD","i_long":106.899548,"i_lat":-6.2135,"line":1,"transit":false},{"i_long":106.922662,"line":1,"time":2,"transit":false,"is_transit":false,"i_lat":-6.215568,"station_id":"BUA","station_name":"Buaran","distance":3100},{"i_long":106.939679,"station_name":"Klenderbaru","transit":false,"i_lat":-6.217455,"station_id":"KLDB","line":1,"is_transit":false,"time":1,"distance":1305},{"i_lat":-6.219053,"transit":false,"time":8,"station_name":"Cakung","distance":1385,"line":1,"is_transit":false,"station_id":"CUK","i_long":106.951283}]]}