{"data":[[{"i_long":106.822649,"station_name":"Sudirman","transit":false,"distance":0,"station_id":"SUD","time":0,"is_transit":false,"i_lat":-6.202263,"line":1},{"station_name":"Manggarai","line":0,"time":4,"station_id":"MRI","is_transit":true,"i_long":106.84912,"i_lat":-6.209883,"distance":3186,"transit":false},{"is_transit":false,"i_long":106.858896,"line":1,"station_name":"Matraman","time":2,"station_id":"MTR","transit":false,"distance":1275,"i_lat":-6.212485},{"i_long":106.86807400000001,"i_lat":-6.215091,"station_id":"JNG","time":8,"distance":1377,"is_transit":true,"transit":false,"line":0,"station_name":"Jatinegara"},{"is_transit":false,"time":3,"i_lat":-6.2135,"distance":3395,"station_id":"KLD","line":1,"i_long":106.899548,"transit":false,"station_name":"Klender"},{"line":0,"station_name":"Buaran","transit":false,"is_transit":false,"i_lat":-6.215568,"i_long":106.922662,"station_id":"BUA","distance":3100,"time":2},{"station_name":"Klenderbaru","i_long":106.939679,"time":1,"station_id":"KLDB","distance":1305,"line":1,"is_transit":false,"i_lat":-6.217455,"transit":false},{"i_lat":-6.219053,"transit":false,"time":8,"station_id":"CUK","i_long":106.951283,"is_transit":false,"line":0,"distance":1385,"station_name":"Cakung"},{"i_lat":-6.224515,"station_name":"Kranji","station_id":"KRI","distance":3097,"transit":false,"time":3,"line":1,"i_long":106.977657,"is_transit":false},{"is_transit":false,"i_lat":-6.236616,"station_name":"Bekasi","i_long":106.997013,"time":4,"line":0,"distance":2520,"transit":false,"station_id":"BKS"},{"line":0,"i_long":107.016735,"time":2,"distance":2368,"is_transit":false,"i_lat":-6.248029,"station_name":"Bekasi Timur","transit":false,"station_id":"BKST"},{"distance":4460,"transit":false,"time":7,"is_transit":false,"i_lat":-6.258864,"line":1,"station_name":"Tambun","station_id":"TB","i_long":107.055722},{"is_transit":false,"distance":3420,"station_id":"CIT","line":0,"transit":false,"i_long":107.083084,"i_lat":-6.261877,"time":3,"station_name":"Cibitung"},{"is_transit":false,"line":1,"time":2,"transit":false,"station_name":"Metland Telaga Murni","station_id":"TLM","i_lat":-6.262938,"distance":2800,"i_long":107.093313},{"is_transit":false,"line":0,"i_lat":-6.2553149999999995,"i_long":107.144613,"time":4,"distance":3689,"transit":false,"station_name":"Cikarang","station_id":"CKR"}],[{"station_id":"SUD","transit":false,"line":1,"station_name":"Sudirman","time":0,"i_long":106.822649,"distance":0,"is_transit":false,"i_lat":-6.202263},{"is_transit":false,"i_long":106.819881,"station_name":"Sudirman Baru","time":1,"distance":280,"station_id":"SUDB","i_lat":-6.201433,"transit":false,"line":1},{"distance":471,"station_name":"Karet","i_long":106.816351,"is_transit":false,"line":1,"time":1,"i_lat":-6.20132,"station_id":"KAT","transit":false},{"station_id":"THB","transit":false,"line":1,"is_transit":true,"station_name":"Tanah Abang","i_lat":-6.185545,"time":5,"i_long":106.811091,"distance":2029},{"station_name":"Duri","transit":true,"distance":3632,"i_long":106.800832,"i_lat":-6.155215,"time":8,"is_transit":true,"line":1,"station_id":"DU"},{"i_lat":-6.144674,"distance":1230,"station_name":"Angke","transit":false,"is_transit":false,"i_long":106.79867,"time":4,"station_id":"AK","line":0},{"transit":true,"time":9,"distance":4102,"is_transit":true,"i_lat":-6.132549,"line":0,"station_name":"Kampung Bandan","i_long":106.826365,"station_id":"KPB"},{"station_name":"Rajawali","i_long":106.836569,"is_transit":false,"i_lat":-6.14505,"station_id":"RJW","line":11,"transit":false,"time":3,"distance":1444},{"i_long":106.839204,"station_name":"Kemayoran","distance":1901,"is_transit":false,"time":5,"i_lat":-6.161728,"station_id":"KMO","transit":false,"line":11},{"station_name":"Pasar Senen","station_id":"PSE","is_transit":false,"distance":1436,"transit":false,"i_lat":-6.174784,"line":11,"time":4,"i_long":106.84368},{"distance":1567,"is_transit":false,"time":8,"i_lat":-6.185975,"i_long":106.850107,"station_name":"Gang Sentiong","transit":false,"station_id":"GST","line":11},{"is_transit":false,"station_name":"Kramat","i_lat":-6.193792,"time":1,"i_long":106.855437,"station_id":"KMT","line":11,"distance":973,"transit":false},{"distance":1829,"time":2,"is_transit":false,"i_lat":-6.209188,"station_name":"Pondok Jati","i_long":106.861737,"station_id":"POK","line":11,"transit":false},{"is_transit":true,"line":0,"distance":1236,"time":9,"station_name":"Jatinegara","station_id":"JNG","transit":true,"i_long":106.86807400000001,"i_lat":-6.215091},{"i_long":106.899548,"line":1,"is_transit":false,"transit":false,"distance":3395,"station_name":"Klender","station_id":"KLD","i_lat":-6.2135,"time":3},{"station_id":"BUA","transit":false,"time":2,"station_name":"Buaran","line":0,"is_transit":false,"i_lat":-6.215568,"distance":3100,"i_long":106.922662},{"distance":1305,"is_transit":false,"i_lat":-6.217455,"time":1,"i_long":106.939679,"line":1,"station_id":"KLDB","station_name":"Klenderbaru","transit":false},{"station_name":"Cakung","transit":false,"is_transit":false,"distance":1385,"line":0,"station_id":"CUK","i_long":106.951283,"time":8,"i_lat":-6.219053},{"time":3,"i_long":106.977657,"is_transit":false,"line":1,"station_name":"Kranji","i_lat":-6.224515,"transit":false,"distance":3097,"station_id":"KRI"},{"is_transit":false,"time":4,"station_name":"Bekasi","i_lat":-6.236616,"i_long":106.997013,"station_id":"BKS","distance":2520,"line":0,"transit":false},{"time":2,"i_long":107.016735,"is_transit":false,"line":0,"transit":false,"i_lat":-6.248029,"distance":2368,"station_id":"BKST","station_name":"Bekasi Timur"},{"transit":false,"i_long":107.055722,"station_name":"Tambun","line":1,"is_transit":false,"time":7,"distance":4460,"station_id":"TB","i_lat":-6.258864},{"distance":3420,"line":0,"is_transit":false,"i_lat":-6.261877,"transit":false,"station_name":"Cibitung","time":3,"i_long":107.083084,"station_id":"CIT"},{"is_transit":false,"station_name":"Metland Telaga Murni","i_long":107.093313,"station_id":"TLM","time":2,"line":1,"transit":false,"i_lat":-6.262938,"distance":2800},{"distance":3689,"i_long":107.144613,"station_name":"Cikarang","i_lat":-6.2553149999999995,"transit":false,"line":0,"time":4,"is_transit":false,"station_id":"CKR"}],[{"transit":false,"i_lat":-6.202263,"station_name":"Sudirman","station_id":"SUD","distance":0,"is_transit":false,"line":1,"i_long":106.822649,"time":0},{"is_transit":false,"i_long":106.819881,"line":1,"distance":280,"i_lat":-6.201433,"time":1,"station_id":"SUDB","station_name":"Sudirman Baru","transit":false},{"line":1,"station_id":"KAT","time":1,"i_lat":-6.20132,"station_name":"Karet","transit":false,"distance":471,"is_transit":false,"i_long":106.816351},{"line":1,"station_name":"Tanah Abang","i_long":106.811091,"station_id":"THB","distance":2029,"is_transit":true,"time":5,"i_lat":-6.185545,"transit":false},{"station_name":"Duri","is_transit":true,"time":8,"station_id":"DU","transit":true,"distance":3632,"i_lat":-6.155215,"i_long":106.800832,"line":1},{"is_transit":false,"transit":false,"line":0,"distance":1230,"i_long":106.79867,"station_name":"Angke","time":4,"station_id":"AK","i_lat":-6.144674},{"i_long":106.826365,"line":0,"i_lat":-6.132549,"is_transit":true,"distance":4102,"station_id":"KPB","station_name":"Kampung Bandan","transit":false,"time":9},{"time":3,"is_transit":true,"distance":1364,"line":0,"station_id":"JAKK","station_name":"Jakarta Kota","transit":true,"i_lat":-6.137569,"i_long":106.812439},{"i_long":106.820901,"station_id":"JAY","line":7,"transit":false,"is_transit":false,"station_name":"Jayakarta","distance":1264,"time":4,"i_lat":-6.141205},{"station_id":"MGB","station_name":"Manggabesar","i_lat":-6.149769,"time":2,"distance":1080,"line":2,"transit":false,"is_transit":false,"i_long":106.82482},{"i_long":106.827103,"station_name":"Sawah Besar","station_id":"SW","distance":906,"is_transit":false,"i_lat":-6.160725,"transit":false,"time":2,"line":2},{"is_transit":false,"line":2,"i_lat":-6.166716,"station_name":"Juanda","time":2,"i_long":106.828284,"station_id":"JUA","transit":false,"distance":1149},{"is_transit":false,"time":4,"i_lat":-6.186295,"distance":2015,"station_id":"GDD","station_name":"Gondangdia","transit":false,"i_long":106.832183,"line":2},{"is_transit":false,"distance":1750,"time":3,"transit":false,"station_name":"Cikini","line":0,"i_lat":-6.198556,"station_id":"CKI","i_long":106.840169},{"time":4,"is_transit":true,"i_long":106.84912,"station_name":"Manggarai","station_id":"MRI","transit":true,"line":0,"distance":1590,"i_lat":-6.209883},{"transit":false,"station_name":"Matraman","station_id":"MTR","i_long":106.858896,"distance":1275,"time":2,"line":1,"is_transit":false,"i_lat":-6.212485},{"i_long":106.86807400000001,"i_lat":-6.215091,"station_id":"JNG","station_name":"Jatinegara","is_transit":true,"time":8,"distance":1377,"transit":false,"line":0},{"transit":false,"i_lat":-6.2135,"time":3,"line":1,"station_id":"KLD","is_transit":false,"i_long":106.899548,"station_name":"Klender","distance":3395},{"i_lat":-6.215568,"line":0,"station_id":"BUA","transit":false,"distance":3100,"time":2,"i_long":106.922662,"station_name":"Buaran","is_transit":false},{"transit":false,"time":1,"distance":1305,"station_id":"KLDB","is_transit":false,"i_long":106.939679,"i_lat":-6.217455,"line":1,"station_name":"Klenderbaru"},{"station_id":"CUK","line":0,"time":8,"i_long":106.951283,"is_transit":false,"transit":false,"station_name":"Cakung","i_lat":-6.219053,"distance":1385},{"station_id":"KRI","i_lat":-6.224515,"time":3,"i_long":106.977657,"line":1,"transit":false,"is_transit":false,"distance":3097,"station_name":"Kranji"},{"i_long":106.997013,"is_transit":false,"station_name":"Bekasi","distance":2520,"station_id":"BKS","time":4,"line":0,"i_lat":-6.236616,"transit":false},{"station_id":"BKST","time":2,"i_long":107.016735,"i_lat":-6.248029,"is_transit":false,"station_name":"Bekasi Timur","distance":2368,"line":0,"transit":false},{"i_long":107.055722,"i_lat":-6.258864,"station_name":"Tambun","is_transit":false,"distance":4460,"time":7,"line":1,"station_id":"TB","transit":false},{"transit":false,"line":0,"i_lat":-6.261877,"time":3,"station_name":"Cibitung","distance":3420,"i_long":107.083084,"station_id":"CIT","is_transit":false},{"transit":false,"is_transit":false,"distance":2800,"i_long":107.093313,"station_name":"Metland Telaga Murni","line":1,"station_id":"TLM","time":2,"i_lat":-6.262938},{"distance":3689,"i_lat":-6.2553149999999995,"station_id":"CKR","transit":false,"is_transit":false,"station_name":"Cikarang","time":4,"i_long":107.144613,"line":0}],[{"is_transit":false,"line":1,"station_name":"Sudirman","distance":0,"station_id":"SUD","transit":false,"i_lat":-6.202263,"i_long":106.822649,"time":0},{"station_name":"Manggarai","station_id":"MRI","transit":true,"i_lat":-6.209883,"i_long":106.84912,"line":0,"distance":3186,"is_transit":true,"time":4},{"i_lat":-6.198556,"line":0,"station_name":"Cikini","station_id":"CKI","i_long":106.840169,"distance":1590,"is_transit":false,"time":4,"transit":false},{"distance":1750,"i_lat":-6.186295,"i_long":106.832183,"line":2,"station_id":"GDD","station_name":"Gondangdia","is_transit":false,"time":3,"transit":false},{"i_lat":-6.166716,"i_long":106.828284,"is_transit":false,"time":4,"distance":2015,"line":2,"station_name":"Juanda","station_id":"JUA","transit":false},{"i_long":106.827103,"line":2,"distance":1149,"station_name":"Sawah Besar","time":2,"station_id":"SW","is_transit":false,"transit":false,"i_lat":-6.160725},{"transit":false,"is_transit":false,"i_lat":-6.149769,"time":2,"station_id":"MGB","line":2,"distance":906,"i_long":106.82482,"station_name":"Manggabesar"},{"line":7,"transit":false,"station_name":"Jayakarta","time":2,"is_transit":false,"distance":1080,"i_lat":-6.141205,"station_id":"JAY","i_long":106.820901},{"station_id":"JAKK","station_name":"Jakarta Kota","transit":true,"is_transit":true,"time":4,"distance":1264,"line":0,"i_long":106.812439,"i_lat":-6.137569},{"is_transit":true,"station_name":"Kampung Bandan","transit":true,"line":0,"time":3,"i_lat":-6.132549,"station_id":"KPB","distance":1364,"i_long":106.826365},{"line":11,"station_name":"Rajawali","time":3,"station_id":"RJW","i_long":106.836569,"is_transit":false,"distance":1444,"transit":false,"i_lat":-6.14505},{"line":11,"station_name":"Kemayoran","is_transit":false,"i_long":106.839204,"i_lat":-6.161728,"time":5,"distance":1901,"transit":false,"station_id":"KMO"},{"transit":false,"is_transit":false,"i_lat":-6.174784,"line":11,"i_long":106.84368,"station_name":"Pasar Senen","distance":1436,"station_id":"PSE","time":4},{"distance":1567,"line":11,"i_lat":-6.185975,"time":8,"station_id":"GST","transit":false,"station_name":"Gang Sentiong","i_long":106.850107,"is_transit":false},{"i_long":106.855437,"line":11,"transit":false,"is_transit":false,"station_id":"KMT","station_name":"Kramat","i_lat":-6.193792,"time":1,"distance":973},{"is_transit":false,"station_id":"POK","transit":false,"line":11,"i_lat":-6.209188,"i_long":106.861737,"distance":1829,"station_name":"Pondok Jati","time":2},{"time":9,"distance":1236,"i_lat":-6.215091,"i_long":106.86807400000001,"station_name":"Jatinegara","station_id":"JNG","transit":true,"is_transit":true,"line":0},{"transit":false,"time":3,"i_lat":-6.2135,"is_transit":false,"station_name":"Klender","distance":3395,"i_long":106.899548,"line":1,"station_id":"KLD"},{"station_name":"Buaran","i_lat":-6.215568,"distance":3100,"station_id":"BUA","time":2,"is_transit":false,"line":0,"transit":false,"i_long":106.922662},{"line":1,"station_name":"Klenderbaru","transit":false,"i_lat":-6.217455,"is_transit":false,"i_long":106.939679,"time":1,"station_id":"KLDB","distance":1305},{"line":0,"distance":1385,"i_long":106.951283,"is_transit":false,"station_id":"CUK","station_name":"Cakung","time":8,"i_lat":-6.219053,"transit":false},{"distance":3097,"transit":false,"is_transit":false,"line":1,"i_long":106.977657,"station_id":"KRI","station_name":"Kranji","i_lat":-6.224515,"time":3},{"is_transit":false,"time":4,"station_id":"BKS","distance":2520,"i_long":106.997013,"line":0,"transit":false,"i_lat":-6.236616,"station_name":"Bekasi"},{"time":2,"i_long":107.016735,"transit":false,"station_name":"Bekasi Timur","i_lat":-6.248029,"distance":2368,"line":0,"station_id":"BKST","is_transit":false},{"station_name":"Tambun","time":7,"i_long":107.055722,"is_transit":false,"line":1,"transit":false,"i_lat":-6.258864,"distance":4460,"station_id":"TB"},{"is_transit":false,"i_long":107.083084,"transit":false,"station_name":"Cibitung","time":3,"line":0,"station_id":"CIT","distance":3420,"i_lat":-6.261877},{"time":2,"is_transit":false,"i_lat":-6.262938,"i_long":107.093313,"station_name":"Metland Telaga Murni","line":1,"distance":2800,"station_id":"TLM","transit":false},{"station_id":"CKR","transit":false,"distance":3689,"station_name":"Cikarang","time":4,"i_long":107.144613,"line":0,"is_transit":false,"i_lat":-6.2553149999999995}]]}