{"data":[[{"transit":false,"is_transit":false,"i_lat":-6.202263,"time":0,"i_long":106.822649,"station_name":"Sudirman","distance":0,"line":1,"station_id":"SUD"},{"i_long":106.819881,"is_transit":false,"station_id":"SUDB","distance":280,"line":1,"station_name":"Sudirman Baru","i_lat":-6.201433,"time":1,"transit":false},{"distance":471,"is_transit":false,"line":1,"i_long":106.816351,"station_id":"KAT","i_lat":-6.20132,"station_name":"Karet","transit":false,"time":1},{"is_transit":false,"time":5,"i_long":106.811091,"transit":false,"station_name":"Tanah Abang","i_lat":-6.185545,"line":1,"distance":2029,"station_id":"THB"},{"i_long":106.800832,"station_name":"Duri","is_transit":true,"line":1,"time":8,"distance":3632,"station_id":"DU","transit":true,"i_lat":-6.155215},{"i_long":106.788277,"is_transit":false,"line":5,"station_id":"GGL","time":3,"station_name":"Grogol","i_lat":-6.162021,"distance":1700,"transit":false},{"line":5,"is_transit":false,"transit":false,"distance":2036,"station_id":"PSG","i_long":106.771379,"time":2,"station_name":"Pesing","i_lat":-6.161433},{"station_name":"Taman Kota","i_lat":-6.1587309999999995,"time":2,"transit":false,"i_long":106.756522,"distance":1614,"is_transit":false,"station_id":"TKO","line":5},{"i_lat":-6.159876,"station_id":"BOI","station_name":"Bojongindah","line":5,"distance":2334,"transit":false,"i_long":106.737035,"time":2,"is_transit":false},{"i_long":106.723064,"station_id":"RW","i_lat":-6.162758,"is_transit":false,"transit":false,"station_name":"Rawa Buaya","line":5,"time":4,"distance":1152},{"line":5,"distance":2504,"is_transit":false,"time":3,"transit":false,"station_name":"Kalideres","station_id":"KDS","i_long":106.701612,"i_lat":-6.166068},{"time":3,"distance":2548,"station_id":"PI","transit":false,"i_lat":-6.169933,"i_long":106.679458,"is_transit":false,"station_name":"Poris","line":5}],[{"station_id":"SUD","time":0,"i_long":106.822649,"transit":false,"station_name":"Sudirman","is_transit":false,"i_lat":-6.202263,"distance":0,"line":1},{"station_name":"Manggarai","time":4,"distance":3186,"is_transit":true,"station_id":"MRI","transit":true,"i_long":106.84912,"line":2,"i_lat":-6.209883},{"distance":1590,"is_transit":false,"i_long":106.840169,"station_id":"CKI","time":4,"station_name":"Cikini","transit":false,"i_lat":-6.198556,"line":2},{"time":3,"i_lat":-6.186295,"station_id":"GDD","station_name":"Gondangdia","line":2,"distance":1750,"is_transit":false,"transit":false,"i_long":106.832183},{"is_transit":false,"station_name":"Juanda","line":2,"station_id":"JUA","i_lat":-6.166716,"distance":2015,"time":4,"transit":false,"i_long":106.828284},{"i_lat":-6.160725,"time":2,"station_name":"Sawah Besar","is_transit":false,"transit":false,"distance":1149,"station_id":"SW","line":2,"i_long":106.827103},{"is_transit":false,"time":2,"station_name":"Manggabesar","transit":false,"distance":906,"i_long":106.82482,"line":2,"i_lat":-6.149769,"station_id":"MGB"},{"time":2,"transit":false,"distance":1080,"is_transit":false,"i_lat":-6.141205,"i_long":106.820901,"station_id":"JAY","station_name":"Jayakarta","line":2},{"i_long":106.812439,"line":2,"transit":true,"time":4,"i_lat":-6.137569,"distance":1264,"is_transit":true,"station_id":"JAKK","station_name":"Jakarta Kota"},{"transit":true,"distance":1364,"station_name":"Kampung Bandan","is_transit":true,"i_lat":-6.132549,"i_long":106.826365,"station_id":"KPB","time":3,"line":4},{"i_lat":-6.144674,"distance":4102,"is_transit":false,"time":9,"station_id":"AK","i_long":106.79867,"line":1,"transit":false,"station_name":"Angke"},{"station_id":"DU","distance":1230,"line":1,"station_name":"Duri","i_lat":-6.155215,"i_long":106.800832,"transit":true,"is_transit":true,"time":4},{"line":5,"is_transit":false,"station_id":"GGL","distance":1700,"transit":false,"i_long":106.788277,"station_name":"Grogol","i_lat":-6.162021,"time":3},{"distance":2036,"transit":false,"i_lat":-6.161433,"station_name":"Pesing","line":5,"time":2,"station_id":"PSG","is_transit":false,"i_long":106.771379},{"is_transit":false,"distance":1614,"i_lat":-6.1587309999999995,"i_long":106.756522,"time":2,"station_id":"TKO","station_name":"Taman Kota","transit":false,"line":5},{"time":2,"distance":2334,"i_long":106.737035,"station_id":"BOI","station_name":"Bojongindah","is_transit":false,"i_lat":-6.159876,"line":5,"transit":false},{"i_lat":-6.162758,"is_transit":false,"line":5,"i_long":106.723064,"time":4,"distance":1152,"transit":false,"station_id":"RW","station_name":"Rawa Buaya"},{"is_transit":false,"time":3,"line":5,"station_id":"KDS","i_long":106.701612,"transit":false,"station_name":"Kalideres","i_lat":-6.166068,"distance":2504},{"station_id":"PI","station_name":"Poris","is_transit":false,"i_lat":-6.169933,"i_long":106.679458,"distance":2548,"line":5,"time":3,"transit":false}],[{"distance":0,"is_transit":false,"time":0,"station_id":"SUD","transit":false,"line":1,"i_lat":-6.202263,"station_name":"Sudirman","i_long":106.822649},{"i_lat":-6.209883,"i_long":106.84912,"time":4,"line":2,"is_transit":false,"transit":false,"distance":3186,"station_name":"Manggarai","station_id":"MRI"},{"line":1,"transit":false,"station_name":"Matraman","station_id":"MTR","i_lat":-6.212485,"i_long":106.858896,"distance":1275,"is_transit":false,"time":2},{"transit":true,"distance":1377,"time":8,"station_id":"JNG","station_name":"Jatinegara","i_long":106.86807400000001,"i_lat":-6.215091,"line":1,"is_transit":true},{"distance":1236,"station_name":"Pondok Jati","line":11,"is_transit":false,"i_long":106.861737,"i_lat":-6.209188,"time":2,"transit":false,"station_id":"POK"},{"time":2,"station_name":"Kramat","transit":false,"station_id":"KMT","i_lat":-6.193792,"distance":1829,"i_long":106.855437,"line":11,"is_transit":false},{"station_name":"Gang Sentiong","transit":false,"i_long":106.850107,"is_transit":false,"time":1,"distance":973,"i_lat":-6.185975,"station_id":"GST","line":11},{"distance":1567,"line":11,"station_name":"Pasar Senen","time":8,"transit":false,"i_lat":-6.174784,"is_transit":false,"station_id":"PSE","i_long":106.84368},{"station_id":"KMO","transit":false,"station_name":"Kemayoran","i_lat":-6.161728,"i_long":106.839204,"time":4,"line":11,"is_transit":false,"distance":1436},{"distance":1901,"station_name":"Rajawali","station_id":"RJW","transit":false,"i_lat":-6.14505,"i_long":106.836569,"time":5,"line":11,"is_transit":false},{"distance":1444,"station_name":"Kampung Bandan","time":3,"station_id":"KPB","is_transit":true,"i_long":106.826365,"line":4,"transit":true,"i_lat":-6.132549},{"is_transit":false,"distance":4102,"station_name":"Angke","transit":false,"i_lat":-6.144674,"line":1,"i_long":106.79867,"time":9,"station_id":"AK"},{"is_transit":true,"time":4,"station_name":"Duri","distance":1230,"i_lat":-6.155215,"i_long":106.800832,"station_id":"DU","transit":true,"line":1},{"i_long":106.788277,"is_transit":false,"station_id":"GGL","distance":1700,"station_name":"Grogol","time":3,"transit":false,"line":5,"i_lat":-6.162021},{"is_transit":false,"i_lat":-6.161433,"i_long":106.771379,"distance":2036,"station_name":"Pesing","station_id":"PSG","time":2,"transit":false,"line":5},{"station_name":"Taman Kota","time":2,"line":5,"station_id":"TKO","transit":false,"i_lat":-6.1587309999999995,"distance":1614,"i_long":106.756522,"is_transit":false},{"station_name":"Bojongindah","distance":2334,"i_lat":-6.159876,"line":5,"station_id":"BOI","i_long":106.737035,"time":2,"transit":false,"is_transit":false},{"station_id":"RW","i_long":106.723064,"is_transit":false,"station_name":"Rawa Buaya","transit":false,"i_lat":-6.162758,"distance":1152,"line":5,"time":4},{"is_transit":false,"station_id":"KDS","distance":2504,"time":3,"i_long":106.701612,"line":5,"transit":false,"station_name":"Kalideres","i_lat":-6.166068},{"is_transit":false,"time":3,"distance":2548,"i_long":106.679458,"station_id":"PI","line":5,"i_lat":-6.169933,"station_name":"Poris","transit":false}]]}