{"data":[[{"station_name":"Sudirman","distance":0,"line":1,"i_long":106.822649,"is_transit":false,"transit":false,"time":0,"i_lat":-6.202263,"station_id":"SUD"},{"station_id":"MRI","is_transit":false,"transit":false,"time":4,"station_name":"Manggarai","i_long":106.84912,"distance":3186,"i_lat":-6.209883,"line":2},{"transit":false,"is_transit":false,"distance":1275,"line":1,"i_long":106.858896,"time":2,"station_name":"Matraman","station_id":"MTR","i_lat":-6.212485},{"transit":false,"is_transit":false,"line":1,"station_name":"Jatinegara","i_long":106.86807400000001,"station_id":"JNG","time":8,"i_lat":-6.215091,"distance":1377},{"station_name":"Klender","is_transit":false,"i_lat":-6.2135,"time":3,"line":1,"distance":3395,"transit":false,"i_long":106.899548,"station_id":"KLD"},{"i_lat":-6.215568,"line":1,"is_transit":false,"transit":false,"distance":3100,"station_id":"BUA","time":2,"station_name":"Buaran","i_long":106.922662},{"station_id":"KLDB","is_transit":false,"time":1,"i_long":106.939679,"station_name":"Klenderbaru","distance":1305,"i_lat":-6.217455,"line":1,"transit":false},{"station_id":"CUK","is_transit":false,"line":1,"i_lat":-6.219053,"transit":false,"station_name":"Cakung","time":8,"distance":1385,"i_long":106.951283}],[{"station_id":"SUD","distance":0,"i_long":106.822649,"time":0,"line":1,"transit":false,"is_transit":false,"i_lat":-6.202263,"station_name":"Sudirman"},{"line":1,"is_transit":false,"distance":280,"i_lat":-6.201433,"transit":false,"station_name":"Sudirman Baru","i_long":106.819881,"time":1,"station_id":"SUDB"},{"station_name":"Karet","i_long":106.816351,"station_id":"KAT","line":1,"transit":false,"is_transit":false,"i_lat":-6.20132,"time":1,"distance":471},{"time":5,"station_id":"THB","transit":false,"is_transit":false,"station_name":"Tanah Abang","i_lat":-6.185545,"line":1,"i_long":106.811091,"distance":2029},{"i_lat":-6.155215,"is_transit":false,"station_id":"DU","line":1,"time":8,"station_name":"Duri","transit":false,"i_long":106.800832,"distance":3632},{"transit":false,"distance":1230,"i_lat":-6.144674,"station_id":"AK","time":4,"i_long":106.79867,"line":1,"station_name":"Angke","is_transit":false},{"i_lat":-6.132549,"line":4,"station_id":"KPB","station_name":"Kampung Bandan","distance":4102,"i_long":106.826365,"transit":true,"time":9,"is_transit":true},{"i_lat":-6.14505,"line":11,"station_id":"RJW","station_name":"Rajawali","time":3,"i_long":106.836569,"distance":1444,"transit":false,"is_transit":false},{"distance":1901,"i_lat":-6.161728,"transit":false,"line":11,"station_name":"Kemayoran","station_id":"KMO","is_transit":false,"time":5,"i_long":106.839204},{"station_name":"Pasar Senen","station_id":"PSE","distance":1436,"i_lat":-6.174784,"transit":false,"line":11,"is_transit":false,"time":4,"i_long":106.84368},{"station_id":"GST","station_name":"Gang Sentiong","i_lat":-6.185975,"line":11,"is_transit":false,"transit":false,"distance":1567,"i_long":106.850107,"time":8},{"station_id":"KMT","station_name":"Kramat","is_transit":false,"transit":false,"time":1,"distance":973,"i_lat":-6.193792,"i_long":106.855437,"line":11},{"transit":false,"time":2,"station_id":"POK","i_lat":-6.209188,"station_name":"Pondok Jati","line":11,"i_long":106.861737,"is_transit":false,"distance":1829},{"station_name":"Jatinegara","transit":true,"distance":1236,"i_long":106.86807400000001,"is_transit":true,"line":1,"station_id":"JNG","time":9,"i_lat":-6.215091},{"station_id":"KLD","distance":3395,"time":3,"i_long":106.899548,"is_transit":false,"line":1,"station_name":"Klender","i_lat":-6.2135,"transit":false},{"time":2,"distance":3100,"transit":false,"i_lat":-6.215568,"i_long":106.922662,"is_transit":false,"station_id":"BUA","line":1,"station_name":"Buaran"},{"i_long":106.939679,"station_id":"KLDB","line":1,"station_name":"Klenderbaru","distance":1305,"i_lat":-6.217455,"transit":false,"time":1,"is_transit":false},{"line":1,"station_name":"Cakung","time":8,"distance":1385,"i_lat":-6.219053,"i_long":106.951283,"is_transit":false,"transit":false,"station_id":"CUK"}],[{"is_transit":false,"station_name":"Sudirman","i_lat":-6.202263,"i_long":106.822649,"line":1,"transit":false,"distance":0,"time":0,"station_id":"SUD"},{"is_transit":false,"station_name":"Sudirman Baru","distance":280,"i_long":106.819881,"time":1,"transit":false,"line":1,"station_id":"SUDB","i_lat":-6.201433},{"station_name":"Karet","time":1,"transit":false,"i_lat":-6.20132,"i_long":106.816351,"station_id":"KAT","line":1,"is_transit":false,"distance":471},{"i_lat":-6.185545,"line":1,"time":5,"station_id":"THB","distance":2029,"i_long":106.811091,"station_name":"Tanah Abang","is_transit":false,"transit":false},{"i_lat":-6.155215,"station_id":"DU","station_name":"Duri","is_transit":false,"time":8,"transit":false,"i_long":106.800832,"line":1,"distance":3632},{"is_transit":false,"station_name":"Angke","distance":1230,"station_id":"AK","transit":false,"time":4,"i_long":106.79867,"i_lat":-6.144674,"line":1},{"is_transit":true,"i_lat":-6.132549,"line":4,"station_name":"Kampung Bandan","station_id":"KPB","i_long":106.826365,"distance":4102,"time":9,"transit":true},{"i_long":106.812439,"line":2,"station_id":"JAKK","is_transit":true,"distance":1364,"i_lat":-6.137569,"station_name":"Jakarta Kota","time":3,"transit":true},{"transit":false,"i_lat":-6.141205,"is_transit":false,"time":4,"distance":1264,"station_id":"JAY","i_long":106.820901,"line":2,"station_name":"Jayakarta"},{"i_lat":-6.149769,"distance":1080,"station_name":"Manggabesar","i_long":106.82482,"station_id":"MGB","line":2,"is_transit":false,"time":2,"transit":false},{"i_lat":-6.160725,"i_long":106.827103,"line":2,"time":2,"distance":906,"station_id":"SW","station_name":"Sawah Besar","is_transit":false,"transit":false},{"station_name":"Juanda","is_transit":false,"i_long":106.828284,"line":2,"time":2,"station_id":"JUA","i_lat":-6.166716,"transit":false,"distance":1149},{"is_transit":false,"i_lat":-6.186295,"i_long":106.832183,"station_id":"GDD","time":4,"line":2,"transit":false,"station_name":"Gondangdia","distance":2015},{"i_long":106.840169,"line":2,"station_name":"Cikini","is_transit":false,"distance":1750,"i_lat":-6.198556,"time":3,"transit":false,"station_id":"CKI"},{"distance":1590,"is_transit":true,"transit":true,"i_lat":-6.209883,"station_name":"Manggarai","station_id":"MRI","i_long":106.84912,"line":2,"time":4},{"transit":false,"i_lat":-6.212485,"station_id":"MTR","line":1,"i_long":106.858896,"station_name":"Matraman","is_transit":false,"time":2,"distance":1275},{"station_name":"Jatinegara","is_transit":false,"time":8,"i_lat":-6.215091,"distance":1377,"transit":false,"i_long":106.86807400000001,"station_id":"JNG","line":1},{"transit":false,"i_lat":-6.2135,"is_transit":false,"station_name":"Klender","i_long":106.899548,"line":1,"time":3,"station_id":"KLD","distance":3395},{"i_long":106.922662,"station_name":"Buaran","station_id":"BUA","time":2,"transit":false,"line":1,"is_transit":false,"i_lat":-6.215568,"distance":3100},{"is_transit":false,"i_long":106.939679,"station_name":"Klenderbaru","i_lat":-6.217455,"transit":false,"time":1,"distance":1305,"line":1,"station_id":"KLDB"},{"transit":false,"line":1,"station_id":"CUK","station_name":"Cakung","is_transit":false,"distance":1385,"i_lat":-6.219053,"time":8,"i_long":106.951283}],[{"is_transit":false,"distance":0,"transit":false,"station_name":"Sudirman","i_lat":-6.202263,"line":1,"station_id":"SUD","time":0,"i_long":106.822649},{"station_id":"MRI","station_name":"Manggarai","is_transit":true,"i_lat":-6.209883,"distance":3186,"time":4,"transit":true,"i_long":106.84912,"line":2},{"is_transit":false,"transit":false,"i_lat":-6.198556,"line":2,"distance":1590,"station_id":"CKI","station_name":"Cikini","time":4,"i_long":106.840169},{"i_long":106.832183,"i_lat":-6.186295,"line":2,"station_name":"Gondangdia","is_transit":false,"transit":false,"station_id":"GDD","time":3,"distance":1750},{"time":4,"distance":2015,"i_lat":-6.166716,"i_long":106.828284,"station_name":"Juanda","line":2,"station_id":"JUA","transit":false,"is_transit":false},{"i_long":106.827103,"transit":false,"station_name":"Sawah Besar","line":2,"i_lat":-6.160725,"is_transit":false,"station_id":"SW","time":2,"distance":1149},{"station_id":"MGB","is_transit":false,"i_lat":-6.149769,"i_long":106.82482,"distance":906,"time":2,"line":2,"station_name":"Manggabesar","transit":false},{"i_lat":-6.141205,"line":2,"transit":false,"distance":1080,"is_transit":false,"time":2,"station_id":"JAY","station_name":"Jayakarta","i_long":106.820901},{"is_transit":true,"line":2,"distance":1264,"i_long":106.812439,"time":4,"i_lat":-6.137569,"station_id":"JAKK","transit":true,"station_name":"Jakarta Kota"},{"station_name":"Kampung Bandan","transit":true,"distance":1364,"i_long":106.826365,"time":3,"line":4,"i_lat":-6.132549,"station_id":"KPB","is_transit":true},{"transit":false,"i_long":106.836569,"line":11,"distance":1444,"is_transit":false,"station_name":"Rajawali","station_id":"RJW","i_lat":-6.14505,"time":3},{"station_name":"Kemayoran","distance":1901,"is_transit":false,"transit":false,"i_lat":-6.161728,"i_long":106.839204,"line":11,"time":5,"station_id":"KMO"},{"time":4,"station_id":"PSE","station_name":"Pasar Senen","is_transit":false,"i_lat":-6.174784,"line":11,"i_long":106.84368,"transit":false,"distance":1436},{"distance":1567,"time":8,"station_id":"GST","i_lat":-6.185975,"is_transit":false,"i_long":106.850107,"station_name":"Gang Sentiong","transit":false,"line":11},{"station_id":"KMT","is_transit":false,"station_name":"Kramat","line":11,"distance":973,"i_lat":-6.193792,"transit":false,"i_long":106.855437,"time":1},{"station_name":"Pondok Jati","line":11,"time":2,"station_id":"POK","transit":false,"i_lat":-6.209188,"is_transit":false,"distance":1829,"i_long":106.861737},{"station_name":"Jatinegara","i_long":106.86807400000001,"station_id":"JNG","time":9,"i_lat":-6.215091,"line":1,"is_transit":true,"transit":true,"distance":1236},{"time":3,"distance":3395,"i_lat":-6.2135,"station_id":"KLD","line":1,"station_name":"Klender","is_transit":false,"transit":false,"i_long":106.899548},{"transit":false,"i_lat":-6.215568,"is_transit":false,"time":2,"station_id":"BUA","station_name":"Buaran","i_long":106.922662,"distance":3100,"line":1},{"station_id":"KLDB","i_lat":-6.217455,"transit":false,"line":1,"distance":1305,"time":1,"station_name":"Klenderbaru","i_long":106.939679,"is_transit":false},{"i_lat":-6.219053,"i_long":106.951283,"station_name":"Cakung","line":1,"station_id":"CUK","distance":1385,"is_transit":false,"time":8,"transit":false}]]}