{"data":[[{"station_id":"SUD","time":0,"distance":0,"i_lat":-6.202263,"line":1,"i_long":106.822649,"is_transit":false,"transit":false,"station_name":"Sudirman"},{"i_long":106.84912,"transit":true,"station_name":"Manggarai","i_lat":-6.209883,"line":2,"distance":3186,"station_id":"MRI","is_transit":true,"time":4},{"time":4,"line":2,"station_name":"Tebet","transit":false,"station_id":"TEB","distance":2610,"i_lat":-6.226659,"i_long":106.857948,"is_transit":false},{"is_transit":false,"time":2,"line":2,"station_name":"Cawang","station_id":"CW","i_lat":-6.242512,"i_long":106.856607,"distance":1230,"transit":false},{"is_transit":false,"time":3,"transit":false,"line":2,"distance":1546,"station_id":"DRN","station_name":"Duren Kalibata","i_long":106.85449,"i_lat":-6.255332},{"is_transit":false,"distance":824,"line":2,"transit":false,"station_name":"Pasar Minggu Baru","station_id":"PSMB","time":2,"i_lat":-6.263214,"i_long":106.851577},{"is_transit":false,"transit":false,"station_name":"Pasar Minggu","station_id":"PSM","time":2,"distance":2380,"line":2,"i_long":106.843999,"i_lat":-6.2842400000000005},{"station_id":"TNT","i_long":106.838896,"time":4,"transit":false,"is_transit":false,"distance":2820,"i_lat":-6.3080680000000005,"station_name":"Tanjung Barat","line":2},{"time":3,"distance":2671,"i_long":106.832616,"line":2,"i_lat":-6.330363,"station_id":"LNA","transit":false,"is_transit":false,"station_name":"Lenteng Agung"}],[{"is_transit":false,"i_long":106.822649,"i_lat":-6.202263,"station_id":"SUD","time":0,"station_name":"Sudirman","distance":0,"transit":false,"line":1},{"station_id":"SUDB","distance":280,"i_long":106.819881,"time":1,"i_lat":-6.201433,"transit":false,"line":1,"station_name":"Sudirman Baru","is_transit":false},{"is_transit":false,"distance":471,"time":1,"station_id":"KAT","transit":false,"station_name":"Karet","i_long":106.816351,"line":1,"i_lat":-6.20132},{"distance":2029,"i_lat":-6.185545,"line":1,"time":5,"i_long":106.811091,"station_name":"Tanah Abang","station_id":"THB","transit":false,"is_transit":false},{"station_name":"Duri","time":8,"line":1,"station_id":"DU","i_lat":-6.155215,"is_transit":false,"transit":false,"distance":3632,"i_long":106.800832},{"line":1,"distance":1230,"i_long":106.79867,"station_id":"AK","time":4,"is_transit":false,"transit":false,"station_name":"Angke","i_lat":-6.144674},{"distance":4102,"i_lat":-6.132549,"time":9,"station_name":"Kampung Bandan","i_long":106.826365,"transit":true,"line":4,"is_transit":true,"station_id":"KPB"},{"station_id":"JAKK","distance":1364,"i_long":106.812439,"line":2,"time":3,"transit":true,"is_transit":true,"i_lat":-6.137569,"station_name":"Jakarta Kota"},{"transit":false,"i_long":106.820901,"line":2,"is_transit":false,"i_lat":-6.141205,"station_id":"JAY","station_name":"Jayakarta","time":4,"distance":1264},{"station_name":"Manggabesar","transit":false,"i_long":106.82482,"line":2,"is_transit":false,"station_id":"MGB","distance":1080,"i_lat":-6.149769,"time":2},{"is_transit":false,"station_id":"SW","i_lat":-6.160725,"transit":false,"station_name":"Sawah Besar","i_long":106.827103,"line":2,"time":2,"distance":906},{"station_id":"JUA","transit":false,"i_long":106.828284,"is_transit":false,"time":2,"distance":1149,"station_name":"Juanda","i_lat":-6.166716,"line":2},{"station_id":"GDD","i_lat":-6.186295,"is_transit":false,"station_name":"Gondangdia","time":4,"distance":2015,"transit":false,"i_long":106.832183,"line":2},{"transit":false,"is_transit":false,"time":3,"distance":1750,"i_lat":-6.198556,"i_long":106.840169,"line":2,"station_id":"CKI","station_name":"Cikini"},{"distance":1590,"i_long":106.84912,"station_name":"Manggarai","time":4,"is_transit":false,"transit":false,"i_lat":-6.209883,"line":2,"station_id":"MRI"},{"is_transit":false,"distance":2610,"station_id":"TEB","i_lat":-6.226659,"i_long":106.857948,"line":2,"transit":false,"station_name":"Tebet","time":4},{"i_lat":-6.242512,"is_transit":false,"station_id":"CW","transit":false,"station_name":"Cawang","time":2,"distance":1230,"line":2,"i_long":106.856607},{"time":3,"i_long":106.85449,"is_transit":false,"station_id":"DRN","distance":1546,"line":2,"i_lat":-6.255332,"transit":false,"station_name":"Duren Kalibata"},{"line":2,"distance":824,"i_lat":-6.263214,"station_name":"Pasar Minggu Baru","station_id":"PSMB","transit":false,"i_long":106.851577,"time":2,"is_transit":false},{"station_name":"Pasar Minggu","is_transit":false,"distance":2380,"i_lat":-6.2842400000000005,"time":2,"i_long":106.843999,"transit":false,"line":2,"station_id":"PSM"},{"time":4,"transit":false,"is_transit":false,"line":2,"station_id":"TNT","distance":2820,"i_long":106.838896,"i_lat":-6.3080680000000005,"station_name":"Tanjung Barat"},{"time":3,"transit":false,"station_id":"LNA","is_transit":false,"distance":2671,"line":2,"i_lat":-6.330363,"i_long":106.832616,"station_name":"Lenteng Agung"}],[{"i_long":106.822649,"is_transit":false,"station_id":"SUD","time":0,"station_name":"Sudirman","i_lat":-6.202263,"line":1,"transit":false,"distance":0},{"i_long":106.819881,"station_id":"SUDB","transit":false,"line":1,"is_transit":false,"time":1,"i_lat":-6.201433,"station_name":"Sudirman Baru","distance":280},{"i_lat":-6.20132,"line":1,"time":1,"transit":false,"station_id":"KAT","is_transit":false,"i_long":106.816351,"station_name":"Karet","distance":471},{"is_transit":false,"i_lat":-6.185545,"station_id":"THB","line":1,"i_long":106.811091,"station_name":"Tanah Abang","distance":2029,"time":5,"transit":false},{"line":1,"time":8,"station_name":"Duri","i_lat":-6.155215,"distance":3632,"i_long":106.800832,"transit":false,"station_id":"DU","is_transit":false},{"i_lat":-6.144674,"distance":1230,"station_name":"Angke","station_id":"AK","line":1,"transit":false,"is_transit":false,"time":4,"i_long":106.79867},{"station_name":"Kampung Bandan","line":4,"station_id":"KPB","distance":4102,"time":9,"transit":true,"is_transit":true,"i_long":106.826365,"i_lat":-6.132549},{"time":3,"transit":false,"station_id":"RJW","is_transit":false,"distance":1444,"line":11,"station_name":"Rajawali","i_long":106.836569,"i_lat":-6.14505},{"transit":false,"time":5,"station_id":"KMO","distance":1901,"i_lat":-6.161728,"is_transit":false,"i_long":106.839204,"station_name":"Kemayoran","line":11},{"line":11,"i_lat":-6.174784,"transit":false,"distance":1436,"station_id":"PSE","is_transit":false,"time":4,"station_name":"Pasar Senen","i_long":106.84368},{"distance":1567,"line":11,"transit":false,"i_lat":-6.185975,"station_name":"Gang Sentiong","time":8,"station_id":"GST","i_long":106.850107,"is_transit":false},{"station_id":"KMT","i_lat":-6.193792,"distance":973,"line":11,"is_transit":false,"station_name":"Kramat","transit":false,"time":1,"i_long":106.855437},{"is_transit":false,"transit":false,"station_id":"POK","time":2,"station_name":"Pondok Jati","distance":1829,"line":11,"i_lat":-6.209188,"i_long":106.861737},{"transit":true,"station_id":"JNG","line":1,"is_transit":true,"time":9,"station_name":"Jatinegara","distance":1236,"i_lat":-6.215091,"i_long":106.86807400000001},{"transit":false,"distance":1377,"i_lat":-6.212485,"station_id":"MTR","station_name":"Matraman","is_transit":false,"i_long":106.858896,"line":1,"time":2},{"i_lat":-6.209883,"distance":1275,"station_id":"MRI","is_transit":true,"i_long":106.84912,"transit":true,"line":2,"station_name":"Manggarai","time":2},{"station_name":"Tebet","i_lat":-6.226659,"line":2,"is_transit":false,"station_id":"TEB","i_long":106.857948,"time":4,"distance":2610,"transit":false},{"distance":1230,"station_name":"Cawang","time":2,"transit":false,"station_id":"CW","is_transit":false,"i_lat":-6.242512,"i_long":106.856607,"line":2},{"time":3,"line":2,"is_transit":false,"distance":1546,"i_lat":-6.255332,"station_name":"Duren Kalibata","transit":false,"station_id":"DRN","i_long":106.85449},{"i_lat":-6.263214,"i_long":106.851577,"line":2,"station_id":"PSMB","is_transit":false,"time":2,"transit":false,"station_name":"Pasar Minggu Baru","distance":824},{"distance":2380,"transit":false,"time":2,"station_name":"Pasar Minggu","i_lat":-6.2842400000000005,"i_long":106.843999,"is_transit":false,"station_id":"PSM","line":2},{"distance":2820,"i_lat":-6.3080680000000005,"line":2,"station_name":"Tanjung Barat","i_long":106.838896,"time":4,"transit":false,"is_transit":false,"station_id":"TNT"},{"time":3,"station_id":"LNA","i_lat":-6.330363,"station_name":"Lenteng Agung","transit":false,"i_long":106.832616,"line":2,"is_transit":false,"distance":2671}]]}