{"data":[[{"i_lat":-6.202263,"is_transit":false,"i_long":106.822649,"station_id":"SUD","time":0,"line":1,"distance":0,"station_name":"Sudirman","transit":false},{"station_id":"MRI","i_lat":-6.209883,"is_transit":false,"distance":3186,"i_long":106.84912,"time":4,"transit":false,"station_name":"Manggarai","line":2},{"i_long":106.858896,"station_id":"MTR","distance":1275,"time":2,"transit":false,"line":1,"is_transit":false,"i_lat":-6.212485,"station_name":"Matraman"},{"is_transit":true,"time":8,"i_lat":-6.215091,"station_name":"Jatinegara","transit":true,"line":1,"distance":1377,"station_id":"JNG","i_long":106.86807400000001},{"is_transit":false,"station_id":"POK","transit":false,"i_long":106.861737,"distance":1236,"station_name":"Pondok Jati","time":2,"line":11,"i_lat":-6.209188},{"transit":false,"is_transit":false,"distance":1829,"station_id":"KMT","i_long":106.855437,"time":2,"line":11,"station_name":"Kramat","i_lat":-6.193792},{"i_long":106.850107,"distance":973,"is_transit":false,"time":1,"station_name":"Gang Sentiong","station_id":"GST","transit":false,"line":11,"i_lat":-6.185975},{"is_transit":false,"i_lat":-6.174784,"time":8,"station_id":"PSE","station_name":"Pasar Senen","transit":false,"i_long":106.84368,"line":11,"distance":1567}],[{"i_long":106.822649,"station_id":"SUD","distance":0,"line":1,"is_transit":false,"station_name":"Sudirman","i_lat":-6.202263,"transit":false,"time":0},{"distance":280,"i_long":106.819881,"time":1,"i_lat":-6.201433,"line":1,"is_transit":false,"transit":false,"station_id":"SUDB","station_name":"Sudirman Baru"},{"distance":471,"transit":false,"is_transit":false,"i_long":106.816351,"time":1,"line":1,"i_lat":-6.20132,"station_id":"KAT","station_name":"Karet"},{"i_long":106.811091,"time":5,"station_id":"THB","i_lat":-6.185545,"is_transit":false,"distance":2029,"station_name":"Tanah Abang","line":1,"transit":false},{"is_transit":false,"time":8,"line":1,"transit":false,"i_lat":-6.155215,"distance":3632,"i_long":106.800832,"station_id":"DU","station_name":"Duri"},{"is_transit":false,"station_name":"Angke","i_lat":-6.144674,"station_id":"AK","line":1,"i_long":106.79867,"distance":1230,"time":4,"transit":false},{"i_long":106.826365,"time":9,"transit":true,"station_name":"Kampung Bandan","is_transit":true,"distance":4102,"line":4,"station_id":"KPB","i_lat":-6.132549},{"line":11,"i_lat":-6.14505,"station_id":"RJW","distance":1444,"time":3,"transit":false,"i_long":106.836569,"station_name":"Rajawali","is_transit":false},{"transit":false,"line":11,"i_long":106.839204,"distance":1901,"is_transit":false,"station_id":"KMO","time":5,"station_name":"Kemayoran","i_lat":-6.161728},{"station_id":"PSE","i_lat":-6.174784,"station_name":"Pasar Senen","line":11,"distance":1436,"transit":false,"i_long":106.84368,"time":4,"is_transit":false}],[{"is_transit":false,"line":1,"i_long":106.822649,"i_lat":-6.202263,"distance":0,"station_name":"Sudirman","time":0,"station_id":"SUD","transit":false},{"time":4,"station_id":"MRI","i_lat":-6.209883,"transit":true,"i_long":106.84912,"line":2,"is_transit":true,"distance":3186,"station_name":"Manggarai"},{"i_long":106.840169,"distance":1590,"line":2,"time":4,"is_transit":false,"station_id":"CKI","transit":false,"i_lat":-6.198556,"station_name":"Cikini"},{"line":2,"distance":1750,"time":3,"is_transit":false,"i_lat":-6.186295,"transit":false,"station_name":"Gondangdia","i_long":106.832183,"station_id":"GDD"},{"time":4,"line":2,"is_transit":false,"station_name":"Juanda","distance":2015,"i_long":106.828284,"station_id":"JUA","i_lat":-6.166716,"transit":false},{"i_lat":-6.160725,"time":2,"station_id":"SW","distance":1149,"is_transit":false,"i_long":106.827103,"line":2,"transit":false,"station_name":"Sawah Besar"},{"distance":906,"line":2,"station_id":"MGB","transit":false,"i_lat":-6.149769,"i_long":106.82482,"station_name":"Manggabesar","is_transit":false,"time":2},{"transit":false,"station_id":"JAY","station_name":"Jayakarta","is_transit":false,"i_lat":-6.141205,"line":2,"time":2,"i_long":106.820901,"distance":1080},{"station_id":"JAKK","time":4,"station_name":"Jakarta Kota","transit":true,"i_lat":-6.137569,"i_long":106.812439,"line":2,"distance":1264,"is_transit":true},{"station_name":"Kampung Bandan","time":3,"i_lat":-6.132549,"line":4,"i_long":106.826365,"transit":true,"distance":1364,"station_id":"KPB","is_transit":true},{"distance":1444,"transit":false,"time":3,"is_transit":false,"i_long":106.836569,"line":11,"station_name":"Rajawali","station_id":"RJW","i_lat":-6.14505},{"transit":false,"is_transit":false,"distance":1901,"station_name":"Kemayoran","station_id":"KMO","i_long":106.839204,"i_lat":-6.161728,"line":11,"time":5},{"i_lat":-6.174784,"is_transit":false,"i_long":106.84368,"line":11,"station_id":"PSE","distance":1436,"transit":false,"time":4,"station_name":"Pasar Senen"}],[{"time":0,"distance":0,"i_long":106.822649,"station_id":"SUD","line":1,"is_transit":false,"i_lat":-6.202263,"transit":false,"station_name":"Sudirman"},{"i_long":106.819881,"distance":280,"time":1,"line":1,"i_lat":-6.201433,"station_name":"Sudirman Baru","station_id":"SUDB","is_transit":false,"transit":false},{"line":1,"distance":471,"is_transit":false,"station_name":"Karet","station_id":"KAT","time":1,"transit":false,"i_lat":-6.20132,"i_long":106.816351},{"is_transit":false,"station_id":"THB","time":5,"i_lat":-6.185545,"i_long":106.811091,"line":1,"transit":false,"distance":2029,"station_name":"Tanah Abang"},{"station_id":"DU","i_long":106.800832,"line":1,"transit":false,"time":8,"distance":3632,"is_transit":false,"station_name":"Duri","i_lat":-6.155215},{"i_long":106.79867,"i_lat":-6.144674,"station_id":"AK","station_name":"Angke","distance":1230,"time":4,"transit":false,"is_transit":false,"line":1},{"line":4,"distance":4102,"i_long":106.826365,"station_name":"Kampung Bandan","station_id":"KPB","transit":true,"i_lat":-6.132549,"time":9,"is_transit":true},{"line":2,"station_name":"Jakarta Kota","i_long":106.812439,"transit":true,"time":3,"i_lat":-6.137569,"is_transit":true,"distance":1364,"station_id":"JAKK"},{"is_transit":false,"station_name":"Jayakarta","transit":false,"time":4,"station_id":"JAY","line":2,"i_lat":-6.141205,"i_long":106.820901,"distance":1264},{"distance":1080,"transit":false,"is_transit":false,"station_name":"Manggabesar","i_long":106.82482,"line":2,"time":2,"station_id":"MGB","i_lat":-6.149769},{"station_name":"Sawah Besar","time":2,"station_id":"SW","transit":false,"i_lat":-6.160725,"i_long":106.827103,"is_transit":false,"line":2,"distance":906},{"distance":1149,"transit":false,"i_lat":-6.166716,"is_transit":false,"line":2,"time":2,"station_id":"JUA","i_long":106.828284,"station_name":"Juanda"},{"is_transit":false,"transit":false,"station_name":"Gondangdia","station_id":"GDD","line":2,"i_long":106.832183,"i_lat":-6.186295,"distance":2015,"time":4},{"is_transit":false,"transit":false,"station_id":"CKI","line":2,"i_lat":-6.198556,"station_name":"Cikini","distance":1750,"i_long":106.840169,"time":3},{"time":4,"distance":1590,"transit":true,"station_id":"MRI","i_lat":-6.209883,"line":2,"station_name":"Manggarai","i_long":106.84912,"is_transit":true},{"is_transit":false,"line":1,"station_id":"MTR","transit":false,"time":2,"station_name":"Matraman","i_lat":-6.212485,"distance":1275,"i_long":106.858896},{"i_long":106.86807400000001,"distance":1377,"time":8,"transit":true,"station_id":"JNG","station_name":"Jatinegara","is_transit":true,"line":1,"i_lat":-6.215091},{"station_name":"Pondok Jati","i_lat":-6.209188,"station_id":"POK","i_long":106.861737,"distance":1236,"time":2,"transit":false,"is_transit":false,"line":11},{"line":11,"distance":1829,"time":2,"is_transit":false,"i_lat":-6.193792,"station_id":"KMT","station_name":"Kramat","i_long":106.855437,"transit":false},{"time":1,"distance":973,"transit":false,"is_transit":false,"i_long":106.850107,"station_name":"Gang Sentiong","station_id":"GST","line":11,"i_lat":-6.185975},{"is_transit":false,"time":8,"i_long":106.84368,"line":11,"i_lat":-6.174784,"station_id":"PSE","transit":false,"station_name":"Pasar Senen","distance":1567}]]}