{"data":[[{"time":0,"transit":false,"station_name":"Sudirman","i_long":106.822649,"line":1,"station_id":"SUD","distance":0,"is_transit":false,"i_lat":-6.202263},{"distance":3186,"station_name":"Manggarai","station_id":"MRI","line":2,"i_lat":-6.209883,"transit":true,"time":4,"is_transit":true,"i_long":106.84912},{"distance":2610,"station_id":"TEB","i_long":106.857948,"line":2,"station_name":"Tebet","is_transit":false,"time":4,"transit":false,"i_lat":-6.226659},{"i_long":106.856607,"distance":1230,"time":2,"line":2,"is_transit":false,"station_id":"CW","transit":false,"station_name":"Cawang","i_lat":-6.242512},{"i_lat":-6.255332,"i_long":106.85449,"is_transit":false,"time":3,"distance":1546,"station_id":"DRN","transit":false,"line":2,"station_name":"Duren Kalibata"},{"i_lat":-6.263214,"line":2,"time":2,"transit":false,"is_transit":false,"distance":824,"i_long":106.851577,"station_name":"Pasar Minggu Baru","station_id":"PSMB"},{"time":2,"transit":false,"line":2,"is_transit":false,"distance":2380,"station_id":"PSM","i_long":106.843999,"station_name":"Pasar Minggu","i_lat":-6.2842400000000005},{"distance":2820,"i_lat":-6.3080680000000005,"is_transit":false,"transit":false,"i_long":106.838896,"station_id":"TNT","time":4,"line":2,"station_name":"Tanjung Barat"},{"station_id":"LNA","station_name":"Lenteng Agung","is_transit":false,"time":3,"distance":2671,"i_long":106.832616,"i_lat":-6.330363,"transit":false,"line":2},{"transit":false,"i_long":106.834175,"i_lat":-6.339291,"station_id":"UP","line":2,"distance":1029,"time":2,"station_name":"Univ. Pancasila","is_transit":false},{"station_name":"Univ. Indonesia","line":2,"i_long":106.831474,"time":3,"is_transit":false,"i_lat":-6.360749,"distance":2264,"station_id":"UI","transit":false},{"transit":false,"station_id":"POC","station_name":"Pondok Cina","is_transit":false,"line":2,"time":2,"i_long":106.831114,"distance":1109,"i_lat":-6.369073}],[{"line":1,"transit":false,"is_transit":false,"time":0,"station_name":"Sudirman","i_long":106.822649,"i_lat":-6.202263,"station_id":"SUD","distance":0},{"station_id":"SUDB","distance":280,"i_lat":-6.201433,"i_long":106.819881,"is_transit":false,"transit":false,"time":1,"station_name":"Sudirman Baru","line":1},{"time":1,"distance":471,"transit":false,"station_name":"Karet","line":1,"i_lat":-6.20132,"i_long":106.816351,"station_id":"KAT","is_transit":false},{"distance":2029,"is_transit":false,"transit":false,"station_id":"THB","station_name":"Tanah Abang","i_lat":-6.185545,"i_long":106.811091,"time":5,"line":1},{"distance":3632,"time":8,"transit":false,"station_name":"Duri","i_lat":-6.155215,"is_transit":false,"line":1,"i_long":106.800832,"station_id":"DU"},{"station_id":"AK","i_long":106.79867,"i_lat":-6.144674,"is_transit":false,"time":4,"line":1,"distance":1230,"transit":false,"station_name":"Angke"},{"time":9,"distance":4102,"is_transit":true,"i_long":106.826365,"station_name":"Kampung Bandan","i_lat":-6.132549,"line":4,"transit":true,"station_id":"KPB"},{"station_name":"Jakarta Kota","is_transit":true,"time":3,"distance":1364,"i_long":106.812439,"transit":true,"station_id":"JAKK","i_lat":-6.137569,"line":2},{"station_id":"JAY","distance":1264,"i_lat":-6.141205,"line":2,"time":4,"station_name":"Jayakarta","transit":false,"i_long":106.820901,"is_transit":false},{"station_name":"Manggabesar","i_lat":-6.149769,"time":2,"station_id":"MGB","i_long":106.82482,"line":2,"transit":false,"distance":1080,"is_transit":false},{"distance":906,"station_id":"SW","transit":false,"i_lat":-6.160725,"i_long":106.827103,"station_name":"Sawah Besar","time":2,"is_transit":false,"line":2},{"station_name":"Juanda","i_lat":-6.166716,"i_long":106.828284,"line":2,"transit":false,"is_transit":false,"station_id":"JUA","distance":1149,"time":2},{"line":2,"transit":false,"time":4,"station_id":"GDD","is_transit":false,"station_name":"Gondangdia","distance":2015,"i_lat":-6.186295,"i_long":106.832183},{"time":3,"i_long":106.840169,"line":2,"station_name":"Cikini","transit":false,"i_lat":-6.198556,"station_id":"CKI","distance":1750,"is_transit":false},{"transit":false,"i_lat":-6.209883,"distance":1590,"i_long":106.84912,"line":2,"station_name":"Manggarai","time":4,"station_id":"MRI","is_transit":false},{"i_lat":-6.226659,"line":2,"station_id":"TEB","i_long":106.857948,"transit":false,"station_name":"Tebet","distance":2610,"time":4,"is_transit":false},{"is_transit":false,"transit":false,"station_id":"CW","line":2,"station_name":"Cawang","i_long":106.856607,"distance":1230,"time":2,"i_lat":-6.242512},{"station_name":"Duren Kalibata","is_transit":false,"line":2,"distance":1546,"i_lat":-6.255332,"i_long":106.85449,"station_id":"DRN","time":3,"transit":false},{"time":2,"station_name":"Pasar Minggu Baru","station_id":"PSMB","i_long":106.851577,"line":2,"transit":false,"is_transit":false,"i_lat":-6.263214,"distance":824},{"line":2,"is_transit":false,"transit":false,"station_name":"Pasar Minggu","i_lat":-6.2842400000000005,"station_id":"PSM","distance":2380,"time":2,"i_long":106.843999},{"station_name":"Tanjung Barat","line":2,"time":4,"transit":false,"i_lat":-6.3080680000000005,"i_long":106.838896,"station_id":"TNT","is_transit":false,"distance":2820},{"time":3,"distance":2671,"transit":false,"station_name":"Lenteng Agung","station_id":"LNA","is_transit":false,"i_long":106.832616,"line":2,"i_lat":-6.330363},{"distance":1029,"station_id":"UP","line":2,"time":2,"is_transit":false,"station_name":"Univ. Pancasila","transit":false,"i_lat":-6.339291,"i_long":106.834175},{"station_name":"Univ. Indonesia","transit":false,"station_id":"UI","is_transit":false,"time":3,"i_long":106.831474,"distance":2264,"line":2,"i_lat":-6.360749},{"station_name":"Pondok Cina","time":2,"transit":false,"i_lat":-6.369073,"i_long":106.831114,"distance":1109,"line":2,"is_transit":false,"station_id":"POC"}],[{"distance":0,"station_id":"SUD","is_transit":false,"station_name":"Sudirman","i_lat":-6.202263,"time":0,"i_long":106.822649,"line":1,"transit":false},{"transit":false,"i_lat":-6.201433,"line":1,"station_name":"Sudirman Baru","time":1,"i_long":106.819881,"distance":280,"is_transit":false,"station_id":"SUDB"},{"station_id":"KAT","transit":false,"is_transit":false,"line":1,"station_name":"Karet","i_long":106.816351,"distance":471,"i_lat":-6.20132,"time":1},{"line":1,"distance":2029,"transit":false,"station_id":"THB","time":5,"station_name":"Tanah Abang","is_transit":false,"i_lat":-6.185545,"i_long":106.811091},{"line":1,"transit":false,"is_transit":false,"distance":3632,"station_name":"Duri","station_id":"DU","time":8,"i_long":106.800832,"i_lat":-6.155215},{"station_name":"Angke","i_lat":-6.144674,"distance":1230,"station_id":"AK","is_transit":false,"line":1,"i_long":106.79867,"transit":false,"time":4},{"is_transit":true,"i_lat":-6.132549,"line":4,"distance":4102,"time":9,"i_long":106.826365,"transit":true,"station_id":"KPB","station_name":"Kampung Bandan"},{"time":3,"i_long":106.836569,"is_transit":false,"line":11,"transit":false,"station_name":"Rajawali","distance":1444,"station_id":"RJW","i_lat":-6.14505},{"station_name":"Kemayoran","i_long":106.839204,"time":5,"station_id":"KMO","transit":false,"distance":1901,"is_transit":false,"i_lat":-6.161728,"line":11},{"is_transit":false,"distance":1436,"time":4,"transit":false,"i_long":106.84368,"line":11,"station_id":"PSE","i_lat":-6.174784,"station_name":"Pasar Senen"},{"is_transit":false,"i_long":106.850107,"line":11,"transit":false,"time":8,"station_name":"Gang Sentiong","station_id":"GST","distance":1567,"i_lat":-6.185975},{"station_id":"KMT","transit":false,"distance":973,"station_name":"Kramat","i_long":106.855437,"line":11,"i_lat":-6.193792,"is_transit":false,"time":1},{"line":11,"transit":false,"i_lat":-6.209188,"station_id":"POK","is_transit":false,"station_name":"Pondok Jati","time":2,"distance":1829,"i_long":106.861737},{"station_name":"Jatinegara","time":9,"i_lat":-6.215091,"is_transit":true,"station_id":"JNG","i_long":106.86807400000001,"distance":1236,"transit":true,"line":1},{"time":2,"station_name":"Matraman","transit":false,"line":1,"i_long":106.858896,"station_id":"MTR","distance":1377,"is_transit":false,"i_lat":-6.212485},{"transit":true,"i_lat":-6.209883,"i_long":106.84912,"distance":1275,"station_name":"Manggarai","station_id":"MRI","is_transit":true,"time":2,"line":2},{"i_lat":-6.226659,"station_id":"TEB","i_long":106.857948,"line":2,"station_name":"Tebet","time":4,"distance":2610,"transit":false,"is_transit":false},{"transit":false,"is_transit":false,"time":2,"station_name":"Cawang","i_lat":-6.242512,"station_id":"CW","i_long":106.856607,"line":2,"distance":1230},{"time":3,"i_lat":-6.255332,"distance":1546,"station_name":"Duren Kalibata","station_id":"DRN","line":2,"is_transit":false,"i_long":106.85449,"transit":false},{"i_long":106.851577,"transit":false,"is_transit":false,"station_name":"Pasar Minggu Baru","station_id":"PSMB","i_lat":-6.263214,"line":2,"distance":824,"time":2},{"transit":false,"distance":2380,"i_long":106.843999,"line":2,"station_id":"PSM","is_transit":false,"i_lat":-6.2842400000000005,"station_name":"Pasar Minggu","time":2},{"distance":2820,"is_transit":false,"line":2,"i_long":106.838896,"station_name":"Tanjung Barat","i_lat":-6.3080680000000005,"transit":false,"time":4,"station_id":"TNT"},{"i_lat":-6.330363,"line":2,"i_long":106.832616,"station_id":"LNA","distance":2671,"time":3,"station_name":"Lenteng Agung","transit":false,"is_transit":false},{"station_name":"Univ. Pancasila","station_id":"UP","time":2,"i_lat":-6.339291,"distance":1029,"line":2,"i_long":106.834175,"is_transit":false,"transit":false},{"time":3,"i_long":106.831474,"line":2,"station_id":"UI","is_transit":false,"i_lat":-6.360749,"distance":2264,"station_name":"Univ. Indonesia","transit":false},{"transit":false,"is_transit":false,"time":2,"station_name":"Pondok Cina","i_lat":-6.369073,"line":2,"i_long":106.831114,"distance":1109,"station_id":"POC"}]]}