{"data":[[{"line":1,"i_lat":-6.202263,"time":0,"is_transit":false,"distance":0,"station_id":"SUD","station_name":"Sudirman","transit":false,"i_long":106.822649},{"time":4,"transit":true,"i_long":106.84912,"i_lat":-6.209883,"is_transit":true,"line":2,"distance":3186,"station_id":"MRI","station_name":"Manggarai"},{"line":2,"station_name":"Tebet","station_id":"TEB","is_transit":false,"time":4,"i_long":106.857948,"i_lat":-6.226659,"transit":false,"distance":2610},{"station_id":"CW","transit":false,"distance":1230,"time":2,"station_name":"Cawang","i_long":106.856607,"i_lat":-6.242512,"line":2,"is_transit":false},{"distance":1546,"i_lat":-6.255332,"station_name":"Duren Kalibata","is_transit":false,"line":2,"transit":false,"i_long":106.85449,"station_id":"DRN","time":3},{"line":2,"i_lat":-6.263214,"station_name":"Pasar Minggu Baru","is_transit":false,"transit":false,"distance":824,"i_long":106.851577,"time":2,"station_id":"PSMB"},{"distance":2380,"station_name":"Pasar Minggu","transit":false,"is_transit":false,"i_lat":-6.2842400000000005,"station_id":"PSM","line":2,"time":2,"i_long":106.843999},{"station_name":"Tanjung Barat","line":2,"i_long":106.838896,"time":4,"i_lat":-6.3080680000000005,"station_id":"TNT","is_transit":false,"transit":false,"distance":2820},{"i_long":106.832616,"transit":false,"distance":2671,"station_name":"Lenteng Agung","is_transit":false,"line":2,"time":3,"station_id":"LNA","i_lat":-6.330363}],[{"i_long":106.822649,"time":0,"i_lat":-6.202263,"is_transit":false,"transit":false,"station_name":"Sudirman","station_id":"SUD","line":1,"distance":0},{"station_id":"SUDB","time":1,"i_long":106.819881,"transit":false,"line":1,"is_transit":false,"i_lat":-6.201433,"station_name":"Sudirman Baru","distance":280},{"distance":471,"transit":false,"i_lat":-6.20132,"i_long":106.816351,"line":1,"time":1,"is_transit":false,"station_id":"KAT","station_name":"Karet"},{"distance":2029,"station_name":"Tanah Abang","is_transit":false,"station_id":"THB","time":5,"line":1,"i_lat":-6.185545,"i_long":106.811091,"transit":false},{"transit":false,"station_id":"DU","line":1,"i_lat":-6.155215,"distance":3632,"station_name":"Duri","is_transit":false,"i_long":106.800832,"time":8},{"is_transit":false,"transit":false,"time":4,"station_name":"Angke","i_long":106.79867,"distance":1230,"station_id":"AK","i_lat":-6.144674,"line":1},{"transit":true,"is_transit":true,"station_name":"Kampung Bandan","time":9,"distance":4102,"line":4,"i_long":106.826365,"station_id":"KPB","i_lat":-6.132549},{"is_transit":true,"transit":true,"i_lat":-6.137569,"station_name":"Jakarta Kota","i_long":106.812439,"station_id":"JAKK","time":3,"distance":1364,"line":2},{"station_id":"JAY","i_long":106.820901,"line":2,"time":4,"transit":false,"i_lat":-6.141205,"is_transit":false,"station_name":"Jayakarta","distance":1264},{"line":2,"time":2,"is_transit":false,"distance":1080,"i_long":106.82482,"station_name":"Manggabesar","transit":false,"station_id":"MGB","i_lat":-6.149769},{"i_long":106.827103,"line":2,"time":2,"transit":false,"station_name":"Sawah Besar","is_transit":false,"distance":906,"station_id":"SW","i_lat":-6.160725},{"station_name":"Juanda","i_lat":-6.166716,"transit":false,"time":2,"i_long":106.828284,"is_transit":false,"station_id":"JUA","line":2,"distance":1149},{"transit":false,"is_transit":false,"distance":2015,"time":4,"i_lat":-6.186295,"i_long":106.832183,"line":2,"station_name":"Gondangdia","station_id":"GDD"},{"i_lat":-6.198556,"line":2,"distance":1750,"station_name":"Cikini","i_long":106.840169,"transit":false,"time":3,"station_id":"CKI","is_transit":false},{"transit":false,"time":4,"is_transit":false,"i_lat":-6.209883,"station_name":"Manggarai","i_long":106.84912,"distance":1590,"line":2,"station_id":"MRI"},{"i_lat":-6.226659,"i_long":106.857948,"is_transit":false,"distance":2610,"transit":false,"line":2,"time":4,"station_id":"TEB","station_name":"Tebet"},{"distance":1230,"station_name":"Cawang","line":2,"station_id":"CW","transit":false,"time":2,"i_lat":-6.242512,"is_transit":false,"i_long":106.856607},{"transit":false,"i_lat":-6.255332,"time":3,"station_id":"DRN","i_long":106.85449,"distance":1546,"is_transit":false,"station_name":"Duren Kalibata","line":2},{"distance":824,"transit":false,"line":2,"i_long":106.851577,"station_id":"PSMB","station_name":"Pasar Minggu Baru","is_transit":false,"i_lat":-6.263214,"time":2},{"time":2,"distance":2380,"i_lat":-6.2842400000000005,"station_id":"PSM","line":2,"station_name":"Pasar Minggu","transit":false,"is_transit":false,"i_long":106.843999},{"transit":false,"i_lat":-6.3080680000000005,"is_transit":false,"time":4,"station_id":"TNT","station_name":"Tanjung Barat","i_long":106.838896,"distance":2820,"line":2},{"station_id":"LNA","i_lat":-6.330363,"transit":false,"line":2,"distance":2671,"time":3,"station_name":"Lenteng Agung","i_long":106.832616,"is_transit":false}],[{"i_lat":-6.202263,"i_long":106.822649,"station_name":"Sudirman","line":1,"station_id":"SUD","distance":0,"is_transit":false,"time":0,"transit":false},{"transit":false,"station_id":"SUDB","time":1,"i_long":106.819881,"line":1,"is_transit":false,"distance":280,"i_lat":-6.201433,"station_name":"Sudirman Baru"},{"time":1,"i_long":106.816351,"is_transit":false,"station_id":"KAT","station_name":"Karet","distance":471,"line":1,"transit":false,"i_lat":-6.20132},{"station_name":"Tanah Abang","i_lat":-6.185545,"station_id":"THB","is_transit":false,"distance":2029,"transit":false,"line":1,"time":5,"i_long":106.811091},{"distance":3632,"transit":false,"is_transit":false,"station_id":"DU","time":8,"i_lat":-6.155215,"i_long":106.800832,"line":1,"station_name":"Duri"},{"line":1,"time":4,"i_lat":-6.144674,"distance":1230,"is_transit":false,"station_id":"AK","transit":false,"station_name":"Angke","i_long":106.79867},{"i_lat":-6.132549,"i_long":106.826365,"distance":4102,"station_name":"Kampung Bandan","line":4,"station_id":"KPB","transit":true,"time":9,"is_transit":true},{"i_lat":-6.14505,"is_transit":false,"distance":1444,"i_long":106.836569,"station_id":"RJW","time":3,"line":11,"station_name":"Rajawali","transit":false},{"time":5,"station_name":"Kemayoran","is_transit":false,"i_long":106.839204,"line":11,"station_id":"KMO","transit":false,"distance":1901,"i_lat":-6.161728},{"time":4,"i_lat":-6.174784,"transit":false,"station_id":"PSE","i_long":106.84368,"distance":1436,"line":11,"is_transit":false,"station_name":"Pasar Senen"},{"i_long":106.850107,"is_transit":false,"i_lat":-6.185975,"line":11,"time":8,"station_id":"GST","transit":false,"station_name":"Gang Sentiong","distance":1567},{"transit":false,"time":1,"is_transit":false,"station_name":"Kramat","i_lat":-6.193792,"line":11,"distance":973,"station_id":"KMT","i_long":106.855437},{"station_name":"Pondok Jati","station_id":"POK","distance":1829,"time":2,"i_long":106.861737,"line":11,"is_transit":false,"i_lat":-6.209188,"transit":false},{"transit":true,"is_transit":true,"i_long":106.86807400000001,"station_id":"JNG","line":1,"time":9,"distance":1236,"i_lat":-6.215091,"station_name":"Jatinegara"},{"time":2,"transit":false,"i_lat":-6.212485,"is_transit":false,"distance":1377,"line":1,"station_id":"MTR","i_long":106.858896,"station_name":"Matraman"},{"distance":1275,"line":2,"time":2,"i_lat":-6.209883,"transit":true,"is_transit":true,"i_long":106.84912,"station_name":"Manggarai","station_id":"MRI"},{"i_lat":-6.226659,"is_transit":false,"distance":2610,"station_name":"Tebet","transit":false,"time":4,"line":2,"station_id":"TEB","i_long":106.857948},{"is_transit":false,"i_lat":-6.242512,"time":2,"line":2,"station_id":"CW","station_name":"Cawang","distance":1230,"transit":false,"i_long":106.856607},{"i_long":106.85449,"station_id":"DRN","transit":false,"line":2,"distance":1546,"i_lat":-6.255332,"is_transit":false,"time":3,"station_name":"Duren Kalibata"},{"station_name":"Pasar Minggu Baru","station_id":"PSMB","is_transit":false,"line":2,"i_lat":-6.263214,"i_long":106.851577,"transit":false,"time":2,"distance":824},{"is_transit":false,"station_id":"PSM","i_long":106.843999,"time":2,"distance":2380,"i_lat":-6.2842400000000005,"transit":false,"line":2,"station_name":"Pasar Minggu"},{"station_name":"Tanjung Barat","distance":2820,"time":4,"i_long":106.838896,"i_lat":-6.3080680000000005,"is_transit":false,"line":2,"transit":false,"station_id":"TNT"},{"line":2,"transit":false,"station_id":"LNA","time":3,"is_transit":false,"distance":2671,"station_name":"Lenteng Agung","i_lat":-6.330363,"i_long":106.832616}]]}