{"data":[[{"i_lat":-6.202263,"i_long":106.822649,"transit":false,"line":1,"station_id":"SUD","time":0,"distance":0,"station_name":"Sudirman","is_transit":false},{"is_transit":false,"distance":3186,"i_long":106.84912,"line":2,"time":4,"transit":false,"station_name":"Manggarai","i_lat":-6.209883,"station_id":"MRI"},{"transit":false,"is_transit":false,"distance":1275,"station_id":"MTR","station_name":"Matraman","i_long":106.858896,"line":1,"i_lat":-6.212485,"time":2},{"line":1,"station_id":"JNG","station_name":"Jatinegara","i_long":106.86807400000001,"transit":false,"is_transit":false,"time":8,"distance":1377,"i_lat":-6.215091},{"i_lat":-6.2135,"transit":false,"i_long":106.899548,"is_transit":false,"station_id":"KLD","time":3,"distance":3395,"station_name":"Klender","line":1},{"distance":3100,"station_name":"Buaran","line":1,"i_long":106.922662,"time":2,"station_id":"BUA","transit":false,"i_lat":-6.215568,"is_transit":false},{"time":1,"distance":1305,"i_long":106.939679,"line":1,"transit":false,"is_transit":false,"i_lat":-6.217455,"station_id":"KLDB","station_name":"Klenderbaru"},{"time":8,"is_transit":false,"transit":false,"station_name":"Cakung","line":1,"distance":1385,"station_id":"CUK","i_lat":-6.219053,"i_long":106.951283},{"distance":3097,"line":1,"i_lat":-6.224515,"time":3,"station_name":"Kranji","is_transit":false,"transit":false,"i_long":106.977657,"station_id":"KRI"},{"time":4,"i_lat":-6.236616,"distance":2520,"station_id":"BKS","i_long":106.997013,"transit":false,"line":1,"is_transit":false,"station_name":"Bekasi"}],[{"i_long":106.822649,"station_name":"Sudirman","distance":0,"i_lat":-6.202263,"line":1,"station_id":"SUD","time":0,"transit":false,"is_transit":false},{"is_transit":false,"time":1,"station_id":"SUDB","transit":false,"station_name":"Sudirman Baru","i_lat":-6.201433,"line":1,"distance":280,"i_long":106.819881},{"line":1,"distance":471,"station_id":"KAT","i_lat":-6.20132,"i_long":106.816351,"transit":false,"time":1,"is_transit":false,"station_name":"Karet"},{"i_lat":-6.185545,"distance":2029,"station_name":"Tanah Abang","time":5,"transit":false,"is_transit":false,"i_long":106.811091,"station_id":"THB","line":1},{"time":8,"station_id":"DU","distance":3632,"i_long":106.800832,"is_transit":false,"station_name":"Duri","transit":false,"i_lat":-6.155215,"line":1},{"transit":false,"station_name":"Angke","distance":1230,"is_transit":false,"time":4,"i_long":106.79867,"line":1,"station_id":"AK","i_lat":-6.144674},{"i_long":106.826365,"station_name":"Kampung Bandan","transit":true,"is_transit":true,"distance":4102,"station_id":"KPB","i_lat":-6.132549,"line":4,"time":9},{"is_transit":false,"line":11,"time":3,"distance":1444,"i_long":106.836569,"station_id":"RJW","transit":false,"station_name":"Rajawali","i_lat":-6.14505},{"transit":false,"time":5,"station_name":"Kemayoran","line":11,"distance":1901,"i_long":106.839204,"station_id":"KMO","is_transit":false,"i_lat":-6.161728},{"station_name":"Pasar Senen","time":4,"transit":false,"distance":1436,"is_transit":false,"station_id":"PSE","i_lat":-6.174784,"i_long":106.84368,"line":11},{"station_name":"Gang Sentiong","line":11,"station_id":"GST","time":8,"transit":false,"i_lat":-6.185975,"distance":1567,"i_long":106.850107,"is_transit":false},{"is_transit":false,"transit":false,"i_long":106.855437,"time":1,"station_name":"Kramat","distance":973,"line":11,"i_lat":-6.193792,"station_id":"KMT"},{"time":2,"is_transit":false,"distance":1829,"i_long":106.861737,"station_id":"POK","station_name":"Pondok Jati","i_lat":-6.209188,"transit":false,"line":11},{"i_long":106.86807400000001,"line":1,"station_id":"JNG","distance":1236,"is_transit":true,"i_lat":-6.215091,"time":9,"transit":true,"station_name":"Jatinegara"},{"distance":3395,"transit":false,"station_name":"Klender","station_id":"KLD","is_transit":false,"i_lat":-6.2135,"time":3,"line":1,"i_long":106.899548},{"transit":false,"station_name":"Buaran","i_lat":-6.215568,"i_long":106.922662,"distance":3100,"line":1,"time":2,"is_transit":false,"station_id":"BUA"},{"i_lat":-6.217455,"transit":false,"distance":1305,"station_id":"KLDB","is_transit":false,"station_name":"Klenderbaru","line":1,"i_long":106.939679,"time":1},{"is_transit":false,"station_name":"Cakung","i_long":106.951283,"distance":1385,"transit":false,"time":8,"i_lat":-6.219053,"station_id":"CUK","line":1},{"is_transit":false,"i_long":106.977657,"transit":false,"station_id":"KRI","time":3,"station_name":"Kranji","i_lat":-6.224515,"distance":3097,"line":1},{"transit":false,"i_long":106.997013,"line":1,"time":4,"station_name":"Bekasi","station_id":"BKS","is_transit":false,"distance":2520,"i_lat":-6.236616}],[{"transit":false,"station_name":"Sudirman","i_long":106.822649,"time":0,"line":1,"distance":0,"i_lat":-6.202263,"station_id":"SUD","is_transit":false},{"i_lat":-6.201433,"line":1,"i_long":106.819881,"is_transit":false,"station_id":"SUDB","transit":false,"distance":280,"time":1,"station_name":"Sudirman Baru"},{"is_transit":false,"transit":false,"distance":471,"i_long":106.816351,"station_name":"Karet","i_lat":-6.20132,"line":1,"time":1,"station_id":"KAT"},{"is_transit":false,"line":1,"station_name":"Tanah Abang","station_id":"THB","i_lat":-6.185545,"time":5,"distance":2029,"transit":false,"i_long":106.811091},{"time":8,"i_lat":-6.155215,"line":1,"station_name":"Duri","transit":false,"station_id":"DU","distance":3632,"i_long":106.800832,"is_transit":false},{"is_transit":false,"i_lat":-6.144674,"distance":1230,"station_id":"AK","line":1,"time":4,"station_name":"Angke","i_long":106.79867,"transit":false},{"is_transit":true,"station_id":"KPB","distance":4102,"i_lat":-6.132549,"i_long":106.826365,"time":9,"line":4,"transit":true,"station_name":"Kampung Bandan"},{"is_transit":true,"transit":true,"distance":1364,"time":3,"i_long":106.812439,"station_id":"JAKK","line":2,"i_lat":-6.137569,"station_name":"Jakarta Kota"},{"time":4,"station_name":"Jayakarta","i_lat":-6.141205,"i_long":106.820901,"station_id":"JAY","line":2,"distance":1264,"transit":false,"is_transit":false},{"distance":1080,"i_long":106.82482,"is_transit":false,"i_lat":-6.149769,"time":2,"line":2,"station_name":"Manggabesar","transit":false,"station_id":"MGB"},{"distance":906,"time":2,"i_lat":-6.160725,"i_long":106.827103,"station_name":"Sawah Besar","line":2,"is_transit":false,"transit":false,"station_id":"SW"},{"distance":1149,"is_transit":false,"line":2,"station_id":"JUA","station_name":"Juanda","transit":false,"i_long":106.828284,"i_lat":-6.166716,"time":2},{"station_id":"GDD","transit":false,"time":4,"station_name":"Gondangdia","distance":2015,"i_lat":-6.186295,"is_transit":false,"i_long":106.832183,"line":2},{"transit":false,"station_id":"CKI","i_lat":-6.198556,"station_name":"Cikini","time":3,"is_transit":false,"distance":1750,"i_long":106.840169,"line":2},{"station_name":"Manggarai","time":4,"station_id":"MRI","i_long":106.84912,"transit":true,"distance":1590,"i_lat":-6.209883,"line":2,"is_transit":true},{"station_name":"Matraman","time":2,"i_lat":-6.212485,"distance":1275,"transit":false,"line":1,"station_id":"MTR","is_transit":false,"i_long":106.858896},{"time":8,"i_long":106.86807400000001,"distance":1377,"transit":false,"line":1,"i_lat":-6.215091,"is_transit":false,"station_name":"Jatinegara","station_id":"JNG"},{"time":3,"distance":3395,"i_long":106.899548,"is_transit":false,"i_lat":-6.2135,"line":1,"station_id":"KLD","transit":false,"station_name":"Klender"},{"i_lat":-6.215568,"station_name":"Buaran","time":2,"i_long":106.922662,"is_transit":false,"line":1,"transit":false,"station_id":"BUA","distance":3100},{"time":1,"station_name":"Klenderbaru","is_transit":false,"station_id":"KLDB","distance":1305,"i_lat":-6.217455,"line":1,"transit":false,"i_long":106.939679},{"station_id":"CUK","distance":1385,"i_lat":-6.219053,"transit":false,"time":8,"line":1,"is_transit":false,"station_name":"Cakung","i_long":106.951283},{"i_long":106.977657,"transit":false,"is_transit":false,"distance":3097,"station_id":"KRI","line":1,"time":3,"i_lat":-6.224515,"station_name":"Kranji"},{"station_id":"BKS","i_lat":-6.236616,"line":1,"time":4,"i_long":106.997013,"distance":2520,"station_name":"Bekasi","is_transit":false,"transit":false}],[{"distance":0,"station_id":"SUD","is_transit":false,"i_long":106.822649,"line":1,"time":0,"i_lat":-6.202263,"transit":false,"station_name":"Sudirman"},{"transit":true,"station_id":"MRI","time":4,"i_lat":-6.209883,"station_name":"Manggarai","distance":3186,"line":2,"is_transit":true,"i_long":106.84912},{"station_name":"Cikini","i_long":106.840169,"is_transit":false,"time":4,"i_lat":-6.198556,"distance":1590,"line":2,"transit":false,"station_id":"CKI"},{"is_transit":false,"station_id":"GDD","i_lat":-6.186295,"distance":1750,"i_long":106.832183,"station_name":"Gondangdia","transit":false,"time":3,"line":2},{"line":2,"distance":2015,"is_transit":false,"i_lat":-6.166716,"station_name":"Juanda","time":4,"station_id":"JUA","i_long":106.828284,"transit":false},{"i_lat":-6.160725,"line":2,"station_id":"SW","transit":false,"time":2,"station_name":"Sawah Besar","distance":1149,"is_transit":false,"i_long":106.827103},{"distance":906,"station_id":"MGB","is_transit":false,"station_name":"Manggabesar","transit":false,"i_lat":-6.149769,"line":2,"i_long":106.82482,"time":2},{"distance":1080,"i_lat":-6.141205,"station_name":"Jayakarta","transit":false,"time":2,"is_transit":false,"i_long":106.820901,"station_id":"JAY","line":2},{"station_id":"JAKK","time":4,"transit":true,"is_transit":true,"line":2,"station_name":"Jakarta Kota","distance":1264,"i_long":106.812439,"i_lat":-6.137569},{"transit":true,"station_id":"KPB","distance":1364,"i_lat":-6.132549,"station_name":"Kampung Bandan","line":4,"is_transit":true,"time":3,"i_long":106.826365},{"distance":1444,"transit":false,"station_id":"RJW","time":3,"is_transit":false,"line":11,"i_lat":-6.14505,"station_name":"Rajawali","i_long":106.836569},{"distance":1901,"station_id":"KMO","i_long":106.839204,"line":11,"is_transit":false,"i_lat":-6.161728,"time":5,"transit":false,"station_name":"Kemayoran"},{"is_transit":false,"station_name":"Pasar Senen","transit":false,"distance":1436,"i_lat":-6.174784,"i_long":106.84368,"station_id":"PSE","time":4,"line":11},{"distance":1567,"line":11,"station_id":"GST","transit":false,"time":8,"i_lat":-6.185975,"i_long":106.850107,"is_transit":false,"station_name":"Gang Sentiong"},{"i_long":106.855437,"i_lat":-6.193792,"line":11,"station_name":"Kramat","is_transit":false,"transit":false,"time":1,"distance":973,"station_id":"KMT"},{"line":11,"station_id":"POK","i_lat":-6.209188,"transit":false,"distance":1829,"station_name":"Pondok Jati","time":2,"i_long":106.861737,"is_transit":false},{"is_transit":true,"line":1,"time":9,"station_name":"Jatinegara","i_long":106.86807400000001,"i_lat":-6.215091,"transit":true,"station_id":"JNG","distance":1236},{"i_long":106.899548,"station_id":"KLD","time":3,"station_name":"Klender","line":1,"is_transit":false,"i_lat":-6.2135,"distance":3395,"transit":false},{"distance":3100,"i_long":106.922662,"transit":false,"time":2,"station_name":"Buaran","is_transit":false,"station_id":"BUA","line":1,"i_lat":-6.215568},{"i_lat":-6.217455,"station_name":"Klenderbaru","time":1,"transit":false,"station_id":"KLDB","is_transit":false,"distance":1305,"line":1,"i_long":106.939679},{"transit":false,"i_long":106.951283,"line":1,"is_transit":false,"time":8,"station_id":"CUK","station_name":"Cakung","distance":1385,"i_lat":-6.219053},{"transit":false,"line":1,"station_name":"Kranji","distance":3097,"is_transit":false,"station_id":"KRI","time":3,"i_lat":-6.224515,"i_long":106.977657},{"is_transit":false,"line":1,"transit":false,"i_long":106.997013,"i_lat":-6.236616,"station_id":"BKS","time":4,"distance":2520,"station_name":"Bekasi"}]]}