{"data":[[{"station_name":"Sudirman","station_id":"SUD","i_long":106.822649,"line":1,"time":0,"transit":false,"is_transit":false,"distance":0,"i_lat":-6.202263},{"station_name":"Manggarai","time":4,"is_transit":true,"station_id":"MRI","i_lat":-6.209883,"line":2,"distance":3186,"i_long":106.84912,"transit":true},{"transit":false,"station_id":"TEB","distance":2610,"time":4,"is_transit":false,"i_long":106.857948,"i_lat":-6.226659,"line":2,"station_name":"Tebet"},{"is_transit":false,"station_name":"Cawang","distance":1230,"i_lat":-6.242512,"station_id":"CW","line":2,"transit":false,"time":2,"i_long":106.856607},{"time":3,"i_long":106.85449,"line":2,"station_name":"Duren Kalibata","is_transit":false,"i_lat":-6.255332,"distance":1546,"station_id":"DRN","transit":false},{"station_id":"PSMB","time":2,"distance":824,"i_lat":-6.263214,"station_name":"Pasar Minggu Baru","line":2,"i_long":106.851577,"transit":false,"is_transit":false},{"i_lat":-6.2842400000000005,"i_long":106.843999,"is_transit":false,"time":2,"transit":false,"station_name":"Pasar Minggu","line":2,"distance":2380,"station_id":"PSM"},{"i_lat":-6.3080680000000005,"distance":2820,"time":4,"is_transit":false,"transit":false,"line":2,"station_name":"Tanjung Barat","station_id":"TNT","i_long":106.838896}],[{"time":0,"station_name":"Sudirman","distance":0,"station_id":"SUD","is_transit":false,"i_long":106.822649,"i_lat":-6.202263,"line":1,"transit":false},{"i_long":106.819881,"line":1,"time":1,"transit":false,"is_transit":false,"i_lat":-6.201433,"station_id":"SUDB","distance":280,"station_name":"Sudirman Baru"},{"i_long":106.816351,"station_name":"Karet","transit":false,"i_lat":-6.20132,"station_id":"KAT","line":1,"distance":471,"time":1,"is_transit":false},{"i_lat":-6.185545,"transit":false,"time":5,"station_name":"Tanah Abang","distance":2029,"line":1,"is_transit":false,"station_id":"THB","i_long":106.811091},{"station_id":"DU","distance":3632,"i_lat":-6.155215,"is_transit":false,"time":8,"line":1,"i_long":106.800832,"transit":false,"station_name":"Duri"},{"station_name":"Angke","distance":1230,"i_lat":-6.144674,"station_id":"AK","time":4,"is_transit":false,"transit":false,"i_long":106.79867,"line":1},{"time":9,"i_lat":-6.132549,"is_transit":true,"station_id":"KPB","distance":4102,"line":4,"station_name":"Kampung Bandan","i_long":106.826365,"transit":true},{"line":2,"time":3,"station_id":"JAKK","transit":true,"i_lat":-6.137569,"is_transit":true,"station_name":"Jakarta Kota","i_long":106.812439,"distance":1364},{"line":2,"station_name":"Jayakarta","i_lat":-6.141205,"station_id":"JAY","time":4,"is_transit":false,"transit":false,"i_long":106.820901,"distance":1264},{"station_name":"Manggabesar","transit":false,"time":2,"i_lat":-6.149769,"distance":1080,"i_long":106.82482,"station_id":"MGB","line":2,"is_transit":false},{"line":2,"i_long":106.827103,"is_transit":false,"i_lat":-6.160725,"station_name":"Sawah Besar","station_id":"SW","time":2,"distance":906,"transit":false},{"is_transit":false,"station_id":"JUA","line":2,"time":2,"i_long":106.828284,"station_name":"Juanda","transit":false,"i_lat":-6.166716,"distance":1149},{"is_transit":false,"i_lat":-6.186295,"i_long":106.832183,"transit":false,"station_id":"GDD","distance":2015,"line":2,"station_name":"Gondangdia","time":4},{"line":2,"transit":false,"time":3,"distance":1750,"station_id":"CKI","is_transit":false,"i_lat":-6.198556,"i_long":106.840169,"station_name":"Cikini"},{"line":2,"distance":1590,"i_lat":-6.209883,"station_name":"Manggarai","station_id":"MRI","time":4,"transit":false,"i_long":106.84912,"is_transit":false},{"station_name":"Tebet","distance":2610,"i_lat":-6.226659,"line":2,"station_id":"TEB","time":4,"transit":false,"i_long":106.857948,"is_transit":false},{"time":2,"distance":1230,"station_id":"CW","is_transit":false,"station_name":"Cawang","i_lat":-6.242512,"i_long":106.856607,"line":2,"transit":false},{"station_id":"DRN","distance":1546,"is_transit":false,"time":3,"i_lat":-6.255332,"transit":false,"station_name":"Duren Kalibata","line":2,"i_long":106.85449},{"i_long":106.851577,"station_id":"PSMB","transit":false,"distance":824,"line":2,"is_transit":false,"station_name":"Pasar Minggu Baru","time":2,"i_lat":-6.263214},{"line":2,"transit":false,"i_lat":-6.2842400000000005,"station_name":"Pasar Minggu","time":2,"distance":2380,"i_long":106.843999,"is_transit":false,"station_id":"PSM"},{"transit":false,"line":2,"time":4,"station_name":"Tanjung Barat","station_id":"TNT","distance":2820,"i_long":106.838896,"i_lat":-6.3080680000000005,"is_transit":false}],[{"is_transit":false,"distance":0,"transit":false,"time":0,"line":1,"station_id":"SUD","station_name":"Sudirman","i_long":106.822649,"i_lat":-6.202263},{"distance":280,"station_name":"Sudirman Baru","i_lat":-6.201433,"time":1,"line":1,"is_transit":false,"transit":false,"i_long":106.819881,"station_id":"SUDB"},{"time":1,"i_long":106.816351,"line":1,"is_transit":false,"station_name":"Karet","i_lat":-6.20132,"station_id":"KAT","distance":471,"transit":false},{"station_id":"THB","is_transit":false,"station_name":"Tanah Abang","distance":2029,"transit":false,"time":5,"i_lat":-6.185545,"i_long":106.811091,"line":1},{"station_id":"DU","distance":3632,"station_name":"Duri","i_lat":-6.155215,"transit":false,"is_transit":false,"i_long":106.800832,"time":8,"line":1},{"distance":1230,"time":4,"is_transit":false,"station_id":"AK","i_long":106.79867,"line":1,"station_name":"Angke","transit":false,"i_lat":-6.144674},{"transit":true,"is_transit":true,"time":9,"i_lat":-6.132549,"station_name":"Kampung Bandan","line":4,"i_long":106.826365,"station_id":"KPB","distance":4102},{"station_id":"RJW","transit":false,"station_name":"Rajawali","distance":1444,"line":11,"is_transit":false,"time":3,"i_lat":-6.14505,"i_long":106.836569},{"station_id":"KMO","time":5,"distance":1901,"station_name":"Kemayoran","is_transit":false,"line":11,"i_long":106.839204,"i_lat":-6.161728,"transit":false},{"line":11,"station_id":"PSE","is_transit":false,"distance":1436,"station_name":"Pasar Senen","transit":false,"i_long":106.84368,"time":4,"i_lat":-6.174784},{"i_long":106.850107,"is_transit":false,"station_name":"Gang Sentiong","station_id":"GST","time":8,"i_lat":-6.185975,"line":11,"transit":false,"distance":1567},{"distance":973,"i_long":106.855437,"transit":false,"time":1,"station_id":"KMT","i_lat":-6.193792,"station_name":"Kramat","is_transit":false,"line":11},{"station_name":"Pondok Jati","distance":1829,"transit":false,"i_lat":-6.209188,"line":11,"is_transit":false,"time":2,"i_long":106.861737,"station_id":"POK"},{"i_long":106.86807400000001,"line":1,"transit":true,"is_transit":true,"distance":1236,"i_lat":-6.215091,"station_name":"Jatinegara","station_id":"JNG","time":9},{"distance":1377,"transit":false,"station_name":"Matraman","station_id":"MTR","is_transit":false,"i_long":106.858896,"line":1,"time":2,"i_lat":-6.212485},{"i_lat":-6.209883,"station_id":"MRI","time":2,"distance":1275,"is_transit":true,"station_name":"Manggarai","line":2,"transit":true,"i_long":106.84912},{"is_transit":false,"station_id":"TEB","distance":2610,"transit":false,"station_name":"Tebet","line":2,"i_long":106.857948,"time":4,"i_lat":-6.226659},{"station_name":"Cawang","transit":false,"line":2,"i_long":106.856607,"i_lat":-6.242512,"is_transit":false,"distance":1230,"station_id":"CW","time":2},{"station_name":"Duren Kalibata","i_long":106.85449,"line":2,"i_lat":-6.255332,"is_transit":false,"station_id":"DRN","time":3,"transit":false,"distance":1546},{"station_name":"Pasar Minggu Baru","time":2,"station_id":"PSMB","distance":824,"transit":false,"is_transit":false,"line":2,"i_lat":-6.263214,"i_long":106.851577},{"i_lat":-6.2842400000000005,"distance":2380,"station_id":"PSM","transit":false,"i_long":106.843999,"time":2,"station_name":"Pasar Minggu","is_transit":false,"line":2},{"station_name":"Tanjung Barat","station_id":"TNT","time":4,"line":2,"distance":2820,"i_long":106.838896,"transit":false,"i_lat":-6.3080680000000005,"is_transit":false}]]}