{"data":[[{"distance":0,"is_transit":false,"i_lat":-6.202263,"station_id":"SUD","station_name":"Sudirman","time":0,"i_long":106.822649,"transit":false,"line":1},{"transit":true,"is_transit":true,"station_name":"Manggarai","station_id":"MRI","time":4,"i_lat":-6.209883,"i_long":106.84912,"line":2,"distance":3186},{"station_id":"TEB","distance":2610,"transit":false,"is_transit":false,"i_lat":-6.226659,"i_long":106.857948,"station_name":"Tebet","line":2,"time":4},{"i_lat":-6.242512,"transit":false,"i_long":106.856607,"station_name":"Cawang","line":2,"distance":1230,"station_id":"CW","is_transit":false,"time":2},{"transit":false,"time":3,"station_id":"DRN","station_name":"Duren Kalibata","line":2,"distance":1546,"is_transit":false,"i_lat":-6.255332,"i_long":106.85449},{"is_transit":false,"line":2,"i_lat":-6.263214,"distance":824,"station_id":"PSMB","station_name":"Pasar Minggu Baru","time":2,"i_long":106.851577,"transit":false},{"i_long":106.843999,"distance":2380,"station_id":"PSM","transit":false,"i_lat":-6.2842400000000005,"line":2,"time":2,"is_transit":false,"station_name":"Pasar Minggu"},{"time":4,"distance":2820,"is_transit":false,"i_long":106.838896,"i_lat":-6.3080680000000005,"transit":false,"station_name":"Tanjung Barat","line":2,"station_id":"TNT"},{"station_id":"LNA","i_long":106.832616,"distance":2671,"is_transit":false,"station_name":"Lenteng Agung","transit":false,"time":3,"i_lat":-6.330363,"line":2},{"time":2,"is_transit":false,"transit":false,"line":2,"distance":1029,"i_long":106.834175,"i_lat":-6.339291,"station_id":"UP","station_name":"Univ. Pancasila"},{"i_lat":-6.360749,"distance":2264,"line":2,"i_long":106.831474,"is_transit":false,"transit":false,"station_id":"UI","time":3,"station_name":"Univ. Indonesia"},{"line":2,"is_transit":false,"station_name":"Pondok Cina","i_lat":-6.369073,"transit":false,"time":2,"i_long":106.831114,"station_id":"POC","distance":1109}],[{"transit":false,"i_long":106.822649,"distance":0,"station_id":"SUD","i_lat":-6.202263,"line":1,"time":0,"station_name":"Sudirman","is_transit":false},{"is_transit":false,"distance":280,"i_lat":-6.201433,"line":1,"time":1,"i_long":106.819881,"transit":false,"station_id":"SUDB","station_name":"Sudirman Baru"},{"i_long":106.816351,"i_lat":-6.20132,"station_name":"Karet","line":1,"distance":471,"transit":false,"is_transit":false,"station_id":"KAT","time":1},{"distance":2029,"station_id":"THB","is_transit":false,"i_lat":-6.185545,"i_long":106.811091,"line":1,"time":5,"station_name":"Tanah Abang","transit":false},{"time":8,"station_name":"Duri","i_lat":-6.155215,"i_long":106.800832,"transit":false,"station_id":"DU","distance":3632,"line":1,"is_transit":false},{"time":4,"is_transit":false,"distance":1230,"i_long":106.79867,"station_name":"Angke","transit":false,"station_id":"AK","line":1,"i_lat":-6.144674},{"time":9,"i_lat":-6.132549,"i_long":106.826365,"station_name":"Kampung Bandan","line":4,"distance":4102,"transit":true,"station_id":"KPB","is_transit":true},{"transit":true,"time":3,"i_lat":-6.137569,"station_name":"Jakarta Kota","station_id":"JAKK","i_long":106.812439,"is_transit":true,"distance":1364,"line":2},{"i_long":106.820901,"station_name":"Jayakarta","distance":1264,"station_id":"JAY","is_transit":false,"i_lat":-6.141205,"time":4,"transit":false,"line":2},{"transit":false,"line":2,"time":2,"distance":1080,"is_transit":false,"station_id":"MGB","i_lat":-6.149769,"i_long":106.82482,"station_name":"Manggabesar"},{"distance":906,"i_long":106.827103,"transit":false,"time":2,"station_name":"Sawah Besar","is_transit":false,"i_lat":-6.160725,"station_id":"SW","line":2},{"i_lat":-6.166716,"station_name":"Juanda","transit":false,"station_id":"JUA","i_long":106.828284,"line":2,"is_transit":false,"distance":1149,"time":2},{"station_id":"GDD","station_name":"Gondangdia","transit":false,"distance":2015,"time":4,"i_lat":-6.186295,"i_long":106.832183,"line":2,"is_transit":false},{"line":2,"i_lat":-6.198556,"i_long":106.840169,"station_name":"Cikini","station_id":"CKI","is_transit":false,"distance":1750,"transit":false,"time":3},{"i_long":106.84912,"station_name":"Manggarai","transit":false,"distance":1590,"line":2,"station_id":"MRI","is_transit":false,"time":4,"i_lat":-6.209883},{"station_name":"Tebet","i_lat":-6.226659,"is_transit":false,"time":4,"i_long":106.857948,"station_id":"TEB","distance":2610,"transit":false,"line":2},{"transit":false,"time":2,"station_id":"CW","distance":1230,"line":2,"i_lat":-6.242512,"station_name":"Cawang","i_long":106.856607,"is_transit":false},{"distance":1546,"station_name":"Duren Kalibata","station_id":"DRN","i_lat":-6.255332,"time":3,"is_transit":false,"i_long":106.85449,"transit":false,"line":2},{"transit":false,"distance":824,"time":2,"line":2,"station_name":"Pasar Minggu Baru","station_id":"PSMB","is_transit":false,"i_lat":-6.263214,"i_long":106.851577},{"distance":2380,"is_transit":false,"time":2,"transit":false,"i_lat":-6.2842400000000005,"station_id":"PSM","i_long":106.843999,"station_name":"Pasar Minggu","line":2},{"is_transit":false,"i_long":106.838896,"line":2,"transit":false,"station_id":"TNT","i_lat":-6.3080680000000005,"distance":2820,"station_name":"Tanjung Barat","time":4},{"transit":false,"line":2,"station_name":"Lenteng Agung","distance":2671,"station_id":"LNA","i_long":106.832616,"i_lat":-6.330363,"is_transit":false,"time":3},{"is_transit":false,"station_id":"UP","distance":1029,"time":2,"station_name":"Univ. Pancasila","transit":false,"i_long":106.834175,"i_lat":-6.339291,"line":2},{"station_id":"UI","is_transit":false,"i_lat":-6.360749,"line":2,"distance":2264,"transit":false,"time":3,"i_long":106.831474,"station_name":"Univ. Indonesia"},{"station_id":"POC","station_name":"Pondok Cina","i_long":106.831114,"distance":1109,"is_transit":false,"time":2,"line":2,"transit":false,"i_lat":-6.369073}],[{"time":0,"station_name":"Sudirman","station_id":"SUD","i_lat":-6.202263,"i_long":106.822649,"transit":false,"distance":0,"line":1,"is_transit":false},{"i_lat":-6.201433,"is_transit":false,"i_long":106.819881,"line":1,"station_name":"Sudirman Baru","distance":280,"station_id":"SUDB","time":1,"transit":false},{"time":1,"station_name":"Karet","i_long":106.816351,"is_transit":false,"station_id":"KAT","distance":471,"line":1,"transit":false,"i_lat":-6.20132},{"transit":false,"distance":2029,"station_name":"Tanah Abang","is_transit":false,"time":5,"station_id":"THB","i_lat":-6.185545,"i_long":106.811091,"line":1},{"station_name":"Duri","transit":false,"time":8,"station_id":"DU","line":1,"is_transit":false,"distance":3632,"i_lat":-6.155215,"i_long":106.800832},{"is_transit":false,"time":4,"distance":1230,"i_long":106.79867,"station_name":"Angke","transit":false,"station_id":"AK","line":1,"i_lat":-6.144674},{"time":9,"is_transit":true,"i_lat":-6.132549,"station_id":"KPB","distance":4102,"i_long":106.826365,"station_name":"Kampung Bandan","transit":true,"line":4},{"i_lat":-6.14505,"distance":1444,"station_id":"RJW","is_transit":false,"station_name":"Rajawali","i_long":106.836569,"time":3,"transit":false,"line":11},{"distance":1901,"time":5,"line":11,"station_id":"KMO","transit":false,"station_name":"Kemayoran","is_transit":false,"i_long":106.839204,"i_lat":-6.161728},{"time":4,"transit":false,"i_lat":-6.174784,"line":11,"i_long":106.84368,"distance":1436,"station_name":"Pasar Senen","is_transit":false,"station_id":"PSE"},{"i_lat":-6.185975,"line":11,"i_long":106.850107,"station_id":"GST","time":8,"distance":1567,"transit":false,"station_name":"Gang Sentiong","is_transit":false},{"time":1,"station_id":"KMT","transit":false,"station_name":"Kramat","distance":973,"is_transit":false,"i_long":106.855437,"line":11,"i_lat":-6.193792},{"station_name":"Pondok Jati","is_transit":false,"i_lat":-6.209188,"station_id":"POK","line":11,"i_long":106.861737,"distance":1829,"transit":false,"time":2},{"i_long":106.86807400000001,"station_id":"JNG","time":9,"is_transit":true,"line":1,"distance":1236,"station_name":"Jatinegara","transit":true,"i_lat":-6.215091},{"is_transit":false,"i_lat":-6.212485,"station_name":"Matraman","transit":false,"station_id":"MTR","time":2,"distance":1377,"line":1,"i_long":106.858896},{"is_transit":true,"transit":true,"station_id":"MRI","time":2,"line":2,"distance":1275,"i_lat":-6.209883,"station_name":"Manggarai","i_long":106.84912},{"is_transit":false,"transit":false,"i_lat":-6.226659,"i_long":106.857948,"distance":2610,"station_name":"Tebet","time":4,"line":2,"station_id":"TEB"},{"distance":1230,"i_long":106.856607,"line":2,"is_transit":false,"i_lat":-6.242512,"station_id":"CW","transit":false,"station_name":"Cawang","time":2},{"transit":false,"is_transit":false,"distance":1546,"station_id":"DRN","i_lat":-6.255332,"time":3,"i_long":106.85449,"line":2,"station_name":"Duren Kalibata"},{"i_long":106.851577,"transit":false,"distance":824,"station_name":"Pasar Minggu Baru","line":2,"station_id":"PSMB","time":2,"is_transit":false,"i_lat":-6.263214},{"station_name":"Pasar Minggu","distance":2380,"station_id":"PSM","transit":false,"time":2,"i_long":106.843999,"i_lat":-6.2842400000000005,"line":2,"is_transit":false},{"time":4,"i_lat":-6.3080680000000005,"i_long":106.838896,"line":2,"station_name":"Tanjung Barat","transit":false,"distance":2820,"is_transit":false,"station_id":"TNT"},{"transit":false,"station_id":"LNA","i_lat":-6.330363,"line":2,"is_transit":false,"distance":2671,"station_name":"Lenteng Agung","i_long":106.832616,"time":3},{"is_transit":false,"transit":false,"time":2,"i_long":106.834175,"station_name":"Univ. Pancasila","i_lat":-6.339291,"line":2,"station_id":"UP","distance":1029},{"station_name":"Univ. Indonesia","time":3,"station_id":"UI","distance":2264,"line":2,"i_lat":-6.360749,"i_long":106.831474,"is_transit":false,"transit":false},{"station_name":"Pondok Cina","station_id":"POC","time":2,"distance":1109,"transit":false,"i_long":106.831114,"line":2,"is_transit":false,"i_lat":-6.369073}]]}