{"data":[[{"time":0,"i_long":106.822649,"transit":false,"station_id":"SUD","station_name":"Sudirman","distance":0,"i_lat":-6.202263,"line":1,"is_transit":false},{"time":4,"transit":true,"i_lat":-6.209883,"i_long":106.84912,"line":2,"station_id":"MRI","distance":3186,"is_transit":true,"station_name":"Manggarai"},{"station_name":"Tebet","is_transit":false,"transit":false,"line":2,"i_long":106.857948,"station_id":"TEB","time":4,"distance":2610,"i_lat":-6.226659},{"i_long":106.856607,"station_name":"Cawang","transit":false,"station_id":"CW","is_transit":false,"i_lat":-6.242512,"line":2,"time":2,"distance":1230},{"i_long":106.85449,"i_lat":-6.255332,"distance":1546,"time":3,"station_id":"DRN","is_transit":false,"line":2,"transit":false,"station_name":"Duren Kalibata"},{"line":2,"transit":false,"i_long":106.851577,"i_lat":-6.263214,"time":2,"station_id":"PSMB","station_name":"Pasar Minggu Baru","is_transit":false,"distance":824},{"station_id":"PSM","transit":false,"station_name":"Pasar Minggu","is_transit":false,"line":2,"i_long":106.843999,"time":2,"distance":2380,"i_lat":-6.2842400000000005},{"transit":false,"time":4,"line":2,"i_long":106.838896,"is_transit":false,"distance":2820,"station_name":"Tanjung Barat","i_lat":-6.3080680000000005,"station_id":"TNT"},{"station_name":"Lenteng Agung","transit":false,"station_id":"LNA","time":3,"i_lat":-6.330363,"line":2,"i_long":106.832616,"distance":2671,"is_transit":false},{"is_transit":false,"line":2,"transit":false,"distance":1029,"time":2,"station_name":"Univ. Pancasila","station_id":"UP","i_lat":-6.339291,"i_long":106.834175},{"distance":2264,"is_transit":false,"i_long":106.831474,"line":2,"transit":false,"time":3,"station_id":"UI","station_name":"Univ. Indonesia","i_lat":-6.360749},{"station_id":"POC","station_name":"Pondok Cina","time":2,"is_transit":false,"i_long":106.831114,"transit":false,"i_lat":-6.369073,"distance":1109,"line":2},{"time":4,"line":2,"transit":false,"station_id":"DPB","i_long":106.819451,"distance":2727,"is_transit":false,"i_lat":-6.391065,"station_name":"Depokbaru"},{"station_id":"DP","time":3,"line":2,"is_transit":false,"i_lat":-6.405256,"transit":false,"station_name":"Depok","distance":1584,"i_long":106.816926}],[{"transit":false,"is_transit":false,"station_name":"Sudirman","time":0,"station_id":"SUD","i_long":106.822649,"line":1,"i_lat":-6.202263,"distance":0},{"is_transit":false,"i_lat":-6.201433,"line":1,"i_long":106.819881,"station_id":"SUDB","transit":false,"station_name":"Sudirman Baru","distance":280,"time":1},{"is_transit":false,"line":1,"transit":false,"station_name":"Karet","station_id":"KAT","i_long":106.816351,"i_lat":-6.20132,"time":1,"distance":471},{"is_transit":false,"station_id":"THB","transit":false,"station_name":"Tanah Abang","distance":2029,"i_long":106.811091,"i_lat":-6.185545,"time":5,"line":1},{"line":1,"station_name":"Duri","i_long":106.800832,"is_transit":false,"transit":false,"time":8,"distance":3632,"station_id":"DU","i_lat":-6.155215},{"line":1,"time":4,"distance":1230,"is_transit":false,"station_name":"Angke","transit":false,"station_id":"AK","i_lat":-6.144674,"i_long":106.79867},{"transit":true,"station_name":"Kampung Bandan","is_transit":true,"i_long":106.826365,"station_id":"KPB","line":4,"i_lat":-6.132549,"distance":4102,"time":9},{"station_id":"JAKK","time":3,"i_lat":-6.137569,"i_long":106.812439,"line":2,"station_name":"Jakarta Kota","distance":1364,"is_transit":true,"transit":true},{"distance":1264,"station_id":"JAY","i_lat":-6.141205,"transit":false,"i_long":106.820901,"station_name":"Jayakarta","line":2,"is_transit":false,"time":4},{"i_lat":-6.149769,"is_transit":false,"station_id":"MGB","distance":1080,"station_name":"Manggabesar","transit":false,"i_long":106.82482,"line":2,"time":2},{"line":2,"station_id":"SW","is_transit":false,"time":2,"i_long":106.827103,"station_name":"Sawah Besar","i_lat":-6.160725,"transit":false,"distance":906},{"i_lat":-6.166716,"station_id":"JUA","line":2,"transit":false,"i_long":106.828284,"station_name":"Juanda","is_transit":false,"distance":1149,"time":2},{"line":2,"transit":false,"station_id":"GDD","station_name":"Gondangdia","is_transit":false,"i_long":106.832183,"i_lat":-6.186295,"distance":2015,"time":4},{"is_transit":false,"transit":false,"distance":1750,"line":2,"station_name":"Cikini","time":3,"i_lat":-6.198556,"i_long":106.840169,"station_id":"CKI"},{"transit":false,"time":4,"i_lat":-6.209883,"is_transit":false,"distance":1590,"station_name":"Manggarai","station_id":"MRI","i_long":106.84912,"line":2},{"station_name":"Tebet","time":4,"is_transit":false,"station_id":"TEB","transit":false,"distance":2610,"i_lat":-6.226659,"line":2,"i_long":106.857948},{"transit":false,"station_name":"Cawang","is_transit":false,"time":2,"distance":1230,"i_lat":-6.242512,"station_id":"CW","i_long":106.856607,"line":2},{"i_lat":-6.255332,"line":2,"is_transit":false,"station_name":"Duren Kalibata","time":3,"distance":1546,"transit":false,"i_long":106.85449,"station_id":"DRN"},{"line":2,"i_lat":-6.263214,"time":2,"distance":824,"is_transit":false,"station_name":"Pasar Minggu Baru","station_id":"PSMB","transit":false,"i_long":106.851577},{"time":2,"transit":false,"i_long":106.843999,"i_lat":-6.2842400000000005,"is_transit":false,"line":2,"distance":2380,"station_id":"PSM","station_name":"Pasar Minggu"},{"line":2,"station_name":"Tanjung Barat","station_id":"TNT","is_transit":false,"time":4,"i_long":106.838896,"i_lat":-6.3080680000000005,"transit":false,"distance":2820},{"station_id":"LNA","transit":false,"distance":2671,"time":3,"station_name":"Lenteng Agung","i_long":106.832616,"i_lat":-6.330363,"line":2,"is_transit":false},{"distance":1029,"i_lat":-6.339291,"station_name":"Univ. Pancasila","is_transit":false,"line":2,"transit":false,"i_long":106.834175,"station_id":"UP","time":2},{"line":2,"i_lat":-6.360749,"station_name":"Univ. Indonesia","is_transit":false,"transit":false,"distance":2264,"i_long":106.831474,"time":3,"station_id":"UI"},{"distance":1109,"station_name":"Pondok Cina","transit":false,"is_transit":false,"i_lat":-6.369073,"station_id":"POC","line":2,"time":2,"i_long":106.831114},{"station_name":"Depokbaru","line":2,"i_long":106.819451,"time":4,"i_lat":-6.391065,"station_id":"DPB","is_transit":false,"transit":false,"distance":2727},{"i_long":106.816926,"transit":false,"distance":1584,"station_name":"Depok","is_transit":false,"line":2,"time":3,"station_id":"DP","i_lat":-6.405256}],[{"i_long":106.822649,"time":0,"i_lat":-6.202263,"is_transit":false,"transit":false,"station_name":"Sudirman","station_id":"SUD","line":1,"distance":0},{"station_id":"SUDB","time":1,"i_long":106.819881,"transit":false,"line":1,"is_transit":false,"i_lat":-6.201433,"station_name":"Sudirman Baru","distance":280},{"station_id":"KAT","transit":false,"i_lat":-6.20132,"i_long":106.816351,"line":1,"time":1,"is_transit":false,"station_name":"Karet","distance":471},{"distance":2029,"station_name":"Tanah Abang","is_transit":false,"station_id":"THB","time":5,"line":1,"i_lat":-6.185545,"i_long":106.811091,"transit":false},{"transit":false,"station_id":"DU","line":1,"i_lat":-6.155215,"distance":3632,"station_name":"Duri","is_transit":false,"i_long":106.800832,"time":8},{"is_transit":false,"transit":false,"time":4,"station_name":"Angke","i_long":106.79867,"distance":1230,"station_id":"AK","i_lat":-6.144674,"line":1},{"transit":true,"is_transit":true,"station_name":"Kampung Bandan","time":9,"distance":4102,"line":4,"i_long":106.826365,"station_id":"KPB","i_lat":-6.132549},{"is_transit":false,"transit":false,"i_lat":-6.14505,"station_name":"Rajawali","i_long":106.836569,"station_id":"RJW","distance":1444,"time":3,"line":11},{"station_id":"KMO","i_long":106.839204,"line":11,"time":5,"transit":false,"i_lat":-6.161728,"is_transit":false,"station_name":"Kemayoran","distance":1901},{"line":11,"time":4,"distance":1436,"is_transit":false,"i_long":106.84368,"station_name":"Pasar Senen","transit":false,"station_id":"PSE","i_lat":-6.174784},{"i_long":106.850107,"line":11,"time":8,"transit":false,"station_name":"Gang Sentiong","is_transit":false,"distance":1567,"station_id":"GST","i_lat":-6.185975},{"station_name":"Kramat","i_lat":-6.193792,"transit":false,"time":1,"i_long":106.855437,"is_transit":false,"station_id":"KMT","line":11,"distance":973},{"transit":false,"distance":1829,"is_transit":false,"time":2,"i_lat":-6.209188,"i_long":106.861737,"line":11,"station_name":"Pondok Jati","station_id":"POK"},{"i_lat":-6.215091,"line":1,"distance":1236,"station_name":"Jatinegara","i_long":106.86807400000001,"transit":true,"time":9,"station_id":"JNG","is_transit":true},{"transit":false,"time":2,"is_transit":false,"i_lat":-6.212485,"station_name":"Matraman","i_long":106.858896,"distance":1377,"line":1,"station_id":"MTR"},{"i_lat":-6.209883,"i_long":106.84912,"distance":1275,"is_transit":true,"transit":true,"line":2,"time":2,"station_id":"MRI","station_name":"Manggarai"},{"distance":2610,"station_name":"Tebet","line":2,"station_id":"TEB","transit":false,"time":4,"i_lat":-6.226659,"is_transit":false,"i_long":106.857948},{"station_id":"CW","time":2,"i_lat":-6.242512,"distance":1230,"station_name":"Cawang","transit":false,"line":2,"i_long":106.856607,"is_transit":false},{"time":3,"is_transit":false,"line":2,"station_name":"Duren Kalibata","distance":1546,"transit":false,"station_id":"DRN","i_long":106.85449,"i_lat":-6.255332},{"station_name":"Pasar Minggu Baru","time":2,"transit":false,"is_transit":false,"distance":824,"i_lat":-6.263214,"i_long":106.851577,"station_id":"PSMB","line":2},{"is_transit":false,"distance":2380,"time":2,"line":2,"transit":false,"i_long":106.843999,"station_name":"Pasar Minggu","station_id":"PSM","i_lat":-6.2842400000000005},{"time":4,"station_id":"TNT","distance":2820,"is_transit":false,"transit":false,"station_name":"Tanjung Barat","i_lat":-6.3080680000000005,"i_long":106.838896,"line":2},{"transit":false,"i_long":106.832616,"station_name":"Lenteng Agung","i_lat":-6.330363,"distance":2671,"is_transit":false,"station_id":"LNA","line":2,"time":3},{"station_name":"Univ. Pancasila","is_transit":false,"distance":1029,"transit":false,"time":2,"i_lat":-6.339291,"i_long":106.834175,"line":2,"station_id":"UP"},{"i_lat":-6.360749,"station_id":"UI","transit":false,"line":2,"i_long":106.831474,"is_transit":false,"distance":2264,"station_name":"Univ. Indonesia","time":3},{"transit":false,"station_name":"Pondok Cina","is_transit":false,"i_lat":-6.369073,"time":2,"i_long":106.831114,"distance":1109,"station_id":"POC","line":2},{"i_long":106.819451,"is_transit":false,"i_lat":-6.391065,"transit":false,"station_name":"Depokbaru","station_id":"DPB","distance":2727,"line":2,"time":4},{"station_name":"Depok","distance":1584,"time":3,"is_transit":false,"transit":false,"i_long":106.816926,"station_id":"DP","i_lat":-6.405256,"line":2}]]}