{"data":[[{"i_long":106.822649,"i_lat":-6.202263,"line":1,"station_name":"Sudirman","is_transit":false,"transit":false,"station_id":"SUD","time":0,"distance":0},{"time":4,"distance":3186,"i_lat":-6.209883,"i_long":106.84912,"station_name":"Manggarai","line":2,"station_id":"MRI","transit":true,"is_transit":true},{"i_long":106.857948,"transit":false,"station_name":"Tebet","line":2,"i_lat":-6.226659,"is_transit":false,"station_id":"TEB","time":4,"distance":2610},{"station_id":"CW","is_transit":false,"i_lat":-6.242512,"i_long":106.856607,"distance":1230,"time":2,"line":2,"transit":false,"station_name":"Cawang"},{"i_lat":-6.255332,"line":2,"transit":false,"distance":1546,"is_transit":false,"time":3,"station_id":"DRN","station_name":"Duren Kalibata","i_long":106.85449},{"is_transit":false,"line":2,"distance":824,"i_long":106.851577,"time":2,"i_lat":-6.263214,"station_id":"PSMB","transit":false,"station_name":"Pasar Minggu Baru"},{"transit":false,"station_name":"Pasar Minggu","distance":2380,"i_long":106.843999,"time":2,"line":2,"i_lat":-6.2842400000000005,"station_id":"PSM","is_transit":false},{"transit":false,"i_long":106.838896,"line":2,"distance":2820,"is_transit":false,"station_name":"Tanjung Barat","station_id":"TNT","i_lat":-6.3080680000000005,"time":4},{"station_name":"Lenteng Agung","distance":2671,"transit":false,"is_transit":false,"i_lat":-6.330363,"i_long":106.832616,"line":2,"time":3,"station_id":"LNA"},{"time":2,"station_id":"UP","station_name":"Univ. Pancasila","is_transit":false,"i_lat":-6.339291,"line":2,"i_long":106.834175,"transit":false,"distance":1029},{"distance":2264,"time":3,"station_id":"UI","i_lat":-6.360749,"is_transit":false,"i_long":106.831474,"transit":false,"station_name":"Univ. Indonesia","line":2},{"station_id":"POC","is_transit":false,"station_name":"Pondok Cina","line":2,"distance":1109,"i_lat":-6.369073,"transit":false,"i_long":106.831114,"time":2}],[{"station_name":"Sudirman","line":1,"time":0,"transit":false,"station_id":"SUD","i_lat":-6.202263,"is_transit":false,"distance":0,"i_long":106.822649},{"station_name":"Sudirman Baru","i_long":106.819881,"station_id":"SUDB","time":1,"i_lat":-6.201433,"line":1,"transit":false,"is_transit":false,"distance":280},{"distance":471,"time":1,"station_name":"Karet","i_long":106.816351,"line":1,"is_transit":false,"station_id":"KAT","i_lat":-6.20132,"transit":false},{"station_name":"Tanah Abang","line":1,"transit":false,"i_lat":-6.185545,"distance":2029,"time":5,"is_transit":false,"i_long":106.811091,"station_id":"THB"},{"i_lat":-6.155215,"station_id":"DU","time":8,"line":1,"station_name":"Duri","transit":false,"is_transit":false,"distance":3632,"i_long":106.800832},{"station_id":"AK","transit":false,"time":4,"distance":1230,"station_name":"Angke","i_lat":-6.144674,"line":1,"i_long":106.79867,"is_transit":false},{"i_lat":-6.132549,"line":4,"station_name":"Kampung Bandan","transit":true,"station_id":"KPB","time":9,"distance":4102,"i_long":106.826365,"is_transit":true},{"time":3,"i_lat":-6.137569,"station_id":"JAKK","is_transit":true,"transit":true,"line":2,"station_name":"Jakarta Kota","distance":1364,"i_long":106.812439},{"station_id":"JAY","station_name":"Jayakarta","i_long":106.820901,"time":4,"transit":false,"is_transit":false,"line":2,"i_lat":-6.141205,"distance":1264},{"distance":1080,"time":2,"transit":false,"i_long":106.82482,"is_transit":false,"station_id":"MGB","station_name":"Manggabesar","line":2,"i_lat":-6.149769},{"is_transit":false,"i_long":106.827103,"distance":906,"line":2,"i_lat":-6.160725,"time":2,"station_id":"SW","station_name":"Sawah Besar","transit":false},{"transit":false,"i_long":106.828284,"time":2,"line":2,"i_lat":-6.166716,"station_id":"JUA","station_name":"Juanda","is_transit":false,"distance":1149},{"transit":false,"station_name":"Gondangdia","is_transit":false,"distance":2015,"line":2,"station_id":"GDD","time":4,"i_lat":-6.186295,"i_long":106.832183},{"is_transit":false,"line":2,"i_lat":-6.198556,"time":3,"station_id":"CKI","transit":false,"station_name":"Cikini","i_long":106.840169,"distance":1750},{"transit":false,"station_id":"MRI","station_name":"Manggarai","i_long":106.84912,"distance":1590,"line":2,"time":4,"i_lat":-6.209883,"is_transit":false},{"is_transit":false,"station_id":"TEB","i_lat":-6.226659,"i_long":106.857948,"station_name":"Tebet","time":4,"distance":2610,"line":2,"transit":false},{"station_id":"CW","line":2,"i_lat":-6.242512,"time":2,"is_transit":false,"transit":false,"station_name":"Cawang","distance":1230,"i_long":106.856607},{"station_name":"Duren Kalibata","station_id":"DRN","i_lat":-6.255332,"i_long":106.85449,"time":3,"transit":false,"distance":1546,"line":2,"is_transit":false},{"station_name":"Pasar Minggu Baru","distance":824,"transit":false,"line":2,"i_lat":-6.263214,"time":2,"station_id":"PSMB","is_transit":false,"i_long":106.851577},{"time":2,"transit":false,"station_id":"PSM","i_long":106.843999,"is_transit":false,"station_name":"Pasar Minggu","distance":2380,"i_lat":-6.2842400000000005,"line":2},{"time":4,"i_long":106.838896,"station_name":"Tanjung Barat","line":2,"transit":false,"station_id":"TNT","is_transit":false,"distance":2820,"i_lat":-6.3080680000000005},{"distance":2671,"station_id":"LNA","is_transit":false,"transit":false,"i_long":106.832616,"station_name":"Lenteng Agung","i_lat":-6.330363,"line":2,"time":3},{"transit":false,"station_name":"Univ. Pancasila","time":2,"i_long":106.834175,"i_lat":-6.339291,"station_id":"UP","is_transit":false,"distance":1029,"line":2},{"i_lat":-6.360749,"time":3,"transit":false,"i_long":106.831474,"station_name":"Univ. Indonesia","is_transit":false,"distance":2264,"station_id":"UI","line":2},{"station_id":"POC","i_long":106.831114,"transit":false,"time":2,"line":2,"distance":1109,"i_lat":-6.369073,"is_transit":false,"station_name":"Pondok Cina"}],[{"transit":false,"line":1,"is_transit":false,"time":0,"distance":0,"station_name":"Sudirman","station_id":"SUD","i_lat":-6.202263,"i_long":106.822649},{"is_transit":false,"i_long":106.819881,"i_lat":-6.201433,"station_name":"Sudirman Baru","transit":false,"time":1,"distance":280,"station_id":"SUDB","line":1},{"transit":false,"i_long":106.816351,"is_transit":false,"line":1,"time":1,"distance":471,"station_name":"Karet","station_id":"KAT","i_lat":-6.20132},{"transit":false,"distance":2029,"i_lat":-6.185545,"station_name":"Tanah Abang","line":1,"i_long":106.811091,"is_transit":false,"station_id":"THB","time":5},{"i_long":106.800832,"time":8,"line":1,"is_transit":false,"transit":false,"distance":3632,"station_name":"Duri","station_id":"DU","i_lat":-6.155215},{"line":1,"distance":1230,"i_long":106.79867,"i_lat":-6.144674,"station_id":"AK","station_name":"Angke","time":4,"transit":false,"is_transit":false},{"station_name":"Kampung Bandan","is_transit":true,"time":9,"transit":true,"station_id":"KPB","line":4,"i_lat":-6.132549,"distance":4102,"i_long":106.826365},{"time":3,"i_long":106.836569,"is_transit":false,"transit":false,"distance":1444,"station_id":"RJW","i_lat":-6.14505,"line":11,"station_name":"Rajawali"},{"distance":1901,"station_id":"KMO","line":11,"is_transit":false,"station_name":"Kemayoran","transit":false,"time":5,"i_lat":-6.161728,"i_long":106.839204},{"station_id":"PSE","line":11,"is_transit":false,"station_name":"Pasar Senen","distance":1436,"i_lat":-6.174784,"i_long":106.84368,"time":4,"transit":false},{"time":8,"i_long":106.850107,"line":11,"is_transit":false,"station_name":"Gang Sentiong","transit":false,"distance":1567,"station_id":"GST","i_lat":-6.185975},{"i_long":106.855437,"station_name":"Kramat","is_transit":false,"time":1,"i_lat":-6.193792,"line":11,"station_id":"KMT","distance":973,"transit":false},{"i_long":106.861737,"station_name":"Pondok Jati","transit":false,"distance":1829,"i_lat":-6.209188,"station_id":"POK","line":11,"is_transit":false,"time":2},{"distance":1236,"station_id":"JNG","station_name":"Jatinegara","transit":true,"time":9,"i_long":106.86807400000001,"is_transit":true,"i_lat":-6.215091,"line":1},{"i_lat":-6.212485,"line":1,"distance":1377,"i_long":106.858896,"is_transit":false,"transit":false,"station_id":"MTR","time":2,"station_name":"Matraman"},{"line":2,"time":2,"is_transit":true,"station_id":"MRI","i_long":106.84912,"i_lat":-6.209883,"station_name":"Manggarai","transit":true,"distance":1275},{"is_transit":false,"distance":2610,"time":4,"transit":false,"station_id":"TEB","i_long":106.857948,"station_name":"Tebet","i_lat":-6.226659,"line":2},{"is_transit":false,"station_id":"CW","transit":false,"i_long":106.856607,"station_name":"Cawang","time":2,"distance":1230,"i_lat":-6.242512,"line":2},{"station_name":"Duren Kalibata","i_long":106.85449,"time":3,"is_transit":false,"i_lat":-6.255332,"line":2,"transit":false,"station_id":"DRN","distance":1546},{"station_name":"Pasar Minggu Baru","i_lat":-6.263214,"i_long":106.851577,"line":2,"transit":false,"is_transit":false,"station_id":"PSMB","time":2,"distance":824},{"i_long":106.843999,"is_transit":false,"distance":2380,"transit":false,"i_lat":-6.2842400000000005,"line":2,"time":2,"station_id":"PSM","station_name":"Pasar Minggu"},{"time":4,"station_id":"TNT","line":2,"i_long":106.838896,"transit":false,"distance":2820,"is_transit":false,"station_name":"Tanjung Barat","i_lat":-6.3080680000000005},{"is_transit":false,"distance":2671,"station_id":"LNA","i_lat":-6.330363,"line":2,"station_name":"Lenteng Agung","i_long":106.832616,"time":3,"transit":false},{"i_lat":-6.339291,"is_transit":false,"transit":false,"station_id":"UP","distance":1029,"line":2,"station_name":"Univ. Pancasila","i_long":106.834175,"time":2},{"i_lat":-6.360749,"distance":2264,"station_id":"UI","is_transit":false,"transit":false,"i_long":106.831474,"line":2,"time":3,"station_name":"Univ. Indonesia"},{"transit":false,"station_name":"Pondok Cina","distance":1109,"is_transit":false,"i_lat":-6.369073,"station_id":"POC","i_long":106.831114,"time":2,"line":2}]]}