{"data":[[{"station_name":"Sudirman","station_id":"SUD","time":0,"i_lat":-6.202263,"distance":0,"i_long":106.822649,"line":1,"transit":false,"is_transit":false},{"station_id":"SUDB","is_transit":false,"distance":280,"transit":false,"line":1,"i_lat":-6.201433,"station_name":"Sudirman Baru","i_long":106.819881,"time":1},{"transit":false,"station_id":"KAT","station_name":"Karet","distance":471,"i_lat":-6.20132,"time":1,"line":1,"is_transit":false,"i_long":106.816351},{"distance":2029,"i_long":106.811091,"line":1,"station_name":"Tanah Abang","time":5,"i_lat":-6.185545,"station_id":"THB","is_transit":true,"transit":true},{"station_name":"Palmerah","is_transit":false,"i_long":106.79689,"line":6,"station_id":"PLM","i_lat":-6.207404,"transit":false,"time":6,"distance":3191},{"line":6,"station_name":"Kebayoran","time":7,"is_transit":false,"distance":3737,"i_long":106.780334,"station_id":"KBY","i_lat":-6.237242,"transit":false},{"i_long":106.74273,"is_transit":false,"station_name":"Pondokranji","line":6,"transit":false,"station_id":"PDJ","distance":6218,"time":8,"i_lat":-6.276362},{"distance":2179,"time":3,"station_name":"Jurangmangu","station_id":"JMU","transit":false,"i_long":106.728916,"line":6,"is_transit":false,"i_lat":-6.288927},{"transit":false,"station_name":"Sudimara","is_transit":false,"time":4,"distance":1994,"line":6,"i_long":106.712277,"i_lat":-6.296963,"station_id":"SDM"},{"station_id":"RU","i_lat":-6.314823,"time":6,"line":6,"transit":false,"station_name":"Rawa Buntu","distance":4566,"is_transit":false,"i_long":106.675475},{"i_lat":-6.319871,"i_long":106.66566,"transit":false,"station_name":"Serpong","time":4,"station_id":"SRP","line":6,"distance":2413,"is_transit":false},{"i_lat":-6.32484,"station_id":"CSK","distance":1784,"station_name":"Cisauk","is_transit":false,"time":4,"i_long":106.640411,"line":3,"transit":false},{"station_name":"Cicayur","i_lat":-6.329547,"transit":false,"is_transit":false,"station_id":"CC","distance":2519,"i_long":106.617853,"time":4,"line":3},{"transit":false,"is_transit":false,"i_long":106.568863,"station_name":"Parung Panjang","distance":5968,"i_lat":-6.3441410000000005,"time":8,"station_id":"PRP","line":6},{"i_lat":-6.354349,"is_transit":false,"transit":false,"i_long":106.508482,"line":3,"station_id":"CJT","station_name":"Cilejit","distance":7025,"time":9},{"transit":false,"distance":2675,"i_lat":-6.338021,"station_name":"Daru","is_transit":false,"line":0,"station_id":"DAR","time":6,"i_long":106.491338},{"line":6,"distance":3902,"i_lat":-6.327251,"station_name":"Tenjo","time":5,"is_transit":false,"station_id":"TEJ","transit":false,"i_long":106.460812}],[{"transit":false,"station_name":"Sudirman","i_lat":-6.202263,"line":1,"distance":0,"i_long":106.822649,"is_transit":false,"station_id":"SUD","time":0},{"station_name":"Manggarai","distance":3186,"transit":true,"is_transit":true,"time":4,"station_id":"MRI","i_lat":-6.209883,"i_long":106.84912,"line":2},{"i_long":106.840169,"is_transit":false,"line":2,"time":4,"transit":false,"distance":1590,"i_lat":-6.198556,"station_name":"Cikini","station_id":"CKI"},{"distance":1750,"i_long":106.832183,"time":3,"station_name":"Gondangdia","is_transit":false,"transit":false,"line":2,"station_id":"GDD","i_lat":-6.186295},{"i_long":106.828284,"is_transit":false,"i_lat":-6.166716,"transit":false,"time":4,"line":2,"station_id":"JUA","distance":2015,"station_name":"Juanda"},{"time":2,"i_long":106.827103,"station_name":"Sawah Besar","is_transit":false,"line":2,"distance":1149,"transit":false,"station_id":"SW","i_lat":-6.160725},{"transit":false,"is_transit":false,"i_long":106.82482,"line":2,"station_name":"Manggabesar","time":2,"distance":906,"i_lat":-6.149769,"station_id":"MGB"},{"station_id":"JAY","transit":false,"distance":1080,"i_long":106.820901,"station_name":"Jayakarta","is_transit":false,"i_lat":-6.141205,"line":2,"time":2},{"i_lat":-6.137569,"line":2,"station_name":"Jakarta Kota","time":4,"station_id":"JAKK","i_long":106.812439,"transit":true,"distance":1264,"is_transit":true},{"distance":1364,"i_lat":-6.132549,"i_long":106.826365,"time":3,"transit":true,"line":4,"station_name":"Kampung Bandan","is_transit":true,"station_id":"KPB"},{"time":9,"line":1,"transit":false,"distance":4102,"i_long":106.79867,"is_transit":false,"i_lat":-6.144674,"station_name":"Angke","station_id":"AK"},{"i_lat":-6.155215,"line":1,"i_long":106.800832,"distance":1230,"time":4,"is_transit":false,"station_name":"Duri","transit":false,"station_id":"DU"},{"time":8,"distance":3632,"i_lat":-6.185545,"line":1,"station_id":"THB","i_long":106.811091,"is_transit":true,"station_name":"Tanah Abang","transit":true},{"i_lat":-6.207404,"line":6,"station_name":"Palmerah","station_id":"PLM","time":6,"is_transit":false,"distance":3191,"i_long":106.79689,"transit":false},{"i_long":106.780334,"distance":3737,"station_name":"Kebayoran","transit":false,"station_id":"KBY","i_lat":-6.237242,"is_transit":false,"time":7,"line":6},{"transit":false,"station_name":"Pondokranji","time":8,"distance":6218,"station_id":"PDJ","i_lat":-6.276362,"is_transit":false,"i_long":106.74273,"line":6},{"station_name":"Jurangmangu","time":3,"i_long":106.728916,"station_id":"JMU","transit":false,"line":6,"distance":2179,"is_transit":false,"i_lat":-6.288927},{"station_id":"SDM","transit":false,"distance":1994,"station_name":"Sudimara","i_lat":-6.296963,"is_transit":false,"time":4,"line":6,"i_long":106.712277},{"distance":4566,"i_long":106.675475,"i_lat":-6.314823,"is_transit":false,"station_name":"Rawa Buntu","transit":false,"line":6,"time":6,"station_id":"RU"},{"station_id":"SRP","is_transit":false,"i_long":106.66566,"i_lat":-6.319871,"time":4,"distance":2413,"line":6,"station_name":"Serpong","transit":false},{"line":3,"transit":false,"station_name":"Cisauk","time":4,"distance":1784,"i_lat":-6.32484,"i_long":106.640411,"is_transit":false,"station_id":"CSK"},{"transit":false,"station_id":"CC","distance":2519,"station_name":"Cicayur","i_long":106.617853,"line":3,"time":4,"i_lat":-6.329547,"is_transit":false},{"transit":false,"i_long":106.568863,"is_transit":false,"time":8,"station_name":"Parung Panjang","i_lat":-6.3441410000000005,"line":6,"station_id":"PRP","distance":5968},{"transit":false,"station_name":"Cilejit","time":9,"is_transit":false,"i_lat":-6.354349,"distance":7025,"i_long":106.508482,"station_id":"CJT","line":3},{"station_name":"Daru","transit":false,"time":6,"is_transit":false,"i_lat":-6.338021,"line":0,"station_id":"DAR","i_long":106.491338,"distance":2675},{"i_long":106.460812,"station_id":"TEJ","transit":false,"is_transit":false,"time":5,"distance":3902,"station_name":"Tenjo","i_lat":-6.327251,"line":6}],[{"station_name":"Sudirman","station_id":"SUD","is_transit":false,"time":0,"i_lat":-6.202263,"transit":false,"i_long":106.822649,"line":1,"distance":0},{"station_name":"Manggarai","transit":false,"distance":3186,"i_lat":-6.209883,"station_id":"MRI","is_transit":false,"time":4,"i_long":106.84912,"line":2},{"station_name":"Matraman","is_transit":false,"time":2,"i_lat":-6.212485,"distance":1275,"i_long":106.858896,"line":1,"station_id":"MTR","transit":false},{"is_transit":true,"time":8,"station_id":"JNG","station_name":"Jatinegara","line":1,"distance":1377,"i_long":106.86807400000001,"i_lat":-6.215091,"transit":true},{"station_name":"Pondok Jati","station_id":"POK","line":11,"distance":1236,"time":2,"transit":false,"is_transit":false,"i_lat":-6.209188,"i_long":106.861737},{"station_name":"Kramat","is_transit":false,"line":11,"time":2,"distance":1829,"station_id":"KMT","i_long":106.855437,"transit":false,"i_lat":-6.193792},{"time":1,"station_id":"GST","station_name":"Gang Sentiong","distance":973,"line":11,"i_long":106.850107,"is_transit":false,"transit":false,"i_lat":-6.185975},{"distance":1567,"line":11,"time":8,"is_transit":false,"i_lat":-6.174784,"station_id":"PSE","i_long":106.84368,"station_name":"Pasar Senen","transit":false},{"distance":1436,"line":11,"time":4,"station_id":"KMO","transit":false,"i_lat":-6.161728,"i_long":106.839204,"is_transit":false,"station_name":"Kemayoran"},{"station_id":"RJW","is_transit":false,"station_name":"Rajawali","time":5,"distance":1901,"transit":false,"line":11,"i_lat":-6.14505,"i_long":106.836569},{"is_transit":true,"distance":1444,"station_name":"Kampung Bandan","line":4,"station_id":"KPB","i_long":106.826365,"time":3,"transit":true,"i_lat":-6.132549},{"time":9,"station_id":"AK","transit":false,"station_name":"Angke","is_transit":false,"i_long":106.79867,"i_lat":-6.144674,"line":1,"distance":4102},{"line":1,"time":4,"transit":false,"i_long":106.800832,"i_lat":-6.155215,"station_id":"DU","distance":1230,"station_name":"Duri","is_transit":false},{"transit":true,"is_transit":true,"time":8,"line":1,"station_name":"Tanah Abang","distance":3632,"i_long":106.811091,"station_id":"THB","i_lat":-6.185545},{"is_transit":false,"line":6,"transit":false,"station_id":"PLM","time":6,"i_long":106.79689,"i_lat":-6.207404,"station_name":"Palmerah","distance":3191},{"transit":false,"time":7,"station_name":"Kebayoran","station_id":"KBY","is_transit":false,"distance":3737,"i_lat":-6.237242,"i_long":106.780334,"line":6},{"distance":6218,"i_long":106.74273,"is_transit":false,"time":8,"line":6,"i_lat":-6.276362,"transit":false,"station_name":"Pondokranji","station_id":"PDJ"},{"station_name":"Jurangmangu","is_transit":false,"i_long":106.728916,"time":3,"distance":2179,"transit":false,"i_lat":-6.288927,"line":6,"station_id":"JMU"},{"is_transit":false,"i_lat":-6.296963,"i_long":106.712277,"distance":1994,"station_id":"SDM","transit":false,"time":4,"station_name":"Sudimara","line":6},{"time":6,"i_lat":-6.314823,"transit":false,"is_transit":false,"line":6,"station_id":"RU","distance":4566,"station_name":"Rawa Buntu","i_long":106.675475},{"line":6,"distance":2413,"station_id":"SRP","station_name":"Serpong","i_lat":-6.319871,"transit":false,"time":4,"is_transit":false,"i_long":106.66566},{"i_long":106.640411,"line":3,"station_id":"CSK","is_transit":false,"transit":false,"i_lat":-6.32484,"distance":1784,"station_name":"Cisauk","time":4},{"i_long":106.617853,"line":3,"i_lat":-6.329547,"transit":false,"is_transit":false,"station_id":"CC","station_name":"Cicayur","time":4,"distance":2519},{"line":6,"i_long":106.568863,"station_name":"Parung Panjang","is_transit":false,"station_id":"PRP","distance":5968,"time":8,"i_lat":-6.3441410000000005,"transit":false},{"is_transit":false,"transit":false,"time":9,"station_id":"CJT","line":3,"distance":7025,"station_name":"Cilejit","i_lat":-6.354349,"i_long":106.508482},{"station_id":"DAR","i_lat":-6.338021,"transit":false,"is_transit":false,"time":6,"line":0,"station_name":"Daru","i_long":106.491338,"distance":2675},{"i_long":106.460812,"is_transit":false,"time":5,"distance":3902,"i_lat":-6.327251,"line":6,"station_name":"Tenjo","station_id":"TEJ","transit":false}]]}