{"data":[[{"time":0,"station_id":"SUD","line":1,"i_long":106.822649,"i_lat":-6.202263,"distance":0,"station_name":"Sudirman","is_transit":false,"transit":false},{"station_name":"Manggarai","i_lat":-6.209883,"line":0,"time":4,"station_id":"MRI","i_long":106.84912,"transit":true,"distance":3186,"is_transit":true},{"distance":2610,"is_transit":false,"time":4,"station_id":"TEB","line":2,"transit":false,"i_long":106.857948,"station_name":"Tebet","i_lat":-6.226659},{"time":2,"distance":1230,"is_transit":false,"station_id":"CW","station_name":"Cawang","i_lat":-6.242512,"i_long":106.856607,"line":0,"transit":false},{"distance":1546,"transit":false,"line":0,"time":3,"i_long":106.85449,"station_id":"DRN","i_lat":-6.255332,"is_transit":false,"station_name":"Duren Kalibata"},{"is_transit":false,"station_id":"PSMB","station_name":"Pasar Minggu Baru","transit":false,"line":2,"distance":824,"i_lat":-6.263214,"i_long":106.851577,"time":2},{"transit":false,"distance":2380,"is_transit":false,"station_id":"PSM","i_lat":-6.2842400000000005,"line":2,"station_name":"Pasar Minggu","i_long":106.843999,"time":2},{"distance":2820,"i_lat":-6.3080680000000005,"i_long":106.838896,"station_id":"TNT","transit":false,"time":4,"is_transit":false,"line":2,"station_name":"Tanjung Barat"}],[{"distance":0,"is_transit":false,"station_name":"Sudirman","transit":false,"station_id":"SUD","line":1,"i_long":106.822649,"i_lat":-6.202263,"time":0},{"station_id":"SUDB","station_name":"Sudirman Baru","transit":false,"distance":280,"time":1,"i_long":106.819881,"line":1,"i_lat":-6.201433,"is_transit":false},{"station_name":"Karet","time":1,"i_long":106.816351,"station_id":"KAT","is_transit":false,"line":1,"transit":false,"i_lat":-6.20132,"distance":471},{"time":5,"is_transit":true,"station_name":"Tanah Abang","i_lat":-6.185545,"i_long":106.811091,"distance":2029,"station_id":"THB","transit":false,"line":1},{"distance":3632,"i_long":106.800832,"line":1,"station_id":"DU","transit":true,"i_lat":-6.155215,"is_transit":true,"station_name":"Duri","time":8},{"i_long":106.79867,"station_name":"Angke","i_lat":-6.144674,"line":0,"station_id":"AK","is_transit":false,"transit":false,"time":4,"distance":1230},{"i_long":106.826365,"line":0,"time":9,"i_lat":-6.132549,"is_transit":true,"distance":4102,"transit":false,"station_id":"KPB","station_name":"Kampung Bandan"},{"is_transit":true,"distance":1364,"line":0,"i_lat":-6.137569,"transit":true,"time":3,"i_long":106.812439,"station_id":"JAKK","station_name":"Jakarta Kota"},{"station_id":"JAY","distance":1264,"is_transit":false,"transit":false,"i_lat":-6.141205,"station_name":"Jayakarta","time":4,"i_long":106.820901,"line":7},{"station_id":"MGB","i_lat":-6.149769,"is_transit":false,"station_name":"Manggabesar","i_long":106.82482,"line":2,"transit":false,"distance":1080,"time":2},{"transit":false,"is_transit":false,"i_lat":-6.160725,"i_long":106.827103,"distance":906,"station_id":"SW","line":2,"time":2,"station_name":"Sawah Besar"},{"i_long":106.828284,"transit":false,"station_id":"JUA","station_name":"Juanda","is_transit":false,"time":2,"i_lat":-6.166716,"line":2,"distance":1149},{"station_id":"GDD","is_transit":false,"time":4,"i_long":106.832183,"transit":false,"i_lat":-6.186295,"line":2,"station_name":"Gondangdia","distance":2015},{"line":0,"distance":1750,"transit":false,"is_transit":false,"station_name":"Cikini","time":3,"i_long":106.840169,"i_lat":-6.198556,"station_id":"CKI"},{"time":4,"station_name":"Manggarai","i_lat":-6.209883,"i_long":106.84912,"is_transit":true,"distance":1590,"station_id":"MRI","transit":true,"line":0},{"station_id":"TEB","distance":2610,"transit":false,"time":4,"line":2,"is_transit":false,"station_name":"Tebet","i_lat":-6.226659,"i_long":106.857948},{"i_lat":-6.242512,"transit":false,"station_name":"Cawang","is_transit":false,"i_long":106.856607,"station_id":"CW","line":0,"distance":1230,"time":2},{"station_id":"DRN","distance":1546,"station_name":"Duren Kalibata","transit":false,"i_lat":-6.255332,"i_long":106.85449,"line":0,"time":3,"is_transit":false},{"is_transit":false,"time":2,"line":2,"transit":false,"i_lat":-6.263214,"distance":824,"station_name":"Pasar Minggu Baru","station_id":"PSMB","i_long":106.851577},{"time":2,"transit":false,"station_id":"PSM","i_lat":-6.2842400000000005,"line":2,"i_long":106.843999,"station_name":"Pasar Minggu","is_transit":false,"distance":2380},{"line":2,"is_transit":false,"station_id":"TNT","i_long":106.838896,"distance":2820,"station_name":"Tanjung Barat","i_lat":-6.3080680000000005,"transit":false,"time":4}],[{"distance":0,"station_name":"Sudirman","station_id":"SUD","i_lat":-6.202263,"i_long":106.822649,"is_transit":false,"transit":false,"time":0,"line":1},{"i_lat":-6.201433,"time":1,"is_transit":false,"distance":280,"transit":false,"station_name":"Sudirman Baru","i_long":106.819881,"line":1,"station_id":"SUDB"},{"time":1,"station_id":"KAT","i_lat":-6.20132,"distance":471,"is_transit":false,"i_long":106.816351,"station_name":"Karet","transit":false,"line":1},{"distance":2029,"station_name":"Tanah Abang","line":1,"i_long":106.811091,"is_transit":true,"i_lat":-6.185545,"transit":false,"time":5,"station_id":"THB"},{"station_name":"Duri","is_transit":true,"transit":true,"station_id":"DU","i_long":106.800832,"i_lat":-6.155215,"distance":3632,"time":8,"line":1},{"distance":1230,"station_id":"AK","station_name":"Angke","line":0,"i_long":106.79867,"is_transit":false,"transit":false,"time":4,"i_lat":-6.144674},{"time":9,"distance":4102,"is_transit":true,"station_id":"KPB","line":0,"i_long":106.826365,"station_name":"Kampung Bandan","i_lat":-6.132549,"transit":true},{"line":11,"distance":1444,"time":3,"station_name":"Rajawali","station_id":"RJW","transit":false,"i_lat":-6.14505,"i_long":106.836569,"is_transit":false},{"station_id":"KMO","i_long":106.839204,"distance":1901,"is_transit":false,"transit":false,"station_name":"Kemayoran","time":5,"i_lat":-6.161728,"line":11},{"i_lat":-6.174784,"is_transit":false,"station_id":"PSE","i_long":106.84368,"transit":false,"distance":1436,"line":11,"time":4,"station_name":"Pasar Senen"},{"station_id":"GST","station_name":"Gang Sentiong","distance":1567,"is_transit":false,"transit":false,"i_long":106.850107,"i_lat":-6.185975,"time":8,"line":11},{"i_long":106.855437,"i_lat":-6.193792,"is_transit":false,"station_name":"Kramat","transit":false,"time":1,"station_id":"KMT","line":11,"distance":973},{"station_id":"POK","is_transit":false,"station_name":"Pondok Jati","distance":1829,"i_lat":-6.209188,"i_long":106.861737,"line":11,"transit":false,"time":2},{"line":0,"i_long":106.86807400000001,"is_transit":true,"distance":1236,"time":9,"i_lat":-6.215091,"station_name":"Jatinegara","station_id":"JNG","transit":true},{"i_lat":-6.212485,"i_long":106.858896,"distance":1377,"transit":false,"line":1,"is_transit":false,"station_name":"Matraman","time":2,"station_id":"MTR"},{"i_long":106.84912,"distance":1275,"station_name":"Manggarai","line":0,"is_transit":true,"transit":true,"time":2,"station_id":"MRI","i_lat":-6.209883},{"line":2,"i_long":106.857948,"is_transit":false,"station_id":"TEB","time":4,"distance":2610,"transit":false,"i_lat":-6.226659,"station_name":"Tebet"},{"i_lat":-6.242512,"station_id":"CW","time":2,"distance":1230,"line":0,"transit":false,"is_transit":false,"station_name":"Cawang","i_long":106.856607},{"i_long":106.85449,"station_name":"Duren Kalibata","line":0,"distance":1546,"station_id":"DRN","i_lat":-6.255332,"time":3,"is_transit":false,"transit":false},{"transit":false,"i_lat":-6.263214,"distance":824,"station_id":"PSMB","time":2,"line":2,"i_long":106.851577,"is_transit":false,"station_name":"Pasar Minggu Baru"},{"station_id":"PSM","transit":false,"distance":2380,"is_transit":false,"station_name":"Pasar Minggu","time":2,"i_long":106.843999,"i_lat":-6.2842400000000005,"line":2},{"time":4,"transit":false,"station_id":"TNT","i_lat":-6.3080680000000005,"distance":2820,"i_long":106.838896,"line":2,"is_transit":false,"station_name":"Tanjung Barat"}]]}