{"data":[[{"is_transit":false,"i_lat":-6.202263,"i_long":106.822649,"distance":0,"station_name":"Sudirman","station_id":"SUD","time":0,"transit":false,"line":1},{"distance":3186,"is_transit":true,"station_name":"Manggarai","transit":true,"i_lat":-6.209883,"i_long":106.84912,"station_id":"MRI","line":0,"time":4},{"time":4,"distance":2610,"i_long":106.857948,"line":2,"is_transit":false,"transit":false,"station_id":"TEB","i_lat":-6.226659,"station_name":"Tebet"},{"line":0,"i_long":106.856607,"i_lat":-6.242512,"station_name":"Cawang","time":2,"is_transit":false,"transit":false,"station_id":"CW","distance":1230},{"time":3,"i_long":106.85449,"distance":1546,"transit":false,"is_transit":false,"line":0,"i_lat":-6.255332,"station_id":"DRN","station_name":"Duren Kalibata"},{"transit":false,"i_lat":-6.263214,"time":2,"line":2,"station_id":"PSMB","i_long":106.851577,"distance":824,"is_transit":false,"station_name":"Pasar Minggu Baru"},{"is_transit":false,"transit":false,"i_long":106.843999,"distance":2380,"line":2,"time":2,"station_id":"PSM","station_name":"Pasar Minggu","i_lat":-6.2842400000000005},{"i_lat":-6.3080680000000005,"distance":2820,"line":2,"is_transit":false,"station_name":"Tanjung Barat","time":4,"transit":false,"i_long":106.838896,"station_id":"TNT"},{"i_long":106.832616,"time":3,"station_id":"LNA","transit":false,"is_transit":false,"station_name":"Lenteng Agung","i_lat":-6.330363,"line":2,"distance":2671},{"station_id":"UP","i_long":106.834175,"line":2,"transit":false,"distance":1029,"i_lat":-6.339291,"is_transit":false,"time":2,"station_name":"Univ. Pancasila"},{"i_lat":-6.360749,"line":2,"is_transit":false,"distance":2264,"station_id":"UI","i_long":106.831474,"station_name":"Univ. Indonesia","transit":false,"time":3},{"is_transit":false,"station_name":"Pondok Cina","station_id":"POC","i_long":106.831114,"distance":1109,"time":2,"i_lat":-6.369073,"line":2,"transit":false},{"i_long":106.819451,"distance":2727,"transit":false,"line":0,"is_transit":false,"station_id":"DPB","station_name":"Depokbaru","time":4,"i_lat":-6.391065},{"i_lat":-6.405256,"station_id":"DP","line":0,"time":3,"station_name":"Depok","transit":false,"i_long":106.816926,"distance":1584,"is_transit":false}],[{"line":1,"transit":false,"is_transit":false,"station_id":"SUD","time":0,"distance":0,"i_long":106.822649,"station_name":"Sudirman","i_lat":-6.202263},{"line":1,"i_lat":-6.201433,"i_long":106.819881,"is_transit":false,"station_name":"Sudirman Baru","distance":280,"transit":false,"time":1,"station_id":"SUDB"},{"distance":471,"station_name":"Karet","transit":false,"is_transit":false,"station_id":"KAT","i_lat":-6.20132,"line":1,"time":1,"i_long":106.816351},{"line":1,"station_name":"Tanah Abang","transit":false,"i_long":106.811091,"station_id":"THB","i_lat":-6.185545,"time":5,"is_transit":true,"distance":2029},{"line":1,"is_transit":true,"transit":true,"time":8,"i_long":106.800832,"station_id":"DU","distance":3632,"i_lat":-6.155215,"station_name":"Duri"},{"i_lat":-6.144674,"station_id":"AK","i_long":106.79867,"station_name":"Angke","line":0,"distance":1230,"is_transit":false,"time":4,"transit":false},{"is_transit":true,"station_id":"KPB","i_long":106.826365,"i_lat":-6.132549,"line":0,"time":9,"distance":4102,"transit":false,"station_name":"Kampung Bandan"},{"line":0,"i_lat":-6.137569,"time":3,"station_name":"Jakarta Kota","transit":true,"distance":1364,"is_transit":true,"station_id":"JAKK","i_long":106.812439},{"line":7,"station_name":"Jayakarta","i_lat":-6.141205,"time":4,"distance":1264,"station_id":"JAY","transit":false,"is_transit":false,"i_long":106.820901},{"time":2,"transit":false,"line":2,"i_long":106.82482,"distance":1080,"station_id":"MGB","station_name":"Manggabesar","is_transit":false,"i_lat":-6.149769},{"time":2,"station_name":"Sawah Besar","i_lat":-6.160725,"i_long":106.827103,"line":2,"station_id":"SW","distance":906,"transit":false,"is_transit":false},{"is_transit":false,"i_long":106.828284,"station_id":"JUA","transit":false,"distance":1149,"time":2,"station_name":"Juanda","i_lat":-6.166716,"line":2},{"transit":false,"station_id":"GDD","time":4,"i_lat":-6.186295,"distance":2015,"line":2,"station_name":"Gondangdia","i_long":106.832183,"is_transit":false},{"station_name":"Cikini","transit":false,"i_lat":-6.198556,"i_long":106.840169,"time":3,"station_id":"CKI","is_transit":false,"line":0,"distance":1750},{"line":0,"i_lat":-6.209883,"distance":1590,"station_id":"MRI","station_name":"Manggarai","transit":true,"i_long":106.84912,"is_transit":true,"time":4},{"i_lat":-6.226659,"i_long":106.857948,"station_id":"TEB","time":4,"station_name":"Tebet","distance":2610,"line":2,"transit":false,"is_transit":false},{"is_transit":false,"line":0,"transit":false,"time":2,"distance":1230,"station_id":"CW","i_long":106.856607,"station_name":"Cawang","i_lat":-6.242512},{"station_name":"Duren Kalibata","transit":false,"i_lat":-6.255332,"time":3,"i_long":106.85449,"line":0,"station_id":"DRN","is_transit":false,"distance":1546},{"distance":824,"station_id":"PSMB","time":2,"line":2,"station_name":"Pasar Minggu Baru","i_long":106.851577,"transit":false,"i_lat":-6.263214,"is_transit":false},{"time":2,"i_long":106.843999,"line":2,"station_name":"Pasar Minggu","station_id":"PSM","distance":2380,"transit":false,"i_lat":-6.2842400000000005,"is_transit":false},{"is_transit":false,"station_name":"Tanjung Barat","line":2,"transit":false,"i_long":106.838896,"distance":2820,"station_id":"TNT","i_lat":-6.3080680000000005,"time":4},{"i_long":106.832616,"is_transit":false,"station_id":"LNA","distance":2671,"i_lat":-6.330363,"line":2,"time":3,"transit":false,"station_name":"Lenteng Agung"},{"i_long":106.834175,"line":2,"station_id":"UP","i_lat":-6.339291,"time":2,"distance":1029,"station_name":"Univ. Pancasila","transit":false,"is_transit":false},{"time":3,"is_transit":false,"station_id":"UI","i_lat":-6.360749,"station_name":"Univ. Indonesia","transit":false,"distance":2264,"line":2,"i_long":106.831474},{"station_id":"POC","transit":false,"i_long":106.831114,"is_transit":false,"distance":1109,"station_name":"Pondok Cina","i_lat":-6.369073,"line":2,"time":2},{"i_long":106.819451,"i_lat":-6.391065,"time":4,"station_name":"Depokbaru","station_id":"DPB","is_transit":false,"transit":false,"line":0,"distance":2727},{"time":3,"is_transit":false,"station_name":"Depok","distance":1584,"i_long":106.816926,"transit":false,"line":0,"i_lat":-6.405256,"station_id":"DP"}],[{"station_id":"SUD","line":1,"is_transit":false,"i_lat":-6.202263,"i_long":106.822649,"distance":0,"station_name":"Sudirman","time":0,"transit":false},{"is_transit":false,"i_long":106.819881,"station_name":"Sudirman Baru","transit":false,"line":1,"station_id":"SUDB","i_lat":-6.201433,"time":1,"distance":280},{"station_name":"Karet","i_lat":-6.20132,"distance":471,"is_transit":false,"station_id":"KAT","time":1,"line":1,"i_long":106.816351,"transit":false},{"i_long":106.811091,"distance":2029,"transit":false,"is_transit":true,"line":1,"station_id":"THB","time":5,"station_name":"Tanah Abang","i_lat":-6.185545},{"i_long":106.800832,"station_name":"Duri","is_transit":true,"station_id":"DU","line":1,"distance":3632,"transit":true,"time":8,"i_lat":-6.155215},{"station_id":"AK","i_lat":-6.144674,"station_name":"Angke","transit":false,"distance":1230,"is_transit":false,"time":4,"line":0,"i_long":106.79867},{"station_id":"KPB","time":9,"is_transit":true,"i_long":106.826365,"station_name":"Kampung Bandan","i_lat":-6.132549,"distance":4102,"line":0,"transit":true},{"station_name":"Rajawali","line":11,"distance":1444,"is_transit":false,"i_lat":-6.14505,"i_long":106.836569,"transit":false,"time":3,"station_id":"RJW"},{"station_name":"Kemayoran","i_lat":-6.161728,"is_transit":false,"i_long":106.839204,"transit":false,"station_id":"KMO","time":5,"line":11,"distance":1901},{"time":4,"distance":1436,"transit":false,"station_id":"PSE","i_long":106.84368,"is_transit":false,"station_name":"Pasar Senen","line":11,"i_lat":-6.174784},{"station_name":"Gang Sentiong","time":8,"distance":1567,"is_transit":false,"transit":false,"i_lat":-6.185975,"i_long":106.850107,"line":11,"station_id":"GST"},{"i_lat":-6.193792,"line":11,"station_name":"Kramat","station_id":"KMT","i_long":106.855437,"time":1,"distance":973,"is_transit":false,"transit":false},{"is_transit":false,"distance":1829,"station_name":"Pondok Jati","time":2,"i_lat":-6.209188,"line":11,"transit":false,"i_long":106.861737,"station_id":"POK"},{"station_name":"Jatinegara","transit":true,"line":0,"is_transit":true,"station_id":"JNG","time":9,"distance":1236,"i_lat":-6.215091,"i_long":106.86807400000001},{"i_long":106.858896,"station_name":"Matraman","line":1,"is_transit":false,"transit":false,"i_lat":-6.212485,"distance":1377,"station_id":"MTR","time":2},{"time":2,"station_name":"Manggarai","distance":1275,"is_transit":true,"station_id":"MRI","i_lat":-6.209883,"transit":true,"i_long":106.84912,"line":0},{"transit":false,"i_long":106.857948,"is_transit":false,"time":4,"line":2,"distance":2610,"station_id":"TEB","station_name":"Tebet","i_lat":-6.226659},{"transit":false,"i_long":106.856607,"is_transit":false,"i_lat":-6.242512,"station_id":"CW","time":2,"line":0,"distance":1230,"station_name":"Cawang"},{"transit":false,"station_name":"Duren Kalibata","distance":1546,"is_transit":false,"i_lat":-6.255332,"time":3,"station_id":"DRN","i_long":106.85449,"line":0},{"i_long":106.851577,"station_name":"Pasar Minggu Baru","i_lat":-6.263214,"line":2,"transit":false,"distance":824,"is_transit":false,"station_id":"PSMB","time":2},{"station_name":"Pasar Minggu","i_lat":-6.2842400000000005,"i_long":106.843999,"distance":2380,"is_transit":false,"transit":false,"time":2,"station_id":"PSM","line":2},{"station_name":"Tanjung Barat","is_transit":false,"i_lat":-6.3080680000000005,"i_long":106.838896,"distance":2820,"line":2,"time":4,"station_id":"TNT","transit":false},{"station_id":"LNA","line":2,"i_lat":-6.330363,"is_transit":false,"station_name":"Lenteng Agung","transit":false,"i_long":106.832616,"distance":2671,"time":3},{"station_name":"Univ. Pancasila","distance":1029,"i_long":106.834175,"line":2,"is_transit":false,"station_id":"UP","time":2,"i_lat":-6.339291,"transit":false},{"time":3,"i_long":106.831474,"distance":2264,"station_name":"Univ. Indonesia","is_transit":false,"i_lat":-6.360749,"station_id":"UI","line":2,"transit":false},{"time":2,"line":2,"transit":false,"station_name":"Pondok Cina","distance":1109,"i_long":106.831114,"i_lat":-6.369073,"station_id":"POC","is_transit":false},{"time":4,"is_transit":false,"station_id":"DPB","station_name":"Depokbaru","i_lat":-6.391065,"distance":2727,"i_long":106.819451,"line":0,"transit":false},{"i_long":106.816926,"line":0,"station_name":"Depok","transit":false,"distance":1584,"is_transit":false,"i_lat":-6.405256,"time":3,"station_id":"DP"}]]}