{"data":[[{"distance":0,"i_lat":-6.202263,"line":1,"transit":false,"station_name":"Sudirman","station_id":"SUD","time":0,"i_long":106.822649,"is_transit":false},{"station_name":"Manggarai","i_long":106.84912,"line":2,"distance":3186,"station_id":"MRI","is_transit":true,"transit":true,"i_lat":-6.209883,"time":4},{"time":4,"is_transit":false,"i_lat":-6.226659,"i_long":106.857948,"transit":false,"station_id":"TEB","distance":2610,"station_name":"Tebet","line":2},{"distance":1230,"i_lat":-6.242512,"is_transit":false,"station_name":"Cawang","time":2,"transit":false,"i_long":106.856607,"line":2,"station_id":"CW"},{"station_id":"DRN","i_long":106.85449,"i_lat":-6.255332,"transit":false,"line":2,"time":3,"is_transit":false,"distance":1546,"station_name":"Duren Kalibata"},{"i_long":106.851577,"station_name":"Pasar Minggu Baru","distance":824,"line":2,"transit":false,"i_lat":-6.263214,"station_id":"PSMB","time":2,"is_transit":false},{"distance":2380,"time":2,"i_lat":-6.2842400000000005,"station_id":"PSM","station_name":"Pasar Minggu","is_transit":false,"transit":false,"i_long":106.843999,"line":2},{"time":4,"distance":2820,"transit":false,"station_id":"TNT","station_name":"Tanjung Barat","line":2,"is_transit":false,"i_long":106.838896,"i_lat":-6.3080680000000005},{"is_transit":false,"transit":false,"i_long":106.832616,"line":2,"i_lat":-6.330363,"time":3,"station_id":"LNA","distance":2671,"station_name":"Lenteng Agung"},{"i_lat":-6.339291,"transit":false,"i_long":106.834175,"station_id":"UP","station_name":"Univ. Pancasila","distance":1029,"is_transit":false,"line":2,"time":2},{"station_name":"Univ. Indonesia","i_lat":-6.360749,"is_transit":false,"time":3,"transit":false,"i_long":106.831474,"station_id":"UI","line":2,"distance":2264},{"station_name":"Pondok Cina","is_transit":false,"i_lat":-6.369073,"time":2,"distance":1109,"i_long":106.831114,"line":2,"station_id":"POC","transit":false},{"line":2,"time":4,"i_lat":-6.391065,"station_id":"DPB","distance":2727,"is_transit":false,"station_name":"Depokbaru","i_long":106.819451,"transit":false},{"is_transit":false,"distance":1584,"i_long":106.816926,"station_name":"Depok","station_id":"DP","line":2,"time":3,"i_lat":-6.405256,"transit":false},{"i_long":106.800298,"is_transit":true,"station_name":"Citayam","transit":true,"station_id":"CTA","time":6,"distance":5084,"line":2,"i_lat":-6.448811},{"distance":0,"i_lat":-6.460735,"time":0,"i_long":106.824374,"is_transit":false,"station_id":"PDRG","station_name":"Pondok Rajeg","line":21,"transit":false}],[{"distance":0,"is_transit":false,"i_long":106.822649,"station_id":"SUD","station_name":"Sudirman","i_lat":-6.202263,"time":0,"transit":false,"line":1},{"i_lat":-6.201433,"time":1,"distance":280,"station_id":"SUDB","is_transit":false,"line":1,"transit":false,"i_long":106.819881,"station_name":"Sudirman Baru"},{"i_lat":-6.20132,"transit":false,"station_name":"Karet","line":1,"time":1,"distance":471,"i_long":106.816351,"station_id":"KAT","is_transit":false},{"station_name":"Tanah Abang","i_lat":-6.185545,"line":1,"is_transit":false,"distance":2029,"station_id":"THB","transit":false,"time":5,"i_long":106.811091},{"transit":false,"line":1,"time":8,"station_name":"Duri","i_long":106.800832,"station_id":"DU","distance":3632,"i_lat":-6.155215,"is_transit":false},{"station_id":"AK","time":4,"transit":false,"i_lat":-6.144674,"i_long":106.79867,"line":1,"is_transit":false,"station_name":"Angke","distance":1230},{"station_name":"Kampung Bandan","distance":4102,"is_transit":true,"transit":true,"i_long":106.826365,"line":4,"time":9,"i_lat":-6.132549,"station_id":"KPB"},{"i_lat":-6.137569,"transit":true,"i_long":106.812439,"line":2,"station_name":"Jakarta Kota","station_id":"JAKK","time":3,"is_transit":true,"distance":1364},{"distance":1264,"i_lat":-6.141205,"transit":false,"station_id":"JAY","i_long":106.820901,"line":2,"is_transit":false,"time":4,"station_name":"Jayakarta"},{"line":2,"i_lat":-6.149769,"station_id":"MGB","is_transit":false,"transit":false,"time":2,"distance":1080,"station_name":"Manggabesar","i_long":106.82482},{"transit":false,"is_transit":false,"line":2,"time":2,"station_name":"Sawah Besar","station_id":"SW","distance":906,"i_lat":-6.160725,"i_long":106.827103},{"station_id":"JUA","is_transit":false,"line":2,"i_lat":-6.166716,"time":2,"transit":false,"i_long":106.828284,"station_name":"Juanda","distance":1149},{"is_transit":false,"i_lat":-6.186295,"transit":false,"station_name":"Gondangdia","distance":2015,"i_long":106.832183,"time":4,"line":2,"station_id":"GDD"},{"i_lat":-6.198556,"line":2,"time":3,"station_id":"CKI","is_transit":false,"transit":false,"distance":1750,"station_name":"Cikini","i_long":106.840169},{"time":4,"transit":false,"i_long":106.84912,"station_name":"Manggarai","line":2,"station_id":"MRI","is_transit":false,"distance":1590,"i_lat":-6.209883},{"station_id":"TEB","i_long":106.857948,"i_lat":-6.226659,"line":2,"transit":false,"station_name":"Tebet","time":4,"is_transit":false,"distance":2610},{"line":2,"time":2,"transit":false,"station_id":"CW","is_transit":false,"i_long":106.856607,"i_lat":-6.242512,"distance":1230,"station_name":"Cawang"},{"is_transit":false,"transit":false,"time":3,"station_id":"DRN","line":2,"station_name":"Duren Kalibata","distance":1546,"i_long":106.85449,"i_lat":-6.255332},{"distance":824,"station_name":"Pasar Minggu Baru","line":2,"station_id":"PSMB","i_lat":-6.263214,"i_long":106.851577,"is_transit":false,"time":2,"transit":false},{"i_long":106.843999,"station_id":"PSM","distance":2380,"is_transit":false,"station_name":"Pasar Minggu","i_lat":-6.2842400000000005,"time":2,"line":2,"transit":false},{"line":2,"transit":false,"i_long":106.838896,"time":4,"station_id":"TNT","station_name":"Tanjung Barat","is_transit":false,"distance":2820,"i_lat":-6.3080680000000005},{"is_transit":false,"i_long":106.832616,"distance":2671,"transit":false,"time":3,"station_name":"Lenteng Agung","station_id":"LNA","i_lat":-6.330363,"line":2},{"is_transit":false,"station_name":"Univ. Pancasila","line":2,"i_lat":-6.339291,"station_id":"UP","time":2,"distance":1029,"i_long":106.834175,"transit":false},{"i_long":106.831474,"time":3,"distance":2264,"line":2,"transit":false,"station_name":"Univ. Indonesia","i_lat":-6.360749,"station_id":"UI","is_transit":false},{"station_id":"POC","station_name":"Pondok Cina","i_lat":-6.369073,"time":2,"is_transit":false,"transit":false,"distance":1109,"line":2,"i_long":106.831114},{"i_lat":-6.391065,"i_long":106.819451,"station_name":"Depokbaru","station_id":"DPB","is_transit":false,"line":2,"time":4,"transit":false,"distance":2727},{"line":2,"i_lat":-6.405256,"i_long":106.816926,"transit":false,"is_transit":false,"station_name":"Depok","distance":1584,"station_id":"DP","time":3},{"station_id":"CTA","time":6,"transit":true,"station_name":"Citayam","i_long":106.800298,"i_lat":-6.448811,"line":2,"is_transit":true,"distance":5084},{"i_long":106.824374,"i_lat":-6.460735,"transit":false,"station_id":"PDRG","line":21,"time":0,"is_transit":false,"distance":0,"station_name":"Pondok Rajeg"}],[{"time":0,"i_lat":-6.202263,"i_long":106.822649,"station_name":"Sudirman","distance":0,"transit":false,"station_id":"SUD","line":1,"is_transit":false},{"station_id":"SUDB","station_name":"Sudirman Baru","transit":false,"time":1,"is_transit":false,"distance":280,"i_lat":-6.201433,"line":1,"i_long":106.819881},{"distance":471,"i_lat":-6.20132,"station_id":"KAT","line":1,"is_transit":false,"station_name":"Karet","time":1,"i_long":106.816351,"transit":false},{"distance":2029,"line":1,"transit":false,"i_long":106.811091,"station_name":"Tanah Abang","is_transit":false,"station_id":"THB","i_lat":-6.185545,"time":5},{"time":8,"station_name":"Duri","line":1,"station_id":"DU","distance":3632,"transit":false,"is_transit":false,"i_lat":-6.155215,"i_long":106.800832},{"transit":false,"distance":1230,"i_long":106.79867,"station_name":"Angke","i_lat":-6.144674,"is_transit":false,"time":4,"line":1,"station_id":"AK"},{"station_name":"Kampung Bandan","i_long":106.826365,"distance":4102,"transit":true,"line":4,"is_transit":true,"station_id":"KPB","i_lat":-6.132549,"time":9},{"is_transit":false,"time":3,"i_long":106.836569,"line":11,"transit":false,"distance":1444,"i_lat":-6.14505,"station_id":"RJW","station_name":"Rajawali"},{"distance":1901,"station_name":"Kemayoran","i_long":106.839204,"line":11,"time":5,"station_id":"KMO","i_lat":-6.161728,"transit":false,"is_transit":false},{"station_id":"PSE","transit":false,"i_long":106.84368,"time":4,"station_name":"Pasar Senen","i_lat":-6.174784,"is_transit":false,"line":11,"distance":1436},{"transit":false,"i_lat":-6.185975,"line":11,"station_name":"Gang Sentiong","i_long":106.850107,"is_transit":false,"station_id":"GST","distance":1567,"time":8},{"is_transit":false,"transit":false,"station_name":"Kramat","distance":973,"station_id":"KMT","time":1,"i_lat":-6.193792,"i_long":106.855437,"line":11},{"is_transit":false,"transit":false,"time":2,"i_long":106.861737,"i_lat":-6.209188,"line":11,"distance":1829,"station_id":"POK","station_name":"Pondok Jati"},{"i_lat":-6.215091,"distance":1236,"transit":true,"station_name":"Jatinegara","station_id":"JNG","time":9,"line":1,"i_long":106.86807400000001,"is_transit":true},{"station_id":"MTR","distance":1377,"line":1,"station_name":"Matraman","i_lat":-6.212485,"transit":false,"is_transit":false,"time":2,"i_long":106.858896},{"i_lat":-6.209883,"distance":1275,"line":2,"station_name":"Manggarai","is_transit":true,"time":2,"station_id":"MRI","i_long":106.84912,"transit":true},{"line":2,"station_id":"TEB","station_name":"Tebet","is_transit":false,"transit":false,"time":4,"distance":2610,"i_lat":-6.226659,"i_long":106.857948},{"is_transit":false,"line":2,"transit":false,"distance":1230,"station_id":"CW","i_long":106.856607,"station_name":"Cawang","i_lat":-6.242512,"time":2},{"station_id":"DRN","i_long":106.85449,"station_name":"Duren Kalibata","time":3,"distance":1546,"line":2,"i_lat":-6.255332,"is_transit":false,"transit":false},{"i_long":106.851577,"distance":824,"station_id":"PSMB","transit":false,"station_name":"Pasar Minggu Baru","i_lat":-6.263214,"line":2,"time":2,"is_transit":false},{"transit":false,"station_name":"Pasar Minggu","time":2,"i_long":106.843999,"station_id":"PSM","is_transit":false,"i_lat":-6.2842400000000005,"line":2,"distance":2380},{"transit":false,"station_name":"Tanjung Barat","line":2,"i_long":106.838896,"distance":2820,"i_lat":-6.3080680000000005,"station_id":"TNT","is_transit":false,"time":4},{"transit":false,"distance":2671,"station_id":"LNA","station_name":"Lenteng Agung","i_lat":-6.330363,"is_transit":false,"i_long":106.832616,"time":3,"line":2},{"station_name":"Univ. Pancasila","i_lat":-6.339291,"i_long":106.834175,"line":2,"time":2,"is_transit":false,"station_id":"UP","distance":1029,"transit":false},{"is_transit":false,"transit":false,"station_id":"UI","i_long":106.831474,"line":2,"station_name":"Univ. Indonesia","distance":2264,"i_lat":-6.360749,"time":3},{"station_id":"POC","i_lat":-6.369073,"station_name":"Pondok Cina","time":2,"is_transit":false,"transit":false,"distance":1109,"i_long":106.831114,"line":2},{"line":2,"is_transit":false,"transit":false,"station_id":"DPB","i_long":106.819451,"distance":2727,"i_lat":-6.391065,"station_name":"Depokbaru","time":4},{"station_id":"DP","transit":false,"distance":1584,"line":2,"i_lat":-6.405256,"time":3,"station_name":"Depok","i_long":106.816926,"is_transit":false},{"station_id":"CTA","i_long":106.800298,"i_lat":-6.448811,"distance":5084,"station_name":"Citayam","line":2,"time":6,"is_transit":true,"transit":true},{"station_id":"PDRG","is_transit":false,"time":0,"station_name":"Pondok Rajeg","transit":false,"distance":0,"i_lat":-6.460735,"i_long":106.824374,"line":21}]]}