{"data":[[{"distance":0,"transit":false,"i_lat":-6.202263,"station_id":"SUD","station_name":"Sudirman","time":0,"i_long":106.822649,"line":1,"is_transit":false},{"station_name":"Manggarai","time":4,"line":0,"i_lat":-6.209883,"distance":3186,"transit":true,"is_transit":true,"i_long":106.84912,"station_id":"MRI"},{"time":4,"station_name":"Tebet","transit":false,"i_lat":-6.226659,"line":2,"distance":2610,"is_transit":false,"station_id":"TEB","i_long":106.857948},{"distance":1230,"time":2,"i_lat":-6.242512,"line":0,"i_long":106.856607,"station_name":"Cawang","is_transit":false,"transit":false,"station_id":"CW"},{"station_name":"Duren Kalibata","transit":false,"station_id":"DRN","time":3,"i_lat":-6.255332,"is_transit":false,"distance":1546,"i_long":106.85449,"line":0},{"station_id":"PSMB","distance":824,"is_transit":false,"transit":false,"station_name":"Pasar Minggu Baru","i_lat":-6.263214,"line":2,"i_long":106.851577,"time":2},{"is_transit":false,"line":2,"station_name":"Pasar Minggu","distance":2380,"transit":false,"station_id":"PSM","time":2,"i_lat":-6.2842400000000005,"i_long":106.843999},{"station_id":"TNT","is_transit":false,"i_long":106.838896,"transit":false,"time":4,"line":2,"i_lat":-6.3080680000000005,"distance":2820,"station_name":"Tanjung Barat"},{"i_lat":-6.330363,"station_name":"Lenteng Agung","i_long":106.832616,"is_transit":false,"station_id":"LNA","line":2,"distance":2671,"transit":false,"time":3}],[{"i_long":106.822649,"time":0,"station_name":"Sudirman","line":1,"is_transit":false,"station_id":"SUD","i_lat":-6.202263,"distance":0,"transit":false},{"i_long":106.819881,"station_id":"SUDB","station_name":"Sudirman Baru","line":1,"time":1,"distance":280,"is_transit":false,"i_lat":-6.201433,"transit":false},{"station_name":"Karet","transit":false,"i_lat":-6.20132,"i_long":106.816351,"line":1,"time":1,"station_id":"KAT","distance":471,"is_transit":false},{"i_long":106.811091,"distance":2029,"time":5,"is_transit":true,"station_id":"THB","line":1,"station_name":"Tanah Abang","transit":false,"i_lat":-6.185545},{"line":1,"station_name":"Duri","station_id":"DU","distance":3632,"time":8,"i_lat":-6.155215,"i_long":106.800832,"transit":true,"is_transit":true},{"i_long":106.79867,"transit":false,"is_transit":false,"line":0,"time":4,"distance":1230,"station_name":"Angke","i_lat":-6.144674,"station_id":"AK"},{"i_lat":-6.132549,"is_transit":true,"distance":4102,"station_id":"KPB","time":9,"line":0,"i_long":106.826365,"transit":false,"station_name":"Kampung Bandan"},{"station_id":"JAKK","time":3,"line":0,"station_name":"Jakarta Kota","transit":true,"is_transit":true,"distance":1364,"i_lat":-6.137569,"i_long":106.812439},{"station_name":"Jayakarta","i_long":106.820901,"transit":false,"time":4,"station_id":"JAY","i_lat":-6.141205,"line":7,"is_transit":false,"distance":1264},{"station_id":"MGB","station_name":"Manggabesar","distance":1080,"time":2,"i_lat":-6.149769,"i_long":106.82482,"line":2,"is_transit":false,"transit":false},{"transit":false,"station_id":"SW","station_name":"Sawah Besar","line":2,"is_transit":false,"time":2,"i_lat":-6.160725,"distance":906,"i_long":106.827103},{"i_lat":-6.166716,"station_id":"JUA","station_name":"Juanda","distance":1149,"transit":false,"time":2,"i_long":106.828284,"line":2,"is_transit":false},{"station_name":"Gondangdia","i_long":106.832183,"i_lat":-6.186295,"time":4,"line":2,"is_transit":false,"transit":false,"station_id":"GDD","distance":2015},{"station_name":"Cikini","i_lat":-6.198556,"is_transit":false,"station_id":"CKI","time":3,"i_long":106.840169,"line":0,"distance":1750,"transit":false},{"i_long":106.84912,"station_name":"Manggarai","station_id":"MRI","time":4,"i_lat":-6.209883,"distance":1590,"transit":true,"is_transit":true,"line":0},{"distance":2610,"i_lat":-6.226659,"is_transit":false,"transit":false,"i_long":106.857948,"station_name":"Tebet","line":2,"time":4,"station_id":"TEB"},{"time":2,"i_long":106.856607,"line":0,"station_name":"Cawang","i_lat":-6.242512,"station_id":"CW","distance":1230,"is_transit":false,"transit":false},{"line":0,"distance":1546,"is_transit":false,"station_name":"Duren Kalibata","transit":false,"time":3,"i_long":106.85449,"station_id":"DRN","i_lat":-6.255332},{"station_name":"Pasar Minggu Baru","station_id":"PSMB","transit":false,"i_lat":-6.263214,"line":2,"i_long":106.851577,"is_transit":false,"distance":824,"time":2},{"time":2,"station_id":"PSM","i_long":106.843999,"is_transit":false,"i_lat":-6.2842400000000005,"station_name":"Pasar Minggu","line":2,"transit":false,"distance":2380},{"time":4,"line":2,"distance":2820,"is_transit":false,"station_name":"Tanjung Barat","transit":false,"i_long":106.838896,"i_lat":-6.3080680000000005,"station_id":"TNT"},{"station_name":"Lenteng Agung","time":3,"transit":false,"is_transit":false,"i_long":106.832616,"station_id":"LNA","distance":2671,"line":2,"i_lat":-6.330363}],[{"i_lat":-6.202263,"time":0,"i_long":106.822649,"station_name":"Sudirman","line":1,"station_id":"SUD","is_transit":false,"distance":0,"transit":false},{"distance":280,"station_name":"Sudirman Baru","station_id":"SUDB","is_transit":false,"transit":false,"line":1,"i_long":106.819881,"i_lat":-6.201433,"time":1},{"i_lat":-6.20132,"transit":false,"i_long":106.816351,"is_transit":false,"station_id":"KAT","line":1,"distance":471,"station_name":"Karet","time":1},{"line":1,"i_long":106.811091,"distance":2029,"is_transit":true,"station_id":"THB","i_lat":-6.185545,"time":5,"station_name":"Tanah Abang","transit":false},{"i_long":106.800832,"distance":3632,"i_lat":-6.155215,"station_id":"DU","is_transit":true,"station_name":"Duri","line":1,"transit":true,"time":8},{"distance":1230,"time":4,"line":0,"transit":false,"i_long":106.79867,"station_name":"Angke","i_lat":-6.144674,"is_transit":false,"station_id":"AK"},{"time":9,"distance":4102,"station_name":"Kampung Bandan","line":0,"is_transit":true,"i_long":106.826365,"transit":true,"station_id":"KPB","i_lat":-6.132549},{"station_id":"RJW","i_lat":-6.14505,"i_long":106.836569,"station_name":"Rajawali","is_transit":false,"transit":false,"time":3,"line":11,"distance":1444},{"station_name":"Kemayoran","i_lat":-6.161728,"time":5,"is_transit":false,"transit":false,"i_long":106.839204,"distance":1901,"station_id":"KMO","line":11},{"time":4,"is_transit":false,"distance":1436,"station_id":"PSE","i_long":106.84368,"transit":false,"station_name":"Pasar Senen","i_lat":-6.174784,"line":11},{"time":8,"station_name":"Gang Sentiong","i_long":106.850107,"is_transit":false,"station_id":"GST","i_lat":-6.185975,"line":11,"distance":1567,"transit":false},{"station_name":"Kramat","time":1,"station_id":"KMT","is_transit":false,"i_long":106.855437,"i_lat":-6.193792,"distance":973,"line":11,"transit":false},{"is_transit":false,"station_id":"POK","distance":1829,"time":2,"i_long":106.861737,"station_name":"Pondok Jati","transit":false,"line":11,"i_lat":-6.209188},{"is_transit":true,"time":9,"distance":1236,"transit":true,"i_lat":-6.215091,"station_name":"Jatinegara","i_long":106.86807400000001,"station_id":"JNG","line":0},{"i_lat":-6.212485,"line":1,"is_transit":false,"distance":1377,"transit":false,"station_id":"MTR","station_name":"Matraman","time":2,"i_long":106.858896},{"station_name":"Manggarai","time":2,"i_long":106.84912,"station_id":"MRI","is_transit":true,"transit":true,"line":0,"i_lat":-6.209883,"distance":1275},{"transit":false,"i_lat":-6.226659,"station_name":"Tebet","line":2,"i_long":106.857948,"time":4,"is_transit":false,"station_id":"TEB","distance":2610},{"distance":1230,"time":2,"i_long":106.856607,"line":0,"station_name":"Cawang","station_id":"CW","transit":false,"i_lat":-6.242512,"is_transit":false},{"station_id":"DRN","line":0,"is_transit":false,"distance":1546,"station_name":"Duren Kalibata","transit":false,"i_lat":-6.255332,"i_long":106.85449,"time":3},{"transit":false,"station_name":"Pasar Minggu Baru","time":2,"distance":824,"i_lat":-6.263214,"i_long":106.851577,"line":2,"is_transit":false,"station_id":"PSMB"},{"distance":2380,"i_lat":-6.2842400000000005,"transit":false,"station_id":"PSM","time":2,"station_name":"Pasar Minggu","is_transit":false,"line":2,"i_long":106.843999},{"transit":false,"i_long":106.838896,"distance":2820,"i_lat":-6.3080680000000005,"is_transit":false,"time":4,"station_id":"TNT","line":2,"station_name":"Tanjung Barat"},{"distance":2671,"station_name":"Lenteng Agung","station_id":"LNA","is_transit":false,"i_long":106.832616,"line":2,"time":3,"transit":false,"i_lat":-6.330363}]]}