{"data":[[{"time":0,"i_lat":-6.202263,"station_name":"Sudirman","is_transit":false,"transit":false,"station_id":"SUD","distance":0,"line":1,"i_long":106.822649},{"time":1,"distance":280,"line":1,"transit":false,"is_transit":false,"i_long":106.819881,"station_name":"Sudirman Baru","i_lat":-6.201433,"station_id":"SUDB"},{"distance":471,"station_id":"KAT","station_name":"Karet","transit":false,"is_transit":false,"i_lat":-6.20132,"time":1,"i_long":106.816351,"line":1},{"station_id":"THB","transit":true,"station_name":"Tanah Abang","distance":2029,"line":1,"i_lat":-6.185545,"i_long":106.811091,"is_transit":true,"time":5},{"time":6,"is_transit":false,"distance":3191,"station_id":"PLM","i_lat":-6.207404,"transit":false,"station_name":"Palmerah","line":6,"i_long":106.79689},{"i_lat":-6.237242,"time":7,"station_name":"Kebayoran","is_transit":false,"station_id":"KBY","i_long":106.780334,"line":6,"distance":3737,"transit":false},{"station_id":"PDJ","i_lat":-6.276362,"is_transit":false,"transit":false,"line":6,"station_name":"Pondokranji","distance":6218,"i_long":106.74273,"time":8},{"distance":2179,"is_transit":false,"station_name":"Jurangmangu","station_id":"JMU","transit":false,"i_lat":-6.288927,"i_long":106.728916,"line":6,"time":3},{"i_lat":-6.296963,"time":4,"distance":1994,"i_long":106.712277,"transit":false,"is_transit":false,"station_id":"SDM","station_name":"Sudimara","line":6},{"i_long":106.675475,"line":6,"time":6,"station_id":"RU","station_name":"Rawa Buntu","transit":false,"is_transit":false,"distance":4566,"i_lat":-6.314823},{"transit":false,"is_transit":false,"distance":2413,"i_lat":-6.319871,"station_id":"SRP","station_name":"Serpong","line":6,"i_long":106.66566,"time":4},{"station_name":"Cisauk","is_transit":false,"distance":1784,"i_lat":-6.32484,"line":3,"time":4,"station_id":"CSK","i_long":106.640411,"transit":false},{"station_name":"Cicayur","i_long":106.617853,"is_transit":false,"line":3,"i_lat":-6.329547,"station_id":"CC","time":4,"transit":false,"distance":2519},{"line":6,"i_lat":-6.3441410000000005,"distance":5968,"transit":false,"is_transit":false,"i_long":106.568863,"station_name":"Parung Panjang","time":8,"station_id":"PRP"},{"distance":7025,"line":3,"i_lat":-6.354349,"time":9,"station_name":"Cilejit","is_transit":false,"station_id":"CJT","i_long":106.508482,"transit":false},{"is_transit":false,"distance":2675,"time":6,"transit":false,"station_name":"Daru","i_long":106.491338,"i_lat":-6.338021,"line":0,"station_id":"DAR"},{"i_lat":-6.327251,"transit":false,"distance":3902,"line":6,"time":5,"station_id":"TEJ","station_name":"Tenjo","is_transit":false,"i_long":106.460812}],[{"i_lat":-6.202263,"line":1,"i_long":106.822649,"transit":false,"distance":0,"is_transit":false,"time":0,"station_name":"Sudirman","station_id":"SUD"},{"i_lat":-6.209883,"time":4,"distance":3186,"is_transit":true,"station_name":"Manggarai","i_long":106.84912,"station_id":"MRI","transit":true,"line":2},{"i_long":106.840169,"i_lat":-6.198556,"station_name":"Cikini","is_transit":false,"transit":false,"line":2,"time":4,"distance":1590,"station_id":"CKI"},{"station_id":"GDD","is_transit":false,"line":2,"transit":false,"i_long":106.832183,"station_name":"Gondangdia","time":3,"distance":1750,"i_lat":-6.186295},{"is_transit":false,"station_id":"JUA","transit":false,"time":4,"line":2,"station_name":"Juanda","i_long":106.828284,"distance":2015,"i_lat":-6.166716},{"i_long":106.827103,"station_name":"Sawah Besar","is_transit":false,"i_lat":-6.160725,"station_id":"SW","transit":false,"line":2,"time":2,"distance":1149},{"transit":false,"station_id":"MGB","station_name":"Manggabesar","i_long":106.82482,"is_transit":false,"time":2,"distance":906,"line":2,"i_lat":-6.149769},{"distance":1080,"line":2,"time":2,"station_id":"JAY","station_name":"Jayakarta","i_lat":-6.141205,"i_long":106.820901,"is_transit":false,"transit":false},{"station_name":"Jakarta Kota","distance":1264,"i_long":106.812439,"time":4,"i_lat":-6.137569,"station_id":"JAKK","is_transit":true,"transit":true,"line":2},{"time":3,"transit":true,"station_id":"KPB","is_transit":true,"station_name":"Kampung Bandan","i_lat":-6.132549,"i_long":106.826365,"distance":1364,"line":4},{"station_id":"AK","is_transit":false,"line":1,"transit":false,"i_lat":-6.144674,"distance":4102,"station_name":"Angke","i_long":106.79867,"time":9},{"distance":1230,"i_long":106.800832,"station_name":"Duri","line":1,"transit":false,"is_transit":false,"time":4,"i_lat":-6.155215,"station_id":"DU"},{"station_name":"Tanah Abang","line":1,"is_transit":true,"distance":3632,"station_id":"THB","transit":true,"time":8,"i_lat":-6.185545,"i_long":106.811091},{"time":6,"i_long":106.79689,"line":6,"distance":3191,"station_name":"Palmerah","transit":false,"i_lat":-6.207404,"station_id":"PLM","is_transit":false},{"i_long":106.780334,"station_name":"Kebayoran","is_transit":false,"distance":3737,"transit":false,"time":7,"station_id":"KBY","i_lat":-6.237242,"line":6},{"is_transit":false,"i_long":106.74273,"line":6,"time":8,"distance":6218,"station_name":"Pondokranji","transit":false,"station_id":"PDJ","i_lat":-6.276362},{"is_transit":false,"station_name":"Jurangmangu","i_lat":-6.288927,"line":6,"distance":2179,"transit":false,"station_id":"JMU","i_long":106.728916,"time":3},{"time":4,"i_long":106.712277,"station_id":"SDM","distance":1994,"station_name":"Sudimara","transit":false,"i_lat":-6.296963,"line":6,"is_transit":false},{"station_id":"RU","distance":4566,"line":6,"i_lat":-6.314823,"station_name":"Rawa Buntu","transit":false,"i_long":106.675475,"is_transit":false,"time":6},{"is_transit":false,"time":4,"i_long":106.66566,"line":6,"distance":2413,"station_id":"SRP","station_name":"Serpong","i_lat":-6.319871,"transit":false},{"i_long":106.640411,"i_lat":-6.32484,"station_id":"CSK","is_transit":false,"time":4,"station_name":"Cisauk","transit":false,"line":3,"distance":1784},{"is_transit":false,"transit":false,"time":4,"distance":2519,"station_id":"CC","i_lat":-6.329547,"station_name":"Cicayur","i_long":106.617853,"line":3},{"time":8,"i_lat":-6.3441410000000005,"line":6,"distance":5968,"transit":false,"station_id":"PRP","station_name":"Parung Panjang","i_long":106.568863,"is_transit":false},{"time":9,"i_long":106.508482,"station_name":"Cilejit","is_transit":false,"line":3,"station_id":"CJT","i_lat":-6.354349,"transit":false,"distance":7025},{"time":6,"distance":2675,"transit":false,"station_id":"DAR","i_long":106.491338,"i_lat":-6.338021,"station_name":"Daru","line":0,"is_transit":false},{"station_name":"Tenjo","distance":3902,"station_id":"TEJ","i_long":106.460812,"time":5,"is_transit":false,"transit":false,"i_lat":-6.327251,"line":6}],[{"is_transit":false,"station_id":"SUD","transit":false,"line":1,"station_name":"Sudirman","i_lat":-6.202263,"i_long":106.822649,"distance":0,"time":0},{"time":4,"station_id":"MRI","i_lat":-6.209883,"distance":3186,"line":2,"is_transit":false,"station_name":"Manggarai","i_long":106.84912,"transit":false},{"station_id":"MTR","line":1,"transit":false,"i_lat":-6.212485,"distance":1275,"is_transit":false,"time":2,"station_name":"Matraman","i_long":106.858896},{"station_name":"Jatinegara","is_transit":true,"i_long":106.86807400000001,"line":1,"time":8,"station_id":"JNG","transit":true,"i_lat":-6.215091,"distance":1377},{"time":2,"i_long":106.861737,"station_id":"POK","line":11,"distance":1236,"i_lat":-6.209188,"transit":false,"is_transit":false,"station_name":"Pondok Jati"},{"time":2,"transit":false,"line":11,"station_id":"KMT","distance":1829,"i_lat":-6.193792,"station_name":"Kramat","is_transit":false,"i_long":106.855437},{"i_long":106.850107,"station_name":"Gang Sentiong","i_lat":-6.185975,"transit":false,"line":11,"station_id":"GST","is_transit":false,"time":1,"distance":973},{"line":11,"station_name":"Pasar Senen","time":8,"transit":false,"station_id":"PSE","is_transit":false,"distance":1567,"i_lat":-6.174784,"i_long":106.84368},{"distance":1436,"is_transit":false,"station_name":"Kemayoran","transit":false,"line":11,"i_lat":-6.161728,"time":4,"station_id":"KMO","i_long":106.839204},{"time":5,"i_long":106.836569,"line":11,"distance":1901,"transit":false,"station_id":"RJW","station_name":"Rajawali","i_lat":-6.14505,"is_transit":false},{"time":3,"i_lat":-6.132549,"is_transit":true,"station_id":"KPB","distance":1444,"station_name":"Kampung Bandan","transit":true,"i_long":106.826365,"line":4},{"line":1,"i_lat":-6.144674,"i_long":106.79867,"station_id":"AK","distance":4102,"station_name":"Angke","is_transit":false,"time":9,"transit":false},{"line":1,"i_long":106.800832,"time":4,"i_lat":-6.155215,"station_id":"DU","transit":false,"distance":1230,"is_transit":false,"station_name":"Duri"},{"station_id":"THB","transit":true,"i_lat":-6.185545,"distance":3632,"time":8,"line":1,"is_transit":true,"i_long":106.811091,"station_name":"Tanah Abang"},{"time":6,"station_id":"PLM","is_transit":false,"distance":3191,"transit":false,"line":6,"station_name":"Palmerah","i_lat":-6.207404,"i_long":106.79689},{"is_transit":false,"distance":3737,"line":6,"time":7,"transit":false,"station_id":"KBY","i_lat":-6.237242,"station_name":"Kebayoran","i_long":106.780334},{"is_transit":false,"distance":6218,"time":8,"station_id":"PDJ","i_long":106.74273,"i_lat":-6.276362,"station_name":"Pondokranji","transit":false,"line":6},{"station_id":"JMU","i_long":106.728916,"is_transit":false,"line":6,"distance":2179,"station_name":"Jurangmangu","time":3,"i_lat":-6.288927,"transit":false},{"time":4,"transit":false,"i_long":106.712277,"station_name":"Sudimara","line":6,"station_id":"SDM","distance":1994,"is_transit":false,"i_lat":-6.296963},{"i_lat":-6.314823,"station_name":"Rawa Buntu","transit":false,"distance":4566,"station_id":"RU","line":6,"is_transit":false,"time":6,"i_long":106.675475},{"is_transit":false,"transit":false,"i_lat":-6.319871,"station_name":"Serpong","distance":2413,"station_id":"SRP","time":4,"i_long":106.66566,"line":6},{"distance":1784,"line":3,"i_long":106.640411,"is_transit":false,"station_id":"CSK","transit":false,"time":4,"i_lat":-6.32484,"station_name":"Cisauk"},{"line":3,"i_long":106.617853,"station_name":"Cicayur","time":4,"distance":2519,"is_transit":false,"station_id":"CC","transit":false,"i_lat":-6.329547},{"i_long":106.568863,"i_lat":-6.3441410000000005,"is_transit":false,"transit":false,"line":6,"time":8,"distance":5968,"station_name":"Parung Panjang","station_id":"PRP"},{"station_name":"Cilejit","i_long":106.508482,"is_transit":false,"time":9,"line":3,"transit":false,"distance":7025,"station_id":"CJT","i_lat":-6.354349},{"transit":false,"i_lat":-6.338021,"i_long":106.491338,"distance":2675,"is_transit":false,"line":0,"time":6,"station_id":"DAR","station_name":"Daru"},{"is_transit":false,"line":6,"time":5,"station_id":"TEJ","i_lat":-6.327251,"transit":false,"distance":3902,"station_name":"Tenjo","i_long":106.460812}]]}