{"data":[[{"line":1,"station_id":"SUD","is_transit":false,"i_long":106.822649,"time":0,"transit":false,"i_lat":-6.202263,"distance":0,"station_name":"Sudirman"},{"is_transit":true,"transit":true,"time":4,"station_name":"Manggarai","station_id":"MRI","i_long":106.84912,"line":2,"i_lat":-6.209883,"distance":3186},{"transit":false,"i_long":106.857948,"station_name":"Tebet","time":4,"station_id":"TEB","distance":2610,"is_transit":false,"line":2,"i_lat":-6.226659},{"station_name":"Cawang","time":2,"station_id":"CW","transit":false,"i_lat":-6.242512,"distance":1230,"line":2,"i_long":106.856607,"is_transit":false},{"line":2,"distance":1546,"i_long":106.85449,"transit":false,"is_transit":false,"station_id":"DRN","station_name":"Duren Kalibata","i_lat":-6.255332,"time":3},{"line":2,"distance":824,"time":2,"is_transit":false,"station_id":"PSMB","i_lat":-6.263214,"transit":false,"station_name":"Pasar Minggu Baru","i_long":106.851577},{"station_id":"PSM","station_name":"Pasar Minggu","time":2,"distance":2380,"i_lat":-6.2842400000000005,"i_long":106.843999,"line":2,"is_transit":false,"transit":false},{"is_transit":false,"station_id":"TNT","i_long":106.838896,"distance":2820,"line":2,"i_lat":-6.3080680000000005,"station_name":"Tanjung Barat","time":4,"transit":false},{"station_name":"Lenteng Agung","time":3,"transit":false,"i_long":106.832616,"station_id":"LNA","i_lat":-6.330363,"is_transit":false,"line":2,"distance":2671}],[{"station_id":"SUD","line":1,"transit":false,"is_transit":false,"time":0,"i_lat":-6.202263,"station_name":"Sudirman","i_long":106.822649,"distance":0},{"station_id":"SUDB","is_transit":false,"distance":280,"transit":false,"i_lat":-6.201433,"station_name":"Sudirman Baru","line":1,"i_long":106.819881,"time":1},{"distance":471,"station_id":"KAT","is_transit":false,"station_name":"Karet","transit":false,"time":1,"i_lat":-6.20132,"i_long":106.816351,"line":1},{"i_lat":-6.185545,"line":1,"distance":2029,"transit":false,"time":5,"station_id":"THB","station_name":"Tanah Abang","is_transit":false,"i_long":106.811091},{"line":1,"time":8,"i_long":106.800832,"distance":3632,"station_name":"Duri","transit":false,"station_id":"DU","i_lat":-6.155215,"is_transit":false},{"line":1,"i_long":106.79867,"station_name":"Angke","time":4,"is_transit":false,"station_id":"AK","distance":1230,"i_lat":-6.144674,"transit":false},{"i_lat":-6.132549,"station_id":"KPB","line":4,"station_name":"Kampung Bandan","time":9,"is_transit":true,"transit":true,"i_long":106.826365,"distance":4102},{"time":3,"line":2,"distance":1364,"i_long":106.812439,"transit":true,"i_lat":-6.137569,"station_id":"JAKK","is_transit":true,"station_name":"Jakarta Kota"},{"station_id":"JAY","i_lat":-6.141205,"i_long":106.820901,"distance":1264,"time":4,"line":2,"station_name":"Jayakarta","is_transit":false,"transit":false},{"station_id":"MGB","time":2,"transit":false,"i_long":106.82482,"station_name":"Manggabesar","distance":1080,"line":2,"i_lat":-6.149769,"is_transit":false},{"station_name":"Sawah Besar","i_lat":-6.160725,"i_long":106.827103,"line":2,"station_id":"SW","is_transit":false,"transit":false,"time":2,"distance":906},{"time":2,"station_id":"JUA","station_name":"Juanda","i_long":106.828284,"i_lat":-6.166716,"is_transit":false,"distance":1149,"transit":false,"line":2},{"i_lat":-6.186295,"i_long":106.832183,"distance":2015,"time":4,"station_name":"Gondangdia","line":2,"station_id":"GDD","transit":false,"is_transit":false},{"i_lat":-6.198556,"transit":false,"distance":1750,"time":3,"i_long":106.840169,"station_name":"Cikini","station_id":"CKI","is_transit":false,"line":2},{"i_long":106.84912,"station_id":"MRI","transit":false,"time":4,"distance":1590,"is_transit":false,"station_name":"Manggarai","i_lat":-6.209883,"line":2},{"station_name":"Tebet","line":2,"station_id":"TEB","time":4,"i_lat":-6.226659,"is_transit":false,"transit":false,"distance":2610,"i_long":106.857948},{"station_name":"Cawang","distance":1230,"station_id":"CW","time":2,"transit":false,"is_transit":false,"line":2,"i_long":106.856607,"i_lat":-6.242512},{"is_transit":false,"distance":1546,"i_long":106.85449,"transit":false,"station_name":"Duren Kalibata","line":2,"station_id":"DRN","time":3,"i_lat":-6.255332},{"time":2,"i_long":106.851577,"line":2,"station_name":"Pasar Minggu Baru","station_id":"PSMB","transit":false,"distance":824,"i_lat":-6.263214,"is_transit":false},{"distance":2380,"station_id":"PSM","transit":false,"time":2,"line":2,"is_transit":false,"i_lat":-6.2842400000000005,"station_name":"Pasar Minggu","i_long":106.843999},{"i_lat":-6.3080680000000005,"is_transit":false,"station_id":"TNT","station_name":"Tanjung Barat","distance":2820,"transit":false,"time":4,"i_long":106.838896,"line":2},{"line":2,"is_transit":false,"station_name":"Lenteng Agung","time":3,"station_id":"LNA","i_lat":-6.330363,"distance":2671,"i_long":106.832616,"transit":false}],[{"time":0,"i_lat":-6.202263,"i_long":106.822649,"station_name":"Sudirman","is_transit":false,"distance":0,"transit":false,"station_id":"SUD","line":1},{"line":1,"i_lat":-6.201433,"station_id":"SUDB","transit":false,"i_long":106.819881,"distance":280,"is_transit":false,"station_name":"Sudirman Baru","time":1},{"distance":471,"station_id":"KAT","i_lat":-6.20132,"time":1,"i_long":106.816351,"line":1,"is_transit":false,"station_name":"Karet","transit":false},{"time":5,"line":1,"distance":2029,"station_id":"THB","transit":false,"is_transit":false,"station_name":"Tanah Abang","i_long":106.811091,"i_lat":-6.185545},{"distance":3632,"line":1,"is_transit":false,"time":8,"i_lat":-6.155215,"i_long":106.800832,"station_name":"Duri","station_id":"DU","transit":false},{"station_id":"AK","transit":false,"time":4,"station_name":"Angke","is_transit":false,"i_lat":-6.144674,"i_long":106.79867,"line":1,"distance":1230},{"transit":true,"i_long":106.826365,"distance":4102,"time":9,"station_id":"KPB","i_lat":-6.132549,"station_name":"Kampung Bandan","is_transit":true,"line":4},{"station_name":"Rajawali","is_transit":false,"i_long":106.836569,"transit":false,"i_lat":-6.14505,"time":3,"station_id":"RJW","line":11,"distance":1444},{"i_lat":-6.161728,"line":11,"is_transit":false,"distance":1901,"time":5,"station_id":"KMO","station_name":"Kemayoran","transit":false,"i_long":106.839204},{"distance":1436,"station_id":"PSE","is_transit":false,"time":4,"transit":false,"i_lat":-6.174784,"i_long":106.84368,"line":11,"station_name":"Pasar Senen"},{"line":11,"transit":false,"i_lat":-6.185975,"time":8,"station_name":"Gang Sentiong","distance":1567,"station_id":"GST","is_transit":false,"i_long":106.850107},{"line":11,"time":1,"i_lat":-6.193792,"i_long":106.855437,"distance":973,"is_transit":false,"station_id":"KMT","station_name":"Kramat","transit":false},{"station_name":"Pondok Jati","i_lat":-6.209188,"i_long":106.861737,"time":2,"station_id":"POK","line":11,"distance":1829,"is_transit":false,"transit":false},{"i_long":106.86807400000001,"distance":1236,"transit":true,"station_id":"JNG","i_lat":-6.215091,"line":1,"time":9,"station_name":"Jatinegara","is_transit":true},{"i_long":106.858896,"time":2,"i_lat":-6.212485,"station_name":"Matraman","station_id":"MTR","distance":1377,"transit":false,"line":1,"is_transit":false},{"is_transit":true,"i_long":106.84912,"line":2,"station_name":"Manggarai","distance":1275,"time":2,"station_id":"MRI","transit":true,"i_lat":-6.209883},{"station_name":"Tebet","distance":2610,"line":2,"time":4,"is_transit":false,"station_id":"TEB","transit":false,"i_lat":-6.226659,"i_long":106.857948},{"i_long":106.856607,"station_name":"Cawang","is_transit":false,"transit":false,"station_id":"CW","time":2,"i_lat":-6.242512,"distance":1230,"line":2},{"station_id":"DRN","i_lat":-6.255332,"time":3,"station_name":"Duren Kalibata","is_transit":false,"i_long":106.85449,"distance":1546,"line":2,"transit":false},{"i_long":106.851577,"time":2,"station_id":"PSMB","is_transit":false,"distance":824,"i_lat":-6.263214,"station_name":"Pasar Minggu Baru","transit":false,"line":2},{"station_name":"Pasar Minggu","transit":false,"i_long":106.843999,"is_transit":false,"i_lat":-6.2842400000000005,"line":2,"station_id":"PSM","distance":2380,"time":2},{"station_name":"Tanjung Barat","transit":false,"i_long":106.838896,"i_lat":-6.3080680000000005,"station_id":"TNT","is_transit":false,"line":2,"distance":2820,"time":4},{"line":2,"distance":2671,"is_transit":false,"i_lat":-6.330363,"time":3,"transit":false,"i_long":106.832616,"station_id":"LNA","station_name":"Lenteng Agung"}]]}