{"data":[[{"i_lat":-6.202263,"line":1,"i_long":106.822649,"station_id":"SUD","transit":false,"is_transit":false,"station_name":"Sudirman","distance":0,"time":0},{"transit":false,"i_lat":-6.209883,"line":2,"time":4,"station_name":"Manggarai","station_id":"MRI","is_transit":false,"distance":3186,"i_long":106.84912},{"is_transit":false,"transit":false,"station_name":"Matraman","station_id":"MTR","line":1,"time":2,"distance":1275,"i_lat":-6.212485,"i_long":106.858896},{"is_transit":false,"transit":false,"line":1,"i_long":106.86807400000001,"station_name":"Jatinegara","time":8,"distance":1377,"station_id":"JNG","i_lat":-6.215091},{"line":1,"time":3,"is_transit":false,"transit":false,"i_long":106.899548,"distance":3395,"i_lat":-6.2135,"station_name":"Klender","station_id":"KLD"},{"station_id":"BUA","line":1,"station_name":"Buaran","time":2,"i_lat":-6.215568,"transit":false,"distance":3100,"is_transit":false,"i_long":106.922662},{"distance":1305,"station_id":"KLDB","station_name":"Klenderbaru","i_lat":-6.217455,"time":1,"i_long":106.939679,"line":1,"transit":false,"is_transit":false},{"transit":false,"i_long":106.951283,"station_name":"Cakung","station_id":"CUK","time":8,"distance":1385,"is_transit":false,"line":1,"i_lat":-6.219053},{"line":1,"transit":false,"i_long":106.977657,"station_name":"Kranji","is_transit":false,"station_id":"KRI","distance":3097,"time":3,"i_lat":-6.224515},{"line":1,"station_name":"Bekasi","distance":2520,"transit":false,"station_id":"BKS","is_transit":false,"time":4,"i_lat":-6.236616,"i_long":106.997013},{"distance":2368,"station_id":"BKST","i_long":107.016735,"transit":false,"line":1,"is_transit":false,"time":2,"i_lat":-6.248029,"station_name":"Bekasi Timur"},{"transit":false,"i_lat":-6.258864,"time":7,"line":1,"station_name":"Tambun","distance":4460,"station_id":"TB","i_long":107.055722,"is_transit":false},{"station_id":"CIT","line":1,"is_transit":false,"i_lat":-6.261877,"transit":false,"distance":3420,"time":3,"i_long":107.083084,"station_name":"Cibitung"},{"time":2,"station_id":"TLM","distance":2800,"transit":false,"is_transit":false,"i_lat":-6.262938,"line":1,"station_name":"Metland Telaga Murni","i_long":107.093313}],[{"i_lat":-6.202263,"i_long":106.822649,"time":0,"distance":0,"station_name":"Sudirman","line":1,"transit":false,"is_transit":false,"station_id":"SUD"},{"time":1,"line":1,"station_name":"Sudirman Baru","i_lat":-6.201433,"is_transit":false,"transit":false,"station_id":"SUDB","distance":280,"i_long":106.819881},{"time":1,"i_long":106.816351,"transit":false,"is_transit":false,"distance":471,"station_id":"KAT","line":1,"station_name":"Karet","i_lat":-6.20132},{"line":1,"station_id":"THB","distance":2029,"i_lat":-6.185545,"i_long":106.811091,"is_transit":false,"station_name":"Tanah Abang","time":5,"transit":false},{"time":8,"station_name":"Duri","i_lat":-6.155215,"station_id":"DU","is_transit":false,"distance":3632,"line":1,"i_long":106.800832,"transit":false},{"i_long":106.79867,"station_id":"AK","i_lat":-6.144674,"transit":false,"time":4,"line":1,"distance":1230,"is_transit":false,"station_name":"Angke"},{"line":4,"transit":true,"station_name":"Kampung Bandan","distance":4102,"i_long":106.826365,"i_lat":-6.132549,"station_id":"KPB","time":9,"is_transit":true},{"time":3,"station_id":"RJW","distance":1444,"is_transit":false,"i_long":106.836569,"i_lat":-6.14505,"line":11,"station_name":"Rajawali","transit":false},{"distance":1901,"station_id":"KMO","line":11,"i_long":106.839204,"is_transit":false,"time":5,"station_name":"Kemayoran","i_lat":-6.161728,"transit":false},{"station_name":"Pasar Senen","station_id":"PSE","distance":1436,"transit":false,"is_transit":false,"line":11,"time":4,"i_long":106.84368,"i_lat":-6.174784},{"transit":false,"station_name":"Gang Sentiong","is_transit":false,"time":8,"i_long":106.850107,"station_id":"GST","line":11,"distance":1567,"i_lat":-6.185975},{"station_id":"KMT","station_name":"Kramat","transit":false,"time":1,"line":11,"distance":973,"i_lat":-6.193792,"i_long":106.855437,"is_transit":false},{"station_name":"Pondok Jati","time":2,"distance":1829,"i_lat":-6.209188,"i_long":106.861737,"line":11,"transit":false,"station_id":"POK","is_transit":false},{"station_name":"Jatinegara","time":9,"distance":1236,"station_id":"JNG","i_long":106.86807400000001,"line":1,"i_lat":-6.215091,"transit":true,"is_transit":true},{"line":1,"i_lat":-6.2135,"distance":3395,"transit":false,"station_name":"Klender","i_long":106.899548,"station_id":"KLD","is_transit":false,"time":3},{"line":1,"i_long":106.922662,"station_id":"BUA","i_lat":-6.215568,"is_transit":false,"distance":3100,"station_name":"Buaran","transit":false,"time":2},{"time":1,"station_name":"Klenderbaru","i_lat":-6.217455,"is_transit":false,"station_id":"KLDB","i_long":106.939679,"transit":false,"distance":1305,"line":1},{"is_transit":false,"transit":false,"time":8,"i_long":106.951283,"station_id":"CUK","distance":1385,"i_lat":-6.219053,"station_name":"Cakung","line":1},{"station_id":"KRI","time":3,"i_long":106.977657,"i_lat":-6.224515,"line":1,"transit":false,"distance":3097,"station_name":"Kranji","is_transit":false},{"is_transit":false,"distance":2520,"time":4,"transit":false,"i_lat":-6.236616,"line":1,"station_name":"Bekasi","station_id":"BKS","i_long":106.997013},{"i_lat":-6.248029,"station_name":"Bekasi Timur","distance":2368,"station_id":"BKST","time":2,"transit":false,"is_transit":false,"i_long":107.016735,"line":1},{"is_transit":false,"station_name":"Tambun","distance":4460,"i_lat":-6.258864,"line":1,"transit":false,"time":7,"i_long":107.055722,"station_id":"TB"},{"is_transit":false,"station_name":"Cibitung","time":3,"i_long":107.083084,"transit":false,"station_id":"CIT","i_lat":-6.261877,"distance":3420,"line":1},{"i_long":107.093313,"line":1,"is_transit":false,"station_id":"TLM","station_name":"Metland Telaga Murni","time":2,"transit":false,"distance":2800,"i_lat":-6.262938}],[{"station_id":"SUD","transit":false,"time":0,"i_long":106.822649,"line":1,"i_lat":-6.202263,"is_transit":false,"station_name":"Sudirman","distance":0},{"i_long":106.819881,"distance":280,"line":1,"time":1,"transit":false,"station_name":"Sudirman Baru","is_transit":false,"station_id":"SUDB","i_lat":-6.201433},{"station_name":"Karet","transit":false,"distance":471,"station_id":"KAT","time":1,"i_lat":-6.20132,"i_long":106.816351,"is_transit":false,"line":1},{"distance":2029,"i_long":106.811091,"is_transit":false,"station_id":"THB","station_name":"Tanah Abang","i_lat":-6.185545,"line":1,"time":5,"transit":false},{"station_id":"DU","line":1,"distance":3632,"time":8,"is_transit":false,"transit":false,"station_name":"Duri","i_long":106.800832,"i_lat":-6.155215},{"line":1,"time":4,"i_lat":-6.144674,"transit":false,"is_transit":false,"station_name":"Angke","station_id":"AK","i_long":106.79867,"distance":1230},{"station_id":"KPB","distance":4102,"i_lat":-6.132549,"station_name":"Kampung Bandan","transit":true,"i_long":106.826365,"time":9,"is_transit":true,"line":4},{"line":2,"station_id":"JAKK","is_transit":true,"transit":true,"time":3,"i_lat":-6.137569,"i_long":106.812439,"distance":1364,"station_name":"Jakarta Kota"},{"distance":1264,"station_name":"Jayakarta","transit":false,"time":4,"station_id":"JAY","is_transit":false,"i_lat":-6.141205,"i_long":106.820901,"line":2},{"transit":false,"i_long":106.82482,"is_transit":false,"station_id":"MGB","i_lat":-6.149769,"station_name":"Manggabesar","line":2,"distance":1080,"time":2},{"line":2,"i_long":106.827103,"time":2,"is_transit":false,"station_id":"SW","distance":906,"transit":false,"station_name":"Sawah Besar","i_lat":-6.160725},{"distance":1149,"i_long":106.828284,"time":2,"station_name":"Juanda","line":2,"station_id":"JUA","is_transit":false,"i_lat":-6.166716,"transit":false},{"time":4,"i_lat":-6.186295,"i_long":106.832183,"line":2,"is_transit":false,"station_name":"Gondangdia","station_id":"GDD","transit":false,"distance":2015},{"distance":1750,"i_long":106.840169,"station_id":"CKI","time":3,"line":2,"transit":false,"is_transit":false,"i_lat":-6.198556,"station_name":"Cikini"},{"i_lat":-6.209883,"distance":1590,"transit":true,"station_id":"MRI","i_long":106.84912,"line":2,"station_name":"Manggarai","is_transit":true,"time":4},{"time":2,"distance":1275,"station_name":"Matraman","i_lat":-6.212485,"is_transit":false,"i_long":106.858896,"line":1,"station_id":"MTR","transit":false},{"i_lat":-6.215091,"is_transit":false,"time":8,"i_long":106.86807400000001,"station_name":"Jatinegara","station_id":"JNG","distance":1377,"transit":false,"line":1},{"station_name":"Klender","i_long":106.899548,"i_lat":-6.2135,"transit":false,"station_id":"KLD","is_transit":false,"time":3,"line":1,"distance":3395},{"transit":false,"time":2,"station_id":"BUA","distance":3100,"is_transit":false,"i_long":106.922662,"line":1,"i_lat":-6.215568,"station_name":"Buaran"},{"station_id":"KLDB","is_transit":false,"distance":1305,"time":1,"i_long":106.939679,"i_lat":-6.217455,"transit":false,"line":1,"station_name":"Klenderbaru"},{"is_transit":false,"line":1,"station_id":"CUK","distance":1385,"i_lat":-6.219053,"i_long":106.951283,"transit":false,"station_name":"Cakung","time":8},{"distance":3097,"i_lat":-6.224515,"is_transit":false,"transit":false,"station_name":"Kranji","i_long":106.977657,"station_id":"KRI","time":3,"line":1},{"i_lat":-6.236616,"transit":false,"line":1,"time":4,"station_id":"BKS","i_long":106.997013,"is_transit":false,"distance":2520,"station_name":"Bekasi"},{"distance":2368,"time":2,"i_long":107.016735,"transit":false,"line":1,"station_name":"Bekasi Timur","i_lat":-6.248029,"station_id":"BKST","is_transit":false},{"station_id":"TB","i_long":107.055722,"transit":false,"distance":4460,"i_lat":-6.258864,"station_name":"Tambun","is_transit":false,"time":7,"line":1},{"line":1,"is_transit":false,"time":3,"distance":3420,"transit":false,"station_name":"Cibitung","i_long":107.083084,"i_lat":-6.261877,"station_id":"CIT"},{"i_lat":-6.262938,"i_long":107.093313,"transit":false,"distance":2800,"station_id":"TLM","line":1,"is_transit":false,"time":2,"station_name":"Metland Telaga Murni"}],[{"transit":false,"i_lat":-6.202263,"station_id":"SUD","line":1,"station_name":"Sudirman","distance":0,"i_long":106.822649,"is_transit":false,"time":0},{"i_lat":-6.209883,"i_long":106.84912,"distance":3186,"time":4,"is_transit":true,"station_name":"Manggarai","station_id":"MRI","transit":true,"line":2},{"transit":false,"time":4,"station_id":"CKI","station_name":"Cikini","distance":1590,"i_lat":-6.198556,"i_long":106.840169,"line":2,"is_transit":false},{"station_id":"GDD","i_long":106.832183,"time":3,"line":2,"i_lat":-6.186295,"is_transit":false,"station_name":"Gondangdia","transit":false,"distance":1750},{"i_long":106.828284,"station_id":"JUA","transit":false,"i_lat":-6.166716,"line":2,"distance":2015,"station_name":"Juanda","time":4,"is_transit":false},{"is_transit":false,"line":2,"i_long":106.827103,"distance":1149,"station_name":"Sawah Besar","time":2,"station_id":"SW","i_lat":-6.160725,"transit":false},{"station_id":"MGB","i_lat":-6.149769,"time":2,"station_name":"Manggabesar","i_long":106.82482,"line":2,"is_transit":false,"transit":false,"distance":906},{"line":2,"distance":1080,"i_lat":-6.141205,"is_transit":false,"station_name":"Jayakarta","station_id":"JAY","time":2,"transit":false,"i_long":106.820901},{"line":2,"distance":1264,"i_long":106.812439,"station_id":"JAKK","transit":true,"station_name":"Jakarta Kota","i_lat":-6.137569,"time":4,"is_transit":true},{"station_name":"Kampung Bandan","distance":1364,"is_transit":true,"station_id":"KPB","i_long":106.826365,"line":4,"transit":true,"i_lat":-6.132549,"time":3},{"station_id":"RJW","time":3,"station_name":"Rajawali","i_long":106.836569,"is_transit":false,"transit":false,"distance":1444,"i_lat":-6.14505,"line":11},{"is_transit":false,"station_name":"Kemayoran","i_long":106.839204,"time":5,"transit":false,"station_id":"KMO","i_lat":-6.161728,"line":11,"distance":1901},{"transit":false,"station_id":"PSE","time":4,"i_long":106.84368,"line":11,"is_transit":false,"station_name":"Pasar Senen","i_lat":-6.174784,"distance":1436},{"distance":1567,"line":11,"station_id":"GST","time":8,"is_transit":false,"station_name":"Gang Sentiong","i_lat":-6.185975,"transit":false,"i_long":106.850107},{"is_transit":false,"station_id":"KMT","transit":false,"station_name":"Kramat","time":1,"i_long":106.855437,"distance":973,"line":11,"i_lat":-6.193792},{"is_transit":false,"transit":false,"station_id":"POK","line":11,"i_long":106.861737,"station_name":"Pondok Jati","distance":1829,"time":2,"i_lat":-6.209188},{"line":1,"transit":true,"time":9,"is_transit":true,"i_lat":-6.215091,"station_id":"JNG","station_name":"Jatinegara","distance":1236,"i_long":106.86807400000001},{"i_long":106.899548,"time":3,"station_name":"Klender","station_id":"KLD","is_transit":false,"i_lat":-6.2135,"line":1,"distance":3395,"transit":false},{"distance":3100,"station_id":"BUA","is_transit":false,"transit":false,"time":2,"i_lat":-6.215568,"line":1,"i_long":106.922662,"station_name":"Buaran"},{"i_lat":-6.217455,"i_long":106.939679,"line":1,"station_name":"Klenderbaru","time":1,"is_transit":false,"distance":1305,"station_id":"KLDB","transit":false},{"transit":false,"station_id":"CUK","is_transit":false,"i_lat":-6.219053,"line":1,"time":8,"station_name":"Cakung","distance":1385,"i_long":106.951283},{"station_name":"Kranji","i_lat":-6.224515,"line":1,"i_long":106.977657,"is_transit":false,"distance":3097,"transit":false,"station_id":"KRI","time":3},{"transit":false,"i_lat":-6.236616,"station_id":"BKS","station_name":"Bekasi","i_long":106.997013,"line":1,"is_transit":false,"time":4,"distance":2520},{"station_id":"BKST","station_name":"Bekasi Timur","transit":false,"i_long":107.016735,"distance":2368,"line":1,"time":2,"is_transit":false,"i_lat":-6.248029},{"distance":4460,"station_name":"Tambun","is_transit":false,"i_long":107.055722,"line":1,"station_id":"TB","time":7,"transit":false,"i_lat":-6.258864},{"transit":false,"is_transit":false,"distance":3420,"line":1,"station_name":"Cibitung","station_id":"CIT","time":3,"i_lat":-6.261877,"i_long":107.083084},{"transit":false,"i_long":107.093313,"distance":2800,"i_lat":-6.262938,"line":1,"station_id":"TLM","is_transit":false,"time":2,"station_name":"Metland Telaga Murni"}]]}