{"data":[[{"station_id":"SUD","is_transit":false,"transit":false,"i_long":106.822649,"line":1,"time":0,"i_lat":-6.202263,"distance":0,"station_name":"Sudirman"},{"station_id":"SUDB","is_transit":false,"line":1,"station_name":"Sudirman Baru","transit":false,"i_long":106.819881,"distance":280,"i_lat":-6.201433,"time":1},{"is_transit":false,"i_long":106.816351,"transit":false,"station_name":"Karet","line":1,"time":1,"i_lat":-6.20132,"distance":471,"station_id":"KAT"},{"time":5,"is_transit":true,"i_long":106.811091,"i_lat":-6.185545,"distance":2029,"line":1,"station_id":"THB","transit":true,"station_name":"Tanah Abang"},{"is_transit":false,"station_id":"PLM","line":6,"transit":false,"i_lat":-6.207404,"distance":3191,"time":6,"station_name":"Palmerah","i_long":106.79689},{"is_transit":false,"transit":false,"station_id":"KBY","station_name":"Kebayoran","i_lat":-6.237242,"time":7,"distance":3737,"i_long":106.780334,"line":6},{"time":8,"transit":false,"distance":6218,"station_id":"PDJ","is_transit":false,"i_lat":-6.276362,"i_long":106.74273,"line":6,"station_name":"Pondokranji"},{"i_long":106.728916,"line":6,"time":3,"i_lat":-6.288927,"station_id":"JMU","transit":false,"station_name":"Jurangmangu","is_transit":false,"distance":2179},{"time":4,"distance":1994,"station_id":"SDM","is_transit":false,"i_lat":-6.296963,"i_long":106.712277,"transit":false,"station_name":"Sudimara","line":6},{"station_name":"Rawa Buntu","i_lat":-6.314823,"time":6,"i_long":106.675475,"is_transit":false,"station_id":"RU","distance":4566,"transit":false,"line":6},{"time":4,"is_transit":false,"station_id":"SRP","distance":2413,"station_name":"Serpong","transit":false,"i_long":106.66566,"i_lat":-6.319871,"line":6},{"station_id":"CSK","is_transit":false,"i_lat":-6.32484,"distance":1784,"transit":false,"station_name":"Cisauk","line":3,"i_long":106.640411,"time":4},{"transit":false,"time":4,"is_transit":false,"i_long":106.617853,"line":3,"station_name":"Cicayur","i_lat":-6.329547,"station_id":"CC","distance":2519},{"transit":false,"i_long":106.568863,"is_transit":false,"distance":5968,"time":8,"station_id":"PRP","station_name":"Parung Panjang","i_lat":-6.3441410000000005,"line":6},{"station_id":"CJT","station_name":"Cilejit","i_long":106.508482,"is_transit":false,"transit":false,"time":9,"distance":7025,"line":3,"i_lat":-6.354349},{"i_lat":-6.338021,"distance":2675,"station_name":"Daru","station_id":"DAR","i_long":106.491338,"transit":false,"is_transit":false,"line":0,"time":6},{"is_transit":false,"station_id":"TEJ","station_name":"Tenjo","i_lat":-6.327251,"line":6,"time":5,"transit":false,"i_long":106.460812,"distance":3902},{"i_lat":-6.328533,"station_name":"Tigaraksa","is_transit":false,"station_id":"TGS","distance":2974,"i_long":106.425991,"line":6,"transit":false,"time":5}],[{"line":1,"station_name":"Sudirman","distance":0,"i_lat":-6.202263,"station_id":"SUD","transit":false,"time":0,"i_long":106.822649,"is_transit":false},{"is_transit":true,"distance":3186,"transit":true,"time":4,"i_lat":-6.209883,"station_id":"MRI","i_long":106.84912,"line":2,"station_name":"Manggarai"},{"station_name":"Cikini","transit":false,"distance":1590,"time":4,"is_transit":false,"i_lat":-6.198556,"station_id":"CKI","line":2,"i_long":106.840169},{"is_transit":false,"i_lat":-6.186295,"distance":1750,"i_long":106.832183,"station_id":"GDD","transit":false,"line":2,"station_name":"Gondangdia","time":3},{"distance":2015,"transit":false,"station_id":"JUA","i_lat":-6.166716,"station_name":"Juanda","is_transit":false,"line":2,"time":4,"i_long":106.828284},{"station_id":"SW","time":2,"line":2,"distance":1149,"is_transit":false,"transit":false,"station_name":"Sawah Besar","i_long":106.827103,"i_lat":-6.160725},{"is_transit":false,"station_name":"Manggabesar","station_id":"MGB","distance":906,"transit":false,"time":2,"line":2,"i_lat":-6.149769,"i_long":106.82482},{"i_long":106.820901,"station_name":"Jayakarta","station_id":"JAY","i_lat":-6.141205,"distance":1080,"is_transit":false,"line":2,"time":2,"transit":false},{"station_name":"Jakarta Kota","i_long":106.812439,"transit":true,"distance":1264,"is_transit":true,"line":2,"i_lat":-6.137569,"time":4,"station_id":"JAKK"},{"time":3,"i_lat":-6.132549,"transit":true,"is_transit":true,"distance":1364,"station_name":"Kampung Bandan","line":4,"station_id":"KPB","i_long":106.826365},{"transit":false,"is_transit":false,"i_lat":-6.144674,"line":1,"distance":4102,"station_id":"AK","i_long":106.79867,"time":9,"station_name":"Angke"},{"time":4,"is_transit":false,"station_name":"Duri","transit":false,"station_id":"DU","distance":1230,"i_long":106.800832,"i_lat":-6.155215,"line":1},{"transit":true,"station_id":"THB","i_lat":-6.185545,"distance":3632,"station_name":"Tanah Abang","is_transit":true,"time":8,"i_long":106.811091,"line":1},{"line":6,"is_transit":false,"station_id":"PLM","transit":false,"time":6,"distance":3191,"i_lat":-6.207404,"station_name":"Palmerah","i_long":106.79689},{"i_long":106.780334,"station_id":"KBY","transit":false,"distance":3737,"line":6,"i_lat":-6.237242,"is_transit":false,"station_name":"Kebayoran","time":7},{"station_name":"Pondokranji","transit":false,"station_id":"PDJ","line":6,"i_lat":-6.276362,"time":8,"i_long":106.74273,"is_transit":false,"distance":6218},{"station_name":"Jurangmangu","time":3,"line":6,"distance":2179,"i_lat":-6.288927,"station_id":"JMU","transit":false,"is_transit":false,"i_long":106.728916},{"distance":1994,"line":6,"i_lat":-6.296963,"transit":false,"i_long":106.712277,"time":4,"station_id":"SDM","is_transit":false,"station_name":"Sudimara"},{"station_name":"Rawa Buntu","i_lat":-6.314823,"station_id":"RU","i_long":106.675475,"distance":4566,"line":6,"transit":false,"time":6,"is_transit":false},{"is_transit":false,"i_lat":-6.319871,"station_name":"Serpong","i_long":106.66566,"station_id":"SRP","transit":false,"line":6,"distance":2413,"time":4},{"is_transit":false,"time":4,"line":3,"station_id":"CSK","i_long":106.640411,"i_lat":-6.32484,"distance":1784,"station_name":"Cisauk","transit":false},{"i_lat":-6.329547,"distance":2519,"time":4,"station_name":"Cicayur","transit":false,"is_transit":false,"line":3,"i_long":106.617853,"station_id":"CC"},{"is_transit":false,"transit":false,"distance":5968,"station_name":"Parung Panjang","line":6,"i_long":106.568863,"i_lat":-6.3441410000000005,"time":8,"station_id":"PRP"},{"station_name":"Cilejit","station_id":"CJT","i_long":106.508482,"i_lat":-6.354349,"distance":7025,"time":9,"line":3,"transit":false,"is_transit":false},{"distance":2675,"is_transit":false,"time":6,"station_id":"DAR","i_lat":-6.338021,"station_name":"Daru","transit":false,"i_long":106.491338,"line":0},{"i_lat":-6.327251,"line":6,"distance":3902,"i_long":106.460812,"transit":false,"time":5,"station_name":"Tenjo","station_id":"TEJ","is_transit":false},{"line":6,"station_id":"TGS","station_name":"Tigaraksa","time":5,"i_long":106.425991,"transit":false,"distance":2974,"is_transit":false,"i_lat":-6.328533}],[{"transit":false,"is_transit":false,"distance":0,"i_long":106.822649,"i_lat":-6.202263,"line":1,"time":0,"station_id":"SUD","station_name":"Sudirman"},{"is_transit":false,"i_lat":-6.209883,"distance":3186,"i_long":106.84912,"time":4,"line":2,"station_name":"Manggarai","transit":false,"station_id":"MRI"},{"station_id":"MTR","is_transit":false,"i_long":106.858896,"distance":1275,"i_lat":-6.212485,"transit":false,"time":2,"line":1,"station_name":"Matraman"},{"transit":true,"station_id":"JNG","is_transit":true,"i_long":106.86807400000001,"time":8,"distance":1377,"i_lat":-6.215091,"line":1,"station_name":"Jatinegara"},{"line":11,"station_name":"Pondok Jati","i_long":106.861737,"time":2,"station_id":"POK","is_transit":false,"transit":false,"distance":1236,"i_lat":-6.209188},{"i_long":106.855437,"station_id":"KMT","is_transit":false,"i_lat":-6.193792,"transit":false,"time":2,"station_name":"Kramat","distance":1829,"line":11},{"line":11,"transit":false,"i_lat":-6.185975,"is_transit":false,"time":1,"station_id":"GST","station_name":"Gang Sentiong","distance":973,"i_long":106.850107},{"transit":false,"distance":1567,"station_name":"Pasar Senen","station_id":"PSE","i_long":106.84368,"i_lat":-6.174784,"time":8,"is_transit":false,"line":11},{"is_transit":false,"time":4,"station_name":"Kemayoran","station_id":"KMO","distance":1436,"i_long":106.839204,"line":11,"transit":false,"i_lat":-6.161728},{"time":5,"station_id":"RJW","distance":1901,"transit":false,"station_name":"Rajawali","i_lat":-6.14505,"i_long":106.836569,"is_transit":false,"line":11},{"transit":true,"time":3,"i_lat":-6.132549,"line":4,"i_long":106.826365,"distance":1444,"station_id":"KPB","station_name":"Kampung Bandan","is_transit":true},{"station_name":"Angke","line":1,"transit":false,"distance":4102,"i_long":106.79867,"i_lat":-6.144674,"station_id":"AK","time":9,"is_transit":false},{"distance":1230,"station_id":"DU","transit":false,"station_name":"Duri","is_transit":false,"i_lat":-6.155215,"time":4,"line":1,"i_long":106.800832},{"i_lat":-6.185545,"time":8,"is_transit":true,"i_long":106.811091,"station_id":"THB","station_name":"Tanah Abang","transit":true,"line":1,"distance":3632},{"transit":false,"is_transit":false,"station_id":"PLM","i_lat":-6.207404,"time":6,"i_long":106.79689,"distance":3191,"line":6,"station_name":"Palmerah"},{"station_name":"Kebayoran","distance":3737,"i_lat":-6.237242,"line":6,"transit":false,"i_long":106.780334,"station_id":"KBY","time":7,"is_transit":false},{"transit":false,"station_name":"Pondokranji","i_lat":-6.276362,"time":8,"is_transit":false,"station_id":"PDJ","line":6,"distance":6218,"i_long":106.74273},{"station_id":"JMU","is_transit":false,"i_lat":-6.288927,"line":6,"transit":false,"i_long":106.728916,"station_name":"Jurangmangu","distance":2179,"time":3},{"time":4,"distance":1994,"i_long":106.712277,"line":6,"station_name":"Sudimara","station_id":"SDM","transit":false,"is_transit":false,"i_lat":-6.296963},{"line":6,"station_id":"RU","i_long":106.675475,"transit":false,"station_name":"Rawa Buntu","time":6,"distance":4566,"i_lat":-6.314823,"is_transit":false},{"station_name":"Serpong","transit":false,"time":4,"is_transit":false,"i_lat":-6.319871,"line":6,"station_id":"SRP","i_long":106.66566,"distance":2413},{"i_lat":-6.32484,"transit":false,"station_id":"CSK","station_name":"Cisauk","distance":1784,"is_transit":false,"line":3,"i_long":106.640411,"time":4},{"time":4,"station_id":"CC","i_lat":-6.329547,"transit":false,"station_name":"Cicayur","line":3,"distance":2519,"is_transit":false,"i_long":106.617853},{"line":6,"time":8,"is_transit":false,"station_id":"PRP","i_lat":-6.3441410000000005,"distance":5968,"transit":false,"station_name":"Parung Panjang","i_long":106.568863},{"time":9,"is_transit":false,"station_name":"Cilejit","transit":false,"distance":7025,"i_long":106.508482,"line":3,"i_lat":-6.354349,"station_id":"CJT"},{"i_lat":-6.338021,"distance":2675,"station_name":"Daru","transit":false,"i_long":106.491338,"station_id":"DAR","line":0,"time":6,"is_transit":false},{"transit":false,"i_lat":-6.327251,"station_name":"Tenjo","line":6,"station_id":"TEJ","time":5,"is_transit":false,"distance":3902,"i_long":106.460812},{"time":5,"i_long":106.425991,"i_lat":-6.328533,"station_id":"TGS","distance":2974,"transit":false,"is_transit":false,"station_name":"Tigaraksa","line":6}]]}