{"data":[[{"i_lat":-6.202263,"station_name":"Sudirman","is_transit":false,"line":1,"station_id":"SUD","i_long":106.822649,"distance":0,"time":0,"transit":false},{"i_long":106.819881,"station_id":"SUDB","distance":280,"line":1,"i_lat":-6.201433,"time":1,"station_name":"Sudirman Baru","is_transit":false,"transit":false},{"transit":false,"line":1,"distance":471,"is_transit":false,"station_id":"KAT","time":1,"station_name":"Karet","i_lat":-6.20132,"i_long":106.816351},{"line":1,"is_transit":true,"distance":2029,"time":5,"station_id":"THB","station_name":"Tanah Abang","transit":true,"i_long":106.811091,"i_lat":-6.185545},{"distance":3191,"i_long":106.79689,"time":6,"line":6,"station_name":"Palmerah","i_lat":-6.207404,"station_id":"PLM","transit":false,"is_transit":false},{"station_id":"KBY","time":7,"station_name":"Kebayoran","i_lat":-6.237242,"is_transit":false,"i_long":106.780334,"line":6,"transit":false,"distance":3737},{"is_transit":false,"distance":6218,"station_name":"Pondokranji","i_long":106.74273,"i_lat":-6.276362,"time":8,"line":6,"station_id":"PDJ","transit":false},{"station_id":"JMU","station_name":"Jurangmangu","i_lat":-6.288927,"transit":false,"i_long":106.728916,"distance":2179,"time":3,"is_transit":false,"line":6},{"distance":1994,"line":6,"time":4,"station_id":"SDM","is_transit":false,"i_lat":-6.296963,"transit":false,"station_name":"Sudimara","i_long":106.712277},{"distance":4566,"is_transit":false,"station_id":"RU","station_name":"Rawa Buntu","transit":false,"line":6,"i_lat":-6.314823,"time":6,"i_long":106.675475},{"i_lat":-6.319871,"station_name":"Serpong","line":6,"station_id":"SRP","time":4,"is_transit":false,"i_long":106.66566,"transit":false,"distance":2413},{"transit":false,"is_transit":false,"i_lat":-6.32484,"station_name":"Cisauk","line":3,"distance":1784,"station_id":"CSK","time":4,"i_long":106.640411},{"line":3,"distance":2519,"transit":false,"time":4,"i_long":106.617853,"station_id":"CC","i_lat":-6.329547,"is_transit":false,"station_name":"Cicayur"},{"distance":5968,"transit":false,"is_transit":false,"line":6,"i_long":106.568863,"i_lat":-6.3441410000000005,"time":8,"station_id":"PRP","station_name":"Parung Panjang"},{"transit":false,"i_lat":-6.354349,"time":9,"is_transit":false,"i_long":106.508482,"distance":7025,"line":3,"station_id":"CJT","station_name":"Cilejit"},{"time":6,"station_name":"Daru","i_lat":-6.338021,"is_transit":false,"transit":false,"i_long":106.491338,"distance":2675,"line":0,"station_id":"DAR"},{"line":6,"transit":false,"i_lat":-6.327251,"distance":3902,"station_id":"TEJ","station_name":"Tenjo","i_long":106.460812,"is_transit":false,"time":5}],[{"time":0,"station_name":"Sudirman","i_lat":-6.202263,"is_transit":false,"distance":0,"station_id":"SUD","i_long":106.822649,"transit":false,"line":1},{"is_transit":true,"i_long":106.84912,"line":2,"distance":3186,"transit":true,"station_id":"MRI","time":4,"station_name":"Manggarai","i_lat":-6.209883},{"transit":false,"distance":1590,"i_lat":-6.198556,"is_transit":false,"i_long":106.840169,"time":4,"station_name":"Cikini","line":2,"station_id":"CKI"},{"time":3,"distance":1750,"station_name":"Gondangdia","i_lat":-6.186295,"station_id":"GDD","transit":false,"line":2,"is_transit":false,"i_long":106.832183},{"station_name":"Juanda","i_long":106.828284,"i_lat":-6.166716,"distance":2015,"transit":false,"station_id":"JUA","line":2,"time":4,"is_transit":false},{"i_long":106.827103,"line":2,"i_lat":-6.160725,"time":2,"is_transit":false,"distance":1149,"station_name":"Sawah Besar","station_id":"SW","transit":false},{"i_lat":-6.149769,"station_id":"MGB","line":2,"time":2,"station_name":"Manggabesar","i_long":106.82482,"is_transit":false,"transit":false,"distance":906},{"transit":false,"i_long":106.820901,"i_lat":-6.141205,"time":2,"line":2,"is_transit":false,"station_name":"Jayakarta","distance":1080,"station_id":"JAY"},{"i_long":106.812439,"is_transit":true,"i_lat":-6.137569,"station_name":"Jakarta Kota","line":2,"time":4,"distance":1264,"transit":true,"station_id":"JAKK"},{"i_long":106.826365,"station_name":"Kampung Bandan","is_transit":true,"distance":1364,"transit":true,"i_lat":-6.132549,"station_id":"KPB","line":4,"time":3},{"station_id":"AK","station_name":"Angke","i_lat":-6.144674,"distance":4102,"is_transit":false,"transit":false,"time":9,"line":1,"i_long":106.79867},{"line":1,"time":4,"i_lat":-6.155215,"distance":1230,"transit":false,"station_id":"DU","is_transit":false,"station_name":"Duri","i_long":106.800832},{"line":1,"station_id":"THB","time":8,"transit":true,"is_transit":true,"distance":3632,"i_lat":-6.185545,"i_long":106.811091,"station_name":"Tanah Abang"},{"distance":3191,"i_long":106.79689,"time":6,"station_id":"PLM","i_lat":-6.207404,"station_name":"Palmerah","line":6,"transit":false,"is_transit":false},{"is_transit":false,"i_long":106.780334,"time":7,"i_lat":-6.237242,"distance":3737,"transit":false,"line":6,"station_name":"Kebayoran","station_id":"KBY"},{"station_id":"PDJ","station_name":"Pondokranji","line":6,"is_transit":false,"time":8,"distance":6218,"i_lat":-6.276362,"i_long":106.74273,"transit":false},{"station_name":"Jurangmangu","line":6,"i_long":106.728916,"station_id":"JMU","is_transit":false,"time":3,"distance":2179,"transit":false,"i_lat":-6.288927},{"i_long":106.712277,"station_name":"Sudimara","i_lat":-6.296963,"line":6,"transit":false,"is_transit":false,"distance":1994,"time":4,"station_id":"SDM"},{"line":6,"distance":4566,"i_lat":-6.314823,"station_id":"RU","is_transit":false,"time":6,"transit":false,"station_name":"Rawa Buntu","i_long":106.675475},{"station_id":"SRP","station_name":"Serpong","distance":2413,"transit":false,"is_transit":false,"time":4,"i_lat":-6.319871,"i_long":106.66566,"line":6},{"station_id":"CSK","transit":false,"station_name":"Cisauk","i_lat":-6.32484,"line":3,"is_transit":false,"i_long":106.640411,"distance":1784,"time":4},{"station_name":"Cicayur","station_id":"CC","transit":false,"line":3,"time":4,"distance":2519,"i_lat":-6.329547,"is_transit":false,"i_long":106.617853},{"transit":false,"i_lat":-6.3441410000000005,"distance":5968,"station_name":"Parung Panjang","line":6,"i_long":106.568863,"is_transit":false,"station_id":"PRP","time":8},{"is_transit":false,"station_id":"CJT","transit":false,"distance":7025,"i_long":106.508482,"time":9,"line":3,"station_name":"Cilejit","i_lat":-6.354349},{"is_transit":false,"station_id":"DAR","i_long":106.491338,"transit":false,"station_name":"Daru","line":0,"i_lat":-6.338021,"time":6,"distance":2675},{"i_lat":-6.327251,"distance":3902,"line":6,"station_id":"TEJ","is_transit":false,"i_long":106.460812,"time":5,"transit":false,"station_name":"Tenjo"}],[{"i_long":106.822649,"line":1,"transit":false,"distance":0,"is_transit":false,"time":0,"i_lat":-6.202263,"station_id":"SUD","station_name":"Sudirman"},{"distance":3186,"line":2,"station_name":"Manggarai","transit":false,"i_long":106.84912,"time":4,"station_id":"MRI","is_transit":false,"i_lat":-6.209883},{"i_long":106.858896,"is_transit":false,"station_id":"MTR","station_name":"Matraman","transit":false,"i_lat":-6.212485,"line":1,"distance":1275,"time":2},{"i_long":106.86807400000001,"line":1,"is_transit":true,"time":8,"station_name":"Jatinegara","station_id":"JNG","transit":true,"i_lat":-6.215091,"distance":1377},{"i_long":106.861737,"i_lat":-6.209188,"is_transit":false,"time":2,"line":11,"station_id":"POK","distance":1236,"transit":false,"station_name":"Pondok Jati"},{"station_name":"Kramat","i_lat":-6.193792,"time":2,"i_long":106.855437,"station_id":"KMT","distance":1829,"line":11,"transit":false,"is_transit":false},{"is_transit":false,"time":1,"station_id":"GST","station_name":"Gang Sentiong","i_lat":-6.185975,"distance":973,"transit":false,"line":11,"i_long":106.850107},{"transit":false,"time":8,"station_id":"PSE","line":11,"i_long":106.84368,"is_transit":false,"i_lat":-6.174784,"distance":1567,"station_name":"Pasar Senen"},{"i_lat":-6.161728,"is_transit":false,"distance":1436,"station_name":"Kemayoran","transit":false,"i_long":106.839204,"time":4,"station_id":"KMO","line":11},{"time":5,"is_transit":false,"i_long":106.836569,"transit":false,"distance":1901,"station_id":"RJW","i_lat":-6.14505,"line":11,"station_name":"Rajawali"},{"station_id":"KPB","i_long":106.826365,"time":3,"i_lat":-6.132549,"station_name":"Kampung Bandan","transit":true,"line":4,"distance":1444,"is_transit":true},{"transit":false,"i_long":106.79867,"i_lat":-6.144674,"station_id":"AK","line":1,"time":9,"station_name":"Angke","is_transit":false,"distance":4102},{"distance":1230,"time":4,"station_name":"Duri","transit":false,"line":1,"i_lat":-6.155215,"station_id":"DU","i_long":106.800832,"is_transit":false},{"time":8,"station_id":"THB","i_long":106.811091,"transit":true,"distance":3632,"i_lat":-6.185545,"station_name":"Tanah Abang","line":1,"is_transit":true},{"transit":false,"i_long":106.79689,"distance":3191,"station_id":"PLM","is_transit":false,"station_name":"Palmerah","line":6,"time":6,"i_lat":-6.207404},{"line":6,"station_name":"Kebayoran","station_id":"KBY","i_lat":-6.237242,"time":7,"i_long":106.780334,"distance":3737,"is_transit":false,"transit":false},{"i_long":106.74273,"time":8,"i_lat":-6.276362,"station_id":"PDJ","is_transit":false,"line":6,"transit":false,"distance":6218,"station_name":"Pondokranji"},{"is_transit":false,"station_name":"Jurangmangu","distance":2179,"i_long":106.728916,"i_lat":-6.288927,"line":6,"station_id":"JMU","transit":false,"time":3},{"is_transit":false,"i_lat":-6.296963,"line":6,"transit":false,"i_long":106.712277,"distance":1994,"station_id":"SDM","station_name":"Sudimara","time":4},{"distance":4566,"i_long":106.675475,"line":6,"is_transit":false,"transit":false,"station_id":"RU","station_name":"Rawa Buntu","time":6,"i_lat":-6.314823},{"transit":false,"i_lat":-6.319871,"is_transit":false,"distance":2413,"line":6,"time":4,"station_id":"SRP","i_long":106.66566,"station_name":"Serpong"},{"line":3,"distance":1784,"station_name":"Cisauk","is_transit":false,"time":4,"i_long":106.640411,"station_id":"CSK","transit":false,"i_lat":-6.32484},{"transit":false,"station_name":"Cicayur","station_id":"CC","i_lat":-6.329547,"is_transit":false,"distance":2519,"time":4,"i_long":106.617853,"line":3},{"line":6,"station_name":"Parung Panjang","i_long":106.568863,"transit":false,"is_transit":false,"i_lat":-6.3441410000000005,"time":8,"station_id":"PRP","distance":5968},{"distance":7025,"station_id":"CJT","i_lat":-6.354349,"station_name":"Cilejit","is_transit":false,"time":9,"transit":false,"i_long":106.508482,"line":3},{"i_lat":-6.338021,"line":0,"time":6,"distance":2675,"station_name":"Daru","is_transit":false,"i_long":106.491338,"transit":false,"station_id":"DAR"},{"is_transit":false,"time":5,"station_name":"Tenjo","line":6,"i_long":106.460812,"station_id":"TEJ","i_lat":-6.327251,"distance":3902,"transit":false}]]}