{"data":[[{"is_transit":false,"i_long":106.822649,"line":1,"transit":false,"time":0,"i_lat":-6.202263,"station_name":"Sudirman","station_id":"SUD","distance":0},{"transit":true,"time":4,"distance":3186,"i_long":106.84912,"station_id":"MRI","line":2,"station_name":"Manggarai","i_lat":-6.209883,"is_transit":true},{"transit":false,"station_id":"TEB","i_lat":-6.226659,"is_transit":false,"time":4,"distance":2610,"station_name":"Tebet","i_long":106.857948,"line":2},{"line":2,"is_transit":false,"distance":1230,"i_long":106.856607,"i_lat":-6.242512,"transit":false,"station_name":"Cawang","station_id":"CW","time":2},{"i_long":106.85449,"i_lat":-6.255332,"time":3,"transit":false,"line":2,"station_name":"Duren Kalibata","station_id":"DRN","is_transit":false,"distance":1546},{"i_lat":-6.263214,"transit":false,"distance":824,"station_name":"Pasar Minggu Baru","i_long":106.851577,"station_id":"PSMB","is_transit":false,"time":2,"line":2},{"distance":2380,"i_lat":-6.2842400000000005,"line":2,"station_name":"Pasar Minggu","i_long":106.843999,"transit":false,"station_id":"PSM","time":2,"is_transit":false},{"transit":false,"station_name":"Tanjung Barat","station_id":"TNT","distance":2820,"is_transit":false,"i_long":106.838896,"line":2,"time":4,"i_lat":-6.3080680000000005},{"time":3,"i_lat":-6.330363,"transit":false,"station_name":"Lenteng Agung","distance":2671,"is_transit":false,"i_long":106.832616,"station_id":"LNA","line":2},{"transit":false,"time":2,"i_lat":-6.339291,"i_long":106.834175,"is_transit":false,"station_id":"UP","distance":1029,"line":2,"station_name":"Univ. Pancasila"},{"i_lat":-6.360749,"i_long":106.831474,"station_id":"UI","transit":false,"distance":2264,"station_name":"Univ. Indonesia","is_transit":false,"time":3,"line":2},{"transit":false,"line":2,"station_id":"POC","i_long":106.831114,"distance":1109,"i_lat":-6.369073,"station_name":"Pondok Cina","is_transit":false,"time":2},{"station_id":"DPB","station_name":"Depokbaru","i_lat":-6.391065,"transit":false,"time":4,"distance":2727,"line":2,"i_long":106.819451,"is_transit":false},{"i_long":106.816926,"is_transit":false,"station_id":"DP","i_lat":-6.405256,"station_name":"Depok","time":3,"transit":false,"distance":1584,"line":2}],[{"i_long":106.822649,"time":0,"transit":false,"i_lat":-6.202263,"station_name":"Sudirman","distance":0,"station_id":"SUD","is_transit":false,"line":1},{"station_name":"Sudirman Baru","station_id":"SUDB","distance":280,"transit":false,"time":1,"i_long":106.819881,"i_lat":-6.201433,"is_transit":false,"line":1},{"station_name":"Karet","station_id":"KAT","is_transit":false,"i_lat":-6.20132,"distance":471,"transit":false,"line":1,"i_long":106.816351,"time":1},{"station_id":"THB","transit":false,"time":5,"i_lat":-6.185545,"i_long":106.811091,"line":1,"distance":2029,"is_transit":false,"station_name":"Tanah Abang"},{"is_transit":false,"line":1,"transit":false,"i_lat":-6.155215,"i_long":106.800832,"station_name":"Duri","time":8,"distance":3632,"station_id":"DU"},{"line":1,"distance":1230,"time":4,"station_name":"Angke","is_transit":false,"station_id":"AK","i_lat":-6.144674,"transit":false,"i_long":106.79867},{"distance":4102,"station_id":"KPB","is_transit":true,"station_name":"Kampung Bandan","i_lat":-6.132549,"transit":true,"i_long":106.826365,"time":9,"line":4},{"station_id":"JAKK","is_transit":true,"transit":true,"time":3,"line":2,"station_name":"Jakarta Kota","distance":1364,"i_lat":-6.137569,"i_long":106.812439},{"station_name":"Jayakarta","distance":1264,"time":4,"is_transit":false,"i_lat":-6.141205,"line":2,"i_long":106.820901,"transit":false,"station_id":"JAY"},{"line":2,"time":2,"is_transit":false,"station_id":"MGB","station_name":"Manggabesar","i_lat":-6.149769,"i_long":106.82482,"distance":1080,"transit":false},{"is_transit":false,"time":2,"transit":false,"i_lat":-6.160725,"station_name":"Sawah Besar","station_id":"SW","distance":906,"i_long":106.827103,"line":2},{"i_long":106.828284,"line":2,"transit":false,"station_name":"Juanda","station_id":"JUA","is_transit":false,"time":2,"distance":1149,"i_lat":-6.166716},{"line":2,"transit":false,"is_transit":false,"time":4,"i_lat":-6.186295,"distance":2015,"station_id":"GDD","i_long":106.832183,"station_name":"Gondangdia"},{"station_id":"CKI","i_long":106.840169,"station_name":"Cikini","time":3,"distance":1750,"transit":false,"i_lat":-6.198556,"is_transit":false,"line":2},{"station_id":"MRI","station_name":"Manggarai","distance":1590,"line":2,"time":4,"i_lat":-6.209883,"transit":false,"i_long":106.84912,"is_transit":false},{"is_transit":false,"time":4,"line":2,"transit":false,"station_name":"Tebet","i_lat":-6.226659,"i_long":106.857948,"station_id":"TEB","distance":2610},{"time":2,"i_lat":-6.242512,"station_name":"Cawang","is_transit":false,"line":2,"transit":false,"station_id":"CW","distance":1230,"i_long":106.856607},{"i_lat":-6.255332,"station_id":"DRN","time":3,"distance":1546,"transit":false,"station_name":"Duren Kalibata","is_transit":false,"i_long":106.85449,"line":2},{"i_lat":-6.263214,"line":2,"transit":false,"distance":824,"station_name":"Pasar Minggu Baru","station_id":"PSMB","time":2,"i_long":106.851577,"is_transit":false},{"time":2,"i_lat":-6.2842400000000005,"line":2,"transit":false,"station_id":"PSM","is_transit":false,"station_name":"Pasar Minggu","i_long":106.843999,"distance":2380},{"i_long":106.838896,"line":2,"i_lat":-6.3080680000000005,"station_name":"Tanjung Barat","time":4,"transit":false,"distance":2820,"station_id":"TNT","is_transit":false},{"i_lat":-6.330363,"transit":false,"i_long":106.832616,"station_name":"Lenteng Agung","line":2,"station_id":"LNA","distance":2671,"is_transit":false,"time":3},{"station_id":"UP","is_transit":false,"i_lat":-6.339291,"i_long":106.834175,"line":2,"time":2,"station_name":"Univ. Pancasila","transit":false,"distance":1029},{"station_name":"Univ. Indonesia","transit":false,"station_id":"UI","i_long":106.831474,"line":2,"distance":2264,"time":3,"i_lat":-6.360749,"is_transit":false},{"line":2,"station_id":"POC","time":2,"transit":false,"station_name":"Pondok Cina","is_transit":false,"distance":1109,"i_lat":-6.369073,"i_long":106.831114},{"is_transit":false,"time":4,"line":2,"transit":false,"station_id":"DPB","i_lat":-6.391065,"station_name":"Depokbaru","distance":2727,"i_long":106.819451},{"time":3,"i_long":106.816926,"distance":1584,"i_lat":-6.405256,"line":2,"station_id":"DP","station_name":"Depok","transit":false,"is_transit":false}],[{"time":0,"distance":0,"station_name":"Sudirman","station_id":"SUD","i_long":106.822649,"is_transit":false,"transit":false,"line":1,"i_lat":-6.202263},{"station_name":"Sudirman Baru","station_id":"SUDB","time":1,"i_lat":-6.201433,"i_long":106.819881,"line":1,"transit":false,"is_transit":false,"distance":280},{"station_id":"KAT","i_lat":-6.20132,"time":1,"i_long":106.816351,"transit":false,"station_name":"Karet","is_transit":false,"distance":471,"line":1},{"line":1,"station_name":"Tanah Abang","station_id":"THB","is_transit":false,"time":5,"i_lat":-6.185545,"i_long":106.811091,"distance":2029,"transit":false},{"is_transit":false,"time":8,"distance":3632,"station_name":"Duri","station_id":"DU","i_lat":-6.155215,"transit":false,"i_long":106.800832,"line":1},{"line":1,"station_id":"AK","i_lat":-6.144674,"time":4,"i_long":106.79867,"transit":false,"station_name":"Angke","distance":1230,"is_transit":false},{"distance":4102,"transit":true,"i_lat":-6.132549,"station_id":"KPB","is_transit":true,"i_long":106.826365,"line":4,"time":9,"station_name":"Kampung Bandan"},{"is_transit":false,"i_lat":-6.14505,"time":3,"i_long":106.836569,"transit":false,"station_id":"RJW","distance":1444,"station_name":"Rajawali","line":11},{"is_transit":false,"transit":false,"station_id":"KMO","time":5,"line":11,"distance":1901,"station_name":"Kemayoran","i_lat":-6.161728,"i_long":106.839204},{"is_transit":false,"transit":false,"distance":1436,"line":11,"i_long":106.84368,"time":4,"station_name":"Pasar Senen","i_lat":-6.174784,"station_id":"PSE"},{"time":8,"station_id":"GST","transit":false,"distance":1567,"station_name":"Gang Sentiong","i_lat":-6.185975,"i_long":106.850107,"line":11,"is_transit":false},{"time":1,"transit":false,"station_name":"Kramat","i_long":106.855437,"line":11,"station_id":"KMT","i_lat":-6.193792,"is_transit":false,"distance":973},{"line":11,"transit":false,"distance":1829,"i_lat":-6.209188,"station_name":"Pondok Jati","station_id":"POK","is_transit":false,"time":2,"i_long":106.861737},{"distance":1236,"time":9,"i_lat":-6.215091,"i_long":106.86807400000001,"line":1,"station_id":"JNG","station_name":"Jatinegara","is_transit":true,"transit":true},{"line":1,"time":2,"transit":false,"i_long":106.858896,"station_name":"Matraman","i_lat":-6.212485,"station_id":"MTR","is_transit":false,"distance":1377},{"station_id":"MRI","station_name":"Manggarai","i_lat":-6.209883,"line":2,"is_transit":true,"time":2,"i_long":106.84912,"distance":1275,"transit":true},{"station_id":"TEB","transit":false,"time":4,"line":2,"distance":2610,"station_name":"Tebet","i_lat":-6.226659,"is_transit":false,"i_long":106.857948},{"station_id":"CW","transit":false,"i_lat":-6.242512,"is_transit":false,"time":2,"station_name":"Cawang","distance":1230,"i_long":106.856607,"line":2},{"time":3,"station_name":"Duren Kalibata","distance":1546,"i_lat":-6.255332,"transit":false,"station_id":"DRN","i_long":106.85449,"is_transit":false,"line":2},{"distance":824,"i_lat":-6.263214,"line":2,"transit":false,"is_transit":false,"station_id":"PSMB","time":2,"i_long":106.851577,"station_name":"Pasar Minggu Baru"},{"station_name":"Pasar Minggu","time":2,"distance":2380,"i_lat":-6.2842400000000005,"is_transit":false,"line":2,"transit":false,"i_long":106.843999,"station_id":"PSM"},{"station_id":"TNT","is_transit":false,"i_lat":-6.3080680000000005,"line":2,"transit":false,"distance":2820,"i_long":106.838896,"station_name":"Tanjung Barat","time":4},{"distance":2671,"transit":false,"i_lat":-6.330363,"line":2,"is_transit":false,"station_name":"Lenteng Agung","station_id":"LNA","i_long":106.832616,"time":3},{"is_transit":false,"i_long":106.834175,"line":2,"station_name":"Univ. Pancasila","time":2,"i_lat":-6.339291,"distance":1029,"transit":false,"station_id":"UP"},{"time":3,"station_name":"Univ. Indonesia","distance":2264,"i_lat":-6.360749,"is_transit":false,"line":2,"i_long":106.831474,"transit":false,"station_id":"UI"},{"transit":false,"line":2,"i_lat":-6.369073,"is_transit":false,"time":2,"i_long":106.831114,"station_id":"POC","distance":1109,"station_name":"Pondok Cina"},{"i_long":106.819451,"i_lat":-6.391065,"station_name":"Depokbaru","line":2,"station_id":"DPB","is_transit":false,"transit":false,"time":4,"distance":2727},{"time":3,"distance":1584,"transit":false,"i_lat":-6.405256,"line":2,"i_long":106.816926,"station_name":"Depok","station_id":"DP","is_transit":false}]]}