{"data":[[{"station_name":"Sudirman","i_lat":-6.202263,"i_long":106.822649,"line":1,"station_id":"SUD","is_transit":false,"distance":0,"transit":false,"time":0},{"distance":280,"transit":false,"is_transit":false,"time":1,"station_id":"SUDB","i_long":106.819881,"line":1,"i_lat":-6.201433,"station_name":"Sudirman Baru"},{"i_lat":-6.20132,"station_name":"Karet","is_transit":false,"station_id":"KAT","line":1,"transit":false,"time":1,"distance":471,"i_long":106.816351},{"is_transit":true,"station_name":"Tanah Abang","distance":2029,"time":5,"i_long":106.811091,"line":1,"station_id":"THB","i_lat":-6.185545,"transit":true},{"time":6,"is_transit":false,"distance":3191,"i_lat":-6.207404,"line":6,"station_id":"PLM","transit":false,"i_long":106.79689,"station_name":"Palmerah"},{"transit":false,"i_long":106.780334,"station_id":"KBY","line":6,"time":7,"station_name":"Kebayoran","i_lat":-6.237242,"distance":3737,"is_transit":false},{"distance":6218,"i_long":106.74273,"time":8,"is_transit":false,"line":6,"station_id":"PDJ","station_name":"Pondokranji","transit":false,"i_lat":-6.276362},{"station_name":"Jurangmangu","transit":false,"distance":2179,"i_lat":-6.288927,"time":3,"i_long":106.728916,"is_transit":false,"line":6,"station_id":"JMU"},{"station_name":"Sudimara","is_transit":false,"transit":false,"station_id":"SDM","time":4,"distance":1994,"line":6,"i_lat":-6.296963,"i_long":106.712277},{"station_id":"RU","station_name":"Rawa Buntu","transit":false,"i_lat":-6.314823,"i_long":106.675475,"time":6,"distance":4566,"is_transit":false,"line":6},{"distance":2413,"i_lat":-6.319871,"is_transit":false,"time":4,"transit":false,"line":6,"station_id":"SRP","i_long":106.66566,"station_name":"Serpong"},{"station_name":"Cisauk","station_id":"CSK","distance":1784,"is_transit":false,"time":4,"transit":false,"i_lat":-6.32484,"i_long":106.640411,"line":0},{"line":0,"station_name":"Cicayur","transit":false,"station_id":"CC","is_transit":false,"i_lat":-6.329547,"distance":2519,"time":4,"i_long":106.617853},{"i_long":106.568863,"station_name":"Parung Panjang","line":6,"is_transit":false,"time":8,"station_id":"PRP","distance":5968,"transit":false,"i_lat":-6.3441410000000005},{"i_long":106.508482,"distance":7025,"station_id":"CJT","station_name":"Cilejit","time":9,"i_lat":-6.354349,"line":0,"is_transit":false,"transit":false},{"line":0,"transit":false,"distance":2675,"station_name":"Daru","is_transit":false,"i_lat":-6.338021,"time":6,"station_id":"DAR","i_long":106.491338},{"is_transit":false,"i_lat":-6.327251,"distance":3902,"i_long":106.460812,"line":6,"time":5,"station_name":"Tenjo","transit":false,"station_id":"TEJ"},{"station_name":"Tigaraksa","distance":2974,"station_id":"TGS","time":5,"i_lat":-6.328533,"line":6,"transit":false,"i_long":106.425991,"is_transit":false},{"station_name":"Cikoya","time":3,"i_lat":-6.33561,"distance":2651,"is_transit":false,"station_id":"CKY","line":0,"transit":false,"i_long":106.411216},{"station_id":"MJ","i_long":106.394373,"line":6,"distance":1853,"time":4,"transit":false,"is_transit":false,"station_name":"Maja","i_lat":-6.332307},{"i_lat":-6.334892,"station_id":"CTR","i_long":106.332092,"line":0,"transit":false,"distance":7293,"time":10,"station_name":"Citeras","is_transit":false},{"is_transit":true,"distance":9847,"station_name":"Rangkasbitung","i_lat":-6.352675,"line":0,"station_id":"RK","transit":false,"i_long":106.250396,"time":13}],[{"line":1,"i_long":106.822649,"station_name":"Sudirman","is_transit":false,"station_id":"SUD","distance":0,"transit":false,"time":0,"i_lat":-6.202263},{"station_name":"Manggarai","i_lat":-6.209883,"station_id":"MRI","line":0,"is_transit":true,"distance":3186,"i_long":106.84912,"time":4,"transit":true},{"i_long":106.840169,"i_lat":-6.198556,"line":0,"distance":1590,"station_name":"Cikini","station_id":"CKI","is_transit":false,"transit":false,"time":4},{"distance":1750,"is_transit":false,"time":3,"line":2,"station_name":"Gondangdia","transit":false,"i_lat":-6.186295,"i_long":106.832183,"station_id":"GDD"},{"transit":false,"distance":2015,"station_id":"JUA","is_transit":false,"station_name":"Juanda","time":4,"i_lat":-6.166716,"i_long":106.828284,"line":2},{"i_lat":-6.160725,"i_long":106.827103,"line":2,"is_transit":false,"station_name":"Sawah Besar","distance":1149,"transit":false,"station_id":"SW","time":2},{"station_id":"MGB","time":2,"transit":false,"is_transit":false,"i_long":106.82482,"station_name":"Manggabesar","distance":906,"i_lat":-6.149769,"line":2},{"is_transit":false,"transit":false,"distance":1080,"station_name":"Jayakarta","time":2,"i_lat":-6.141205,"i_long":106.820901,"line":7,"station_id":"JAY"},{"transit":true,"station_name":"Jakarta Kota","i_lat":-6.137569,"is_transit":true,"time":4,"line":0,"station_id":"JAKK","distance":1264,"i_long":106.812439},{"time":3,"i_long":106.826365,"line":0,"i_lat":-6.132549,"is_transit":true,"transit":false,"station_id":"KPB","station_name":"Kampung Bandan","distance":1364},{"i_long":106.79867,"transit":false,"time":9,"distance":4102,"station_id":"AK","i_lat":-6.144674,"line":0,"is_transit":false,"station_name":"Angke"},{"station_id":"DU","distance":1230,"line":1,"station_name":"Duri","time":4,"i_long":106.800832,"transit":true,"i_lat":-6.155215,"is_transit":true},{"station_name":"Tanah Abang","line":1,"time":8,"distance":3632,"station_id":"THB","transit":true,"i_lat":-6.185545,"i_long":106.811091,"is_transit":true},{"distance":3191,"is_transit":false,"transit":false,"i_long":106.79689,"station_name":"Palmerah","line":6,"station_id":"PLM","time":6,"i_lat":-6.207404},{"transit":false,"i_long":106.780334,"time":7,"i_lat":-6.237242,"is_transit":false,"line":6,"station_id":"KBY","distance":3737,"station_name":"Kebayoran"},{"station_id":"PDJ","station_name":"Pondokranji","i_lat":-6.276362,"i_long":106.74273,"line":6,"is_transit":false,"time":8,"transit":false,"distance":6218},{"line":6,"transit":false,"is_transit":false,"station_name":"Jurangmangu","i_long":106.728916,"station_id":"JMU","i_lat":-6.288927,"distance":2179,"time":3},{"transit":false,"distance":1994,"i_long":106.712277,"station_id":"SDM","line":6,"i_lat":-6.296963,"station_name":"Sudimara","time":4,"is_transit":false},{"transit":false,"i_lat":-6.314823,"line":6,"time":6,"distance":4566,"is_transit":false,"station_id":"RU","i_long":106.675475,"station_name":"Rawa Buntu"},{"is_transit":false,"time":4,"station_name":"Serpong","station_id":"SRP","distance":2413,"transit":false,"i_long":106.66566,"line":6,"i_lat":-6.319871},{"station_name":"Cisauk","is_transit":false,"transit":false,"i_long":106.640411,"line":0,"i_lat":-6.32484,"time":4,"distance":1784,"station_id":"CSK"},{"time":4,"i_lat":-6.329547,"line":0,"distance":2519,"is_transit":false,"station_id":"CC","i_long":106.617853,"transit":false,"station_name":"Cicayur"},{"line":6,"i_lat":-6.3441410000000005,"station_name":"Parung Panjang","transit":false,"station_id":"PRP","i_long":106.568863,"time":8,"distance":5968,"is_transit":false},{"line":0,"station_id":"CJT","i_long":106.508482,"is_transit":false,"distance":7025,"transit":false,"i_lat":-6.354349,"station_name":"Cilejit","time":9},{"line":0,"station_name":"Daru","transit":false,"distance":2675,"time":6,"i_long":106.491338,"station_id":"DAR","is_transit":false,"i_lat":-6.338021},{"i_long":106.460812,"distance":3902,"i_lat":-6.327251,"station_id":"TEJ","transit":false,"is_transit":false,"station_name":"Tenjo","time":5,"line":6},{"station_name":"Tigaraksa","station_id":"TGS","distance":2974,"time":5,"line":6,"is_transit":false,"i_long":106.425991,"i_lat":-6.328533,"transit":false},{"transit":false,"i_long":106.411216,"line":0,"station_name":"Cikoya","i_lat":-6.33561,"time":3,"distance":2651,"is_transit":false,"station_id":"CKY"},{"i_long":106.394373,"i_lat":-6.332307,"distance":1853,"line":6,"station_id":"MJ","transit":false,"station_name":"Maja","is_transit":false,"time":4},{"is_transit":false,"i_long":106.332092,"station_id":"CTR","station_name":"Citeras","transit":false,"i_lat":-6.334892,"line":0,"distance":7293,"time":10},{"distance":9847,"station_name":"Rangkasbitung","is_transit":true,"i_lat":-6.352675,"transit":false,"i_long":106.250396,"time":13,"line":0,"station_id":"RK"}],[{"line":1,"transit":false,"time":0,"station_id":"SUD","i_long":106.822649,"station_name":"Sudirman","is_transit":false,"i_lat":-6.202263,"distance":0},{"station_id":"MRI","station_name":"Manggarai","line":0,"i_lat":-6.209883,"transit":false,"is_transit":true,"time":4,"i_long":106.84912,"distance":3186},{"line":1,"station_id":"MTR","is_transit":false,"station_name":"Matraman","i_long":106.858896,"transit":false,"distance":1275,"time":2,"i_lat":-6.212485},{"i_lat":-6.215091,"time":8,"transit":true,"station_name":"Jatinegara","i_long":106.86807400000001,"line":0,"is_transit":true,"distance":1377,"station_id":"JNG"},{"i_lat":-6.209188,"station_name":"Pondok Jati","time":2,"i_long":106.861737,"distance":1236,"line":11,"is_transit":false,"station_id":"POK","transit":false},{"is_transit":false,"station_name":"Kramat","i_long":106.855437,"i_lat":-6.193792,"line":11,"transit":false,"distance":1829,"time":2,"station_id":"KMT"},{"i_long":106.850107,"distance":973,"transit":false,"line":11,"station_name":"Gang Sentiong","is_transit":false,"station_id":"GST","time":1,"i_lat":-6.185975},{"i_long":106.84368,"transit":false,"distance":1567,"line":11,"is_transit":false,"time":8,"station_id":"PSE","station_name":"Pasar Senen","i_lat":-6.174784},{"distance":1436,"i_long":106.839204,"is_transit":false,"station_name":"Kemayoran","transit":false,"station_id":"KMO","i_lat":-6.161728,"time":4,"line":11},{"is_transit":false,"distance":1901,"time":5,"line":11,"i_lat":-6.14505,"station_id":"RJW","i_long":106.836569,"station_name":"Rajawali","transit":false},{"line":0,"transit":true,"is_transit":true,"time":3,"station_name":"Kampung Bandan","i_lat":-6.132549,"i_long":106.826365,"distance":1444,"station_id":"KPB"},{"i_lat":-6.144674,"line":0,"is_transit":false,"time":9,"distance":4102,"station_id":"AK","i_long":106.79867,"station_name":"Angke","transit":false},{"distance":1230,"is_transit":true,"transit":true,"i_long":106.800832,"station_id":"DU","line":1,"time":4,"i_lat":-6.155215,"station_name":"Duri"},{"line":1,"i_long":106.811091,"is_transit":true,"station_id":"THB","distance":3632,"transit":true,"time":8,"station_name":"Tanah Abang","i_lat":-6.185545},{"station_name":"Palmerah","time":6,"i_lat":-6.207404,"i_long":106.79689,"is_transit":false,"transit":false,"line":6,"station_id":"PLM","distance":3191},{"transit":false,"line":6,"station_id":"KBY","time":7,"station_name":"Kebayoran","i_lat":-6.237242,"i_long":106.780334,"distance":3737,"is_transit":false},{"distance":6218,"transit":false,"time":8,"station_name":"Pondokranji","is_transit":false,"i_long":106.74273,"line":6,"station_id":"PDJ","i_lat":-6.276362},{"time":3,"line":6,"station_name":"Jurangmangu","station_id":"JMU","i_lat":-6.288927,"i_long":106.728916,"transit":false,"distance":2179,"is_transit":false},{"line":6,"transit":false,"i_long":106.712277,"distance":1994,"station_name":"Sudimara","time":4,"is_transit":false,"i_lat":-6.296963,"station_id":"SDM"},{"i_lat":-6.314823,"station_id":"RU","distance":4566,"i_long":106.675475,"transit":false,"line":6,"station_name":"Rawa Buntu","time":6,"is_transit":false},{"is_transit":false,"transit":false,"station_name":"Serpong","station_id":"SRP","i_lat":-6.319871,"line":6,"time":4,"i_long":106.66566,"distance":2413},{"transit":false,"i_lat":-6.32484,"line":0,"distance":1784,"time":4,"i_long":106.640411,"is_transit":false,"station_id":"CSK","station_name":"Cisauk"},{"station_id":"CC","time":4,"i_long":106.617853,"station_name":"Cicayur","transit":false,"i_lat":-6.329547,"line":0,"distance":2519,"is_transit":false},{"i_lat":-6.3441410000000005,"station_id":"PRP","time":8,"transit":false,"is_transit":false,"station_name":"Parung Panjang","i_long":106.568863,"line":6,"distance":5968},{"station_name":"Cilejit","i_lat":-6.354349,"line":0,"transit":false,"is_transit":false,"distance":7025,"i_long":106.508482,"time":9,"station_id":"CJT"},{"is_transit":false,"station_id":"DAR","line":0,"station_name":"Daru","i_lat":-6.338021,"transit":false,"i_long":106.491338,"time":6,"distance":2675},{"i_long":106.460812,"station_name":"Tenjo","line":6,"time":5,"i_lat":-6.327251,"is_transit":false,"station_id":"TEJ","transit":false,"distance":3902},{"station_name":"Tigaraksa","i_lat":-6.328533,"transit":false,"i_long":106.425991,"is_transit":false,"distance":2974,"line":6,"station_id":"TGS","time":5},{"transit":false,"i_lat":-6.33561,"line":0,"station_name":"Cikoya","is_transit":false,"i_long":106.411216,"time":3,"station_id":"CKY","distance":2651},{"station_id":"MJ","i_lat":-6.332307,"transit":false,"is_transit":false,"distance":1853,"station_name":"Maja","time":4,"line":6,"i_long":106.394373},{"is_transit":false,"station_name":"Citeras","distance":7293,"transit":false,"i_long":106.332092,"station_id":"CTR","i_lat":-6.334892,"time":10,"line":0},{"station_name":"Rangkasbitung","i_long":106.250396,"line":0,"distance":9847,"i_lat":-6.352675,"is_transit":true,"transit":false,"station_id":"RK","time":13}]]}