{"data":[[{"time":0,"i_long":106.822649,"station_name":"Sudirman","line":1,"transit":false,"station_id":"SUD","is_transit":false,"distance":0,"i_lat":-6.202263},{"distance":3186,"station_id":"MRI","transit":true,"is_transit":true,"i_long":106.84912,"station_name":"Manggarai","i_lat":-6.209883,"line":2,"time":4},{"transit":false,"station_name":"Tebet","time":4,"i_long":106.857948,"i_lat":-6.226659,"station_id":"TEB","is_transit":false,"distance":2610,"line":2},{"i_lat":-6.242512,"time":2,"transit":false,"i_long":106.856607,"station_name":"Cawang","station_id":"CW","is_transit":false,"distance":1230,"line":2},{"station_id":"DRN","i_long":106.85449,"transit":false,"time":3,"line":2,"distance":1546,"i_lat":-6.255332,"station_name":"Duren Kalibata","is_transit":false},{"transit":false,"line":2,"is_transit":false,"station_name":"Pasar Minggu Baru","station_id":"PSMB","time":2,"distance":824,"i_lat":-6.263214,"i_long":106.851577},{"is_transit":false,"i_long":106.843999,"i_lat":-6.2842400000000005,"station_name":"Pasar Minggu","transit":false,"time":2,"station_id":"PSM","distance":2380,"line":2},{"transit":false,"i_long":106.838896,"is_transit":false,"line":2,"station_id":"TNT","station_name":"Tanjung Barat","time":4,"distance":2820,"i_lat":-6.3080680000000005}],[{"transit":false,"distance":0,"i_lat":-6.202263,"station_name":"Sudirman","line":1,"i_long":106.822649,"is_transit":false,"station_id":"SUD","time":0},{"i_long":106.819881,"time":1,"line":1,"transit":false,"station_name":"Sudirman Baru","is_transit":false,"distance":280,"station_id":"SUDB","i_lat":-6.201433},{"line":1,"distance":471,"i_long":106.816351,"i_lat":-6.20132,"station_id":"KAT","station_name":"Karet","time":1,"transit":false,"is_transit":false},{"station_name":"Tanah Abang","is_transit":false,"transit":false,"time":5,"station_id":"THB","line":1,"i_lat":-6.185545,"distance":2029,"i_long":106.811091},{"time":8,"i_long":106.800832,"transit":false,"is_transit":false,"distance":3632,"station_id":"DU","i_lat":-6.155215,"line":1,"station_name":"Duri"},{"station_id":"AK","distance":1230,"line":1,"is_transit":false,"station_name":"Angke","transit":false,"time":4,"i_lat":-6.144674,"i_long":106.79867},{"station_id":"KPB","line":4,"is_transit":true,"station_name":"Kampung Bandan","distance":4102,"i_lat":-6.132549,"i_long":106.826365,"time":9,"transit":true},{"time":3,"i_long":106.812439,"line":2,"is_transit":true,"station_name":"Jakarta Kota","transit":true,"distance":1364,"station_id":"JAKK","i_lat":-6.137569},{"i_long":106.820901,"station_name":"Jayakarta","is_transit":false,"time":4,"i_lat":-6.141205,"line":2,"station_id":"JAY","distance":1264,"transit":false},{"i_long":106.82482,"station_name":"Manggabesar","transit":false,"distance":1080,"i_lat":-6.149769,"station_id":"MGB","line":2,"is_transit":false,"time":2},{"distance":906,"station_id":"SW","station_name":"Sawah Besar","transit":false,"time":2,"i_long":106.827103,"is_transit":false,"i_lat":-6.160725,"line":2},{"i_lat":-6.166716,"line":2,"distance":1149,"i_long":106.828284,"is_transit":false,"transit":false,"station_id":"JUA","station_name":"Juanda","time":2},{"line":2,"time":4,"is_transit":false,"station_id":"GDD","i_long":106.832183,"i_lat":-6.186295,"station_name":"Gondangdia","transit":false,"distance":2015},{"is_transit":false,"distance":1750,"time":3,"transit":false,"station_id":"CKI","i_long":106.840169,"station_name":"Cikini","i_lat":-6.198556,"line":2},{"station_id":"MRI","i_long":106.84912,"time":4,"transit":false,"distance":1590,"line":2,"is_transit":false,"station_name":"Manggarai","i_lat":-6.209883},{"i_long":106.857948,"is_transit":false,"transit":false,"station_id":"TEB","time":4,"i_lat":-6.226659,"station_name":"Tebet","line":2,"distance":2610},{"transit":false,"is_transit":false,"station_name":"Cawang","distance":1230,"station_id":"CW","i_lat":-6.242512,"line":2,"i_long":106.856607,"time":2},{"transit":false,"time":3,"distance":1546,"station_name":"Duren Kalibata","station_id":"DRN","i_long":106.85449,"i_lat":-6.255332,"is_transit":false,"line":2},{"line":2,"station_name":"Pasar Minggu Baru","is_transit":false,"station_id":"PSMB","time":2,"transit":false,"i_lat":-6.263214,"i_long":106.851577,"distance":824},{"line":2,"is_transit":false,"station_id":"PSM","i_long":106.843999,"distance":2380,"transit":false,"station_name":"Pasar Minggu","time":2,"i_lat":-6.2842400000000005},{"is_transit":false,"distance":2820,"i_long":106.838896,"station_name":"Tanjung Barat","time":4,"station_id":"TNT","i_lat":-6.3080680000000005,"transit":false,"line":2}],[{"time":0,"station_id":"SUD","station_name":"Sudirman","is_transit":false,"i_lat":-6.202263,"transit":false,"distance":0,"i_long":106.822649,"line":1},{"time":1,"station_name":"Sudirman Baru","i_lat":-6.201433,"station_id":"SUDB","distance":280,"line":1,"is_transit":false,"i_long":106.819881,"transit":false},{"i_lat":-6.20132,"time":1,"station_name":"Karet","i_long":106.816351,"is_transit":false,"transit":false,"line":1,"distance":471,"station_id":"KAT"},{"distance":2029,"i_lat":-6.185545,"time":5,"i_long":106.811091,"is_transit":false,"station_id":"THB","transit":false,"station_name":"Tanah Abang","line":1},{"i_long":106.800832,"station_id":"DU","is_transit":false,"i_lat":-6.155215,"station_name":"Duri","distance":3632,"line":1,"time":8,"transit":false},{"i_long":106.79867,"transit":false,"station_id":"AK","is_transit":false,"time":4,"distance":1230,"line":1,"i_lat":-6.144674,"station_name":"Angke"},{"line":4,"i_long":106.826365,"transit":true,"is_transit":true,"station_name":"Kampung Bandan","distance":4102,"i_lat":-6.132549,"time":9,"station_id":"KPB"},{"i_long":106.836569,"time":3,"transit":false,"is_transit":false,"line":11,"distance":1444,"station_id":"RJW","station_name":"Rajawali","i_lat":-6.14505},{"station_name":"Kemayoran","is_transit":false,"distance":1901,"transit":false,"i_lat":-6.161728,"line":11,"station_id":"KMO","time":5,"i_long":106.839204},{"transit":false,"distance":1436,"time":4,"i_lat":-6.174784,"i_long":106.84368,"is_transit":false,"station_id":"PSE","line":11,"station_name":"Pasar Senen"},{"transit":false,"distance":1567,"line":11,"i_lat":-6.185975,"is_transit":false,"station_id":"GST","station_name":"Gang Sentiong","i_long":106.850107,"time":8},{"station_name":"Kramat","time":1,"distance":973,"i_lat":-6.193792,"line":11,"is_transit":false,"station_id":"KMT","transit":false,"i_long":106.855437},{"line":11,"station_id":"POK","is_transit":false,"distance":1829,"time":2,"station_name":"Pondok Jati","transit":false,"i_lat":-6.209188,"i_long":106.861737},{"station_name":"Jatinegara","transit":true,"i_long":106.86807400000001,"time":9,"station_id":"JNG","is_transit":true,"distance":1236,"i_lat":-6.215091,"line":1},{"line":1,"transit":false,"i_lat":-6.212485,"station_name":"Matraman","distance":1377,"is_transit":false,"time":2,"station_id":"MTR","i_long":106.858896},{"transit":true,"i_lat":-6.209883,"station_name":"Manggarai","distance":1275,"time":2,"line":2,"i_long":106.84912,"is_transit":true,"station_id":"MRI"},{"i_lat":-6.226659,"is_transit":false,"line":2,"station_id":"TEB","transit":false,"time":4,"station_name":"Tebet","i_long":106.857948,"distance":2610},{"i_long":106.856607,"station_id":"CW","time":2,"station_name":"Cawang","is_transit":false,"distance":1230,"i_lat":-6.242512,"line":2,"transit":false},{"station_id":"DRN","is_transit":false,"transit":false,"distance":1546,"i_lat":-6.255332,"i_long":106.85449,"line":2,"time":3,"station_name":"Duren Kalibata"},{"i_long":106.851577,"station_name":"Pasar Minggu Baru","i_lat":-6.263214,"time":2,"transit":false,"distance":824,"line":2,"is_transit":false,"station_id":"PSMB"},{"station_name":"Pasar Minggu","i_lat":-6.2842400000000005,"station_id":"PSM","line":2,"is_transit":false,"distance":2380,"time":2,"transit":false,"i_long":106.843999},{"station_name":"Tanjung Barat","i_lat":-6.3080680000000005,"station_id":"TNT","is_transit":false,"i_long":106.838896,"distance":2820,"line":2,"time":4,"transit":false}]]}