{"data":[[{"is_transit":false,"station_id":"SUD","distance":0,"line":1,"time":0,"i_long":106.822649,"i_lat":-6.202263,"station_name":"Sudirman","transit":false},{"line":1,"time":1,"i_lat":-6.201433,"station_id":"SUDB","station_name":"Sudirman Baru","is_transit":false,"distance":280,"transit":false,"i_long":106.819881},{"distance":471,"is_transit":false,"station_name":"Karet","i_long":106.816351,"transit":false,"i_lat":-6.20132,"time":1,"line":1,"station_id":"KAT"},{"line":1,"transit":false,"time":5,"i_lat":-6.185545,"station_id":"THB","i_long":106.811091,"is_transit":true,"station_name":"Tanah Abang","distance":2029},{"i_lat":-6.155215,"line":1,"station_name":"Duri","station_id":"DU","is_transit":true,"i_long":106.800832,"transit":true,"time":8,"distance":3632},{"station_id":"GGL","distance":1700,"transit":false,"time":3,"station_name":"Grogol","i_long":106.788277,"line":5,"i_lat":-6.162021,"is_transit":false},{"i_long":106.771379,"line":5,"transit":false,"station_name":"Pesing","time":2,"is_transit":false,"distance":2036,"i_lat":-6.161433,"station_id":"PSG"},{"transit":false,"distance":1614,"line":5,"i_long":106.756522,"station_id":"TKO","time":2,"i_lat":-6.1587309999999995,"station_name":"Taman Kota","is_transit":false},{"is_transit":false,"transit":false,"station_id":"BOI","line":0,"station_name":"Bojongindah","i_lat":-6.159876,"i_long":106.737035,"time":2,"distance":2334},{"i_lat":-6.162758,"line":5,"i_long":106.723064,"station_name":"Rawa Buaya","time":4,"transit":false,"distance":1152,"station_id":"RW","is_transit":false},{"i_lat":-6.166068,"transit":false,"i_long":106.701612,"distance":2504,"station_id":"KDS","station_name":"Kalideres","line":5,"time":3,"is_transit":false},{"distance":2548,"station_name":"Poris","i_lat":-6.169933,"is_transit":false,"station_id":"PI","transit":false,"i_long":106.679458,"time":3,"line":5}],[{"is_transit":false,"station_name":"Sudirman","distance":0,"transit":false,"i_long":106.822649,"line":1,"station_id":"SUD","time":0,"i_lat":-6.202263},{"time":4,"i_lat":-6.209883,"i_long":106.84912,"line":0,"distance":3186,"station_id":"MRI","is_transit":true,"station_name":"Manggarai","transit":true},{"is_transit":false,"station_id":"CKI","time":4,"station_name":"Cikini","i_long":106.840169,"line":0,"i_lat":-6.198556,"transit":false,"distance":1590},{"time":3,"station_name":"Gondangdia","station_id":"GDD","i_long":106.832183,"transit":false,"is_transit":false,"line":2,"i_lat":-6.186295,"distance":1750},{"station_name":"Juanda","station_id":"JUA","transit":false,"line":2,"i_long":106.828284,"is_transit":false,"i_lat":-6.166716,"distance":2015,"time":4},{"time":2,"i_lat":-6.160725,"i_long":106.827103,"distance":1149,"is_transit":false,"station_name":"Sawah Besar","transit":false,"station_id":"SW","line":2},{"i_long":106.82482,"i_lat":-6.149769,"is_transit":false,"station_name":"Manggabesar","transit":false,"line":2,"station_id":"MGB","distance":906,"time":2},{"is_transit":false,"time":2,"line":7,"transit":false,"i_lat":-6.141205,"station_id":"JAY","distance":1080,"station_name":"Jayakarta","i_long":106.820901},{"is_transit":true,"station_id":"JAKK","transit":true,"distance":1264,"time":4,"station_name":"Jakarta Kota","i_lat":-6.137569,"line":0,"i_long":106.812439},{"station_name":"Kampung Bandan","is_transit":true,"distance":1364,"line":0,"transit":false,"station_id":"KPB","time":3,"i_lat":-6.132549,"i_long":106.826365},{"line":0,"transit":false,"distance":4102,"i_lat":-6.144674,"station_id":"AK","station_name":"Angke","time":9,"is_transit":false,"i_long":106.79867},{"time":4,"station_id":"DU","i_lat":-6.155215,"i_long":106.800832,"is_transit":true,"station_name":"Duri","transit":true,"distance":1230,"line":1},{"is_transit":false,"transit":false,"line":5,"distance":1700,"i_lat":-6.162021,"i_long":106.788277,"station_name":"Grogol","time":3,"station_id":"GGL"},{"distance":2036,"i_lat":-6.161433,"station_name":"Pesing","line":5,"is_transit":false,"time":2,"transit":false,"station_id":"PSG","i_long":106.771379},{"line":5,"distance":1614,"station_id":"TKO","is_transit":false,"time":2,"i_long":106.756522,"i_lat":-6.1587309999999995,"transit":false,"station_name":"Taman Kota"},{"distance":2334,"station_id":"BOI","is_transit":false,"transit":false,"line":0,"i_lat":-6.159876,"i_long":106.737035,"time":2,"station_name":"Bojongindah"},{"line":5,"transit":false,"is_transit":false,"i_lat":-6.162758,"distance":1152,"time":4,"i_long":106.723064,"station_name":"Rawa Buaya","station_id":"RW"},{"transit":false,"station_name":"Kalideres","is_transit":false,"i_long":106.701612,"line":5,"distance":2504,"time":3,"i_lat":-6.166068,"station_id":"KDS"},{"line":5,"station_id":"PI","station_name":"Poris","time":3,"distance":2548,"is_transit":false,"i_lat":-6.169933,"transit":false,"i_long":106.679458}],[{"station_id":"SUD","transit":false,"is_transit":false,"distance":0,"station_name":"Sudirman","i_long":106.822649,"line":1,"i_lat":-6.202263,"time":0},{"station_name":"Manggarai","is_transit":true,"station_id":"MRI","i_lat":-6.209883,"line":0,"time":4,"distance":3186,"transit":false,"i_long":106.84912},{"distance":1275,"transit":false,"is_transit":false,"time":2,"line":1,"station_id":"MTR","i_long":106.858896,"station_name":"Matraman","i_lat":-6.212485},{"distance":1377,"time":8,"i_lat":-6.215091,"line":0,"i_long":106.86807400000001,"station_id":"JNG","is_transit":true,"station_name":"Jatinegara","transit":true},{"station_id":"POK","transit":false,"time":2,"i_long":106.861737,"i_lat":-6.209188,"line":11,"station_name":"Pondok Jati","distance":1236,"is_transit":false},{"line":11,"distance":1829,"time":2,"station_name":"Kramat","i_lat":-6.193792,"is_transit":false,"transit":false,"i_long":106.855437,"station_id":"KMT"},{"i_lat":-6.185975,"station_id":"GST","station_name":"Gang Sentiong","transit":false,"is_transit":false,"distance":973,"time":1,"i_long":106.850107,"line":11},{"i_lat":-6.174784,"time":8,"i_long":106.84368,"is_transit":false,"station_id":"PSE","distance":1567,"station_name":"Pasar Senen","transit":false,"line":11},{"station_name":"Kemayoran","transit":false,"distance":1436,"is_transit":false,"station_id":"KMO","i_long":106.839204,"time":4,"i_lat":-6.161728,"line":11},{"is_transit":false,"distance":1901,"station_id":"RJW","station_name":"Rajawali","transit":false,"time":5,"i_lat":-6.14505,"line":11,"i_long":106.836569},{"distance":1444,"is_transit":true,"line":0,"time":3,"station_id":"KPB","i_lat":-6.132549,"station_name":"Kampung Bandan","transit":true,"i_long":106.826365},{"line":0,"distance":4102,"is_transit":false,"time":9,"i_long":106.79867,"station_id":"AK","station_name":"Angke","transit":false,"i_lat":-6.144674},{"distance":1230,"transit":true,"i_lat":-6.155215,"time":4,"is_transit":true,"i_long":106.800832,"line":1,"station_id":"DU","station_name":"Duri"},{"i_long":106.788277,"is_transit":false,"station_name":"Grogol","transit":false,"station_id":"GGL","time":3,"line":5,"distance":1700,"i_lat":-6.162021},{"is_transit":false,"station_id":"PSG","line":5,"i_lat":-6.161433,"distance":2036,"i_long":106.771379,"station_name":"Pesing","transit":false,"time":2},{"is_transit":false,"station_name":"Taman Kota","time":2,"i_long":106.756522,"line":5,"i_lat":-6.1587309999999995,"station_id":"TKO","distance":1614,"transit":false},{"is_transit":false,"station_name":"Bojongindah","i_lat":-6.159876,"transit":false,"line":0,"station_id":"BOI","distance":2334,"i_long":106.737035,"time":2},{"line":5,"distance":1152,"i_long":106.723064,"time":4,"station_name":"Rawa Buaya","is_transit":false,"transit":false,"i_lat":-6.162758,"station_id":"RW"},{"i_lat":-6.166068,"distance":2504,"is_transit":false,"line":5,"transit":false,"i_long":106.701612,"station_id":"KDS","station_name":"Kalideres","time":3},{"transit":false,"distance":2548,"station_name":"Poris","station_id":"PI","i_long":106.679458,"line":5,"time":3,"is_transit":false,"i_lat":-6.169933}]]}