{"data":[[{"transit":false,"line":1,"station_id":"SUD","station_name":"Sudirman","is_transit":false,"time":0,"distance":0,"i_lat":-6.202263,"i_long":106.822649},{"line":2,"is_transit":false,"time":4,"transit":false,"i_long":106.84912,"station_id":"MRI","distance":3186,"station_name":"Manggarai","i_lat":-6.209883},{"i_long":106.858896,"station_name":"Matraman","station_id":"MTR","distance":1275,"is_transit":false,"line":1,"transit":false,"i_lat":-6.212485,"time":2},{"i_long":106.86807400000001,"station_id":"JNG","time":8,"line":1,"transit":false,"station_name":"Jatinegara","distance":1377,"i_lat":-6.215091,"is_transit":false},{"i_lat":-6.2135,"time":3,"is_transit":false,"station_id":"KLD","i_long":106.899548,"distance":3395,"line":1,"station_name":"Klender","transit":false},{"time":2,"distance":3100,"transit":false,"station_id":"BUA","i_long":106.922662,"line":1,"is_transit":false,"i_lat":-6.215568,"station_name":"Buaran"},{"distance":1305,"transit":false,"is_transit":false,"line":1,"time":1,"station_id":"KLDB","station_name":"Klenderbaru","i_lat":-6.217455,"i_long":106.939679},{"line":1,"is_transit":false,"distance":1385,"station_name":"Cakung","transit":false,"i_long":106.951283,"i_lat":-6.219053,"time":8,"station_id":"CUK"},{"distance":3097,"transit":false,"time":3,"line":1,"station_id":"KRI","station_name":"Kranji","is_transit":false,"i_long":106.977657,"i_lat":-6.224515},{"time":4,"station_id":"BKS","station_name":"Bekasi","distance":2520,"i_lat":-6.236616,"line":1,"transit":false,"i_long":106.997013,"is_transit":false}],[{"station_name":"Sudirman","station_id":"SUD","distance":0,"i_long":106.822649,"line":1,"time":0,"transit":false,"i_lat":-6.202263,"is_transit":false},{"station_id":"SUDB","is_transit":false,"i_lat":-6.201433,"line":1,"distance":280,"i_long":106.819881,"transit":false,"time":1,"station_name":"Sudirman Baru"},{"line":1,"time":1,"is_transit":false,"i_long":106.816351,"station_name":"Karet","distance":471,"transit":false,"station_id":"KAT","i_lat":-6.20132},{"station_name":"Tanah Abang","distance":2029,"i_lat":-6.185545,"is_transit":false,"time":5,"i_long":106.811091,"line":1,"transit":false,"station_id":"THB"},{"distance":3632,"i_long":106.800832,"transit":false,"station_name":"Duri","time":8,"line":1,"is_transit":false,"i_lat":-6.155215,"station_id":"DU"},{"i_lat":-6.144674,"i_long":106.79867,"station_id":"AK","is_transit":false,"distance":1230,"station_name":"Angke","transit":false,"time":4,"line":1},{"distance":4102,"station_name":"Kampung Bandan","time":9,"is_transit":true,"line":4,"i_lat":-6.132549,"transit":true,"station_id":"KPB","i_long":106.826365},{"line":11,"i_long":106.836569,"station_id":"RJW","transit":false,"is_transit":false,"station_name":"Rajawali","distance":1444,"time":3,"i_lat":-6.14505},{"line":11,"station_name":"Kemayoran","i_lat":-6.161728,"distance":1901,"is_transit":false,"station_id":"KMO","time":5,"i_long":106.839204,"transit":false},{"line":11,"station_name":"Pasar Senen","is_transit":false,"station_id":"PSE","time":4,"distance":1436,"i_lat":-6.174784,"transit":false,"i_long":106.84368},{"i_long":106.850107,"distance":1567,"station_id":"GST","line":11,"time":8,"is_transit":false,"i_lat":-6.185975,"station_name":"Gang Sentiong","transit":false},{"station_name":"Kramat","transit":false,"station_id":"KMT","is_transit":false,"time":1,"distance":973,"i_lat":-6.193792,"i_long":106.855437,"line":11},{"line":11,"is_transit":false,"distance":1829,"i_lat":-6.209188,"station_id":"POK","station_name":"Pondok Jati","i_long":106.861737,"time":2,"transit":false},{"distance":1236,"line":1,"station_name":"Jatinegara","i_long":106.86807400000001,"is_transit":true,"station_id":"JNG","time":9,"transit":true,"i_lat":-6.215091},{"distance":3395,"transit":false,"station_id":"KLD","station_name":"Klender","i_lat":-6.2135,"i_long":106.899548,"line":1,"is_transit":false,"time":3},{"station_name":"Buaran","is_transit":false,"station_id":"BUA","line":1,"transit":false,"i_long":106.922662,"time":2,"distance":3100,"i_lat":-6.215568},{"i_lat":-6.217455,"transit":false,"line":1,"station_name":"Klenderbaru","is_transit":false,"time":1,"distance":1305,"i_long":106.939679,"station_id":"KLDB"},{"line":1,"time":8,"i_long":106.951283,"is_transit":false,"distance":1385,"station_id":"CUK","transit":false,"station_name":"Cakung","i_lat":-6.219053},{"transit":false,"station_name":"Kranji","i_long":106.977657,"time":3,"is_transit":false,"station_id":"KRI","distance":3097,"line":1,"i_lat":-6.224515},{"station_id":"BKS","i_lat":-6.236616,"i_long":106.997013,"line":1,"distance":2520,"time":4,"station_name":"Bekasi","is_transit":false,"transit":false}],[{"distance":0,"time":0,"station_id":"SUD","is_transit":false,"line":1,"station_name":"Sudirman","transit":false,"i_long":106.822649,"i_lat":-6.202263},{"i_long":106.819881,"is_transit":false,"station_id":"SUDB","i_lat":-6.201433,"transit":false,"distance":280,"time":1,"line":1,"station_name":"Sudirman Baru"},{"line":1,"is_transit":false,"station_name":"Karet","station_id":"KAT","distance":471,"i_long":106.816351,"transit":false,"time":1,"i_lat":-6.20132},{"distance":2029,"station_name":"Tanah Abang","transit":false,"is_transit":false,"i_lat":-6.185545,"time":5,"station_id":"THB","i_long":106.811091,"line":1},{"time":8,"is_transit":false,"i_long":106.800832,"transit":false,"station_id":"DU","i_lat":-6.155215,"line":1,"distance":3632,"station_name":"Duri"},{"is_transit":false,"i_lat":-6.144674,"station_id":"AK","distance":1230,"station_name":"Angke","time":4,"line":1,"i_long":106.79867,"transit":false},{"station_name":"Kampung Bandan","line":4,"i_lat":-6.132549,"is_transit":true,"transit":true,"station_id":"KPB","distance":4102,"time":9,"i_long":106.826365},{"line":2,"i_long":106.812439,"is_transit":true,"transit":true,"distance":1364,"time":3,"i_lat":-6.137569,"station_name":"Jakarta Kota","station_id":"JAKK"},{"distance":1264,"station_name":"Jayakarta","station_id":"JAY","is_transit":false,"i_lat":-6.141205,"i_long":106.820901,"line":2,"time":4,"transit":false},{"is_transit":false,"station_id":"MGB","time":2,"distance":1080,"line":2,"station_name":"Manggabesar","i_lat":-6.149769,"i_long":106.82482,"transit":false},{"i_long":106.827103,"distance":906,"line":2,"is_transit":false,"transit":false,"i_lat":-6.160725,"time":2,"station_name":"Sawah Besar","station_id":"SW"},{"time":2,"line":2,"transit":false,"station_name":"Juanda","i_lat":-6.166716,"is_transit":false,"station_id":"JUA","i_long":106.828284,"distance":1149},{"station_id":"GDD","station_name":"Gondangdia","i_long":106.832183,"is_transit":false,"transit":false,"i_lat":-6.186295,"time":4,"line":2,"distance":2015},{"station_name":"Cikini","transit":false,"station_id":"CKI","is_transit":false,"time":3,"i_long":106.840169,"i_lat":-6.198556,"line":2,"distance":1750},{"station_id":"MRI","transit":true,"is_transit":true,"i_lat":-6.209883,"i_long":106.84912,"line":2,"time":4,"station_name":"Manggarai","distance":1590},{"i_long":106.858896,"distance":1275,"line":1,"time":2,"station_name":"Matraman","i_lat":-6.212485,"is_transit":false,"transit":false,"station_id":"MTR"},{"line":1,"i_lat":-6.215091,"transit":false,"station_id":"JNG","i_long":106.86807400000001,"distance":1377,"time":8,"is_transit":false,"station_name":"Jatinegara"},{"distance":3395,"is_transit":false,"station_name":"Klender","transit":false,"station_id":"KLD","i_lat":-6.2135,"time":3,"i_long":106.899548,"line":1},{"i_long":106.922662,"time":2,"distance":3100,"is_transit":false,"station_name":"Buaran","station_id":"BUA","transit":false,"i_lat":-6.215568,"line":1},{"i_lat":-6.217455,"station_id":"KLDB","i_long":106.939679,"transit":false,"distance":1305,"station_name":"Klenderbaru","time":1,"line":1,"is_transit":false},{"line":1,"transit":false,"distance":1385,"station_name":"Cakung","station_id":"CUK","i_lat":-6.219053,"time":8,"is_transit":false,"i_long":106.951283},{"station_id":"KRI","i_long":106.977657,"transit":false,"line":1,"distance":3097,"i_lat":-6.224515,"is_transit":false,"time":3,"station_name":"Kranji"},{"time":4,"i_long":106.997013,"is_transit":false,"station_name":"Bekasi","station_id":"BKS","i_lat":-6.236616,"transit":false,"distance":2520,"line":1}],[{"station_id":"SUD","i_long":106.822649,"station_name":"Sudirman","is_transit":false,"transit":false,"line":1,"distance":0,"i_lat":-6.202263,"time":0},{"time":4,"transit":true,"station_name":"Manggarai","distance":3186,"i_long":106.84912,"line":2,"station_id":"MRI","i_lat":-6.209883,"is_transit":true},{"i_long":106.840169,"station_id":"CKI","transit":false,"is_transit":false,"line":2,"distance":1590,"i_lat":-6.198556,"station_name":"Cikini","time":4},{"distance":1750,"station_id":"GDD","i_lat":-6.186295,"i_long":106.832183,"is_transit":false,"transit":false,"station_name":"Gondangdia","line":2,"time":3},{"line":2,"is_transit":false,"i_long":106.828284,"time":4,"station_id":"JUA","transit":false,"i_lat":-6.166716,"distance":2015,"station_name":"Juanda"},{"i_lat":-6.160725,"time":2,"station_name":"Sawah Besar","is_transit":false,"transit":false,"line":2,"station_id":"SW","distance":1149,"i_long":106.827103},{"time":2,"distance":906,"is_transit":false,"station_id":"MGB","i_lat":-6.149769,"station_name":"Manggabesar","transit":false,"i_long":106.82482,"line":2},{"transit":false,"i_long":106.820901,"line":2,"is_transit":false,"time":2,"distance":1080,"station_name":"Jayakarta","station_id":"JAY","i_lat":-6.141205},{"i_long":106.812439,"transit":true,"distance":1264,"station_name":"Jakarta Kota","time":4,"i_lat":-6.137569,"station_id":"JAKK","is_transit":true,"line":2},{"i_long":106.826365,"transit":true,"distance":1364,"station_id":"KPB","line":4,"station_name":"Kampung Bandan","is_transit":true,"time":3,"i_lat":-6.132549},{"is_transit":false,"transit":false,"i_long":106.836569,"distance":1444,"i_lat":-6.14505,"line":11,"time":3,"station_id":"RJW","station_name":"Rajawali"},{"distance":1901,"transit":false,"time":5,"station_name":"Kemayoran","line":11,"i_lat":-6.161728,"is_transit":false,"i_long":106.839204,"station_id":"KMO"},{"i_lat":-6.174784,"i_long":106.84368,"station_name":"Pasar Senen","is_transit":false,"time":4,"line":11,"distance":1436,"transit":false,"station_id":"PSE"},{"station_id":"GST","is_transit":false,"time":8,"i_long":106.850107,"transit":false,"distance":1567,"i_lat":-6.185975,"line":11,"station_name":"Gang Sentiong"},{"line":11,"station_id":"KMT","is_transit":false,"i_lat":-6.193792,"time":1,"i_long":106.855437,"distance":973,"transit":false,"station_name":"Kramat"},{"distance":1829,"station_name":"Pondok Jati","is_transit":false,"i_long":106.861737,"time":2,"i_lat":-6.209188,"transit":false,"line":11,"station_id":"POK"},{"transit":true,"line":1,"i_lat":-6.215091,"i_long":106.86807400000001,"station_id":"JNG","is_transit":true,"distance":1236,"time":9,"station_name":"Jatinegara"},{"is_transit":false,"distance":3395,"station_id":"KLD","transit":false,"i_lat":-6.2135,"time":3,"i_long":106.899548,"line":1,"station_name":"Klender"},{"i_lat":-6.215568,"time":2,"is_transit":false,"transit":false,"station_name":"Buaran","distance":3100,"line":1,"i_long":106.922662,"station_id":"BUA"},{"i_lat":-6.217455,"time":1,"station_id":"KLDB","is_transit":false,"line":1,"i_long":106.939679,"transit":false,"distance":1305,"station_name":"Klenderbaru"},{"station_name":"Cakung","transit":false,"station_id":"CUK","distance":1385,"is_transit":false,"time":8,"i_lat":-6.219053,"i_long":106.951283,"line":1},{"distance":3097,"transit":false,"time":3,"line":1,"station_id":"KRI","is_transit":false,"i_lat":-6.224515,"i_long":106.977657,"station_name":"Kranji"},{"i_long":106.997013,"time":4,"i_lat":-6.236616,"line":1,"station_name":"Bekasi","transit":false,"station_id":"BKS","is_transit":false,"distance":2520}]]}