{"data":[[{"distance":0,"line":1,"is_transit":false,"time":0,"station_name":"Sudirman","i_lat":-6.202263,"i_long":106.822649,"transit":false,"station_id":"SUD"},{"is_transit":true,"station_id":"MRI","i_long":106.84912,"i_lat":-6.209883,"distance":3186,"station_name":"Manggarai","line":2,"transit":true,"time":4},{"line":2,"station_id":"TEB","distance":2610,"transit":false,"station_name":"Tebet","i_long":106.857948,"is_transit":false,"i_lat":-6.226659,"time":4},{"is_transit":false,"distance":1230,"i_lat":-6.242512,"station_name":"Cawang","line":2,"station_id":"CW","time":2,"i_long":106.856607,"transit":false},{"time":3,"station_id":"DRN","distance":1546,"transit":false,"is_transit":false,"i_lat":-6.255332,"i_long":106.85449,"line":2,"station_name":"Duren Kalibata"},{"i_lat":-6.263214,"is_transit":false,"station_name":"Pasar Minggu Baru","distance":824,"time":2,"i_long":106.851577,"station_id":"PSMB","line":2,"transit":false},{"distance":2380,"time":2,"station_id":"PSM","station_name":"Pasar Minggu","i_lat":-6.2842400000000005,"transit":false,"i_long":106.843999,"line":2,"is_transit":false},{"distance":2820,"line":2,"time":4,"station_id":"TNT","i_lat":-6.3080680000000005,"transit":false,"station_name":"Tanjung Barat","is_transit":false,"i_long":106.838896},{"time":3,"line":2,"is_transit":false,"i_lat":-6.330363,"station_id":"LNA","station_name":"Lenteng Agung","transit":false,"i_long":106.832616,"distance":2671},{"i_lat":-6.339291,"distance":1029,"i_long":106.834175,"time":2,"station_name":"Univ. Pancasila","is_transit":false,"transit":false,"station_id":"UP","line":2},{"i_lat":-6.360749,"distance":2264,"station_name":"Univ. Indonesia","is_transit":false,"i_long":106.831474,"station_id":"UI","transit":false,"time":3,"line":2},{"i_lat":-6.369073,"station_id":"POC","transit":false,"distance":1109,"is_transit":false,"station_name":"Pondok Cina","time":2,"i_long":106.831114,"line":2},{"transit":false,"distance":2727,"is_transit":false,"i_long":106.819451,"time":4,"line":2,"i_lat":-6.391065,"station_name":"Depokbaru","station_id":"DPB"},{"distance":1584,"time":3,"is_transit":false,"i_long":106.816926,"station_name":"Depok","i_lat":-6.405256,"line":2,"station_id":"DP","transit":false}],[{"station_name":"Sudirman","station_id":"SUD","is_transit":false,"i_long":106.822649,"line":1,"distance":0,"transit":false,"i_lat":-6.202263,"time":0},{"distance":280,"is_transit":false,"time":1,"transit":false,"i_lat":-6.201433,"i_long":106.819881,"station_id":"SUDB","station_name":"Sudirman Baru","line":1},{"distance":471,"time":1,"station_id":"KAT","station_name":"Karet","is_transit":false,"i_lat":-6.20132,"i_long":106.816351,"line":1,"transit":false},{"transit":false,"i_lat":-6.185545,"station_id":"THB","i_long":106.811091,"time":5,"is_transit":false,"distance":2029,"line":1,"station_name":"Tanah Abang"},{"station_id":"DU","station_name":"Duri","line":1,"i_long":106.800832,"distance":3632,"time":8,"i_lat":-6.155215,"is_transit":false,"transit":false},{"station_id":"AK","i_lat":-6.144674,"is_transit":false,"line":1,"transit":false,"distance":1230,"time":4,"i_long":106.79867,"station_name":"Angke"},{"line":4,"station_id":"KPB","transit":true,"time":9,"is_transit":true,"distance":4102,"i_lat":-6.132549,"station_name":"Kampung Bandan","i_long":106.826365},{"station_id":"JAKK","transit":true,"i_lat":-6.137569,"station_name":"Jakarta Kota","i_long":106.812439,"is_transit":true,"distance":1364,"time":3,"line":2},{"station_name":"Jayakarta","line":2,"i_lat":-6.141205,"time":4,"is_transit":false,"station_id":"JAY","i_long":106.820901,"distance":1264,"transit":false},{"station_id":"MGB","transit":false,"i_long":106.82482,"is_transit":false,"i_lat":-6.149769,"station_name":"Manggabesar","time":2,"line":2,"distance":1080},{"line":2,"time":2,"station_name":"Sawah Besar","station_id":"SW","is_transit":false,"transit":false,"i_lat":-6.160725,"i_long":106.827103,"distance":906},{"time":2,"distance":1149,"transit":false,"station_id":"JUA","station_name":"Juanda","i_lat":-6.166716,"i_long":106.828284,"is_transit":false,"line":2},{"station_name":"Gondangdia","distance":2015,"station_id":"GDD","i_lat":-6.186295,"i_long":106.832183,"is_transit":false,"line":2,"time":4,"transit":false},{"i_lat":-6.198556,"is_transit":false,"station_id":"CKI","transit":false,"distance":1750,"time":3,"i_long":106.840169,"line":2,"station_name":"Cikini"},{"station_id":"MRI","i_lat":-6.209883,"transit":false,"time":4,"distance":1590,"station_name":"Manggarai","i_long":106.84912,"is_transit":false,"line":2},{"time":4,"transit":false,"station_id":"TEB","is_transit":false,"station_name":"Tebet","i_long":106.857948,"distance":2610,"i_lat":-6.226659,"line":2},{"i_lat":-6.242512,"station_id":"CW","is_transit":false,"station_name":"Cawang","distance":1230,"transit":false,"line":2,"time":2,"i_long":106.856607},{"distance":1546,"is_transit":false,"line":2,"i_long":106.85449,"station_id":"DRN","i_lat":-6.255332,"station_name":"Duren Kalibata","transit":false,"time":3},{"distance":824,"time":2,"i_long":106.851577,"transit":false,"station_name":"Pasar Minggu Baru","i_lat":-6.263214,"line":2,"is_transit":false,"station_id":"PSMB"},{"i_long":106.843999,"station_name":"Pasar Minggu","is_transit":false,"line":2,"time":2,"distance":2380,"station_id":"PSM","transit":false,"i_lat":-6.2842400000000005},{"i_long":106.838896,"is_transit":false,"line":2,"station_id":"TNT","time":4,"station_name":"Tanjung Barat","i_lat":-6.3080680000000005,"transit":false,"distance":2820},{"line":2,"is_transit":false,"transit":false,"distance":2671,"station_id":"LNA","i_long":106.832616,"time":3,"station_name":"Lenteng Agung","i_lat":-6.330363},{"station_name":"Univ. Pancasila","i_lat":-6.339291,"time":2,"transit":false,"i_long":106.834175,"is_transit":false,"distance":1029,"station_id":"UP","line":2},{"i_lat":-6.360749,"station_id":"UI","station_name":"Univ. Indonesia","line":2,"transit":false,"distance":2264,"i_long":106.831474,"time":3,"is_transit":false},{"i_long":106.831114,"station_id":"POC","i_lat":-6.369073,"is_transit":false,"transit":false,"station_name":"Pondok Cina","line":2,"time":2,"distance":1109},{"line":2,"is_transit":false,"distance":2727,"time":4,"transit":false,"station_name":"Depokbaru","station_id":"DPB","i_long":106.819451,"i_lat":-6.391065},{"station_id":"DP","transit":false,"distance":1584,"time":3,"i_lat":-6.405256,"i_long":106.816926,"is_transit":false,"station_name":"Depok","line":2}],[{"station_id":"SUD","time":0,"i_long":106.822649,"transit":false,"station_name":"Sudirman","is_transit":false,"i_lat":-6.202263,"distance":0,"line":1},{"station_name":"Sudirman Baru","time":1,"is_transit":false,"distance":280,"station_id":"SUDB","transit":false,"i_long":106.819881,"line":1,"i_lat":-6.201433},{"distance":471,"is_transit":false,"i_long":106.816351,"station_id":"KAT","time":1,"station_name":"Karet","transit":false,"i_lat":-6.20132,"line":1},{"time":5,"i_lat":-6.185545,"station_id":"THB","station_name":"Tanah Abang","line":1,"transit":false,"is_transit":false,"distance":2029,"i_long":106.811091},{"is_transit":false,"station_name":"Duri","line":1,"station_id":"DU","i_lat":-6.155215,"distance":3632,"transit":false,"time":8,"i_long":106.800832},{"i_lat":-6.144674,"time":4,"station_name":"Angke","is_transit":false,"transit":false,"distance":1230,"station_id":"AK","line":1,"i_long":106.79867},{"is_transit":true,"time":9,"station_name":"Kampung Bandan","transit":true,"distance":4102,"i_long":106.826365,"line":4,"i_lat":-6.132549,"station_id":"KPB"},{"time":3,"transit":false,"distance":1444,"is_transit":false,"i_lat":-6.14505,"i_long":106.836569,"station_id":"RJW","station_name":"Rajawali","line":11},{"i_long":106.839204,"line":11,"transit":false,"time":5,"i_lat":-6.161728,"distance":1901,"is_transit":false,"station_id":"KMO","station_name":"Kemayoran"},{"transit":false,"distance":1436,"station_name":"Pasar Senen","is_transit":false,"i_lat":-6.174784,"i_long":106.84368,"station_id":"PSE","time":4,"line":11},{"i_lat":-6.185975,"is_transit":false,"distance":1567,"station_id":"GST","time":8,"i_long":106.850107,"line":11,"transit":false,"station_name":"Gang Sentiong"},{"station_id":"KMT","distance":973,"line":11,"station_name":"Kramat","i_lat":-6.193792,"i_long":106.855437,"transit":false,"is_transit":false,"time":1},{"line":11,"is_transit":false,"station_id":"POK","transit":false,"distance":1829,"i_long":106.861737,"station_name":"Pondok Jati","i_lat":-6.209188,"time":2},{"distance":1236,"transit":true,"i_lat":-6.215091,"station_name":"Jatinegara","line":1,"time":9,"station_id":"JNG","is_transit":true,"i_long":106.86807400000001},{"is_transit":false,"distance":1377,"i_lat":-6.212485,"i_long":106.858896,"station_id":"MTR","time":2,"station_name":"Matraman","transit":false,"line":1},{"time":2,"distance":1275,"i_long":106.84912,"station_id":"MRI","station_name":"Manggarai","is_transit":true,"i_lat":-6.209883,"line":2,"transit":true},{"i_lat":-6.226659,"is_transit":false,"line":2,"i_long":106.857948,"time":4,"distance":2610,"transit":false,"station_id":"TEB","station_name":"Tebet"},{"station_name":"Cawang","i_lat":-6.242512,"transit":false,"distance":1230,"i_long":106.856607,"line":2,"time":2,"station_id":"CW","is_transit":false},{"time":3,"station_id":"DRN","i_long":106.85449,"line":2,"i_lat":-6.255332,"transit":false,"station_name":"Duren Kalibata","is_transit":false,"distance":1546},{"transit":false,"line":2,"is_transit":false,"station_id":"PSMB","station_name":"Pasar Minggu Baru","distance":824,"i_lat":-6.263214,"time":2,"i_long":106.851577},{"distance":2380,"transit":false,"station_name":"Pasar Minggu","i_long":106.843999,"i_lat":-6.2842400000000005,"station_id":"PSM","time":2,"line":2,"is_transit":false},{"transit":false,"station_name":"Tanjung Barat","time":4,"i_lat":-6.3080680000000005,"i_long":106.838896,"distance":2820,"station_id":"TNT","line":2,"is_transit":false},{"station_id":"LNA","time":3,"i_long":106.832616,"transit":false,"distance":2671,"station_name":"Lenteng Agung","is_transit":false,"line":2,"i_lat":-6.330363},{"is_transit":false,"station_id":"UP","i_lat":-6.339291,"transit":false,"line":2,"time":2,"i_long":106.834175,"distance":1029,"station_name":"Univ. Pancasila"},{"station_id":"UI","station_name":"Univ. Indonesia","i_lat":-6.360749,"time":3,"transit":false,"line":2,"is_transit":false,"distance":2264,"i_long":106.831474},{"transit":false,"distance":1109,"station_name":"Pondok Cina","i_long":106.831114,"station_id":"POC","is_transit":false,"time":2,"line":2,"i_lat":-6.369073},{"station_id":"DPB","distance":2727,"station_name":"Depokbaru","line":2,"time":4,"is_transit":false,"transit":false,"i_long":106.819451,"i_lat":-6.391065},{"transit":false,"is_transit":false,"distance":1584,"time":3,"station_name":"Depok","i_lat":-6.405256,"i_long":106.816926,"line":2,"station_id":"DP"}]]}