{"data":[[{"station_id":"SUD","i_lat":-6.202263,"time":0,"line":1,"station_name":"Sudirman","is_transit":false,"transit":false,"distance":0,"i_long":106.822649},{"i_lat":-6.209883,"station_name":"Manggarai","i_long":106.84912,"is_transit":false,"transit":false,"station_id":"MRI","line":2,"distance":3186,"time":4},{"is_transit":false,"time":2,"station_name":"Matraman","i_lat":-6.212485,"i_long":106.858896,"station_id":"MTR","line":1,"distance":1275,"transit":false},{"station_name":"Jatinegara","time":8,"distance":1377,"station_id":"JNG","transit":false,"i_lat":-6.215091,"i_long":106.86807400000001,"is_transit":false,"line":1},{"station_id":"KLD","station_name":"Klender","line":1,"is_transit":false,"i_lat":-6.2135,"transit":false,"distance":3395,"i_long":106.899548,"time":3},{"is_transit":false,"time":2,"i_long":106.922662,"line":1,"station_id":"BUA","distance":3100,"i_lat":-6.215568,"station_name":"Buaran","transit":false},{"transit":false,"is_transit":false,"time":1,"distance":1305,"i_lat":-6.217455,"i_long":106.939679,"line":1,"station_id":"KLDB","station_name":"Klenderbaru"},{"station_id":"CUK","i_long":106.951283,"i_lat":-6.219053,"is_transit":false,"distance":1385,"station_name":"Cakung","line":1,"time":8,"transit":false}],[{"time":0,"station_name":"Sudirman","distance":0,"is_transit":false,"i_long":106.822649,"transit":false,"line":1,"station_id":"SUD","i_lat":-6.202263},{"time":1,"transit":false,"station_name":"Sudirman Baru","station_id":"SUDB","i_long":106.819881,"line":1,"distance":280,"is_transit":false,"i_lat":-6.201433},{"i_lat":-6.20132,"distance":471,"transit":false,"i_long":106.816351,"station_id":"KAT","line":1,"time":1,"station_name":"Karet","is_transit":false},{"i_long":106.811091,"station_name":"Tanah Abang","line":1,"is_transit":false,"transit":false,"station_id":"THB","i_lat":-6.185545,"time":5,"distance":2029},{"line":1,"transit":false,"station_name":"Duri","i_lat":-6.155215,"distance":3632,"i_long":106.800832,"station_id":"DU","is_transit":false,"time":8},{"distance":1230,"station_id":"AK","is_transit":false,"i_long":106.79867,"time":4,"transit":false,"line":1,"i_lat":-6.144674,"station_name":"Angke"},{"distance":4102,"transit":true,"station_name":"Kampung Bandan","time":9,"is_transit":true,"i_lat":-6.132549,"i_long":106.826365,"line":4,"station_id":"KPB"},{"is_transit":false,"time":3,"transit":false,"station_id":"RJW","i_long":106.836569,"station_name":"Rajawali","distance":1444,"i_lat":-6.14505,"line":11},{"i_long":106.839204,"station_name":"Kemayoran","station_id":"KMO","distance":1901,"i_lat":-6.161728,"line":11,"time":5,"transit":false,"is_transit":false},{"transit":false,"station_name":"Pasar Senen","is_transit":false,"i_long":106.84368,"distance":1436,"time":4,"i_lat":-6.174784,"line":11,"station_id":"PSE"},{"line":11,"i_long":106.850107,"time":8,"distance":1567,"is_transit":false,"i_lat":-6.185975,"station_name":"Gang Sentiong","station_id":"GST","transit":false},{"i_long":106.855437,"station_id":"KMT","distance":973,"line":11,"is_transit":false,"transit":false,"station_name":"Kramat","time":1,"i_lat":-6.193792},{"is_transit":false,"time":2,"station_name":"Pondok Jati","station_id":"POK","i_lat":-6.209188,"line":11,"transit":false,"distance":1829,"i_long":106.861737},{"distance":1236,"station_name":"Jatinegara","i_lat":-6.215091,"transit":true,"station_id":"JNG","is_transit":true,"line":1,"i_long":106.86807400000001,"time":9},{"station_name":"Klender","time":3,"i_long":106.899548,"line":1,"station_id":"KLD","i_lat":-6.2135,"transit":false,"is_transit":false,"distance":3395},{"i_long":106.922662,"time":2,"transit":false,"i_lat":-6.215568,"station_id":"BUA","is_transit":false,"station_name":"Buaran","line":1,"distance":3100},{"line":1,"distance":1305,"station_name":"Klenderbaru","station_id":"KLDB","transit":false,"i_long":106.939679,"is_transit":false,"time":1,"i_lat":-6.217455},{"station_name":"Cakung","is_transit":false,"distance":1385,"transit":false,"time":8,"i_long":106.951283,"station_id":"CUK","i_lat":-6.219053,"line":1}],[{"transit":false,"station_id":"SUD","line":1,"station_name":"Sudirman","i_lat":-6.202263,"is_transit":false,"i_long":106.822649,"time":0,"distance":0},{"is_transit":false,"time":1,"distance":280,"transit":false,"station_name":"Sudirman Baru","i_lat":-6.201433,"line":1,"station_id":"SUDB","i_long":106.819881},{"distance":471,"station_id":"KAT","i_lat":-6.20132,"i_long":106.816351,"line":1,"time":1,"transit":false,"station_name":"Karet","is_transit":false},{"station_name":"Tanah Abang","time":5,"i_long":106.811091,"line":1,"i_lat":-6.185545,"distance":2029,"transit":false,"station_id":"THB","is_transit":false},{"line":1,"station_id":"DU","i_long":106.800832,"transit":false,"time":8,"is_transit":false,"distance":3632,"i_lat":-6.155215,"station_name":"Duri"},{"distance":1230,"station_id":"AK","line":1,"is_transit":false,"i_long":106.79867,"transit":false,"time":4,"i_lat":-6.144674,"station_name":"Angke"},{"station_name":"Kampung Bandan","station_id":"KPB","time":9,"i_long":106.826365,"distance":4102,"transit":true,"i_lat":-6.132549,"is_transit":true,"line":4},{"distance":1364,"transit":true,"i_lat":-6.137569,"i_long":106.812439,"line":2,"time":3,"is_transit":true,"station_id":"JAKK","station_name":"Jakarta Kota"},{"distance":1264,"i_lat":-6.141205,"time":4,"station_id":"JAY","is_transit":false,"transit":false,"station_name":"Jayakarta","line":2,"i_long":106.820901},{"line":2,"distance":1080,"station_name":"Manggabesar","i_long":106.82482,"station_id":"MGB","transit":false,"i_lat":-6.149769,"is_transit":false,"time":2},{"transit":false,"station_name":"Sawah Besar","station_id":"SW","time":2,"distance":906,"i_lat":-6.160725,"i_long":106.827103,"line":2,"is_transit":false},{"station_id":"JUA","transit":false,"is_transit":false,"station_name":"Juanda","time":2,"i_long":106.828284,"line":2,"distance":1149,"i_lat":-6.166716},{"time":4,"transit":false,"i_lat":-6.186295,"station_id":"GDD","distance":2015,"i_long":106.832183,"is_transit":false,"line":2,"station_name":"Gondangdia"},{"line":2,"station_id":"CKI","station_name":"Cikini","i_long":106.840169,"distance":1750,"transit":false,"time":3,"i_lat":-6.198556,"is_transit":false},{"i_long":106.84912,"station_id":"MRI","distance":1590,"i_lat":-6.209883,"line":2,"station_name":"Manggarai","time":4,"transit":true,"is_transit":true},{"station_name":"Matraman","is_transit":false,"distance":1275,"station_id":"MTR","i_lat":-6.212485,"time":2,"line":1,"i_long":106.858896,"transit":false},{"station_id":"JNG","distance":1377,"i_lat":-6.215091,"i_long":106.86807400000001,"station_name":"Jatinegara","line":1,"is_transit":false,"time":8,"transit":false},{"station_name":"Klender","i_lat":-6.2135,"i_long":106.899548,"distance":3395,"station_id":"KLD","time":3,"transit":false,"is_transit":false,"line":1},{"is_transit":false,"i_lat":-6.215568,"line":1,"station_id":"BUA","transit":false,"time":2,"i_long":106.922662,"distance":3100,"station_name":"Buaran"},{"station_name":"Klenderbaru","station_id":"KLDB","time":1,"transit":false,"distance":1305,"i_lat":-6.217455,"line":1,"is_transit":false,"i_long":106.939679},{"i_lat":-6.219053,"station_id":"CUK","transit":false,"station_name":"Cakung","is_transit":false,"time":8,"distance":1385,"line":1,"i_long":106.951283}],[{"i_long":106.822649,"is_transit":false,"line":1,"station_id":"SUD","i_lat":-6.202263,"station_name":"Sudirman","time":0,"transit":false,"distance":0},{"station_name":"Manggarai","time":4,"line":2,"transit":true,"is_transit":true,"station_id":"MRI","distance":3186,"i_lat":-6.209883,"i_long":106.84912},{"i_long":106.840169,"line":2,"is_transit":false,"transit":false,"station_id":"CKI","i_lat":-6.198556,"station_name":"Cikini","distance":1590,"time":4},{"station_id":"GDD","i_lat":-6.186295,"is_transit":false,"time":3,"transit":false,"i_long":106.832183,"distance":1750,"station_name":"Gondangdia","line":2},{"line":2,"transit":false,"station_name":"Juanda","station_id":"JUA","is_transit":false,"distance":2015,"i_lat":-6.166716,"time":4,"i_long":106.828284},{"i_long":106.827103,"transit":false,"distance":1149,"line":2,"is_transit":false,"station_id":"SW","station_name":"Sawah Besar","time":2,"i_lat":-6.160725},{"i_long":106.82482,"transit":false,"time":2,"station_name":"Manggabesar","line":2,"station_id":"MGB","i_lat":-6.149769,"is_transit":false,"distance":906},{"distance":1080,"i_long":106.820901,"transit":false,"is_transit":false,"i_lat":-6.141205,"time":2,"line":2,"station_name":"Jayakarta","station_id":"JAY"},{"line":2,"i_long":106.812439,"transit":true,"i_lat":-6.137569,"station_name":"Jakarta Kota","station_id":"JAKK","time":4,"is_transit":true,"distance":1264},{"line":4,"distance":1364,"station_id":"KPB","time":3,"i_long":106.826365,"station_name":"Kampung Bandan","is_transit":true,"transit":true,"i_lat":-6.132549},{"line":11,"transit":false,"station_id":"RJW","i_lat":-6.14505,"is_transit":false,"station_name":"Rajawali","distance":1444,"i_long":106.836569,"time":3},{"i_long":106.839204,"line":11,"time":5,"distance":1901,"transit":false,"is_transit":false,"station_name":"Kemayoran","i_lat":-6.161728,"station_id":"KMO"},{"station_name":"Pasar Senen","i_long":106.84368,"transit":false,"distance":1436,"station_id":"PSE","time":4,"is_transit":false,"i_lat":-6.174784,"line":11},{"is_transit":false,"time":8,"i_lat":-6.185975,"distance":1567,"transit":false,"station_id":"GST","station_name":"Gang Sentiong","line":11,"i_long":106.850107},{"station_name":"Kramat","distance":973,"is_transit":false,"time":1,"i_lat":-6.193792,"transit":false,"station_id":"KMT","i_long":106.855437,"line":11},{"i_long":106.861737,"i_lat":-6.209188,"station_id":"POK","station_name":"Pondok Jati","is_transit":false,"line":11,"transit":false,"distance":1829,"time":2},{"distance":1236,"transit":true,"time":9,"line":1,"station_name":"Jatinegara","is_transit":true,"station_id":"JNG","i_lat":-6.215091,"i_long":106.86807400000001},{"i_long":106.899548,"transit":false,"distance":3395,"station_name":"Klender","i_lat":-6.2135,"is_transit":false,"time":3,"station_id":"KLD","line":1},{"station_name":"Buaran","transit":false,"is_transit":false,"time":2,"i_lat":-6.215568,"line":1,"i_long":106.922662,"station_id":"BUA","distance":3100},{"time":1,"is_transit":false,"distance":1305,"station_id":"KLDB","i_lat":-6.217455,"station_name":"Klenderbaru","i_long":106.939679,"line":1,"transit":false},{"station_name":"Cakung","station_id":"CUK","i_lat":-6.219053,"time":8,"transit":false,"distance":1385,"i_long":106.951283,"line":1,"is_transit":false}]]}