{"data":[[{"i_lat":-6.202263,"i_long":106.822649,"time":0,"transit":false,"is_transit":false,"station_id":"SUD","line":1,"distance":0,"station_name":"Sudirman"},{"line":2,"distance":3186,"station_id":"MRI","is_transit":false,"time":4,"transit":false,"station_name":"Manggarai","i_lat":-6.209883,"i_long":106.84912},{"time":2,"i_lat":-6.212485,"station_id":"MTR","is_transit":false,"i_long":106.858896,"transit":false,"station_name":"Matraman","distance":1275,"line":1},{"time":8,"transit":true,"station_id":"JNG","line":1,"is_transit":true,"station_name":"Jatinegara","i_lat":-6.215091,"distance":1377,"i_long":106.86807400000001},{"time":2,"is_transit":false,"line":11,"distance":1236,"station_name":"Pondok Jati","transit":false,"station_id":"POK","i_long":106.861737,"i_lat":-6.209188},{"transit":false,"station_name":"Kramat","line":11,"station_id":"KMT","is_transit":false,"i_long":106.855437,"time":2,"distance":1829,"i_lat":-6.193792},{"line":11,"time":1,"is_transit":false,"i_long":106.850107,"transit":false,"distance":973,"station_name":"Gang Sentiong","i_lat":-6.185975,"station_id":"GST"},{"distance":1567,"is_transit":false,"line":11,"station_name":"Pasar Senen","i_lat":-6.174784,"transit":false,"i_long":106.84368,"station_id":"PSE","time":8}],[{"station_id":"SUD","is_transit":false,"station_name":"Sudirman","line":1,"i_long":106.822649,"i_lat":-6.202263,"transit":false,"distance":0,"time":0},{"i_lat":-6.201433,"is_transit":false,"transit":false,"distance":280,"i_long":106.819881,"line":1,"time":1,"station_id":"SUDB","station_name":"Sudirman Baru"},{"i_long":106.816351,"line":1,"is_transit":false,"distance":471,"i_lat":-6.20132,"station_name":"Karet","time":1,"station_id":"KAT","transit":false},{"station_name":"Tanah Abang","time":5,"station_id":"THB","is_transit":false,"i_lat":-6.185545,"transit":false,"line":1,"distance":2029,"i_long":106.811091},{"distance":3632,"transit":false,"i_long":106.800832,"i_lat":-6.155215,"station_id":"DU","line":1,"time":8,"station_name":"Duri","is_transit":false},{"i_lat":-6.144674,"i_long":106.79867,"is_transit":false,"time":4,"distance":1230,"station_id":"AK","line":1,"transit":false,"station_name":"Angke"},{"i_lat":-6.132549,"transit":true,"is_transit":true,"station_name":"Kampung Bandan","station_id":"KPB","line":4,"i_long":106.826365,"distance":4102,"time":9},{"i_long":106.836569,"line":11,"distance":1444,"station_id":"RJW","time":3,"i_lat":-6.14505,"is_transit":false,"station_name":"Rajawali","transit":false},{"line":11,"i_lat":-6.161728,"i_long":106.839204,"station_id":"KMO","station_name":"Kemayoran","distance":1901,"time":5,"transit":false,"is_transit":false},{"i_long":106.84368,"distance":1436,"time":4,"is_transit":false,"station_name":"Pasar Senen","i_lat":-6.174784,"line":11,"transit":false,"station_id":"PSE"}],[{"is_transit":false,"transit":false,"distance":0,"time":0,"station_name":"Sudirman","line":1,"i_lat":-6.202263,"station_id":"SUD","i_long":106.822649},{"line":2,"is_transit":true,"transit":true,"distance":3186,"i_long":106.84912,"time":4,"station_name":"Manggarai","station_id":"MRI","i_lat":-6.209883},{"i_long":106.840169,"transit":false,"station_name":"Cikini","time":4,"distance":1590,"is_transit":false,"i_lat":-6.198556,"station_id":"CKI","line":2},{"station_name":"Gondangdia","i_long":106.832183,"distance":1750,"station_id":"GDD","i_lat":-6.186295,"transit":false,"line":2,"is_transit":false,"time":3},{"distance":2015,"station_name":"Juanda","time":4,"i_lat":-6.166716,"line":2,"station_id":"JUA","i_long":106.828284,"is_transit":false,"transit":false},{"is_transit":false,"distance":1149,"time":2,"transit":false,"station_id":"SW","station_name":"Sawah Besar","i_long":106.827103,"i_lat":-6.160725,"line":2},{"is_transit":false,"transit":false,"i_long":106.82482,"station_name":"Manggabesar","line":2,"time":2,"station_id":"MGB","distance":906,"i_lat":-6.149769},{"i_long":106.820901,"station_id":"JAY","station_name":"Jayakarta","line":2,"transit":false,"time":2,"i_lat":-6.141205,"is_transit":false,"distance":1080},{"time":4,"transit":true,"i_lat":-6.137569,"station_id":"JAKK","i_long":106.812439,"line":2,"distance":1264,"station_name":"Jakarta Kota","is_transit":true},{"distance":1364,"transit":true,"i_lat":-6.132549,"time":3,"station_id":"KPB","line":4,"station_name":"Kampung Bandan","i_long":106.826365,"is_transit":true},{"is_transit":false,"i_lat":-6.14505,"time":3,"i_long":106.836569,"line":11,"distance":1444,"station_id":"RJW","station_name":"Rajawali","transit":false},{"is_transit":false,"transit":false,"i_lat":-6.161728,"time":5,"distance":1901,"line":11,"station_id":"KMO","i_long":106.839204,"station_name":"Kemayoran"},{"station_id":"PSE","i_lat":-6.174784,"i_long":106.84368,"time":4,"is_transit":false,"line":11,"station_name":"Pasar Senen","transit":false,"distance":1436}],[{"is_transit":false,"i_long":106.822649,"i_lat":-6.202263,"station_name":"Sudirman","distance":0,"time":0,"line":1,"station_id":"SUD","transit":false},{"line":1,"transit":false,"station_id":"SUDB","station_name":"Sudirman Baru","is_transit":false,"time":1,"i_lat":-6.201433,"i_long":106.819881,"distance":280},{"station_name":"Karet","i_long":106.816351,"line":1,"i_lat":-6.20132,"transit":false,"station_id":"KAT","distance":471,"is_transit":false,"time":1},{"line":1,"i_long":106.811091,"time":5,"is_transit":false,"distance":2029,"station_id":"THB","transit":false,"station_name":"Tanah Abang","i_lat":-6.185545},{"i_long":106.800832,"time":8,"station_name":"Duri","line":1,"station_id":"DU","distance":3632,"transit":false,"is_transit":false,"i_lat":-6.155215},{"station_name":"Angke","time":4,"line":1,"i_long":106.79867,"is_transit":false,"i_lat":-6.144674,"transit":false,"station_id":"AK","distance":1230},{"station_name":"Kampung Bandan","line":4,"distance":4102,"i_lat":-6.132549,"time":9,"station_id":"KPB","transit":true,"is_transit":true,"i_long":106.826365},{"is_transit":true,"i_lat":-6.137569,"time":3,"transit":true,"line":2,"station_name":"Jakarta Kota","distance":1364,"station_id":"JAKK","i_long":106.812439},{"station_id":"JAY","station_name":"Jayakarta","i_lat":-6.141205,"distance":1264,"is_transit":false,"time":4,"transit":false,"line":2,"i_long":106.820901},{"i_long":106.82482,"station_id":"MGB","transit":false,"distance":1080,"i_lat":-6.149769,"is_transit":false,"line":2,"time":2,"station_name":"Manggabesar"},{"transit":false,"station_id":"SW","i_long":106.827103,"station_name":"Sawah Besar","is_transit":false,"time":2,"i_lat":-6.160725,"line":2,"distance":906},{"station_id":"JUA","is_transit":false,"transit":false,"i_lat":-6.166716,"station_name":"Juanda","distance":1149,"i_long":106.828284,"time":2,"line":2},{"station_name":"Gondangdia","line":2,"time":4,"i_lat":-6.186295,"i_long":106.832183,"distance":2015,"transit":false,"station_id":"GDD","is_transit":false},{"station_name":"Cikini","i_long":106.840169,"distance":1750,"time":3,"station_id":"CKI","is_transit":false,"line":2,"i_lat":-6.198556,"transit":false},{"distance":1590,"station_name":"Manggarai","i_lat":-6.209883,"time":4,"is_transit":true,"transit":true,"station_id":"MRI","i_long":106.84912,"line":2},{"station_name":"Matraman","time":2,"station_id":"MTR","i_lat":-6.212485,"i_long":106.858896,"transit":false,"distance":1275,"is_transit":false,"line":1},{"station_name":"Jatinegara","is_transit":true,"i_lat":-6.215091,"i_long":106.86807400000001,"time":8,"distance":1377,"transit":true,"line":1,"station_id":"JNG"},{"transit":false,"station_name":"Pondok Jati","distance":1236,"is_transit":false,"i_lat":-6.209188,"time":2,"station_id":"POK","i_long":106.861737,"line":11},{"i_long":106.855437,"station_name":"Kramat","distance":1829,"line":11,"i_lat":-6.193792,"time":2,"transit":false,"station_id":"KMT","is_transit":false},{"line":11,"station_id":"GST","time":1,"i_lat":-6.185975,"transit":false,"is_transit":false,"distance":973,"i_long":106.850107,"station_name":"Gang Sentiong"},{"transit":false,"distance":1567,"station_name":"Pasar Senen","line":11,"i_long":106.84368,"station_id":"PSE","i_lat":-6.174784,"is_transit":false,"time":8}]]}