{"data":[[{"station_id":"SUD","line":1,"transit":false,"time":0,"station_name":"Sudirman","i_long":106.822649,"is_transit":false,"distance":0,"i_lat":-6.202263},{"time":4,"distance":3186,"i_long":106.84912,"i_lat":-6.209883,"station_name":"Manggarai","line":2,"transit":true,"is_transit":true,"station_id":"MRI"},{"distance":2610,"station_id":"TEB","station_name":"Tebet","time":4,"i_long":106.857948,"is_transit":false,"i_lat":-6.226659,"line":2,"transit":false},{"line":2,"transit":false,"time":2,"distance":1230,"station_id":"CW","i_long":106.856607,"i_lat":-6.242512,"is_transit":false,"station_name":"Cawang"},{"station_id":"DRN","time":3,"station_name":"Duren Kalibata","distance":1546,"i_lat":-6.255332,"transit":false,"i_long":106.85449,"is_transit":false,"line":2},{"i_lat":-6.263214,"line":2,"distance":824,"i_long":106.851577,"is_transit":false,"transit":false,"time":2,"station_name":"Pasar Minggu Baru","station_id":"PSMB"},{"transit":false,"station_id":"PSM","station_name":"Pasar Minggu","time":2,"distance":2380,"i_lat":-6.2842400000000005,"is_transit":false,"i_long":106.843999,"line":2},{"line":2,"station_id":"TNT","i_long":106.838896,"station_name":"Tanjung Barat","i_lat":-6.3080680000000005,"distance":2820,"transit":false,"time":4,"is_transit":false},{"station_name":"Lenteng Agung","is_transit":false,"time":3,"line":2,"station_id":"LNA","transit":false,"i_long":106.832616,"i_lat":-6.330363,"distance":2671},{"transit":false,"station_name":"Univ. Pancasila","station_id":"UP","is_transit":false,"time":2,"distance":1029,"i_lat":-6.339291,"i_long":106.834175,"line":2},{"station_name":"Univ. Indonesia","transit":false,"distance":2264,"station_id":"UI","time":3,"i_lat":-6.360749,"i_long":106.831474,"is_transit":false,"line":2},{"time":2,"i_lat":-6.369073,"station_id":"POC","i_long":106.831114,"is_transit":false,"line":2,"station_name":"Pondok Cina","transit":false,"distance":1109},{"i_lat":-6.391065,"i_long":106.819451,"time":4,"is_transit":false,"distance":2727,"station_name":"Depokbaru","line":2,"transit":false,"station_id":"DPB"},{"i_long":106.816926,"is_transit":false,"line":2,"transit":false,"station_id":"DP","station_name":"Depok","time":3,"distance":1584,"i_lat":-6.405256},{"station_name":"Citayam","transit":true,"station_id":"CTA","i_lat":-6.448811,"time":6,"is_transit":true,"line":2,"distance":5084,"i_long":106.800298},{"is_transit":false,"i_lat":-6.460735,"distance":0,"transit":false,"station_name":"Pondok Rajeg","time":0,"i_long":106.824374,"station_id":"PDRG","line":21}],[{"i_lat":-6.202263,"station_id":"SUD","line":1,"station_name":"Sudirman","transit":false,"is_transit":false,"i_long":106.822649,"time":0,"distance":0},{"station_id":"SUDB","distance":280,"station_name":"Sudirman Baru","i_long":106.819881,"line":1,"transit":false,"is_transit":false,"i_lat":-6.201433,"time":1},{"station_name":"Karet","distance":471,"time":1,"line":1,"i_long":106.816351,"transit":false,"is_transit":false,"station_id":"KAT","i_lat":-6.20132},{"i_long":106.811091,"transit":false,"line":1,"is_transit":false,"time":5,"distance":2029,"station_name":"Tanah Abang","station_id":"THB","i_lat":-6.185545},{"is_transit":false,"distance":3632,"i_long":106.800832,"line":1,"transit":false,"station_name":"Duri","time":8,"station_id":"DU","i_lat":-6.155215},{"transit":false,"time":4,"is_transit":false,"distance":1230,"station_id":"AK","station_name":"Angke","i_long":106.79867,"i_lat":-6.144674,"line":1},{"station_id":"KPB","transit":true,"i_lat":-6.132549,"station_name":"Kampung Bandan","time":9,"distance":4102,"is_transit":true,"i_long":106.826365,"line":4},{"i_lat":-6.137569,"time":3,"i_long":106.812439,"transit":true,"line":2,"station_name":"Jakarta Kota","is_transit":true,"station_id":"JAKK","distance":1364},{"i_long":106.820901,"transit":false,"station_id":"JAY","is_transit":false,"time":4,"i_lat":-6.141205,"line":2,"station_name":"Jayakarta","distance":1264},{"line":2,"i_lat":-6.149769,"distance":1080,"transit":false,"station_name":"Manggabesar","is_transit":false,"station_id":"MGB","i_long":106.82482,"time":2},{"station_id":"SW","line":2,"station_name":"Sawah Besar","is_transit":false,"time":2,"distance":906,"i_lat":-6.160725,"i_long":106.827103,"transit":false},{"line":2,"i_long":106.828284,"distance":1149,"transit":false,"i_lat":-6.166716,"station_name":"Juanda","is_transit":false,"station_id":"JUA","time":2},{"station_id":"GDD","is_transit":false,"i_lat":-6.186295,"i_long":106.832183,"line":2,"time":4,"station_name":"Gondangdia","distance":2015,"transit":false},{"station_name":"Cikini","i_lat":-6.198556,"time":3,"line":2,"distance":1750,"station_id":"CKI","is_transit":false,"i_long":106.840169,"transit":false},{"is_transit":false,"line":2,"i_lat":-6.209883,"station_id":"MRI","time":4,"station_name":"Manggarai","i_long":106.84912,"distance":1590,"transit":false},{"line":2,"distance":2610,"i_long":106.857948,"station_name":"Tebet","i_lat":-6.226659,"transit":false,"is_transit":false,"time":4,"station_id":"TEB"},{"time":2,"station_id":"CW","i_lat":-6.242512,"station_name":"Cawang","is_transit":false,"i_long":106.856607,"transit":false,"distance":1230,"line":2},{"time":3,"transit":false,"i_long":106.85449,"i_lat":-6.255332,"station_id":"DRN","station_name":"Duren Kalibata","line":2,"distance":1546,"is_transit":false},{"time":2,"is_transit":false,"station_name":"Pasar Minggu Baru","station_id":"PSMB","distance":824,"i_lat":-6.263214,"line":2,"transit":false,"i_long":106.851577},{"is_transit":false,"station_name":"Pasar Minggu","i_long":106.843999,"distance":2380,"time":2,"transit":false,"station_id":"PSM","i_lat":-6.2842400000000005,"line":2},{"transit":false,"station_name":"Tanjung Barat","i_long":106.838896,"i_lat":-6.3080680000000005,"distance":2820,"time":4,"is_transit":false,"line":2,"station_id":"TNT"},{"is_transit":false,"time":3,"station_name":"Lenteng Agung","i_lat":-6.330363,"transit":false,"station_id":"LNA","i_long":106.832616,"distance":2671,"line":2},{"line":2,"is_transit":false,"transit":false,"station_name":"Univ. Pancasila","station_id":"UP","distance":1029,"i_lat":-6.339291,"i_long":106.834175,"time":2},{"distance":2264,"i_lat":-6.360749,"i_long":106.831474,"station_id":"UI","transit":false,"is_transit":false,"line":2,"station_name":"Univ. Indonesia","time":3},{"line":2,"transit":false,"is_transit":false,"distance":1109,"i_lat":-6.369073,"station_name":"Pondok Cina","i_long":106.831114,"station_id":"POC","time":2},{"station_name":"Depokbaru","line":2,"is_transit":false,"i_lat":-6.391065,"transit":false,"distance":2727,"station_id":"DPB","time":4,"i_long":106.819451},{"station_id":"DP","time":3,"line":2,"distance":1584,"i_long":106.816926,"station_name":"Depok","i_lat":-6.405256,"is_transit":false,"transit":false},{"i_lat":-6.448811,"time":6,"station_name":"Citayam","transit":true,"i_long":106.800298,"station_id":"CTA","distance":5084,"is_transit":true,"line":2},{"transit":false,"time":0,"distance":0,"i_lat":-6.460735,"line":21,"station_id":"PDRG","i_long":106.824374,"station_name":"Pondok Rajeg","is_transit":false}],[{"transit":false,"distance":0,"is_transit":false,"i_lat":-6.202263,"i_long":106.822649,"line":1,"time":0,"station_name":"Sudirman","station_id":"SUD"},{"line":1,"station_name":"Sudirman Baru","transit":false,"i_long":106.819881,"time":1,"station_id":"SUDB","i_lat":-6.201433,"distance":280,"is_transit":false},{"line":1,"i_long":106.816351,"i_lat":-6.20132,"transit":false,"is_transit":false,"time":1,"station_name":"Karet","station_id":"KAT","distance":471},{"line":1,"time":5,"i_long":106.811091,"i_lat":-6.185545,"transit":false,"station_name":"Tanah Abang","station_id":"THB","is_transit":false,"distance":2029},{"transit":false,"station_id":"DU","i_lat":-6.155215,"i_long":106.800832,"time":8,"distance":3632,"line":1,"station_name":"Duri","is_transit":false},{"transit":false,"time":4,"is_transit":false,"station_id":"AK","line":1,"distance":1230,"station_name":"Angke","i_lat":-6.144674,"i_long":106.79867},{"station_name":"Kampung Bandan","transit":true,"i_lat":-6.132549,"distance":4102,"station_id":"KPB","is_transit":true,"i_long":106.826365,"line":4,"time":9},{"time":3,"i_lat":-6.14505,"is_transit":false,"distance":1444,"line":11,"transit":false,"station_name":"Rajawali","i_long":106.836569,"station_id":"RJW"},{"station_name":"Kemayoran","station_id":"KMO","line":11,"is_transit":false,"transit":false,"distance":1901,"i_long":106.839204,"time":5,"i_lat":-6.161728},{"time":4,"i_lat":-6.174784,"transit":false,"line":11,"is_transit":false,"station_name":"Pasar Senen","station_id":"PSE","i_long":106.84368,"distance":1436},{"station_name":"Gang Sentiong","i_lat":-6.185975,"station_id":"GST","is_transit":false,"transit":false,"i_long":106.850107,"line":11,"distance":1567,"time":8},{"time":1,"transit":false,"station_id":"KMT","is_transit":false,"i_lat":-6.193792,"distance":973,"station_name":"Kramat","i_long":106.855437,"line":11},{"transit":false,"line":11,"distance":1829,"station_name":"Pondok Jati","is_transit":false,"station_id":"POK","i_lat":-6.209188,"time":2,"i_long":106.861737},{"i_long":106.86807400000001,"line":1,"station_id":"JNG","distance":1236,"time":9,"station_name":"Jatinegara","transit":true,"i_lat":-6.215091,"is_transit":true},{"station_id":"MTR","time":2,"is_transit":false,"distance":1377,"station_name":"Matraman","i_lat":-6.212485,"line":1,"i_long":106.858896,"transit":false},{"distance":1275,"i_lat":-6.209883,"is_transit":true,"line":2,"transit":true,"time":2,"i_long":106.84912,"station_name":"Manggarai","station_id":"MRI"},{"station_id":"TEB","distance":2610,"i_long":106.857948,"is_transit":false,"transit":false,"i_lat":-6.226659,"station_name":"Tebet","time":4,"line":2},{"station_id":"CW","line":2,"station_name":"Cawang","is_transit":false,"i_long":106.856607,"time":2,"transit":false,"distance":1230,"i_lat":-6.242512},{"i_long":106.85449,"station_id":"DRN","line":2,"distance":1546,"transit":false,"i_lat":-6.255332,"time":3,"station_name":"Duren Kalibata","is_transit":false},{"line":2,"i_long":106.851577,"is_transit":false,"station_name":"Pasar Minggu Baru","i_lat":-6.263214,"time":2,"station_id":"PSMB","transit":false,"distance":824},{"i_long":106.843999,"line":2,"station_name":"Pasar Minggu","is_transit":false,"transit":false,"i_lat":-6.2842400000000005,"station_id":"PSM","time":2,"distance":2380},{"i_lat":-6.3080680000000005,"station_id":"TNT","is_transit":false,"i_long":106.838896,"distance":2820,"line":2,"station_name":"Tanjung Barat","time":4,"transit":false},{"station_name":"Lenteng Agung","distance":2671,"transit":false,"station_id":"LNA","i_lat":-6.330363,"is_transit":false,"i_long":106.832616,"line":2,"time":3},{"station_name":"Univ. Pancasila","i_long":106.834175,"transit":false,"station_id":"UP","is_transit":false,"time":2,"distance":1029,"i_lat":-6.339291,"line":2},{"time":3,"station_id":"UI","distance":2264,"is_transit":false,"line":2,"transit":false,"i_long":106.831474,"station_name":"Univ. Indonesia","i_lat":-6.360749},{"transit":false,"i_long":106.831114,"is_transit":false,"time":2,"station_name":"Pondok Cina","distance":1109,"i_lat":-6.369073,"line":2,"station_id":"POC"},{"i_long":106.819451,"transit":false,"is_transit":false,"station_id":"DPB","distance":2727,"line":2,"station_name":"Depokbaru","i_lat":-6.391065,"time":4},{"time":3,"i_lat":-6.405256,"station_id":"DP","station_name":"Depok","distance":1584,"transit":false,"is_transit":false,"i_long":106.816926,"line":2},{"line":2,"is_transit":true,"transit":true,"distance":5084,"station_name":"Citayam","station_id":"CTA","i_long":106.800298,"i_lat":-6.448811,"time":6},{"station_id":"PDRG","line":21,"distance":0,"i_lat":-6.460735,"time":0,"is_transit":false,"transit":false,"i_long":106.824374,"station_name":"Pondok Rajeg"}]]}