{"data":[[{"is_transit":false,"line":1,"transit":false,"i_long":106.822649,"time":0,"station_name":"Sudirman","station_id":"SUD","i_lat":-6.202263,"distance":0},{"station_name":"Manggarai","distance":3186,"transit":false,"i_lat":-6.209883,"is_transit":false,"time":4,"i_long":106.84912,"line":2,"station_id":"MRI"},{"time":2,"distance":1275,"is_transit":false,"i_long":106.858896,"station_id":"MTR","transit":false,"station_name":"Matraman","line":1,"i_lat":-6.212485},{"time":8,"transit":false,"station_name":"Jatinegara","i_lat":-6.215091,"line":1,"is_transit":false,"distance":1377,"i_long":106.86807400000001,"station_id":"JNG"},{"line":1,"transit":false,"i_long":106.899548,"is_transit":false,"time":3,"station_id":"KLD","station_name":"Klender","distance":3395,"i_lat":-6.2135},{"time":2,"i_lat":-6.215568,"transit":false,"station_id":"BUA","i_long":106.922662,"distance":3100,"is_transit":false,"line":1,"station_name":"Buaran"},{"line":1,"is_transit":false,"time":1,"station_id":"KLDB","distance":1305,"i_long":106.939679,"station_name":"Klenderbaru","transit":false,"i_lat":-6.217455},{"transit":false,"i_long":106.951283,"is_transit":false,"station_name":"Cakung","distance":1385,"line":1,"i_lat":-6.219053,"station_id":"CUK","time":8},{"i_lat":-6.224515,"transit":false,"i_long":106.977657,"line":1,"station_name":"Kranji","station_id":"KRI","distance":3097,"time":3,"is_transit":false},{"i_lat":-6.236616,"distance":2520,"transit":false,"line":1,"is_transit":false,"i_long":106.997013,"time":4,"station_name":"Bekasi","station_id":"BKS"}],[{"transit":false,"station_name":"Sudirman","station_id":"SUD","line":1,"i_long":106.822649,"distance":0,"i_lat":-6.202263,"is_transit":false,"time":0},{"time":1,"transit":false,"station_name":"Sudirman Baru","distance":280,"i_lat":-6.201433,"station_id":"SUDB","is_transit":false,"line":1,"i_long":106.819881},{"distance":471,"time":1,"station_name":"Karet","station_id":"KAT","transit":false,"i_lat":-6.20132,"i_long":106.816351,"is_transit":false,"line":1},{"i_long":106.811091,"station_id":"THB","line":1,"is_transit":false,"time":5,"distance":2029,"transit":false,"i_lat":-6.185545,"station_name":"Tanah Abang"},{"is_transit":false,"line":1,"time":8,"i_long":106.800832,"transit":false,"station_id":"DU","station_name":"Duri","distance":3632,"i_lat":-6.155215},{"transit":false,"line":1,"distance":1230,"station_id":"AK","i_long":106.79867,"time":4,"station_name":"Angke","i_lat":-6.144674,"is_transit":false},{"is_transit":true,"distance":4102,"transit":true,"station_id":"KPB","line":4,"time":9,"i_lat":-6.132549,"station_name":"Kampung Bandan","i_long":106.826365},{"i_lat":-6.14505,"station_name":"Rajawali","distance":1444,"line":11,"transit":false,"is_transit":false,"time":3,"station_id":"RJW","i_long":106.836569},{"is_transit":false,"station_name":"Kemayoran","i_long":106.839204,"i_lat":-6.161728,"distance":1901,"line":11,"station_id":"KMO","transit":false,"time":5},{"station_id":"PSE","line":11,"distance":1436,"transit":false,"i_long":106.84368,"is_transit":false,"time":4,"station_name":"Pasar Senen","i_lat":-6.174784},{"distance":1567,"i_long":106.850107,"is_transit":false,"line":11,"station_name":"Gang Sentiong","station_id":"GST","transit":false,"i_lat":-6.185975,"time":8},{"station_id":"KMT","transit":false,"i_long":106.855437,"is_transit":false,"distance":973,"i_lat":-6.193792,"line":11,"station_name":"Kramat","time":1},{"station_id":"POK","line":11,"transit":false,"is_transit":false,"distance":1829,"time":2,"i_lat":-6.209188,"station_name":"Pondok Jati","i_long":106.861737},{"is_transit":true,"i_long":106.86807400000001,"transit":true,"station_id":"JNG","i_lat":-6.215091,"distance":1236,"station_name":"Jatinegara","line":1,"time":9},{"station_name":"Klender","is_transit":false,"distance":3395,"i_long":106.899548,"i_lat":-6.2135,"station_id":"KLD","line":1,"time":3,"transit":false},{"station_id":"BUA","distance":3100,"i_lat":-6.215568,"line":1,"station_name":"Buaran","is_transit":false,"transit":false,"time":2,"i_long":106.922662},{"transit":false,"station_name":"Klenderbaru","is_transit":false,"distance":1305,"line":1,"i_long":106.939679,"station_id":"KLDB","i_lat":-6.217455,"time":1},{"line":1,"station_name":"Cakung","is_transit":false,"i_lat":-6.219053,"i_long":106.951283,"distance":1385,"station_id":"CUK","time":8,"transit":false},{"distance":3097,"i_long":106.977657,"station_name":"Kranji","is_transit":false,"time":3,"i_lat":-6.224515,"station_id":"KRI","transit":false,"line":1},{"is_transit":false,"i_lat":-6.236616,"distance":2520,"transit":false,"station_name":"Bekasi","station_id":"BKS","time":4,"i_long":106.997013,"line":1}],[{"station_id":"SUD","time":0,"station_name":"Sudirman","is_transit":false,"distance":0,"line":1,"transit":false,"i_long":106.822649,"i_lat":-6.202263},{"line":1,"i_long":106.819881,"station_id":"SUDB","distance":280,"transit":false,"is_transit":false,"station_name":"Sudirman Baru","i_lat":-6.201433,"time":1},{"line":1,"transit":false,"station_id":"KAT","i_lat":-6.20132,"is_transit":false,"station_name":"Karet","time":1,"distance":471,"i_long":106.816351},{"transit":false,"distance":2029,"time":5,"i_lat":-6.185545,"is_transit":false,"i_long":106.811091,"line":1,"station_id":"THB","station_name":"Tanah Abang"},{"transit":false,"station_name":"Duri","distance":3632,"i_long":106.800832,"time":8,"is_transit":false,"line":1,"station_id":"DU","i_lat":-6.155215},{"line":1,"transit":false,"is_transit":false,"i_long":106.79867,"station_name":"Angke","distance":1230,"time":4,"station_id":"AK","i_lat":-6.144674},{"is_transit":true,"time":9,"i_lat":-6.132549,"i_long":106.826365,"station_name":"Kampung Bandan","line":4,"station_id":"KPB","distance":4102,"transit":true},{"time":3,"station_id":"JAKK","i_long":106.812439,"transit":true,"station_name":"Jakarta Kota","is_transit":true,"distance":1364,"i_lat":-6.137569,"line":2},{"station_name":"Jayakarta","station_id":"JAY","time":4,"line":2,"transit":false,"is_transit":false,"i_lat":-6.141205,"i_long":106.820901,"distance":1264},{"i_lat":-6.149769,"is_transit":false,"i_long":106.82482,"line":2,"transit":false,"station_id":"MGB","station_name":"Manggabesar","distance":1080,"time":2},{"i_lat":-6.160725,"is_transit":false,"transit":false,"distance":906,"line":2,"i_long":106.827103,"station_name":"Sawah Besar","station_id":"SW","time":2},{"station_id":"JUA","transit":false,"station_name":"Juanda","is_transit":false,"time":2,"i_long":106.828284,"line":2,"i_lat":-6.166716,"distance":1149},{"transit":false,"distance":2015,"time":4,"is_transit":false,"station_name":"Gondangdia","i_long":106.832183,"line":2,"i_lat":-6.186295,"station_id":"GDD"},{"transit":false,"distance":1750,"station_name":"Cikini","is_transit":false,"time":3,"i_lat":-6.198556,"i_long":106.840169,"station_id":"CKI","line":2},{"time":4,"distance":1590,"transit":true,"i_long":106.84912,"station_id":"MRI","is_transit":true,"station_name":"Manggarai","i_lat":-6.209883,"line":2},{"station_id":"MTR","is_transit":false,"distance":1275,"i_lat":-6.212485,"i_long":106.858896,"transit":false,"station_name":"Matraman","line":1,"time":2},{"i_lat":-6.215091,"station_id":"JNG","station_name":"Jatinegara","time":8,"distance":1377,"is_transit":false,"i_long":106.86807400000001,"line":1,"transit":false},{"station_name":"Klender","i_lat":-6.2135,"distance":3395,"is_transit":false,"i_long":106.899548,"line":1,"time":3,"station_id":"KLD","transit":false},{"station_id":"BUA","distance":3100,"i_lat":-6.215568,"is_transit":false,"time":2,"transit":false,"station_name":"Buaran","i_long":106.922662,"line":1},{"i_long":106.939679,"station_name":"Klenderbaru","is_transit":false,"distance":1305,"time":1,"i_lat":-6.217455,"line":1,"transit":false,"station_id":"KLDB"},{"station_name":"Cakung","i_lat":-6.219053,"transit":false,"is_transit":false,"line":1,"i_long":106.951283,"distance":1385,"station_id":"CUK","time":8},{"i_lat":-6.224515,"is_transit":false,"transit":false,"station_name":"Kranji","i_long":106.977657,"line":1,"station_id":"KRI","distance":3097,"time":3},{"line":1,"station_id":"BKS","time":4,"is_transit":false,"i_lat":-6.236616,"station_name":"Bekasi","i_long":106.997013,"transit":false,"distance":2520}],[{"i_lat":-6.202263,"i_long":106.822649,"is_transit":false,"time":0,"distance":0,"station_id":"SUD","transit":false,"line":1,"station_name":"Sudirman"},{"transit":true,"distance":3186,"time":4,"station_id":"MRI","is_transit":true,"station_name":"Manggarai","i_lat":-6.209883,"i_long":106.84912,"line":2},{"transit":false,"station_id":"CKI","is_transit":false,"i_lat":-6.198556,"station_name":"Cikini","time":4,"distance":1590,"line":2,"i_long":106.840169},{"distance":1750,"line":2,"station_name":"Gondangdia","i_lat":-6.186295,"station_id":"GDD","transit":false,"is_transit":false,"i_long":106.832183,"time":3},{"i_lat":-6.166716,"i_long":106.828284,"line":2,"station_id":"JUA","time":4,"station_name":"Juanda","transit":false,"is_transit":false,"distance":2015},{"transit":false,"is_transit":false,"i_lat":-6.160725,"line":2,"i_long":106.827103,"station_id":"SW","time":2,"distance":1149,"station_name":"Sawah Besar"},{"transit":false,"is_transit":false,"i_lat":-6.149769,"station_id":"MGB","station_name":"Manggabesar","distance":906,"time":2,"line":2,"i_long":106.82482},{"transit":false,"distance":1080,"time":2,"station_id":"JAY","station_name":"Jayakarta","i_lat":-6.141205,"is_transit":false,"i_long":106.820901,"line":2},{"station_name":"Jakarta Kota","i_lat":-6.137569,"i_long":106.812439,"is_transit":true,"time":4,"line":2,"distance":1264,"transit":true,"station_id":"JAKK"},{"line":4,"i_long":106.826365,"is_transit":true,"time":3,"station_id":"KPB","distance":1364,"transit":true,"station_name":"Kampung Bandan","i_lat":-6.132549},{"station_id":"RJW","is_transit":false,"distance":1444,"time":3,"i_long":106.836569,"station_name":"Rajawali","i_lat":-6.14505,"line":11,"transit":false},{"transit":false,"distance":1901,"i_lat":-6.161728,"station_name":"Kemayoran","time":5,"station_id":"KMO","line":11,"i_long":106.839204,"is_transit":false},{"i_lat":-6.174784,"station_name":"Pasar Senen","is_transit":false,"station_id":"PSE","distance":1436,"transit":false,"i_long":106.84368,"time":4,"line":11},{"distance":1567,"station_name":"Gang Sentiong","station_id":"GST","i_lat":-6.185975,"i_long":106.850107,"is_transit":false,"transit":false,"time":8,"line":11},{"station_name":"Kramat","line":11,"i_lat":-6.193792,"station_id":"KMT","time":1,"is_transit":false,"i_long":106.855437,"transit":false,"distance":973},{"distance":1829,"transit":false,"is_transit":false,"time":2,"station_name":"Pondok Jati","i_lat":-6.209188,"i_long":106.861737,"line":11,"station_id":"POK"},{"i_long":106.86807400000001,"time":9,"distance":1236,"transit":true,"is_transit":true,"i_lat":-6.215091,"line":1,"station_id":"JNG","station_name":"Jatinegara"},{"i_long":106.899548,"line":1,"distance":3395,"transit":false,"time":3,"i_lat":-6.2135,"station_name":"Klender","is_transit":false,"station_id":"KLD"},{"is_transit":false,"time":2,"line":1,"transit":false,"i_long":106.922662,"i_lat":-6.215568,"distance":3100,"station_id":"BUA","station_name":"Buaran"},{"distance":1305,"transit":false,"i_lat":-6.217455,"station_name":"Klenderbaru","station_id":"KLDB","is_transit":false,"line":1,"time":1,"i_long":106.939679},{"i_long":106.951283,"is_transit":false,"transit":false,"i_lat":-6.219053,"line":1,"time":8,"distance":1385,"station_name":"Cakung","station_id":"CUK"},{"line":1,"is_transit":false,"transit":false,"station_name":"Kranji","i_lat":-6.224515,"distance":3097,"time":3,"i_long":106.977657,"station_id":"KRI"},{"is_transit":false,"i_lat":-6.236616,"station_name":"Bekasi","distance":2520,"time":4,"transit":false,"station_id":"BKS","i_long":106.997013,"line":1}]]}