{"data":[[{"line":1,"station_name":"Sudirman","distance":0,"i_lat":-6.202263,"is_transit":false,"station_id":"SUD","time":0,"i_long":106.822649,"transit":false},{"station_name":"Sudirman Baru","is_transit":false,"distance":280,"line":1,"i_lat":-6.201433,"i_long":106.819881,"transit":false,"station_id":"SUDB","time":1},{"station_id":"KAT","transit":false,"is_transit":false,"station_name":"Karet","distance":471,"i_lat":-6.20132,"i_long":106.816351,"time":1,"line":1},{"transit":true,"is_transit":true,"i_lat":-6.185545,"line":1,"distance":2029,"station_name":"Tanah Abang","time":5,"station_id":"THB","i_long":106.811091},{"transit":false,"i_lat":-6.207404,"station_name":"Palmerah","i_long":106.79689,"station_id":"PLM","is_transit":false,"distance":3191,"time":6,"line":6},{"station_name":"Kebayoran","time":7,"i_long":106.780334,"station_id":"KBY","is_transit":false,"i_lat":-6.237242,"distance":3737,"transit":false,"line":6},{"station_name":"Pondokranji","station_id":"PDJ","is_transit":false,"line":6,"i_long":106.74273,"distance":6218,"i_lat":-6.276362,"time":8,"transit":false},{"station_name":"Jurangmangu","distance":2179,"i_long":106.728916,"is_transit":false,"time":3,"transit":false,"line":6,"station_id":"JMU","i_lat":-6.288927},{"transit":false,"is_transit":false,"station_id":"SDM","time":4,"line":6,"station_name":"Sudimara","distance":1994,"i_lat":-6.296963,"i_long":106.712277},{"distance":4566,"transit":false,"station_id":"RU","time":6,"i_lat":-6.314823,"station_name":"Rawa Buntu","is_transit":false,"i_long":106.675475,"line":6},{"transit":false,"station_name":"Serpong","distance":2413,"i_lat":-6.319871,"line":6,"station_id":"SRP","is_transit":false,"time":4,"i_long":106.66566},{"distance":1784,"time":4,"i_long":106.640411,"i_lat":-6.32484,"transit":false,"station_id":"CSK","is_transit":false,"line":3,"station_name":"Cisauk"},{"line":3,"time":4,"distance":2519,"i_long":106.617853,"transit":false,"station_name":"Cicayur","i_lat":-6.329547,"is_transit":false,"station_id":"CC"},{"is_transit":false,"distance":5968,"station_name":"Parung Panjang","station_id":"PRP","transit":false,"time":8,"i_long":106.568863,"i_lat":-6.3441410000000005,"line":6},{"distance":7025,"transit":false,"station_name":"Cilejit","i_long":106.508482,"line":3,"is_transit":false,"station_id":"CJT","time":9,"i_lat":-6.354349},{"station_name":"Daru","transit":false,"i_lat":-6.338021,"i_long":106.491338,"line":0,"station_id":"DAR","distance":2675,"is_transit":false,"time":6},{"station_name":"Tenjo","distance":3902,"i_lat":-6.327251,"is_transit":false,"i_long":106.460812,"station_id":"TEJ","time":5,"line":6,"transit":false},{"station_name":"Tigaraksa","distance":2974,"line":6,"i_lat":-6.328533,"transit":false,"i_long":106.425991,"station_id":"TGS","is_transit":false,"time":5}],[{"transit":false,"is_transit":false,"i_long":106.822649,"station_name":"Sudirman","time":0,"station_id":"SUD","distance":0,"i_lat":-6.202263,"line":1},{"distance":3186,"i_lat":-6.209883,"time":4,"station_name":"Manggarai","station_id":"MRI","line":2,"is_transit":true,"transit":true,"i_long":106.84912},{"station_id":"CKI","station_name":"Cikini","time":4,"i_lat":-6.198556,"line":2,"distance":1590,"i_long":106.840169,"is_transit":false,"transit":false},{"is_transit":false,"station_name":"Gondangdia","distance":1750,"i_lat":-6.186295,"line":2,"i_long":106.832183,"time":3,"transit":false,"station_id":"GDD"},{"station_id":"JUA","transit":false,"i_lat":-6.166716,"is_transit":false,"station_name":"Juanda","time":4,"i_long":106.828284,"distance":2015,"line":2},{"time":2,"station_name":"Sawah Besar","is_transit":false,"distance":1149,"station_id":"SW","transit":false,"i_long":106.827103,"line":2,"i_lat":-6.160725},{"station_name":"Manggabesar","transit":false,"time":2,"is_transit":false,"station_id":"MGB","i_long":106.82482,"distance":906,"i_lat":-6.149769,"line":2},{"distance":1080,"line":2,"i_lat":-6.141205,"transit":false,"station_name":"Jayakarta","is_transit":false,"time":2,"station_id":"JAY","i_long":106.820901},{"i_long":106.812439,"is_transit":true,"station_id":"JAKK","transit":true,"line":2,"station_name":"Jakarta Kota","i_lat":-6.137569,"time":4,"distance":1264},{"line":4,"transit":true,"distance":1364,"i_long":106.826365,"time":3,"i_lat":-6.132549,"station_id":"KPB","is_transit":true,"station_name":"Kampung Bandan"},{"is_transit":false,"i_long":106.79867,"i_lat":-6.144674,"line":1,"time":9,"distance":4102,"transit":false,"station_name":"Angke","station_id":"AK"},{"time":4,"station_id":"DU","line":1,"transit":false,"station_name":"Duri","distance":1230,"i_lat":-6.155215,"is_transit":false,"i_long":106.800832},{"station_id":"THB","i_long":106.811091,"distance":3632,"transit":true,"i_lat":-6.185545,"time":8,"station_name":"Tanah Abang","is_transit":true,"line":1},{"transit":false,"distance":3191,"time":6,"is_transit":false,"line":6,"i_lat":-6.207404,"i_long":106.79689,"station_id":"PLM","station_name":"Palmerah"},{"time":7,"transit":false,"station_name":"Kebayoran","distance":3737,"station_id":"KBY","is_transit":false,"i_long":106.780334,"line":6,"i_lat":-6.237242},{"line":6,"distance":6218,"station_id":"PDJ","i_lat":-6.276362,"station_name":"Pondokranji","i_long":106.74273,"time":8,"is_transit":false,"transit":false},{"distance":2179,"i_lat":-6.288927,"transit":false,"time":3,"station_id":"JMU","is_transit":false,"i_long":106.728916,"station_name":"Jurangmangu","line":6},{"time":4,"i_long":106.712277,"station_name":"Sudimara","transit":false,"distance":1994,"i_lat":-6.296963,"is_transit":false,"station_id":"SDM","line":6},{"line":6,"i_long":106.675475,"time":6,"station_name":"Rawa Buntu","i_lat":-6.314823,"distance":4566,"transit":false,"station_id":"RU","is_transit":false},{"distance":2413,"time":4,"is_transit":false,"i_long":106.66566,"station_id":"SRP","station_name":"Serpong","line":6,"transit":false,"i_lat":-6.319871},{"time":4,"i_lat":-6.32484,"line":3,"station_name":"Cisauk","distance":1784,"i_long":106.640411,"station_id":"CSK","is_transit":false,"transit":false},{"is_transit":false,"distance":2519,"time":4,"station_name":"Cicayur","i_lat":-6.329547,"line":3,"station_id":"CC","transit":false,"i_long":106.617853},{"i_lat":-6.3441410000000005,"line":6,"i_long":106.568863,"time":8,"distance":5968,"station_id":"PRP","is_transit":false,"station_name":"Parung Panjang","transit":false},{"i_lat":-6.354349,"transit":false,"i_long":106.508482,"station_name":"Cilejit","line":3,"station_id":"CJT","time":9,"is_transit":false,"distance":7025},{"i_long":106.491338,"is_transit":false,"station_name":"Daru","i_lat":-6.338021,"time":6,"station_id":"DAR","line":0,"distance":2675,"transit":false},{"transit":false,"distance":3902,"i_long":106.460812,"line":6,"station_name":"Tenjo","time":5,"is_transit":false,"i_lat":-6.327251,"station_id":"TEJ"},{"line":6,"distance":2974,"time":5,"transit":false,"station_id":"TGS","i_lat":-6.328533,"station_name":"Tigaraksa","is_transit":false,"i_long":106.425991}],[{"time":0,"is_transit":false,"station_name":"Sudirman","station_id":"SUD","i_lat":-6.202263,"i_long":106.822649,"line":1,"distance":0,"transit":false},{"distance":3186,"station_id":"MRI","i_lat":-6.209883,"i_long":106.84912,"line":2,"is_transit":false,"time":4,"station_name":"Manggarai","transit":false},{"station_id":"MTR","transit":false,"distance":1275,"time":2,"is_transit":false,"station_name":"Matraman","i_lat":-6.212485,"i_long":106.858896,"line":1},{"station_id":"JNG","station_name":"Jatinegara","distance":1377,"i_lat":-6.215091,"line":1,"i_long":106.86807400000001,"time":8,"is_transit":true,"transit":true},{"is_transit":false,"station_name":"Pondok Jati","distance":1236,"transit":false,"time":2,"station_id":"POK","i_lat":-6.209188,"i_long":106.861737,"line":11},{"station_name":"Kramat","i_long":106.855437,"i_lat":-6.193792,"time":2,"distance":1829,"is_transit":false,"station_id":"KMT","transit":false,"line":11},{"station_id":"GST","i_lat":-6.185975,"i_long":106.850107,"is_transit":false,"transit":false,"distance":973,"line":11,"time":1,"station_name":"Gang Sentiong"},{"station_name":"Pasar Senen","i_long":106.84368,"distance":1567,"station_id":"PSE","line":11,"is_transit":false,"i_lat":-6.174784,"time":8,"transit":false},{"line":11,"station_name":"Kemayoran","transit":false,"time":4,"station_id":"KMO","i_lat":-6.161728,"i_long":106.839204,"is_transit":false,"distance":1436},{"time":5,"station_name":"Rajawali","distance":1901,"i_long":106.836569,"transit":false,"station_id":"RJW","i_lat":-6.14505,"is_transit":false,"line":11},{"station_name":"Kampung Bandan","transit":true,"distance":1444,"station_id":"KPB","i_lat":-6.132549,"line":4,"time":3,"i_long":106.826365,"is_transit":true},{"is_transit":false,"i_long":106.79867,"time":9,"i_lat":-6.144674,"transit":false,"station_name":"Angke","distance":4102,"station_id":"AK","line":1},{"i_lat":-6.155215,"line":1,"is_transit":false,"station_name":"Duri","distance":1230,"station_id":"DU","transit":false,"i_long":106.800832,"time":4},{"transit":true,"station_id":"THB","is_transit":true,"i_long":106.811091,"i_lat":-6.185545,"time":8,"distance":3632,"line":1,"station_name":"Tanah Abang"},{"station_id":"PLM","station_name":"Palmerah","line":6,"transit":false,"time":6,"distance":3191,"is_transit":false,"i_lat":-6.207404,"i_long":106.79689},{"i_long":106.780334,"line":6,"time":7,"station_id":"KBY","distance":3737,"transit":false,"i_lat":-6.237242,"station_name":"Kebayoran","is_transit":false},{"station_id":"PDJ","i_long":106.74273,"is_transit":false,"station_name":"Pondokranji","line":6,"time":8,"distance":6218,"transit":false,"i_lat":-6.276362},{"i_lat":-6.288927,"station_name":"Jurangmangu","is_transit":false,"transit":false,"distance":2179,"time":3,"i_long":106.728916,"line":6,"station_id":"JMU"},{"distance":1994,"station_id":"SDM","station_name":"Sudimara","i_lat":-6.296963,"line":6,"time":4,"is_transit":false,"transit":false,"i_long":106.712277},{"station_id":"RU","line":6,"station_name":"Rawa Buntu","transit":false,"time":6,"i_lat":-6.314823,"i_long":106.675475,"distance":4566,"is_transit":false},{"time":4,"transit":false,"is_transit":false,"station_name":"Serpong","distance":2413,"station_id":"SRP","i_long":106.66566,"line":6,"i_lat":-6.319871},{"transit":false,"is_transit":false,"station_name":"Cisauk","station_id":"CSK","i_lat":-6.32484,"time":4,"i_long":106.640411,"line":3,"distance":1784},{"station_name":"Cicayur","i_lat":-6.329547,"time":4,"station_id":"CC","transit":false,"i_long":106.617853,"distance":2519,"line":3,"is_transit":false},{"is_transit":false,"station_name":"Parung Panjang","i_lat":-6.3441410000000005,"distance":5968,"station_id":"PRP","i_long":106.568863,"transit":false,"time":8,"line":6},{"station_name":"Cilejit","is_transit":false,"i_long":106.508482,"i_lat":-6.354349,"line":3,"transit":false,"distance":7025,"station_id":"CJT","time":9},{"is_transit":false,"time":6,"station_id":"DAR","transit":false,"i_long":106.491338,"i_lat":-6.338021,"distance":2675,"station_name":"Daru","line":0},{"distance":3902,"time":5,"i_long":106.460812,"is_transit":false,"station_id":"TEJ","i_lat":-6.327251,"station_name":"Tenjo","line":6,"transit":false},{"transit":false,"line":6,"station_id":"TGS","distance":2974,"is_transit":false,"i_lat":-6.328533,"station_name":"Tigaraksa","time":5,"i_long":106.425991}]]}