{"data":[[{"station_id":"SUD","i_lat":-6.202263,"is_transit":false,"i_long":106.822649,"time":0,"transit":false,"station_name":"Sudirman","distance":0,"line":1},{"transit":false,"is_transit":false,"distance":3186,"time":4,"station_name":"Manggarai","i_lat":-6.209883,"station_id":"MRI","i_long":106.84912,"line":2},{"i_lat":-6.212485,"distance":1275,"station_name":"Matraman","time":2,"station_id":"MTR","line":1,"is_transit":false,"i_long":106.858896,"transit":false},{"distance":1377,"i_lat":-6.215091,"time":8,"is_transit":false,"i_long":106.86807400000001,"station_name":"Jatinegara","line":1,"transit":false,"station_id":"JNG"},{"station_name":"Klender","is_transit":false,"i_long":106.899548,"line":1,"i_lat":-6.2135,"transit":false,"station_id":"KLD","time":3,"distance":3395},{"distance":3100,"i_long":106.922662,"time":2,"is_transit":false,"transit":false,"station_name":"Buaran","station_id":"BUA","line":1,"i_lat":-6.215568},{"time":1,"line":1,"station_id":"KLDB","i_lat":-6.217455,"i_long":106.939679,"distance":1305,"station_name":"Klenderbaru","is_transit":false,"transit":false},{"time":8,"station_name":"Cakung","station_id":"CUK","distance":1385,"transit":false,"i_lat":-6.219053,"line":1,"i_long":106.951283,"is_transit":false},{"distance":3097,"i_lat":-6.224515,"transit":false,"i_long":106.977657,"is_transit":false,"time":3,"station_id":"KRI","line":1,"station_name":"Kranji"},{"i_long":106.997013,"line":1,"transit":false,"station_name":"Bekasi","distance":2520,"station_id":"BKS","i_lat":-6.236616,"time":4,"is_transit":false},{"time":2,"i_long":107.016735,"station_id":"BKST","line":1,"is_transit":false,"distance":2368,"transit":false,"station_name":"Bekasi Timur","i_lat":-6.248029},{"line":1,"station_id":"TB","station_name":"Tambun","time":7,"i_long":107.055722,"transit":false,"distance":4460,"is_transit":false,"i_lat":-6.258864},{"station_name":"Cibitung","distance":3420,"time":3,"is_transit":false,"i_lat":-6.261877,"i_long":107.083084,"station_id":"CIT","line":1,"transit":false},{"i_long":107.093313,"transit":false,"is_transit":false,"station_id":"TLM","line":1,"time":2,"i_lat":-6.262938,"distance":2800,"station_name":"Metland Telaga Murni"}],[{"station_id":"SUD","i_lat":-6.202263,"transit":false,"distance":0,"station_name":"Sudirman","i_long":106.822649,"line":1,"is_transit":false,"time":0},{"station_id":"SUDB","distance":280,"i_long":106.819881,"is_transit":false,"time":1,"line":1,"transit":false,"station_name":"Sudirman Baru","i_lat":-6.201433},{"transit":false,"station_name":"Karet","i_long":106.816351,"is_transit":false,"distance":471,"time":1,"line":1,"i_lat":-6.20132,"station_id":"KAT"},{"line":1,"is_transit":false,"distance":2029,"time":5,"i_long":106.811091,"transit":false,"station_id":"THB","station_name":"Tanah Abang","i_lat":-6.185545},{"station_name":"Duri","line":1,"transit":false,"time":8,"station_id":"DU","i_lat":-6.155215,"distance":3632,"is_transit":false,"i_long":106.800832},{"is_transit":false,"distance":1230,"time":4,"i_long":106.79867,"i_lat":-6.144674,"station_name":"Angke","line":1,"transit":false,"station_id":"AK"},{"line":4,"is_transit":true,"station_name":"Kampung Bandan","transit":true,"distance":4102,"i_lat":-6.132549,"i_long":106.826365,"station_id":"KPB","time":9},{"i_lat":-6.14505,"transit":false,"station_id":"RJW","is_transit":false,"line":11,"time":3,"i_long":106.836569,"distance":1444,"station_name":"Rajawali"},{"distance":1901,"i_long":106.839204,"is_transit":false,"transit":false,"line":11,"station_name":"Kemayoran","time":5,"station_id":"KMO","i_lat":-6.161728},{"time":4,"i_lat":-6.174784,"i_long":106.84368,"is_transit":false,"transit":false,"distance":1436,"station_name":"Pasar Senen","station_id":"PSE","line":11},{"station_id":"GST","is_transit":false,"time":8,"i_lat":-6.185975,"transit":false,"i_long":106.850107,"line":11,"station_name":"Gang Sentiong","distance":1567},{"is_transit":false,"distance":973,"time":1,"station_id":"KMT","transit":false,"station_name":"Kramat","i_lat":-6.193792,"i_long":106.855437,"line":11},{"i_long":106.861737,"line":11,"time":2,"is_transit":false,"station_id":"POK","i_lat":-6.209188,"distance":1829,"station_name":"Pondok Jati","transit":false},{"line":1,"transit":true,"station_id":"JNG","is_transit":true,"time":9,"distance":1236,"i_lat":-6.215091,"i_long":106.86807400000001,"station_name":"Jatinegara"},{"station_name":"Klender","i_lat":-6.2135,"line":1,"is_transit":false,"time":3,"distance":3395,"transit":false,"i_long":106.899548,"station_id":"KLD"},{"transit":false,"line":1,"distance":3100,"i_long":106.922662,"time":2,"station_id":"BUA","is_transit":false,"i_lat":-6.215568,"station_name":"Buaran"},{"transit":false,"station_name":"Klenderbaru","i_long":106.939679,"is_transit":false,"i_lat":-6.217455,"line":1,"time":1,"distance":1305,"station_id":"KLDB"},{"distance":1385,"line":1,"i_lat":-6.219053,"time":8,"station_id":"CUK","transit":false,"i_long":106.951283,"is_transit":false,"station_name":"Cakung"},{"station_id":"KRI","is_transit":false,"transit":false,"line":1,"distance":3097,"time":3,"i_lat":-6.224515,"i_long":106.977657,"station_name":"Kranji"},{"distance":2520,"i_lat":-6.236616,"station_name":"Bekasi","station_id":"BKS","transit":false,"is_transit":false,"i_long":106.997013,"line":1,"time":4},{"distance":2368,"i_long":107.016735,"transit":false,"station_id":"BKST","time":2,"line":1,"is_transit":false,"i_lat":-6.248029,"station_name":"Bekasi Timur"},{"station_id":"TB","time":7,"is_transit":false,"transit":false,"distance":4460,"line":1,"station_name":"Tambun","i_lat":-6.258864,"i_long":107.055722},{"line":1,"station_id":"CIT","transit":false,"station_name":"Cibitung","time":3,"i_lat":-6.261877,"is_transit":false,"i_long":107.083084,"distance":3420},{"transit":false,"station_id":"TLM","i_lat":-6.262938,"time":2,"station_name":"Metland Telaga Murni","line":1,"distance":2800,"is_transit":false,"i_long":107.093313}],[{"is_transit":false,"i_long":106.822649,"line":1,"time":0,"station_id":"SUD","distance":0,"station_name":"Sudirman","i_lat":-6.202263,"transit":false},{"station_name":"Sudirman Baru","line":1,"transit":false,"i_lat":-6.201433,"i_long":106.819881,"station_id":"SUDB","is_transit":false,"time":1,"distance":280},{"transit":false,"station_id":"KAT","is_transit":false,"time":1,"station_name":"Karet","i_lat":-6.20132,"i_long":106.816351,"distance":471,"line":1},{"time":5,"i_long":106.811091,"station_name":"Tanah Abang","station_id":"THB","distance":2029,"transit":false,"is_transit":false,"line":1,"i_lat":-6.185545},{"station_name":"Duri","station_id":"DU","is_transit":false,"time":8,"line":1,"i_long":106.800832,"transit":false,"distance":3632,"i_lat":-6.155215},{"i_lat":-6.144674,"i_long":106.79867,"distance":1230,"station_name":"Angke","station_id":"AK","transit":false,"time":4,"line":1,"is_transit":false},{"i_long":106.826365,"transit":true,"station_name":"Kampung Bandan","is_transit":true,"station_id":"KPB","distance":4102,"i_lat":-6.132549,"time":9,"line":4},{"i_lat":-6.137569,"is_transit":true,"time":3,"station_id":"JAKK","distance":1364,"station_name":"Jakarta Kota","i_long":106.812439,"line":2,"transit":true},{"station_name":"Jayakarta","time":4,"distance":1264,"i_lat":-6.141205,"station_id":"JAY","line":2,"is_transit":false,"i_long":106.820901,"transit":false},{"distance":1080,"i_lat":-6.149769,"i_long":106.82482,"station_id":"MGB","line":2,"transit":false,"time":2,"station_name":"Manggabesar","is_transit":false},{"transit":false,"station_id":"SW","i_long":106.827103,"i_lat":-6.160725,"is_transit":false,"time":2,"distance":906,"station_name":"Sawah Besar","line":2},{"is_transit":false,"station_name":"Juanda","station_id":"JUA","i_long":106.828284,"distance":1149,"transit":false,"i_lat":-6.166716,"time":2,"line":2},{"station_id":"GDD","i_long":106.832183,"transit":false,"time":4,"station_name":"Gondangdia","distance":2015,"i_lat":-6.186295,"line":2,"is_transit":false},{"is_transit":false,"station_id":"CKI","transit":false,"station_name":"Cikini","time":3,"i_long":106.840169,"i_lat":-6.198556,"line":2,"distance":1750},{"station_id":"MRI","transit":true,"time":4,"station_name":"Manggarai","i_lat":-6.209883,"i_long":106.84912,"is_transit":true,"line":2,"distance":1590},{"i_long":106.858896,"station_id":"MTR","transit":false,"time":2,"distance":1275,"is_transit":false,"i_lat":-6.212485,"station_name":"Matraman","line":1},{"station_name":"Jatinegara","station_id":"JNG","i_lat":-6.215091,"line":1,"time":8,"distance":1377,"i_long":106.86807400000001,"transit":false,"is_transit":false},{"i_lat":-6.2135,"station_name":"Klender","is_transit":false,"line":1,"transit":false,"i_long":106.899548,"distance":3395,"station_id":"KLD","time":3},{"line":1,"distance":3100,"is_transit":false,"i_long":106.922662,"transit":false,"station_id":"BUA","station_name":"Buaran","time":2,"i_lat":-6.215568},{"time":1,"station_name":"Klenderbaru","is_transit":false,"i_lat":-6.217455,"line":1,"distance":1305,"i_long":106.939679,"transit":false,"station_id":"KLDB"},{"transit":false,"distance":1385,"line":1,"i_lat":-6.219053,"i_long":106.951283,"is_transit":false,"time":8,"station_name":"Cakung","station_id":"CUK"},{"i_long":106.977657,"time":3,"transit":false,"station_id":"KRI","distance":3097,"is_transit":false,"i_lat":-6.224515,"line":1,"station_name":"Kranji"},{"i_long":106.997013,"transit":false,"station_id":"BKS","station_name":"Bekasi","line":1,"i_lat":-6.236616,"time":4,"is_transit":false,"distance":2520},{"time":2,"line":1,"i_long":107.016735,"transit":false,"is_transit":false,"station_id":"BKST","i_lat":-6.248029,"distance":2368,"station_name":"Bekasi Timur"},{"time":7,"distance":4460,"transit":false,"line":1,"i_long":107.055722,"i_lat":-6.258864,"station_id":"TB","station_name":"Tambun","is_transit":false},{"i_lat":-6.261877,"time":3,"station_name":"Cibitung","distance":3420,"is_transit":false,"line":1,"transit":false,"i_long":107.083084,"station_id":"CIT"},{"time":2,"transit":false,"i_lat":-6.262938,"station_id":"TLM","i_long":107.093313,"distance":2800,"station_name":"Metland Telaga Murni","is_transit":false,"line":1}],[{"time":0,"is_transit":false,"distance":0,"station_name":"Sudirman","i_long":106.822649,"station_id":"SUD","line":1,"i_lat":-6.202263,"transit":false},{"transit":true,"distance":3186,"i_long":106.84912,"line":2,"is_transit":true,"time":4,"station_id":"MRI","i_lat":-6.209883,"station_name":"Manggarai"},{"line":2,"transit":false,"station_id":"CKI","station_name":"Cikini","i_long":106.840169,"distance":1590,"i_lat":-6.198556,"time":4,"is_transit":false},{"station_name":"Gondangdia","time":3,"is_transit":false,"i_lat":-6.186295,"station_id":"GDD","distance":1750,"i_long":106.832183,"line":2,"transit":false},{"i_long":106.828284,"is_transit":false,"station_name":"Juanda","transit":false,"i_lat":-6.166716,"distance":2015,"line":2,"station_id":"JUA","time":4},{"i_lat":-6.160725,"station_name":"Sawah Besar","is_transit":false,"line":2,"distance":1149,"transit":false,"i_long":106.827103,"station_id":"SW","time":2},{"i_lat":-6.149769,"time":2,"i_long":106.82482,"station_id":"MGB","is_transit":false,"distance":906,"transit":false,"line":2,"station_name":"Manggabesar"},{"time":2,"distance":1080,"i_lat":-6.141205,"line":2,"station_name":"Jayakarta","is_transit":false,"i_long":106.820901,"transit":false,"station_id":"JAY"},{"station_id":"JAKK","is_transit":true,"i_long":106.812439,"time":4,"i_lat":-6.137569,"distance":1264,"station_name":"Jakarta Kota","line":2,"transit":true},{"i_lat":-6.132549,"time":3,"distance":1364,"is_transit":true,"station_id":"KPB","station_name":"Kampung Bandan","line":4,"transit":true,"i_long":106.826365},{"i_long":106.836569,"station_id":"RJW","time":3,"is_transit":false,"transit":false,"line":11,"distance":1444,"station_name":"Rajawali","i_lat":-6.14505},{"station_id":"KMO","transit":false,"distance":1901,"station_name":"Kemayoran","line":11,"is_transit":false,"i_long":106.839204,"i_lat":-6.161728,"time":5},{"station_id":"PSE","i_long":106.84368,"line":11,"is_transit":false,"transit":false,"distance":1436,"station_name":"Pasar Senen","i_lat":-6.174784,"time":4},{"line":11,"station_name":"Gang Sentiong","station_id":"GST","time":8,"transit":false,"i_long":106.850107,"i_lat":-6.185975,"distance":1567,"is_transit":false},{"station_name":"Kramat","i_lat":-6.193792,"i_long":106.855437,"transit":false,"distance":973,"time":1,"is_transit":false,"line":11,"station_id":"KMT"},{"transit":false,"station_name":"Pondok Jati","time":2,"line":11,"distance":1829,"station_id":"POK","i_lat":-6.209188,"i_long":106.861737,"is_transit":false},{"time":9,"distance":1236,"station_id":"JNG","i_lat":-6.215091,"is_transit":true,"line":1,"station_name":"Jatinegara","transit":true,"i_long":106.86807400000001},{"i_lat":-6.2135,"distance":3395,"i_long":106.899548,"transit":false,"time":3,"line":1,"station_id":"KLD","station_name":"Klender","is_transit":false},{"time":2,"transit":false,"distance":3100,"station_name":"Buaran","line":1,"i_lat":-6.215568,"i_long":106.922662,"is_transit":false,"station_id":"BUA"},{"station_id":"KLDB","time":1,"i_lat":-6.217455,"i_long":106.939679,"distance":1305,"station_name":"Klenderbaru","is_transit":false,"transit":false,"line":1},{"line":1,"i_long":106.951283,"station_name":"Cakung","is_transit":false,"transit":false,"station_id":"CUK","time":8,"distance":1385,"i_lat":-6.219053},{"distance":3097,"i_long":106.977657,"station_name":"Kranji","is_transit":false,"i_lat":-6.224515,"time":3,"transit":false,"line":1,"station_id":"KRI"},{"distance":2520,"is_transit":false,"time":4,"transit":false,"station_id":"BKS","i_lat":-6.236616,"station_name":"Bekasi","i_long":106.997013,"line":1},{"i_lat":-6.248029,"is_transit":false,"line":1,"station_id":"BKST","i_long":107.016735,"station_name":"Bekasi Timur","transit":false,"time":2,"distance":2368},{"station_name":"Tambun","i_lat":-6.258864,"station_id":"TB","is_transit":false,"distance":4460,"time":7,"transit":false,"i_long":107.055722,"line":1},{"i_lat":-6.261877,"transit":false,"station_id":"CIT","time":3,"is_transit":false,"station_name":"Cibitung","line":1,"i_long":107.083084,"distance":3420},{"is_transit":false,"i_lat":-6.262938,"line":1,"distance":2800,"i_long":107.093313,"time":2,"transit":false,"station_id":"TLM","station_name":"Metland Telaga Murni"}]]}