{"data":[[{"time":0,"i_long":106.822649,"line":1,"station_name":"Sudirman","station_id":"SUD","distance":0,"transit":false,"i_lat":-6.202263,"is_transit":false},{"is_transit":true,"station_name":"Manggarai","line":0,"transit":false,"i_long":106.84912,"distance":3186,"station_id":"MRI","i_lat":-6.209883,"time":4},{"i_long":106.858896,"is_transit":false,"station_id":"MTR","distance":1275,"i_lat":-6.212485,"line":1,"time":2,"transit":false,"station_name":"Matraman"},{"i_long":106.86807400000001,"line":0,"station_id":"JNG","i_lat":-6.215091,"time":8,"distance":1377,"station_name":"Jatinegara","transit":false,"is_transit":true},{"time":3,"is_transit":false,"station_id":"KLD","i_lat":-6.2135,"station_name":"Klender","transit":false,"distance":3395,"line":1,"i_long":106.899548},{"station_id":"BUA","transit":false,"i_long":106.922662,"is_transit":false,"distance":3100,"station_name":"Buaran","i_lat":-6.215568,"line":0,"time":2},{"i_long":106.939679,"i_lat":-6.217455,"time":1,"station_name":"Klenderbaru","station_id":"KLDB","is_transit":false,"transit":false,"line":1,"distance":1305},{"time":8,"is_transit":false,"station_name":"Cakung","distance":1385,"i_long":106.951283,"transit":false,"line":0,"i_lat":-6.219053,"station_id":"CUK"},{"station_id":"KRI","line":1,"is_transit":false,"i_lat":-6.224515,"i_long":106.977657,"distance":3097,"station_name":"Kranji","time":3,"transit":false},{"is_transit":false,"i_long":106.997013,"station_name":"Bekasi","transit":false,"line":0,"station_id":"BKS","i_lat":-6.236616,"time":4,"distance":2520},{"station_name":"Bekasi Timur","i_lat":-6.248029,"distance":2368,"is_transit":false,"station_id":"BKST","time":2,"line":0,"i_long":107.016735,"transit":false},{"i_long":107.055722,"distance":4460,"transit":false,"is_transit":false,"line":1,"station_id":"TB","time":7,"station_name":"Tambun","i_lat":-6.258864},{"i_long":107.083084,"station_name":"Cibitung","is_transit":false,"station_id":"CIT","line":0,"distance":3420,"transit":false,"time":3,"i_lat":-6.261877},{"station_id":"TLM","i_lat":-6.262938,"station_name":"Metland Telaga Murni","transit":false,"distance":2800,"is_transit":false,"time":2,"line":1,"i_long":107.093313}],[{"station_id":"SUD","time":0,"is_transit":false,"i_long":106.822649,"station_name":"Sudirman","i_lat":-6.202263,"distance":0,"line":1,"transit":false},{"station_name":"Sudirman Baru","line":1,"distance":280,"is_transit":false,"i_lat":-6.201433,"i_long":106.819881,"transit":false,"time":1,"station_id":"SUDB"},{"station_name":"Karet","i_lat":-6.20132,"is_transit":false,"i_long":106.816351,"transit":false,"station_id":"KAT","time":1,"line":1,"distance":471},{"time":5,"distance":2029,"transit":false,"station_id":"THB","i_long":106.811091,"is_transit":true,"station_name":"Tanah Abang","line":1,"i_lat":-6.185545},{"station_name":"Duri","time":8,"distance":3632,"is_transit":true,"transit":true,"i_lat":-6.155215,"i_long":106.800832,"line":1,"station_id":"DU"},{"i_lat":-6.144674,"line":0,"station_name":"Angke","station_id":"AK","i_long":106.79867,"time":4,"distance":1230,"is_transit":false,"transit":false},{"is_transit":true,"distance":4102,"station_name":"Kampung Bandan","time":9,"i_lat":-6.132549,"line":0,"transit":true,"i_long":106.826365,"station_id":"KPB"},{"station_name":"Rajawali","transit":false,"line":11,"is_transit":false,"station_id":"RJW","time":3,"distance":1444,"i_lat":-6.14505,"i_long":106.836569},{"i_long":106.839204,"station_name":"Kemayoran","line":11,"is_transit":false,"transit":false,"i_lat":-6.161728,"distance":1901,"station_id":"KMO","time":5},{"time":4,"station_name":"Pasar Senen","distance":1436,"is_transit":false,"station_id":"PSE","i_lat":-6.174784,"transit":false,"i_long":106.84368,"line":11},{"transit":false,"i_long":106.850107,"is_transit":false,"time":8,"line":11,"distance":1567,"station_id":"GST","station_name":"Gang Sentiong","i_lat":-6.185975},{"is_transit":false,"time":1,"i_long":106.855437,"station_id":"KMT","transit":false,"distance":973,"station_name":"Kramat","i_lat":-6.193792,"line":11},{"station_id":"POK","time":2,"distance":1829,"i_lat":-6.209188,"i_long":106.861737,"transit":false,"line":11,"is_transit":false,"station_name":"Pondok Jati"},{"station_id":"JNG","line":0,"is_transit":true,"transit":true,"distance":1236,"station_name":"Jatinegara","time":9,"i_lat":-6.215091,"i_long":106.86807400000001},{"distance":3395,"station_id":"KLD","i_long":106.899548,"station_name":"Klender","is_transit":false,"time":3,"i_lat":-6.2135,"transit":false,"line":1},{"line":0,"is_transit":false,"transit":false,"i_long":106.922662,"station_id":"BUA","i_lat":-6.215568,"time":2,"station_name":"Buaran","distance":3100},{"time":1,"station_name":"Klenderbaru","i_lat":-6.217455,"line":1,"distance":1305,"transit":false,"i_long":106.939679,"is_transit":false,"station_id":"KLDB"},{"station_name":"Cakung","distance":1385,"i_long":106.951283,"line":0,"is_transit":false,"station_id":"CUK","time":8,"i_lat":-6.219053,"transit":false},{"time":3,"i_long":106.977657,"distance":3097,"station_name":"Kranji","is_transit":false,"i_lat":-6.224515,"station_id":"KRI","line":1,"transit":false},{"time":4,"line":0,"transit":false,"station_name":"Bekasi","distance":2520,"i_long":106.997013,"i_lat":-6.236616,"station_id":"BKS","is_transit":false},{"time":2,"is_transit":false,"station_id":"BKST","station_name":"Bekasi Timur","i_lat":-6.248029,"distance":2368,"i_long":107.016735,"line":0,"transit":false},{"i_long":107.055722,"line":1,"station_name":"Tambun","transit":false,"distance":4460,"is_transit":false,"i_lat":-6.258864,"time":7,"station_id":"TB"},{"distance":3420,"station_id":"CIT","is_transit":false,"station_name":"Cibitung","i_long":107.083084,"i_lat":-6.261877,"line":0,"transit":false,"time":3},{"transit":false,"line":1,"is_transit":false,"distance":2800,"time":2,"i_lat":-6.262938,"station_id":"TLM","i_long":107.093313,"station_name":"Metland Telaga Murni"}],[{"station_id":"SUD","transit":false,"i_lat":-6.202263,"station_name":"Sudirman","time":0,"i_long":106.822649,"distance":0,"line":1,"is_transit":false},{"station_name":"Sudirman Baru","transit":false,"is_transit":false,"station_id":"SUDB","time":1,"i_lat":-6.201433,"distance":280,"i_long":106.819881,"line":1},{"line":1,"station_name":"Karet","time":1,"distance":471,"is_transit":false,"station_id":"KAT","transit":false,"i_long":106.816351,"i_lat":-6.20132},{"i_long":106.811091,"time":5,"distance":2029,"transit":false,"station_id":"THB","station_name":"Tanah Abang","is_transit":true,"i_lat":-6.185545,"line":1},{"distance":3632,"is_transit":true,"time":8,"i_long":106.800832,"line":1,"station_name":"Duri","i_lat":-6.155215,"station_id":"DU","transit":true},{"time":4,"i_long":106.79867,"is_transit":false,"i_lat":-6.144674,"station_id":"AK","transit":false,"distance":1230,"line":0,"station_name":"Angke"},{"time":9,"line":0,"distance":4102,"station_id":"KPB","is_transit":true,"station_name":"Kampung Bandan","i_lat":-6.132549,"i_long":106.826365,"transit":false},{"i_long":106.812439,"is_transit":true,"station_name":"Jakarta Kota","line":0,"i_lat":-6.137569,"distance":1364,"transit":true,"station_id":"JAKK","time":3},{"station_name":"Jayakarta","distance":1264,"i_long":106.820901,"line":7,"is_transit":false,"transit":false,"station_id":"JAY","time":4,"i_lat":-6.141205},{"is_transit":false,"station_id":"MGB","line":2,"distance":1080,"transit":false,"time":2,"i_lat":-6.149769,"station_name":"Manggabesar","i_long":106.82482},{"distance":906,"station_id":"SW","time":2,"station_name":"Sawah Besar","i_lat":-6.160725,"line":2,"i_long":106.827103,"transit":false,"is_transit":false},{"i_lat":-6.166716,"line":2,"transit":false,"station_name":"Juanda","station_id":"JUA","i_long":106.828284,"time":2,"is_transit":false,"distance":1149},{"time":4,"station_id":"GDD","i_lat":-6.186295,"station_name":"Gondangdia","line":2,"distance":2015,"is_transit":false,"i_long":106.832183,"transit":false},{"i_long":106.840169,"distance":1750,"is_transit":false,"station_name":"Cikini","time":3,"i_lat":-6.198556,"line":0,"transit":false,"station_id":"CKI"},{"line":0,"time":4,"i_lat":-6.209883,"is_transit":true,"distance":1590,"station_id":"MRI","station_name":"Manggarai","i_long":106.84912,"transit":true},{"station_id":"MTR","station_name":"Matraman","time":2,"transit":false,"is_transit":false,"i_long":106.858896,"distance":1275,"line":1,"i_lat":-6.212485},{"is_transit":true,"i_long":106.86807400000001,"station_name":"Jatinegara","transit":false,"line":0,"time":8,"station_id":"JNG","distance":1377,"i_lat":-6.215091},{"is_transit":false,"distance":3395,"station_id":"KLD","transit":false,"station_name":"Klender","time":3,"i_long":106.899548,"line":1,"i_lat":-6.2135},{"time":2,"line":0,"is_transit":false,"station_name":"Buaran","i_lat":-6.215568,"station_id":"BUA","distance":3100,"i_long":106.922662,"transit":false},{"i_long":106.939679,"transit":false,"i_lat":-6.217455,"is_transit":false,"station_name":"Klenderbaru","line":1,"station_id":"KLDB","distance":1305,"time":1},{"is_transit":false,"i_lat":-6.219053,"i_long":106.951283,"distance":1385,"station_name":"Cakung","station_id":"CUK","transit":false,"line":0,"time":8},{"station_id":"KRI","is_transit":false,"time":3,"i_long":106.977657,"transit":false,"line":1,"station_name":"Kranji","i_lat":-6.224515,"distance":3097},{"time":4,"distance":2520,"i_long":106.997013,"station_id":"BKS","i_lat":-6.236616,"transit":false,"line":0,"is_transit":false,"station_name":"Bekasi"},{"i_long":107.016735,"line":0,"station_id":"BKST","transit":false,"is_transit":false,"station_name":"Bekasi Timur","distance":2368,"time":2,"i_lat":-6.248029},{"station_id":"TB","station_name":"Tambun","time":7,"i_lat":-6.258864,"i_long":107.055722,"line":1,"distance":4460,"transit":false,"is_transit":false},{"is_transit":false,"station_name":"Cibitung","time":3,"i_long":107.083084,"line":0,"distance":3420,"transit":false,"i_lat":-6.261877,"station_id":"CIT"},{"transit":false,"i_lat":-6.262938,"station_id":"TLM","station_name":"Metland Telaga Murni","time":2,"line":1,"is_transit":false,"i_long":107.093313,"distance":2800}],[{"station_id":"SUD","i_long":106.822649,"i_lat":-6.202263,"line":1,"transit":false,"station_name":"Sudirman","time":0,"is_transit":false,"distance":0},{"i_long":106.84912,"line":0,"time":4,"distance":3186,"is_transit":true,"station_name":"Manggarai","transit":true,"station_id":"MRI","i_lat":-6.209883},{"transit":false,"i_lat":-6.198556,"i_long":106.840169,"station_name":"Cikini","time":4,"is_transit":false,"line":0,"station_id":"CKI","distance":1590},{"station_name":"Gondangdia","i_long":106.832183,"is_transit":false,"distance":1750,"time":3,"station_id":"GDD","transit":false,"i_lat":-6.186295,"line":2},{"is_transit":false,"i_long":106.828284,"station_name":"Juanda","distance":2015,"station_id":"JUA","time":4,"transit":false,"line":2,"i_lat":-6.166716},{"station_name":"Sawah Besar","i_lat":-6.160725,"i_long":106.827103,"time":2,"is_transit":false,"station_id":"SW","line":2,"distance":1149,"transit":false},{"transit":false,"i_lat":-6.149769,"i_long":106.82482,"station_id":"MGB","is_transit":false,"station_name":"Manggabesar","time":2,"distance":906,"line":2},{"station_id":"JAY","line":7,"time":2,"is_transit":false,"i_lat":-6.141205,"i_long":106.820901,"transit":false,"distance":1080,"station_name":"Jayakarta"},{"is_transit":true,"station_name":"Jakarta Kota","line":0,"time":4,"distance":1264,"i_long":106.812439,"station_id":"JAKK","transit":true,"i_lat":-6.137569},{"i_lat":-6.132549,"transit":true,"distance":1364,"time":3,"i_long":106.826365,"line":0,"station_name":"Kampung Bandan","is_transit":true,"station_id":"KPB"},{"distance":1444,"station_name":"Rajawali","line":11,"is_transit":false,"time":3,"transit":false,"station_id":"RJW","i_long":106.836569,"i_lat":-6.14505},{"time":5,"station_id":"KMO","is_transit":false,"line":11,"transit":false,"station_name":"Kemayoran","i_lat":-6.161728,"distance":1901,"i_long":106.839204},{"transit":false,"is_transit":false,"time":4,"i_lat":-6.174784,"i_long":106.84368,"distance":1436,"station_id":"PSE","station_name":"Pasar Senen","line":11},{"distance":1567,"station_name":"Gang Sentiong","transit":false,"i_lat":-6.185975,"time":8,"station_id":"GST","line":11,"i_long":106.850107,"is_transit":false},{"i_lat":-6.193792,"distance":973,"is_transit":false,"station_name":"Kramat","transit":false,"line":11,"station_id":"KMT","time":1,"i_long":106.855437},{"transit":false,"distance":1829,"station_id":"POK","line":11,"time":2,"i_long":106.861737,"station_name":"Pondok Jati","is_transit":false,"i_lat":-6.209188},{"i_lat":-6.215091,"is_transit":true,"distance":1236,"time":9,"i_long":106.86807400000001,"transit":true,"station_name":"Jatinegara","line":0,"station_id":"JNG"},{"transit":false,"time":3,"i_lat":-6.2135,"station_id":"KLD","is_transit":false,"station_name":"Klender","line":1,"distance":3395,"i_long":106.899548},{"time":2,"line":0,"is_transit":false,"transit":false,"station_name":"Buaran","station_id":"BUA","i_lat":-6.215568,"i_long":106.922662,"distance":3100},{"i_long":106.939679,"station_id":"KLDB","time":1,"station_name":"Klenderbaru","transit":false,"is_transit":false,"distance":1305,"i_lat":-6.217455,"line":1},{"station_name":"Cakung","station_id":"CUK","i_lat":-6.219053,"transit":false,"i_long":106.951283,"time":8,"line":0,"is_transit":false,"distance":1385},{"i_lat":-6.224515,"line":1,"transit":false,"time":3,"distance":3097,"i_long":106.977657,"station_id":"KRI","is_transit":false,"station_name":"Kranji"},{"is_transit":false,"time":4,"i_lat":-6.236616,"line":0,"i_long":106.997013,"station_id":"BKS","distance":2520,"transit":false,"station_name":"Bekasi"},{"is_transit":false,"distance":2368,"station_id":"BKST","station_name":"Bekasi Timur","transit":false,"i_lat":-6.248029,"i_long":107.016735,"line":0,"time":2},{"station_id":"TB","station_name":"Tambun","transit":false,"distance":4460,"line":1,"i_long":107.055722,"time":7,"i_lat":-6.258864,"is_transit":false},{"line":0,"i_lat":-6.261877,"time":3,"i_long":107.083084,"distance":3420,"station_id":"CIT","station_name":"Cibitung","transit":false,"is_transit":false},{"distance":2800,"is_transit":false,"station_name":"Metland Telaga Murni","transit":false,"time":2,"i_long":107.093313,"line":1,"station_id":"TLM","i_lat":-6.262938}]]}