{"data":[[{"time":0,"station_name":"Sudirman","i_lat":-6.202263,"i_long":106.822649,"transit":false,"station_id":"SUD","is_transit":false,"distance":0,"line":1},{"distance":3186,"i_long":106.84912,"transit":true,"is_transit":true,"line":2,"station_id":"MRI","time":4,"i_lat":-6.209883,"station_name":"Manggarai"},{"distance":2610,"i_lat":-6.226659,"station_name":"Tebet","is_transit":false,"station_id":"TEB","time":4,"line":2,"transit":false,"i_long":106.857948},{"is_transit":false,"i_lat":-6.242512,"transit":false,"station_name":"Cawang","time":2,"station_id":"CW","i_long":106.856607,"line":2,"distance":1230},{"station_name":"Duren Kalibata","i_long":106.85449,"distance":1546,"transit":false,"is_transit":false,"i_lat":-6.255332,"station_id":"DRN","time":3,"line":2},{"is_transit":false,"line":2,"i_lat":-6.263214,"station_name":"Pasar Minggu Baru","distance":824,"time":2,"i_long":106.851577,"transit":false,"station_id":"PSMB"},{"distance":2380,"i_lat":-6.2842400000000005,"i_long":106.843999,"station_id":"PSM","is_transit":false,"station_name":"Pasar Minggu","line":2,"time":2,"transit":false},{"time":4,"station_name":"Tanjung Barat","is_transit":false,"distance":2820,"i_long":106.838896,"line":2,"station_id":"TNT","i_lat":-6.3080680000000005,"transit":false},{"line":2,"station_id":"LNA","distance":2671,"transit":false,"time":3,"is_transit":false,"i_lat":-6.330363,"station_name":"Lenteng Agung","i_long":106.832616},{"time":2,"distance":1029,"i_lat":-6.339291,"i_long":106.834175,"line":2,"transit":false,"station_id":"UP","is_transit":false,"station_name":"Univ. Pancasila"},{"line":2,"i_lat":-6.360749,"distance":2264,"transit":false,"station_id":"UI","time":3,"station_name":"Univ. Indonesia","is_transit":false,"i_long":106.831474},{"i_long":106.831114,"transit":false,"line":2,"i_lat":-6.369073,"time":2,"distance":1109,"station_name":"Pondok Cina","station_id":"POC","is_transit":false},{"transit":false,"line":2,"station_id":"DPB","is_transit":false,"i_lat":-6.391065,"time":4,"station_name":"Depokbaru","i_long":106.819451,"distance":2727},{"line":2,"i_lat":-6.405256,"station_name":"Depok","time":3,"transit":false,"station_id":"DP","is_transit":false,"i_long":106.816926,"distance":1584},{"line":2,"transit":true,"station_name":"Citayam","station_id":"CTA","distance":5084,"is_transit":true,"i_long":106.800298,"time":6,"i_lat":-6.448811},{"time":0,"line":21,"station_name":"Pondok Rajeg","i_lat":-6.460735,"station_id":"PDRG","is_transit":false,"transit":false,"i_long":106.824374,"distance":0}],[{"line":1,"station_id":"SUD","station_name":"Sudirman","distance":0,"time":0,"i_lat":-6.202263,"transit":false,"i_long":106.822649,"is_transit":false},{"line":1,"station_name":"Sudirman Baru","is_transit":false,"distance":280,"i_lat":-6.201433,"time":1,"station_id":"SUDB","i_long":106.819881,"transit":false},{"i_lat":-6.20132,"line":1,"time":1,"station_id":"KAT","transit":false,"distance":471,"i_long":106.816351,"station_name":"Karet","is_transit":false},{"transit":false,"i_long":106.811091,"line":1,"time":5,"station_name":"Tanah Abang","distance":2029,"station_id":"THB","is_transit":false,"i_lat":-6.185545},{"distance":3632,"i_long":106.800832,"station_id":"DU","time":8,"i_lat":-6.155215,"line":1,"station_name":"Duri","transit":false,"is_transit":false},{"i_long":106.79867,"station_id":"AK","transit":false,"line":1,"i_lat":-6.144674,"time":4,"station_name":"Angke","distance":1230,"is_transit":false},{"line":4,"is_transit":true,"i_lat":-6.132549,"transit":true,"time":9,"distance":4102,"station_name":"Kampung Bandan","station_id":"KPB","i_long":106.826365},{"is_transit":true,"time":3,"transit":true,"i_long":106.812439,"i_lat":-6.137569,"line":2,"station_id":"JAKK","station_name":"Jakarta Kota","distance":1364},{"transit":false,"distance":1264,"station_id":"JAY","i_lat":-6.141205,"line":2,"time":4,"is_transit":false,"i_long":106.820901,"station_name":"Jayakarta"},{"is_transit":false,"transit":false,"i_long":106.82482,"station_name":"Manggabesar","line":2,"distance":1080,"time":2,"station_id":"MGB","i_lat":-6.149769},{"is_transit":false,"station_id":"SW","line":2,"i_long":106.827103,"transit":false,"time":2,"distance":906,"station_name":"Sawah Besar","i_lat":-6.160725},{"transit":false,"i_lat":-6.166716,"station_id":"JUA","distance":1149,"i_long":106.828284,"is_transit":false,"time":2,"line":2,"station_name":"Juanda"},{"transit":false,"station_name":"Gondangdia","station_id":"GDD","is_transit":false,"time":4,"distance":2015,"i_lat":-6.186295,"line":2,"i_long":106.832183},{"line":2,"i_lat":-6.198556,"i_long":106.840169,"transit":false,"is_transit":false,"station_name":"Cikini","time":3,"station_id":"CKI","distance":1750},{"is_transit":false,"time":4,"distance":1590,"i_long":106.84912,"i_lat":-6.209883,"station_id":"MRI","station_name":"Manggarai","line":2,"transit":false},{"transit":false,"distance":2610,"station_id":"TEB","i_long":106.857948,"station_name":"Tebet","time":4,"is_transit":false,"line":2,"i_lat":-6.226659},{"line":2,"distance":1230,"transit":false,"time":2,"is_transit":false,"station_id":"CW","i_lat":-6.242512,"i_long":106.856607,"station_name":"Cawang"},{"distance":1546,"station_name":"Duren Kalibata","station_id":"DRN","line":2,"time":3,"is_transit":false,"i_lat":-6.255332,"transit":false,"i_long":106.85449},{"distance":824,"is_transit":false,"time":2,"station_id":"PSMB","line":2,"i_long":106.851577,"transit":false,"station_name":"Pasar Minggu Baru","i_lat":-6.263214},{"station_name":"Pasar Minggu","line":2,"transit":false,"time":2,"is_transit":false,"i_lat":-6.2842400000000005,"distance":2380,"i_long":106.843999,"station_id":"PSM"},{"distance":2820,"time":4,"station_id":"TNT","station_name":"Tanjung Barat","transit":false,"i_lat":-6.3080680000000005,"i_long":106.838896,"is_transit":false,"line":2},{"station_name":"Lenteng Agung","transit":false,"i_long":106.832616,"distance":2671,"i_lat":-6.330363,"line":2,"time":3,"is_transit":false,"station_id":"LNA"},{"is_transit":false,"station_name":"Univ. Pancasila","i_long":106.834175,"line":2,"i_lat":-6.339291,"distance":1029,"station_id":"UP","time":2,"transit":false},{"is_transit":false,"station_id":"UI","i_long":106.831474,"distance":2264,"transit":false,"line":2,"i_lat":-6.360749,"station_name":"Univ. Indonesia","time":3},{"transit":false,"is_transit":false,"station_id":"POC","station_name":"Pondok Cina","i_lat":-6.369073,"line":2,"distance":1109,"time":2,"i_long":106.831114},{"distance":2727,"i_lat":-6.391065,"i_long":106.819451,"time":4,"line":2,"station_name":"Depokbaru","is_transit":false,"station_id":"DPB","transit":false},{"transit":false,"i_lat":-6.405256,"time":3,"station_name":"Depok","distance":1584,"is_transit":false,"station_id":"DP","line":2,"i_long":106.816926},{"station_id":"CTA","transit":true,"i_long":106.800298,"station_name":"Citayam","time":6,"line":2,"distance":5084,"is_transit":true,"i_lat":-6.448811},{"i_lat":-6.460735,"i_long":106.824374,"line":21,"distance":0,"time":0,"station_name":"Pondok Rajeg","is_transit":false,"station_id":"PDRG","transit":false}],[{"station_name":"Sudirman","station_id":"SUD","transit":false,"distance":0,"is_transit":false,"time":0,"i_lat":-6.202263,"i_long":106.822649,"line":1},{"line":1,"station_id":"SUDB","is_transit":false,"i_long":106.819881,"time":1,"transit":false,"station_name":"Sudirman Baru","distance":280,"i_lat":-6.201433},{"station_id":"KAT","i_long":106.816351,"transit":false,"line":1,"time":1,"i_lat":-6.20132,"station_name":"Karet","distance":471,"is_transit":false},{"line":1,"is_transit":false,"station_name":"Tanah Abang","i_long":106.811091,"i_lat":-6.185545,"time":5,"distance":2029,"transit":false,"station_id":"THB"},{"i_lat":-6.155215,"time":8,"is_transit":false,"distance":3632,"station_name":"Duri","station_id":"DU","i_long":106.800832,"transit":false,"line":1},{"i_lat":-6.144674,"distance":1230,"is_transit":false,"time":4,"station_id":"AK","transit":false,"i_long":106.79867,"line":1,"station_name":"Angke"},{"distance":4102,"i_lat":-6.132549,"station_name":"Kampung Bandan","station_id":"KPB","time":9,"transit":true,"is_transit":true,"i_long":106.826365,"line":4},{"i_long":106.836569,"station_id":"RJW","is_transit":false,"station_name":"Rajawali","transit":false,"distance":1444,"i_lat":-6.14505,"line":11,"time":3},{"time":5,"station_name":"Kemayoran","distance":1901,"line":11,"i_long":106.839204,"i_lat":-6.161728,"is_transit":false,"station_id":"KMO","transit":false},{"station_id":"PSE","i_long":106.84368,"station_name":"Pasar Senen","distance":1436,"line":11,"time":4,"i_lat":-6.174784,"is_transit":false,"transit":false},{"station_name":"Gang Sentiong","line":11,"distance":1567,"time":8,"transit":false,"i_lat":-6.185975,"station_id":"GST","is_transit":false,"i_long":106.850107},{"is_transit":false,"time":1,"transit":false,"i_lat":-6.193792,"i_long":106.855437,"station_name":"Kramat","line":11,"distance":973,"station_id":"KMT"},{"is_transit":false,"time":2,"i_lat":-6.209188,"i_long":106.861737,"station_name":"Pondok Jati","station_id":"POK","line":11,"distance":1829,"transit":false},{"distance":1236,"station_name":"Jatinegara","is_transit":true,"station_id":"JNG","transit":true,"i_long":106.86807400000001,"line":1,"time":9,"i_lat":-6.215091},{"is_transit":false,"i_lat":-6.212485,"distance":1377,"line":1,"station_name":"Matraman","i_long":106.858896,"station_id":"MTR","time":2,"transit":false},{"station_name":"Manggarai","distance":1275,"station_id":"MRI","time":2,"transit":true,"i_long":106.84912,"i_lat":-6.209883,"is_transit":true,"line":2},{"time":4,"i_long":106.857948,"line":2,"distance":2610,"is_transit":false,"i_lat":-6.226659,"transit":false,"station_id":"TEB","station_name":"Tebet"},{"station_id":"CW","time":2,"i_long":106.856607,"is_transit":false,"transit":false,"line":2,"station_name":"Cawang","distance":1230,"i_lat":-6.242512},{"transit":false,"i_long":106.85449,"distance":1546,"line":2,"i_lat":-6.255332,"is_transit":false,"station_name":"Duren Kalibata","station_id":"DRN","time":3},{"station_id":"PSMB","line":2,"time":2,"transit":false,"distance":824,"i_lat":-6.263214,"station_name":"Pasar Minggu Baru","i_long":106.851577,"is_transit":false},{"i_long":106.843999,"station_id":"PSM","station_name":"Pasar Minggu","distance":2380,"line":2,"time":2,"is_transit":false,"transit":false,"i_lat":-6.2842400000000005},{"distance":2820,"station_id":"TNT","is_transit":false,"transit":false,"i_long":106.838896,"line":2,"i_lat":-6.3080680000000005,"time":4,"station_name":"Tanjung Barat"},{"i_long":106.832616,"line":2,"time":3,"is_transit":false,"transit":false,"distance":2671,"station_id":"LNA","i_lat":-6.330363,"station_name":"Lenteng Agung"},{"transit":false,"distance":1029,"is_transit":false,"station_id":"UP","i_long":106.834175,"line":2,"time":2,"station_name":"Univ. Pancasila","i_lat":-6.339291},{"station_name":"Univ. Indonesia","time":3,"distance":2264,"is_transit":false,"transit":false,"line":2,"station_id":"UI","i_lat":-6.360749,"i_long":106.831474},{"station_name":"Pondok Cina","distance":1109,"time":2,"i_lat":-6.369073,"is_transit":false,"station_id":"POC","transit":false,"line":2,"i_long":106.831114},{"is_transit":false,"station_name":"Depokbaru","transit":false,"i_long":106.819451,"station_id":"DPB","i_lat":-6.391065,"line":2,"time":4,"distance":2727},{"time":3,"line":2,"station_name":"Depok","i_lat":-6.405256,"distance":1584,"i_long":106.816926,"station_id":"DP","is_transit":false,"transit":false},{"is_transit":true,"transit":true,"station_name":"Citayam","i_long":106.800298,"station_id":"CTA","i_lat":-6.448811,"distance":5084,"line":2,"time":6},{"is_transit":false,"line":21,"station_name":"Pondok Rajeg","distance":0,"station_id":"PDRG","i_lat":-6.460735,"transit":false,"time":0,"i_long":106.824374}]]}