{"data":[[{"transit":false,"distance":0,"i_long":106.822649,"i_lat":-6.202263,"line":1,"time":0,"is_transit":false,"station_name":"Sudirman","station_id":"SUD"},{"time":1,"is_transit":false,"station_name":"Sudirman Baru","distance":280,"transit":false,"station_id":"SUDB","i_lat":-6.201433,"i_long":106.819881,"line":1},{"is_transit":false,"station_name":"Karet","transit":false,"i_lat":-6.20132,"line":1,"time":1,"distance":471,"i_long":106.816351,"station_id":"KAT"},{"i_long":106.811091,"transit":true,"distance":2029,"station_id":"THB","station_name":"Tanah Abang","i_lat":-6.185545,"time":5,"line":1,"is_transit":true},{"transit":false,"time":6,"is_transit":false,"i_lat":-6.207404,"distance":3191,"station_name":"Palmerah","i_long":106.79689,"station_id":"PLM","line":6},{"transit":false,"station_id":"KBY","is_transit":false,"i_long":106.780334,"distance":3737,"time":7,"i_lat":-6.237242,"station_name":"Kebayoran","line":6},{"i_long":106.74273,"i_lat":-6.276362,"station_name":"Pondokranji","time":8,"line":6,"is_transit":false,"distance":6218,"station_id":"PDJ","transit":false},{"time":3,"station_name":"Jurangmangu","station_id":"JMU","transit":false,"i_lat":-6.288927,"line":6,"is_transit":false,"i_long":106.728916,"distance":2179},{"is_transit":false,"i_lat":-6.296963,"transit":false,"time":4,"i_long":106.712277,"line":6,"distance":1994,"station_id":"SDM","station_name":"Sudimara"},{"i_long":106.675475,"line":6,"i_lat":-6.314823,"distance":4566,"transit":false,"is_transit":false,"time":6,"station_name":"Rawa Buntu","station_id":"RU"},{"line":6,"transit":false,"station_name":"Serpong","distance":2413,"time":4,"is_transit":false,"i_long":106.66566,"i_lat":-6.319871,"station_id":"SRP"},{"line":0,"station_name":"Cisauk","is_transit":false,"time":4,"distance":1784,"station_id":"CSK","i_long":106.640411,"transit":false,"i_lat":-6.32484},{"time":4,"is_transit":false,"transit":false,"line":0,"i_lat":-6.329547,"i_long":106.617853,"station_id":"CC","distance":2519,"station_name":"Cicayur"},{"i_lat":-6.3441410000000005,"distance":5968,"line":6,"station_id":"PRP","time":8,"station_name":"Parung Panjang","is_transit":false,"transit":false,"i_long":106.568863},{"station_name":"Cilejit","distance":7025,"i_long":106.508482,"line":0,"time":9,"transit":false,"station_id":"CJT","i_lat":-6.354349,"is_transit":false},{"i_long":106.491338,"station_id":"DAR","station_name":"Daru","time":6,"i_lat":-6.338021,"is_transit":false,"transit":false,"line":0,"distance":2675},{"distance":3902,"is_transit":false,"station_name":"Tenjo","time":5,"i_long":106.460812,"station_id":"TEJ","i_lat":-6.327251,"line":6,"transit":false},{"transit":false,"time":5,"i_lat":-6.328533,"i_long":106.425991,"station_name":"Tigaraksa","line":6,"is_transit":false,"distance":2974,"station_id":"TGS"}],[{"line":1,"station_id":"SUD","distance":0,"station_name":"Sudirman","transit":false,"is_transit":false,"time":0,"i_long":106.822649,"i_lat":-6.202263},{"station_id":"MRI","i_lat":-6.209883,"is_transit":true,"distance":3186,"line":0,"transit":true,"station_name":"Manggarai","time":4,"i_long":106.84912},{"line":0,"time":4,"transit":false,"i_lat":-6.198556,"i_long":106.840169,"station_id":"CKI","is_transit":false,"distance":1590,"station_name":"Cikini"},{"time":3,"station_name":"Gondangdia","i_lat":-6.186295,"is_transit":false,"transit":false,"i_long":106.832183,"distance":1750,"station_id":"GDD","line":2},{"i_lat":-6.166716,"is_transit":false,"distance":2015,"transit":false,"station_id":"JUA","station_name":"Juanda","i_long":106.828284,"line":2,"time":4},{"line":2,"i_long":106.827103,"distance":1149,"station_id":"SW","time":2,"transit":false,"i_lat":-6.160725,"is_transit":false,"station_name":"Sawah Besar"},{"time":2,"station_id":"MGB","transit":false,"i_lat":-6.149769,"line":2,"distance":906,"station_name":"Manggabesar","is_transit":false,"i_long":106.82482},{"i_lat":-6.141205,"station_id":"JAY","time":2,"is_transit":false,"line":7,"station_name":"Jayakarta","i_long":106.820901,"distance":1080,"transit":false},{"station_id":"JAKK","i_long":106.812439,"line":0,"is_transit":true,"i_lat":-6.137569,"distance":1264,"station_name":"Jakarta Kota","time":4,"transit":true},{"is_transit":true,"station_name":"Kampung Bandan","transit":false,"i_long":106.826365,"line":0,"distance":1364,"time":3,"station_id":"KPB","i_lat":-6.132549},{"line":0,"time":9,"i_lat":-6.144674,"station_name":"Angke","i_long":106.79867,"distance":4102,"is_transit":false,"station_id":"AK","transit":false},{"transit":true,"time":4,"is_transit":true,"distance":1230,"i_long":106.800832,"line":1,"i_lat":-6.155215,"station_name":"Duri","station_id":"DU"},{"line":1,"station_id":"THB","i_long":106.811091,"distance":3632,"time":8,"transit":true,"i_lat":-6.185545,"is_transit":true,"station_name":"Tanah Abang"},{"distance":3191,"station_id":"PLM","is_transit":false,"station_name":"Palmerah","time":6,"i_lat":-6.207404,"i_long":106.79689,"line":6,"transit":false},{"station_id":"KBY","i_lat":-6.237242,"i_long":106.780334,"is_transit":false,"time":7,"station_name":"Kebayoran","distance":3737,"transit":false,"line":6},{"i_long":106.74273,"is_transit":false,"time":8,"i_lat":-6.276362,"distance":6218,"transit":false,"line":6,"station_id":"PDJ","station_name":"Pondokranji"},{"i_lat":-6.288927,"transit":false,"station_name":"Jurangmangu","station_id":"JMU","i_long":106.728916,"distance":2179,"time":3,"is_transit":false,"line":6},{"distance":1994,"is_transit":false,"station_name":"Sudimara","transit":false,"i_long":106.712277,"i_lat":-6.296963,"line":6,"time":4,"station_id":"SDM"},{"i_lat":-6.314823,"distance":4566,"transit":false,"station_id":"RU","time":6,"i_long":106.675475,"is_transit":false,"line":6,"station_name":"Rawa Buntu"},{"time":4,"is_transit":false,"distance":2413,"station_id":"SRP","station_name":"Serpong","transit":false,"i_lat":-6.319871,"i_long":106.66566,"line":6},{"station_name":"Cisauk","station_id":"CSK","transit":false,"is_transit":false,"distance":1784,"i_long":106.640411,"time":4,"line":0,"i_lat":-6.32484},{"transit":false,"distance":2519,"station_id":"CC","time":4,"i_long":106.617853,"i_lat":-6.329547,"station_name":"Cicayur","line":0,"is_transit":false},{"station_id":"PRP","time":8,"line":6,"i_long":106.568863,"transit":false,"is_transit":false,"distance":5968,"station_name":"Parung Panjang","i_lat":-6.3441410000000005},{"station_id":"CJT","i_long":106.508482,"distance":7025,"i_lat":-6.354349,"is_transit":false,"line":0,"station_name":"Cilejit","transit":false,"time":9},{"time":6,"is_transit":false,"transit":false,"i_lat":-6.338021,"i_long":106.491338,"distance":2675,"station_id":"DAR","station_name":"Daru","line":0},{"station_id":"TEJ","distance":3902,"i_long":106.460812,"station_name":"Tenjo","i_lat":-6.327251,"transit":false,"time":5,"line":6,"is_transit":false},{"time":5,"station_name":"Tigaraksa","i_long":106.425991,"distance":2974,"is_transit":false,"transit":false,"line":6,"i_lat":-6.328533,"station_id":"TGS"}],[{"station_id":"SUD","transit":false,"line":1,"i_lat":-6.202263,"distance":0,"station_name":"Sudirman","time":0,"i_long":106.822649,"is_transit":false},{"transit":false,"line":0,"distance":3186,"station_id":"MRI","time":4,"i_lat":-6.209883,"i_long":106.84912,"is_transit":true,"station_name":"Manggarai"},{"station_name":"Matraman","distance":1275,"line":1,"time":2,"transit":false,"station_id":"MTR","is_transit":false,"i_lat":-6.212485,"i_long":106.858896},{"line":0,"distance":1377,"is_transit":true,"i_long":106.86807400000001,"i_lat":-6.215091,"station_id":"JNG","transit":true,"station_name":"Jatinegara","time":8},{"distance":1236,"line":11,"station_name":"Pondok Jati","i_lat":-6.209188,"transit":false,"time":2,"i_long":106.861737,"station_id":"POK","is_transit":false},{"i_long":106.855437,"distance":1829,"station_id":"KMT","line":11,"transit":false,"station_name":"Kramat","i_lat":-6.193792,"time":2,"is_transit":false},{"time":1,"is_transit":false,"transit":false,"distance":973,"station_id":"GST","station_name":"Gang Sentiong","i_lat":-6.185975,"i_long":106.850107,"line":11},{"i_lat":-6.174784,"i_long":106.84368,"line":11,"is_transit":false,"time":8,"distance":1567,"transit":false,"station_id":"PSE","station_name":"Pasar Senen"},{"time":4,"distance":1436,"station_name":"Kemayoran","i_lat":-6.161728,"line":11,"transit":false,"i_long":106.839204,"is_transit":false,"station_id":"KMO"},{"line":11,"transit":false,"station_name":"Rajawali","time":5,"i_lat":-6.14505,"i_long":106.836569,"distance":1901,"station_id":"RJW","is_transit":false},{"i_lat":-6.132549,"i_long":106.826365,"transit":true,"station_id":"KPB","distance":1444,"is_transit":true,"time":3,"line":0,"station_name":"Kampung Bandan"},{"station_name":"Angke","transit":false,"time":9,"line":0,"i_long":106.79867,"i_lat":-6.144674,"station_id":"AK","distance":4102,"is_transit":false},{"line":1,"transit":true,"time":4,"distance":1230,"is_transit":true,"station_name":"Duri","i_long":106.800832,"i_lat":-6.155215,"station_id":"DU"},{"distance":3632,"station_id":"THB","time":8,"i_lat":-6.185545,"is_transit":true,"i_long":106.811091,"station_name":"Tanah Abang","transit":true,"line":1},{"is_transit":false,"station_name":"Palmerah","distance":3191,"transit":false,"station_id":"PLM","time":6,"i_lat":-6.207404,"i_long":106.79689,"line":6},{"line":6,"station_id":"KBY","i_long":106.780334,"transit":false,"time":7,"distance":3737,"is_transit":false,"station_name":"Kebayoran","i_lat":-6.237242},{"time":8,"station_name":"Pondokranji","distance":6218,"transit":false,"is_transit":false,"i_lat":-6.276362,"i_long":106.74273,"line":6,"station_id":"PDJ"},{"time":3,"station_name":"Jurangmangu","station_id":"JMU","distance":2179,"transit":false,"i_long":106.728916,"line":6,"is_transit":false,"i_lat":-6.288927},{"is_transit":false,"i_lat":-6.296963,"station_id":"SDM","station_name":"Sudimara","distance":1994,"i_long":106.712277,"line":6,"time":4,"transit":false},{"station_name":"Rawa Buntu","transit":false,"line":6,"distance":4566,"station_id":"RU","time":6,"i_lat":-6.314823,"i_long":106.675475,"is_transit":false},{"time":4,"is_transit":false,"station_name":"Serpong","i_lat":-6.319871,"i_long":106.66566,"transit":false,"station_id":"SRP","line":6,"distance":2413},{"line":0,"station_id":"CSK","time":4,"is_transit":false,"distance":1784,"station_name":"Cisauk","transit":false,"i_lat":-6.32484,"i_long":106.640411},{"distance":2519,"i_long":106.617853,"station_name":"Cicayur","time":4,"transit":false,"is_transit":false,"station_id":"CC","line":0,"i_lat":-6.329547},{"i_lat":-6.3441410000000005,"station_id":"PRP","transit":false,"time":8,"distance":5968,"line":6,"station_name":"Parung Panjang","i_long":106.568863,"is_transit":false},{"line":0,"is_transit":false,"i_long":106.508482,"station_name":"Cilejit","station_id":"CJT","i_lat":-6.354349,"time":9,"distance":7025,"transit":false},{"i_lat":-6.338021,"i_long":106.491338,"is_transit":false,"transit":false,"line":0,"station_name":"Daru","distance":2675,"station_id":"DAR","time":6},{"time":5,"i_long":106.460812,"distance":3902,"is_transit":false,"station_name":"Tenjo","station_id":"TEJ","i_lat":-6.327251,"transit":false,"line":6},{"station_name":"Tigaraksa","i_long":106.425991,"transit":false,"time":5,"i_lat":-6.328533,"is_transit":false,"distance":2974,"line":6,"station_id":"TGS"}]]}