{"data":[[{"is_transit":false,"distance":0,"i_lat":-6.202263,"line":1,"station_name":"Sudirman","time":0,"transit":false,"station_id":"SUD","i_long":106.822649},{"is_transit":true,"station_name":"Manggarai","time":4,"i_lat":-6.209883,"station_id":"MRI","transit":true,"i_long":106.84912,"distance":3186,"line":2},{"transit":false,"station_name":"Tebet","time":4,"i_long":106.857948,"is_transit":false,"line":2,"station_id":"TEB","distance":2610,"i_lat":-6.226659},{"transit":false,"station_name":"Cawang","i_long":106.856607,"is_transit":false,"distance":1230,"i_lat":-6.242512,"time":2,"station_id":"CW","line":2},{"station_id":"DRN","station_name":"Duren Kalibata","transit":false,"is_transit":false,"distance":1546,"i_lat":-6.255332,"line":2,"i_long":106.85449,"time":3},{"transit":false,"distance":824,"station_id":"PSMB","i_long":106.851577,"line":2,"station_name":"Pasar Minggu Baru","is_transit":false,"i_lat":-6.263214,"time":2},{"i_lat":-6.2842400000000005,"time":2,"transit":false,"line":2,"station_name":"Pasar Minggu","station_id":"PSM","is_transit":false,"distance":2380,"i_long":106.843999},{"station_name":"Tanjung Barat","i_long":106.838896,"station_id":"TNT","is_transit":false,"transit":false,"i_lat":-6.3080680000000005,"line":2,"time":4,"distance":2820}],[{"i_lat":-6.202263,"station_name":"Sudirman","time":0,"is_transit":false,"line":1,"transit":false,"i_long":106.822649,"station_id":"SUD","distance":0},{"i_lat":-6.201433,"line":1,"station_id":"SUDB","distance":280,"i_long":106.819881,"transit":false,"is_transit":false,"time":1,"station_name":"Sudirman Baru"},{"station_id":"KAT","line":1,"i_long":106.816351,"is_transit":false,"transit":false,"time":1,"distance":471,"station_name":"Karet","i_lat":-6.20132},{"time":5,"station_name":"Tanah Abang","station_id":"THB","is_transit":false,"distance":2029,"i_lat":-6.185545,"i_long":106.811091,"line":1,"transit":false},{"i_lat":-6.155215,"transit":false,"line":1,"station_name":"Duri","station_id":"DU","distance":3632,"time":8,"i_long":106.800832,"is_transit":false},{"transit":false,"time":4,"line":1,"station_id":"AK","i_long":106.79867,"distance":1230,"is_transit":false,"i_lat":-6.144674,"station_name":"Angke"},{"i_lat":-6.132549,"i_long":106.826365,"station_id":"KPB","station_name":"Kampung Bandan","is_transit":true,"time":9,"transit":true,"distance":4102,"line":4},{"station_name":"Jakarta Kota","is_transit":true,"station_id":"JAKK","transit":true,"i_lat":-6.137569,"time":3,"line":2,"distance":1364,"i_long":106.812439},{"is_transit":false,"i_long":106.820901,"time":4,"line":2,"station_name":"Jayakarta","distance":1264,"transit":false,"i_lat":-6.141205,"station_id":"JAY"},{"time":2,"station_name":"Manggabesar","is_transit":false,"distance":1080,"line":2,"transit":false,"station_id":"MGB","i_long":106.82482,"i_lat":-6.149769},{"is_transit":false,"i_long":106.827103,"i_lat":-6.160725,"time":2,"distance":906,"station_id":"SW","transit":false,"station_name":"Sawah Besar","line":2},{"distance":1149,"time":2,"station_name":"Juanda","line":2,"i_long":106.828284,"i_lat":-6.166716,"station_id":"JUA","transit":false,"is_transit":false},{"station_id":"GDD","distance":2015,"line":2,"i_long":106.832183,"is_transit":false,"station_name":"Gondangdia","i_lat":-6.186295,"transit":false,"time":4},{"is_transit":false,"distance":1750,"i_lat":-6.198556,"station_id":"CKI","i_long":106.840169,"transit":false,"time":3,"station_name":"Cikini","line":2},{"i_long":106.84912,"i_lat":-6.209883,"station_name":"Manggarai","station_id":"MRI","is_transit":false,"transit":false,"distance":1590,"line":2,"time":4},{"time":4,"distance":2610,"station_id":"TEB","transit":false,"station_name":"Tebet","is_transit":false,"i_lat":-6.226659,"i_long":106.857948,"line":2},{"i_long":106.856607,"station_name":"Cawang","i_lat":-6.242512,"line":2,"transit":false,"time":2,"distance":1230,"station_id":"CW","is_transit":false},{"transit":false,"station_name":"Duren Kalibata","is_transit":false,"time":3,"station_id":"DRN","distance":1546,"i_long":106.85449,"i_lat":-6.255332,"line":2},{"station_name":"Pasar Minggu Baru","time":2,"i_long":106.851577,"is_transit":false,"station_id":"PSMB","transit":false,"distance":824,"i_lat":-6.263214,"line":2},{"time":2,"transit":false,"line":2,"station_id":"PSM","is_transit":false,"i_lat":-6.2842400000000005,"station_name":"Pasar Minggu","distance":2380,"i_long":106.843999},{"line":2,"i_lat":-6.3080680000000005,"i_long":106.838896,"is_transit":false,"transit":false,"station_id":"TNT","time":4,"station_name":"Tanjung Barat","distance":2820}],[{"is_transit":false,"i_long":106.822649,"station_id":"SUD","transit":false,"station_name":"Sudirman","time":0,"line":1,"i_lat":-6.202263,"distance":0},{"time":1,"is_transit":false,"distance":280,"transit":false,"i_lat":-6.201433,"line":1,"i_long":106.819881,"station_id":"SUDB","station_name":"Sudirman Baru"},{"distance":471,"time":1,"i_long":106.816351,"station_id":"KAT","transit":false,"station_name":"Karet","is_transit":false,"i_lat":-6.20132,"line":1},{"station_id":"THB","is_transit":false,"distance":2029,"time":5,"station_name":"Tanah Abang","i_lat":-6.185545,"i_long":106.811091,"line":1,"transit":false},{"distance":3632,"time":8,"station_id":"DU","station_name":"Duri","i_lat":-6.155215,"transit":false,"is_transit":false,"i_long":106.800832,"line":1},{"time":4,"distance":1230,"i_lat":-6.144674,"station_id":"AK","i_long":106.79867,"line":1,"transit":false,"station_name":"Angke","is_transit":false},{"i_lat":-6.132549,"station_name":"Kampung Bandan","station_id":"KPB","distance":4102,"line":4,"time":9,"transit":true,"is_transit":true,"i_long":106.826365},{"line":11,"i_lat":-6.14505,"distance":1444,"station_name":"Rajawali","station_id":"RJW","is_transit":false,"i_long":106.836569,"transit":false,"time":3},{"is_transit":false,"distance":1901,"line":11,"transit":false,"station_id":"KMO","station_name":"Kemayoran","time":5,"i_long":106.839204,"i_lat":-6.161728},{"i_long":106.84368,"station_id":"PSE","line":11,"transit":false,"is_transit":false,"station_name":"Pasar Senen","distance":1436,"i_lat":-6.174784,"time":4},{"line":11,"is_transit":false,"station_name":"Gang Sentiong","transit":false,"station_id":"GST","time":8,"distance":1567,"i_lat":-6.185975,"i_long":106.850107},{"line":11,"distance":973,"i_lat":-6.193792,"station_id":"KMT","time":1,"transit":false,"i_long":106.855437,"station_name":"Kramat","is_transit":false},{"i_long":106.861737,"time":2,"line":11,"distance":1829,"station_name":"Pondok Jati","is_transit":false,"transit":false,"station_id":"POK","i_lat":-6.209188},{"i_long":106.86807400000001,"distance":1236,"station_id":"JNG","time":9,"transit":true,"station_name":"Jatinegara","is_transit":true,"i_lat":-6.215091,"line":1},{"transit":false,"distance":1377,"time":2,"station_name":"Matraman","line":1,"i_long":106.858896,"i_lat":-6.212485,"station_id":"MTR","is_transit":false},{"station_id":"MRI","line":2,"is_transit":true,"transit":true,"station_name":"Manggarai","i_lat":-6.209883,"time":2,"distance":1275,"i_long":106.84912},{"transit":false,"time":4,"i_long":106.857948,"i_lat":-6.226659,"distance":2610,"station_id":"TEB","station_name":"Tebet","is_transit":false,"line":2},{"i_lat":-6.242512,"is_transit":false,"station_id":"CW","line":2,"transit":false,"station_name":"Cawang","distance":1230,"i_long":106.856607,"time":2},{"line":2,"is_transit":false,"i_long":106.85449,"distance":1546,"transit":false,"time":3,"i_lat":-6.255332,"station_id":"DRN","station_name":"Duren Kalibata"},{"station_id":"PSMB","station_name":"Pasar Minggu Baru","i_long":106.851577,"transit":false,"distance":824,"time":2,"i_lat":-6.263214,"is_transit":false,"line":2},{"time":2,"station_name":"Pasar Minggu","station_id":"PSM","line":2,"transit":false,"i_lat":-6.2842400000000005,"i_long":106.843999,"is_transit":false,"distance":2380},{"station_name":"Tanjung Barat","i_long":106.838896,"i_lat":-6.3080680000000005,"is_transit":false,"transit":false,"line":2,"time":4,"station_id":"TNT","distance":2820}]]}