{"data":[[{"is_transit":false,"distance":0,"station_id":"SUD","station_name":"Sudirman","time":0,"line":1,"i_lat":-6.202263,"transit":false,"i_long":106.822649},{"distance":3186,"station_name":"Manggarai","line":0,"i_long":106.84912,"station_id":"MRI","transit":false,"is_transit":true,"time":4,"i_lat":-6.209883},{"i_lat":-6.212485,"line":1,"station_name":"Matraman","transit":false,"station_id":"MTR","distance":1275,"i_long":106.858896,"time":2,"is_transit":false},{"transit":false,"time":8,"i_long":106.86807400000001,"line":0,"station_name":"Jatinegara","i_lat":-6.215091,"distance":1377,"station_id":"JNG","is_transit":true},{"i_long":106.899548,"transit":false,"distance":3395,"station_id":"KLD","station_name":"Klender","is_transit":false,"time":3,"i_lat":-6.2135,"line":1},{"distance":3100,"line":0,"station_name":"Buaran","transit":false,"is_transit":false,"time":2,"station_id":"BUA","i_long":106.922662,"i_lat":-6.215568},{"line":1,"i_lat":-6.217455,"station_id":"KLDB","time":1,"is_transit":false,"distance":1305,"i_long":106.939679,"transit":false,"station_name":"Klenderbaru"},{"station_name":"Cakung","distance":1385,"is_transit":false,"i_long":106.951283,"station_id":"CUK","transit":false,"line":0,"i_lat":-6.219053,"time":8}],[{"is_transit":false,"station_id":"SUD","transit":false,"i_lat":-6.202263,"station_name":"Sudirman","i_long":106.822649,"line":1,"time":0,"distance":0},{"station_id":"SUDB","line":1,"distance":280,"is_transit":false,"i_long":106.819881,"time":1,"station_name":"Sudirman Baru","i_lat":-6.201433,"transit":false},{"time":1,"i_long":106.816351,"i_lat":-6.20132,"transit":false,"station_id":"KAT","line":1,"station_name":"Karet","distance":471,"is_transit":false},{"station_id":"THB","time":5,"transit":false,"line":1,"is_transit":true,"i_lat":-6.185545,"distance":2029,"i_long":106.811091,"station_name":"Tanah Abang"},{"line":1,"distance":3632,"is_transit":true,"i_lat":-6.155215,"transit":true,"station_name":"Duri","station_id":"DU","time":8,"i_long":106.800832},{"i_long":106.79867,"station_id":"AK","distance":1230,"station_name":"Angke","i_lat":-6.144674,"is_transit":false,"transit":false,"line":0,"time":4},{"station_id":"KPB","transit":true,"time":9,"i_lat":-6.132549,"line":0,"is_transit":true,"station_name":"Kampung Bandan","i_long":106.826365,"distance":4102},{"station_name":"Rajawali","i_long":106.836569,"i_lat":-6.14505,"line":11,"is_transit":false,"time":3,"transit":false,"station_id":"RJW","distance":1444},{"time":5,"transit":false,"station_id":"KMO","station_name":"Kemayoran","distance":1901,"i_lat":-6.161728,"line":11,"is_transit":false,"i_long":106.839204},{"line":11,"distance":1436,"transit":false,"i_lat":-6.174784,"time":4,"station_id":"PSE","station_name":"Pasar Senen","is_transit":false,"i_long":106.84368},{"i_lat":-6.185975,"distance":1567,"i_long":106.850107,"line":11,"time":8,"station_name":"Gang Sentiong","station_id":"GST","is_transit":false,"transit":false},{"station_name":"Kramat","i_lat":-6.193792,"line":11,"distance":973,"time":1,"is_transit":false,"transit":false,"i_long":106.855437,"station_id":"KMT"},{"line":11,"distance":1829,"i_long":106.861737,"time":2,"i_lat":-6.209188,"transit":false,"is_transit":false,"station_name":"Pondok Jati","station_id":"POK"},{"i_lat":-6.215091,"station_id":"JNG","is_transit":true,"transit":true,"distance":1236,"i_long":106.86807400000001,"station_name":"Jatinegara","line":0,"time":9},{"transit":false,"time":3,"is_transit":false,"station_name":"Klender","i_lat":-6.2135,"station_id":"KLD","distance":3395,"i_long":106.899548,"line":1},{"line":0,"distance":3100,"station_name":"Buaran","is_transit":false,"i_lat":-6.215568,"transit":false,"station_id":"BUA","time":2,"i_long":106.922662},{"station_name":"Klenderbaru","time":1,"i_long":106.939679,"transit":false,"is_transit":false,"station_id":"KLDB","line":1,"distance":1305,"i_lat":-6.217455},{"line":0,"station_id":"CUK","transit":false,"distance":1385,"station_name":"Cakung","is_transit":false,"i_lat":-6.219053,"i_long":106.951283,"time":8}],[{"is_transit":false,"transit":false,"time":0,"station_name":"Sudirman","station_id":"SUD","distance":0,"i_long":106.822649,"i_lat":-6.202263,"line":1},{"station_name":"Sudirman Baru","distance":280,"i_lat":-6.201433,"i_long":106.819881,"time":1,"transit":false,"station_id":"SUDB","is_transit":false,"line":1},{"i_long":106.816351,"line":1,"time":1,"i_lat":-6.20132,"station_name":"Karet","station_id":"KAT","is_transit":false,"transit":false,"distance":471},{"line":1,"time":5,"is_transit":true,"transit":false,"i_lat":-6.185545,"i_long":106.811091,"distance":2029,"station_id":"THB","station_name":"Tanah Abang"},{"is_transit":true,"transit":true,"time":8,"line":1,"i_long":106.800832,"station_name":"Duri","station_id":"DU","i_lat":-6.155215,"distance":3632},{"station_name":"Angke","station_id":"AK","is_transit":false,"transit":false,"distance":1230,"line":0,"time":4,"i_lat":-6.144674,"i_long":106.79867},{"is_transit":true,"station_id":"KPB","i_long":106.826365,"station_name":"Kampung Bandan","line":0,"i_lat":-6.132549,"transit":false,"distance":4102,"time":9},{"i_lat":-6.137569,"time":3,"distance":1364,"i_long":106.812439,"station_name":"Jakarta Kota","is_transit":true,"line":0,"station_id":"JAKK","transit":true},{"is_transit":false,"station_id":"JAY","time":4,"line":7,"station_name":"Jayakarta","i_long":106.820901,"distance":1264,"transit":false,"i_lat":-6.141205},{"station_id":"MGB","time":2,"i_long":106.82482,"i_lat":-6.149769,"transit":false,"distance":1080,"station_name":"Manggabesar","is_transit":false,"line":2},{"line":2,"time":2,"is_transit":false,"transit":false,"i_lat":-6.160725,"distance":906,"i_long":106.827103,"station_name":"Sawah Besar","station_id":"SW"},{"station_id":"JUA","distance":1149,"is_transit":false,"station_name":"Juanda","i_lat":-6.166716,"transit":false,"i_long":106.828284,"line":2,"time":2},{"distance":2015,"station_id":"GDD","station_name":"Gondangdia","i_long":106.832183,"line":2,"is_transit":false,"transit":false,"time":4,"i_lat":-6.186295},{"station_name":"Cikini","time":3,"station_id":"CKI","i_lat":-6.198556,"line":0,"i_long":106.840169,"is_transit":false,"transit":false,"distance":1750},{"i_long":106.84912,"i_lat":-6.209883,"is_transit":true,"time":4,"transit":true,"station_name":"Manggarai","station_id":"MRI","distance":1590,"line":0},{"line":1,"station_id":"MTR","i_long":106.858896,"transit":false,"distance":1275,"is_transit":false,"station_name":"Matraman","i_lat":-6.212485,"time":2},{"is_transit":true,"distance":1377,"station_id":"JNG","time":8,"transit":false,"line":0,"i_long":106.86807400000001,"station_name":"Jatinegara","i_lat":-6.215091},{"i_lat":-6.2135,"i_long":106.899548,"time":3,"line":1,"station_name":"Klender","transit":false,"distance":3395,"station_id":"KLD","is_transit":false},{"station_name":"Buaran","transit":false,"i_long":106.922662,"line":0,"i_lat":-6.215568,"distance":3100,"is_transit":false,"station_id":"BUA","time":2},{"i_long":106.939679,"station_id":"KLDB","transit":false,"time":1,"distance":1305,"line":1,"is_transit":false,"station_name":"Klenderbaru","i_lat":-6.217455},{"line":0,"station_id":"CUK","i_long":106.951283,"transit":false,"distance":1385,"is_transit":false,"time":8,"i_lat":-6.219053,"station_name":"Cakung"}],[{"line":1,"distance":0,"station_id":"SUD","time":0,"is_transit":false,"i_lat":-6.202263,"i_long":106.822649,"transit":false,"station_name":"Sudirman"},{"time":4,"station_name":"Manggarai","i_lat":-6.209883,"transit":true,"is_transit":true,"i_long":106.84912,"line":0,"station_id":"MRI","distance":3186},{"distance":1590,"station_id":"CKI","transit":false,"i_long":106.840169,"station_name":"Cikini","line":0,"time":4,"is_transit":false,"i_lat":-6.198556},{"line":2,"station_name":"Gondangdia","time":3,"transit":false,"distance":1750,"station_id":"GDD","i_long":106.832183,"i_lat":-6.186295,"is_transit":false},{"transit":false,"i_lat":-6.166716,"distance":2015,"i_long":106.828284,"station_id":"JUA","time":4,"station_name":"Juanda","is_transit":false,"line":2},{"i_lat":-6.160725,"i_long":106.827103,"time":2,"line":2,"transit":false,"station_id":"SW","distance":1149,"station_name":"Sawah Besar","is_transit":false},{"transit":false,"distance":906,"is_transit":false,"station_id":"MGB","i_long":106.82482,"line":2,"i_lat":-6.149769,"time":2,"station_name":"Manggabesar"},{"station_name":"Jayakarta","transit":false,"i_lat":-6.141205,"distance":1080,"station_id":"JAY","time":2,"is_transit":false,"i_long":106.820901,"line":7},{"distance":1264,"is_transit":true,"i_long":106.812439,"line":0,"station_name":"Jakarta Kota","time":4,"i_lat":-6.137569,"station_id":"JAKK","transit":true},{"i_lat":-6.132549,"is_transit":true,"i_long":106.826365,"time":3,"transit":true,"station_name":"Kampung Bandan","station_id":"KPB","distance":1364,"line":0},{"transit":false,"is_transit":false,"station_id":"RJW","line":11,"time":3,"distance":1444,"station_name":"Rajawali","i_lat":-6.14505,"i_long":106.836569},{"is_transit":false,"i_long":106.839204,"station_name":"Kemayoran","transit":false,"station_id":"KMO","line":11,"distance":1901,"i_lat":-6.161728,"time":5},{"transit":false,"is_transit":false,"line":11,"time":4,"distance":1436,"i_lat":-6.174784,"i_long":106.84368,"station_id":"PSE","station_name":"Pasar Senen"},{"transit":false,"station_name":"Gang Sentiong","i_lat":-6.185975,"i_long":106.850107,"station_id":"GST","distance":1567,"is_transit":false,"time":8,"line":11},{"transit":false,"line":11,"i_lat":-6.193792,"station_id":"KMT","i_long":106.855437,"station_name":"Kramat","time":1,"distance":973,"is_transit":false},{"distance":1829,"station_id":"POK","station_name":"Pondok Jati","line":11,"time":2,"is_transit":false,"transit":false,"i_lat":-6.209188,"i_long":106.861737},{"station_name":"Jatinegara","i_lat":-6.215091,"i_long":106.86807400000001,"is_transit":true,"time":9,"station_id":"JNG","line":0,"distance":1236,"transit":true},{"line":1,"station_id":"KLD","time":3,"station_name":"Klender","i_lat":-6.2135,"transit":false,"is_transit":false,"i_long":106.899548,"distance":3395},{"is_transit":false,"time":2,"i_long":106.922662,"station_name":"Buaran","i_lat":-6.215568,"station_id":"BUA","distance":3100,"line":0,"transit":false},{"distance":1305,"is_transit":false,"line":1,"i_long":106.939679,"station_name":"Klenderbaru","i_lat":-6.217455,"station_id":"KLDB","time":1,"transit":false},{"i_lat":-6.219053,"line":0,"transit":false,"is_transit":false,"i_long":106.951283,"time":8,"station_name":"Cakung","station_id":"CUK","distance":1385}]]}