{"data":[[{"is_transit":false,"line":1,"time":0,"transit":false,"i_lat":-6.202263,"station_name":"Sudirman","station_id":"SUD","distance":0,"i_long":106.822649},{"i_lat":-6.209883,"station_id":"MRI","station_name":"Manggarai","transit":true,"time":4,"is_transit":true,"i_long":106.84912,"line":0,"distance":3186},{"i_lat":-6.226659,"distance":2610,"line":2,"station_name":"Tebet","transit":false,"i_long":106.857948,"time":4,"station_id":"TEB","is_transit":false},{"distance":1230,"station_name":"Cawang","i_long":106.856607,"station_id":"CW","line":0,"is_transit":false,"transit":false,"i_lat":-6.242512,"time":2},{"distance":1546,"station_id":"DRN","is_transit":false,"line":0,"i_lat":-6.255332,"transit":false,"station_name":"Duren Kalibata","i_long":106.85449,"time":3},{"time":2,"transit":false,"station_id":"PSMB","distance":824,"i_lat":-6.263214,"line":2,"is_transit":false,"i_long":106.851577,"station_name":"Pasar Minggu Baru"},{"is_transit":false,"station_id":"PSM","line":2,"time":2,"distance":2380,"i_long":106.843999,"station_name":"Pasar Minggu","i_lat":-6.2842400000000005,"transit":false},{"line":2,"transit":false,"time":4,"station_name":"Tanjung Barat","station_id":"TNT","is_transit":false,"i_long":106.838896,"distance":2820,"i_lat":-6.3080680000000005},{"transit":false,"distance":2671,"station_name":"Lenteng Agung","i_lat":-6.330363,"is_transit":false,"i_long":106.832616,"line":2,"station_id":"LNA","time":3},{"station_id":"UP","i_lat":-6.339291,"line":2,"i_long":106.834175,"transit":false,"station_name":"Univ. Pancasila","time":2,"is_transit":false,"distance":1029},{"line":2,"time":3,"station_id":"UI","station_name":"Univ. Indonesia","transit":false,"distance":2264,"i_long":106.831474,"i_lat":-6.360749,"is_transit":false},{"station_id":"POC","i_lat":-6.369073,"time":2,"station_name":"Pondok Cina","line":2,"is_transit":false,"distance":1109,"i_long":106.831114,"transit":false}],[{"is_transit":false,"line":1,"i_long":106.822649,"station_id":"SUD","distance":0,"transit":false,"i_lat":-6.202263,"time":0,"station_name":"Sudirman"},{"station_name":"Sudirman Baru","is_transit":false,"i_lat":-6.201433,"transit":false,"distance":280,"i_long":106.819881,"time":1,"line":1,"station_id":"SUDB"},{"distance":471,"time":1,"station_id":"KAT","transit":false,"is_transit":false,"i_long":106.816351,"station_name":"Karet","i_lat":-6.20132,"line":1},{"transit":false,"i_lat":-6.185545,"station_id":"THB","i_long":106.811091,"line":1,"time":5,"is_transit":true,"station_name":"Tanah Abang","distance":2029},{"i_long":106.800832,"station_name":"Duri","station_id":"DU","distance":3632,"time":8,"transit":true,"i_lat":-6.155215,"line":1,"is_transit":true},{"station_name":"Angke","transit":false,"line":0,"distance":1230,"i_long":106.79867,"station_id":"AK","i_lat":-6.144674,"time":4,"is_transit":false},{"station_name":"Kampung Bandan","transit":false,"i_long":106.826365,"distance":4102,"i_lat":-6.132549,"time":9,"station_id":"KPB","is_transit":true,"line":0},{"is_transit":true,"distance":1364,"transit":true,"station_name":"Jakarta Kota","line":0,"time":3,"station_id":"JAKK","i_lat":-6.137569,"i_long":106.812439},{"station_name":"Jayakarta","line":7,"is_transit":false,"time":4,"i_lat":-6.141205,"station_id":"JAY","transit":false,"i_long":106.820901,"distance":1264},{"station_id":"MGB","i_lat":-6.149769,"line":2,"time":2,"station_name":"Manggabesar","is_transit":false,"distance":1080,"transit":false,"i_long":106.82482},{"time":2,"transit":false,"station_id":"SW","i_long":106.827103,"line":2,"station_name":"Sawah Besar","distance":906,"i_lat":-6.160725,"is_transit":false},{"line":2,"station_name":"Juanda","time":2,"distance":1149,"transit":false,"i_lat":-6.166716,"i_long":106.828284,"station_id":"JUA","is_transit":false},{"time":4,"transit":false,"is_transit":false,"distance":2015,"station_id":"GDD","i_long":106.832183,"line":2,"i_lat":-6.186295,"station_name":"Gondangdia"},{"station_id":"CKI","i_lat":-6.198556,"is_transit":false,"distance":1750,"station_name":"Cikini","line":0,"transit":false,"time":3,"i_long":106.840169},{"time":4,"is_transit":true,"station_id":"MRI","transit":true,"distance":1590,"i_lat":-6.209883,"station_name":"Manggarai","i_long":106.84912,"line":0},{"line":2,"i_long":106.857948,"distance":2610,"transit":false,"is_transit":false,"i_lat":-6.226659,"station_id":"TEB","time":4,"station_name":"Tebet"},{"line":0,"transit":false,"station_name":"Cawang","i_long":106.856607,"time":2,"i_lat":-6.242512,"station_id":"CW","is_transit":false,"distance":1230},{"station_id":"DRN","transit":false,"station_name":"Duren Kalibata","time":3,"is_transit":false,"distance":1546,"i_lat":-6.255332,"i_long":106.85449,"line":0},{"time":2,"transit":false,"line":2,"is_transit":false,"station_id":"PSMB","i_long":106.851577,"i_lat":-6.263214,"distance":824,"station_name":"Pasar Minggu Baru"},{"i_lat":-6.2842400000000005,"time":2,"station_name":"Pasar Minggu","line":2,"station_id":"PSM","i_long":106.843999,"transit":false,"distance":2380,"is_transit":false},{"time":4,"distance":2820,"i_long":106.838896,"is_transit":false,"station_name":"Tanjung Barat","i_lat":-6.3080680000000005,"line":2,"station_id":"TNT","transit":false},{"station_name":"Lenteng Agung","i_long":106.832616,"i_lat":-6.330363,"is_transit":false,"line":2,"distance":2671,"time":3,"station_id":"LNA","transit":false},{"transit":false,"line":2,"station_id":"UP","time":2,"i_long":106.834175,"is_transit":false,"distance":1029,"i_lat":-6.339291,"station_name":"Univ. Pancasila"},{"station_name":"Univ. Indonesia","line":2,"station_id":"UI","is_transit":false,"i_long":106.831474,"distance":2264,"i_lat":-6.360749,"time":3,"transit":false},{"transit":false,"i_lat":-6.369073,"distance":1109,"is_transit":false,"time":2,"station_name":"Pondok Cina","line":2,"station_id":"POC","i_long":106.831114}],[{"i_lat":-6.202263,"distance":0,"line":1,"station_id":"SUD","transit":false,"time":0,"is_transit":false,"i_long":106.822649,"station_name":"Sudirman"},{"station_name":"Sudirman Baru","i_long":106.819881,"transit":false,"i_lat":-6.201433,"line":1,"distance":280,"time":1,"station_id":"SUDB","is_transit":false},{"time":1,"station_name":"Karet","i_lat":-6.20132,"is_transit":false,"distance":471,"line":1,"transit":false,"station_id":"KAT","i_long":106.816351},{"is_transit":true,"i_long":106.811091,"distance":2029,"i_lat":-6.185545,"transit":false,"station_name":"Tanah Abang","station_id":"THB","line":1,"time":5},{"i_long":106.800832,"line":1,"station_name":"Duri","is_transit":true,"distance":3632,"time":8,"transit":true,"station_id":"DU","i_lat":-6.155215},{"distance":1230,"time":4,"station_name":"Angke","i_long":106.79867,"transit":false,"is_transit":false,"line":0,"i_lat":-6.144674,"station_id":"AK"},{"i_long":106.826365,"station_id":"KPB","line":0,"station_name":"Kampung Bandan","is_transit":true,"distance":4102,"transit":true,"time":9,"i_lat":-6.132549},{"transit":false,"station_id":"RJW","station_name":"Rajawali","is_transit":false,"i_long":106.836569,"time":3,"line":11,"i_lat":-6.14505,"distance":1444},{"i_lat":-6.161728,"station_id":"KMO","line":11,"distance":1901,"is_transit":false,"transit":false,"i_long":106.839204,"time":5,"station_name":"Kemayoran"},{"i_lat":-6.174784,"station_id":"PSE","distance":1436,"i_long":106.84368,"transit":false,"line":11,"station_name":"Pasar Senen","is_transit":false,"time":4},{"is_transit":false,"time":8,"distance":1567,"station_id":"GST","station_name":"Gang Sentiong","i_long":106.850107,"i_lat":-6.185975,"line":11,"transit":false},{"line":11,"time":1,"distance":973,"transit":false,"i_lat":-6.193792,"is_transit":false,"station_name":"Kramat","i_long":106.855437,"station_id":"KMT"},{"distance":1829,"transit":false,"i_lat":-6.209188,"station_name":"Pondok Jati","is_transit":false,"i_long":106.861737,"station_id":"POK","line":11,"time":2},{"transit":true,"time":9,"station_name":"Jatinegara","is_transit":true,"i_long":106.86807400000001,"station_id":"JNG","distance":1236,"line":0,"i_lat":-6.215091},{"time":2,"station_id":"MTR","transit":false,"distance":1377,"i_long":106.858896,"station_name":"Matraman","line":1,"i_lat":-6.212485,"is_transit":false},{"i_long":106.84912,"time":2,"station_id":"MRI","station_name":"Manggarai","is_transit":true,"transit":true,"distance":1275,"line":0,"i_lat":-6.209883},{"transit":false,"line":2,"time":4,"station_id":"TEB","i_lat":-6.226659,"is_transit":false,"i_long":106.857948,"distance":2610,"station_name":"Tebet"},{"distance":1230,"transit":false,"station_name":"Cawang","station_id":"CW","i_lat":-6.242512,"is_transit":false,"time":2,"line":0,"i_long":106.856607},{"transit":false,"station_id":"DRN","station_name":"Duren Kalibata","distance":1546,"i_long":106.85449,"line":0,"is_transit":false,"time":3,"i_lat":-6.255332},{"i_long":106.851577,"station_id":"PSMB","transit":false,"time":2,"is_transit":false,"station_name":"Pasar Minggu Baru","distance":824,"i_lat":-6.263214,"line":2},{"i_long":106.843999,"i_lat":-6.2842400000000005,"station_id":"PSM","time":2,"line":2,"is_transit":false,"station_name":"Pasar Minggu","distance":2380,"transit":false},{"station_id":"TNT","is_transit":false,"i_long":106.838896,"line":2,"transit":false,"station_name":"Tanjung Barat","distance":2820,"i_lat":-6.3080680000000005,"time":4},{"is_transit":false,"transit":false,"station_name":"Lenteng Agung","line":2,"station_id":"LNA","distance":2671,"time":3,"i_lat":-6.330363,"i_long":106.832616},{"time":2,"transit":false,"is_transit":false,"i_long":106.834175,"line":2,"distance":1029,"i_lat":-6.339291,"station_id":"UP","station_name":"Univ. Pancasila"},{"station_id":"UI","transit":false,"line":2,"i_long":106.831474,"distance":2264,"time":3,"station_name":"Univ. Indonesia","is_transit":false,"i_lat":-6.360749},{"line":2,"i_long":106.831114,"transit":false,"is_transit":false,"time":2,"distance":1109,"station_name":"Pondok Cina","i_lat":-6.369073,"station_id":"POC"}]]}