{"data":[[{"line":1,"time":0,"transit":false,"station_id":"SUD","i_lat":-6.202263,"i_long":106.822649,"station_name":"Sudirman","distance":0,"is_transit":false},{"i_long":106.819881,"distance":280,"station_name":"Sudirman Baru","i_lat":-6.201433,"is_transit":false,"line":1,"station_id":"SUDB","time":1,"transit":false},{"time":1,"is_transit":false,"distance":471,"transit":false,"station_name":"Karet","station_id":"KAT","i_long":106.816351,"line":1,"i_lat":-6.20132},{"time":5,"is_transit":true,"i_lat":-6.185545,"line":1,"transit":true,"i_long":106.811091,"distance":2029,"station_name":"Tanah Abang","station_id":"THB"},{"i_long":106.79689,"i_lat":-6.207404,"station_id":"PLM","line":6,"time":6,"transit":false,"distance":3191,"station_name":"Palmerah","is_transit":false},{"station_name":"Kebayoran","station_id":"KBY","distance":3737,"transit":false,"i_lat":-6.237242,"i_long":106.780334,"line":6,"is_transit":false,"time":7},{"distance":6218,"station_name":"Pondokranji","i_long":106.74273,"i_lat":-6.276362,"time":8,"line":6,"is_transit":false,"station_id":"PDJ","transit":false},{"distance":2179,"i_lat":-6.288927,"line":6,"station_name":"Jurangmangu","is_transit":false,"i_long":106.728916,"station_id":"JMU","transit":false,"time":3},{"i_lat":-6.296963,"i_long":106.712277,"transit":false,"line":6,"station_name":"Sudimara","is_transit":false,"station_id":"SDM","distance":1994,"time":4},{"i_long":106.675475,"transit":false,"station_id":"RU","time":6,"station_name":"Rawa Buntu","distance":4566,"i_lat":-6.314823,"line":6,"is_transit":false},{"station_id":"SRP","time":4,"transit":false,"is_transit":false,"distance":2413,"line":6,"station_name":"Serpong","i_lat":-6.319871,"i_long":106.66566},{"i_long":106.640411,"distance":1784,"station_id":"CSK","i_lat":-6.32484,"station_name":"Cisauk","line":3,"transit":false,"is_transit":false,"time":4},{"time":4,"station_name":"Cicayur","i_lat":-6.329547,"i_long":106.617853,"is_transit":false,"distance":2519,"line":3,"transit":false,"station_id":"CC"},{"distance":5968,"is_transit":false,"time":8,"i_long":106.568863,"i_lat":-6.3441410000000005,"line":6,"station_name":"Parung Panjang","transit":false,"station_id":"PRP"},{"time":9,"i_long":106.508482,"transit":false,"distance":7025,"i_lat":-6.354349,"is_transit":false,"station_id":"CJT","line":3,"station_name":"Cilejit"},{"station_id":"DAR","transit":false,"time":6,"is_transit":false,"i_long":106.491338,"i_lat":-6.338021,"station_name":"Daru","distance":2675,"line":0},{"i_lat":-6.327251,"i_long":106.460812,"station_name":"Tenjo","distance":3902,"is_transit":false,"line":6,"station_id":"TEJ","transit":false,"time":5},{"i_long":106.425991,"time":5,"station_name":"Tigaraksa","i_lat":-6.328533,"transit":false,"line":6,"station_id":"TGS","is_transit":false,"distance":2974}],[{"distance":0,"i_lat":-6.202263,"station_id":"SUD","is_transit":false,"line":1,"transit":false,"station_name":"Sudirman","i_long":106.822649,"time":0},{"time":4,"line":2,"i_lat":-6.209883,"transit":true,"is_transit":true,"i_long":106.84912,"station_name":"Manggarai","station_id":"MRI","distance":3186},{"station_name":"Cikini","transit":false,"distance":1590,"i_lat":-6.198556,"time":4,"i_long":106.840169,"line":2,"is_transit":false,"station_id":"CKI"},{"i_lat":-6.186295,"line":2,"transit":false,"time":3,"distance":1750,"i_long":106.832183,"station_name":"Gondangdia","station_id":"GDD","is_transit":false},{"line":2,"time":4,"station_name":"Juanda","i_long":106.828284,"distance":2015,"transit":false,"station_id":"JUA","is_transit":false,"i_lat":-6.166716},{"i_lat":-6.160725,"transit":false,"is_transit":false,"station_name":"Sawah Besar","station_id":"SW","time":2,"distance":1149,"line":2,"i_long":106.827103},{"station_id":"MGB","time":2,"distance":906,"i_lat":-6.149769,"station_name":"Manggabesar","is_transit":false,"i_long":106.82482,"transit":false,"line":2},{"transit":false,"is_transit":false,"station_name":"Jayakarta","i_long":106.820901,"i_lat":-6.141205,"line":2,"time":2,"distance":1080,"station_id":"JAY"},{"distance":1264,"i_lat":-6.137569,"i_long":106.812439,"station_id":"JAKK","station_name":"Jakarta Kota","transit":true,"time":4,"is_transit":true,"line":2},{"station_name":"Kampung Bandan","transit":true,"i_long":106.826365,"time":3,"station_id":"KPB","distance":1364,"line":4,"i_lat":-6.132549,"is_transit":true},{"is_transit":false,"line":1,"station_name":"Angke","distance":4102,"time":9,"i_long":106.79867,"i_lat":-6.144674,"transit":false,"station_id":"AK"},{"distance":1230,"time":4,"station_id":"DU","is_transit":false,"i_lat":-6.155215,"transit":false,"line":1,"i_long":106.800832,"station_name":"Duri"},{"station_name":"Tanah Abang","transit":true,"i_long":106.811091,"distance":3632,"line":1,"is_transit":true,"time":8,"i_lat":-6.185545,"station_id":"THB"},{"is_transit":false,"i_long":106.79689,"station_id":"PLM","station_name":"Palmerah","distance":3191,"line":6,"i_lat":-6.207404,"time":6,"transit":false},{"station_name":"Kebayoran","transit":false,"station_id":"KBY","distance":3737,"i_long":106.780334,"is_transit":false,"line":6,"time":7,"i_lat":-6.237242},{"line":6,"is_transit":false,"transit":false,"station_name":"Pondokranji","station_id":"PDJ","i_long":106.74273,"distance":6218,"i_lat":-6.276362,"time":8},{"station_name":"Jurangmangu","distance":2179,"line":6,"i_long":106.728916,"transit":false,"station_id":"JMU","is_transit":false,"time":3,"i_lat":-6.288927},{"station_id":"SDM","is_transit":false,"distance":1994,"i_long":106.712277,"i_lat":-6.296963,"line":6,"station_name":"Sudimara","time":4,"transit":false},{"i_long":106.675475,"distance":4566,"time":6,"transit":false,"station_id":"RU","is_transit":false,"station_name":"Rawa Buntu","i_lat":-6.314823,"line":6},{"station_id":"SRP","transit":false,"i_lat":-6.319871,"line":6,"time":4,"distance":2413,"is_transit":false,"i_long":106.66566,"station_name":"Serpong"},{"time":4,"i_lat":-6.32484,"distance":1784,"i_long":106.640411,"is_transit":false,"transit":false,"station_name":"Cisauk","station_id":"CSK","line":3},{"is_transit":false,"i_lat":-6.329547,"station_name":"Cicayur","time":4,"distance":2519,"line":3,"transit":false,"i_long":106.617853,"station_id":"CC"},{"distance":5968,"station_id":"PRP","time":8,"is_transit":false,"line":6,"transit":false,"i_lat":-6.3441410000000005,"station_name":"Parung Panjang","i_long":106.568863},{"i_lat":-6.354349,"is_transit":false,"transit":false,"i_long":106.508482,"station_id":"CJT","distance":7025,"station_name":"Cilejit","time":9,"line":3},{"distance":2675,"transit":false,"time":6,"line":0,"station_id":"DAR","i_lat":-6.338021,"station_name":"Daru","i_long":106.491338,"is_transit":false},{"i_long":106.460812,"line":6,"i_lat":-6.327251,"station_id":"TEJ","transit":false,"time":5,"distance":3902,"is_transit":false,"station_name":"Tenjo"},{"time":5,"i_long":106.425991,"transit":false,"i_lat":-6.328533,"distance":2974,"line":6,"station_name":"Tigaraksa","station_id":"TGS","is_transit":false}],[{"distance":0,"station_name":"Sudirman","station_id":"SUD","time":0,"i_lat":-6.202263,"i_long":106.822649,"line":1,"is_transit":false,"transit":false},{"station_id":"MRI","i_long":106.84912,"transit":false,"i_lat":-6.209883,"is_transit":false,"station_name":"Manggarai","distance":3186,"line":2,"time":4},{"station_name":"Matraman","i_lat":-6.212485,"line":1,"transit":false,"i_long":106.858896,"is_transit":false,"distance":1275,"time":2,"station_id":"MTR"},{"i_long":106.86807400000001,"time":8,"line":1,"transit":true,"station_id":"JNG","is_transit":true,"i_lat":-6.215091,"station_name":"Jatinegara","distance":1377},{"is_transit":false,"station_id":"POK","i_long":106.861737,"time":2,"distance":1236,"line":11,"station_name":"Pondok Jati","transit":false,"i_lat":-6.209188},{"transit":false,"distance":1829,"station_name":"Kramat","line":11,"station_id":"KMT","is_transit":false,"time":2,"i_lat":-6.193792,"i_long":106.855437},{"line":11,"time":1,"station_name":"Gang Sentiong","transit":false,"i_long":106.850107,"distance":973,"station_id":"GST","is_transit":false,"i_lat":-6.185975},{"station_name":"Pasar Senen","is_transit":false,"distance":1567,"time":8,"i_lat":-6.174784,"i_long":106.84368,"transit":false,"line":11,"station_id":"PSE"},{"station_name":"Kemayoran","i_lat":-6.161728,"transit":false,"is_transit":false,"i_long":106.839204,"distance":1436,"time":4,"station_id":"KMO","line":11},{"station_name":"Rajawali","i_lat":-6.14505,"station_id":"RJW","is_transit":false,"time":5,"i_long":106.836569,"transit":false,"distance":1901,"line":11},{"line":4,"i_long":106.826365,"transit":true,"i_lat":-6.132549,"time":3,"station_id":"KPB","station_name":"Kampung Bandan","is_transit":true,"distance":1444},{"station_name":"Angke","is_transit":false,"i_long":106.79867,"station_id":"AK","line":1,"time":9,"i_lat":-6.144674,"transit":false,"distance":4102},{"i_long":106.800832,"station_id":"DU","time":4,"transit":false,"station_name":"Duri","distance":1230,"i_lat":-6.155215,"is_transit":false,"line":1},{"is_transit":true,"station_name":"Tanah Abang","time":8,"line":1,"distance":3632,"i_long":106.811091,"i_lat":-6.185545,"station_id":"THB","transit":true},{"i_long":106.79689,"station_name":"Palmerah","is_transit":false,"i_lat":-6.207404,"transit":false,"line":6,"station_id":"PLM","distance":3191,"time":6},{"station_id":"KBY","station_name":"Kebayoran","i_lat":-6.237242,"time":7,"distance":3737,"transit":false,"line":6,"i_long":106.780334,"is_transit":false},{"i_long":106.74273,"station_name":"Pondokranji","station_id":"PDJ","distance":6218,"time":8,"i_lat":-6.276362,"transit":false,"is_transit":false,"line":6},{"distance":2179,"i_long":106.728916,"station_id":"JMU","time":3,"is_transit":false,"line":6,"transit":false,"i_lat":-6.288927,"station_name":"Jurangmangu"},{"i_long":106.712277,"station_id":"SDM","i_lat":-6.296963,"line":6,"is_transit":false,"station_name":"Sudimara","time":4,"distance":1994,"transit":false},{"time":6,"i_long":106.675475,"station_id":"RU","i_lat":-6.314823,"line":6,"transit":false,"station_name":"Rawa Buntu","is_transit":false,"distance":4566},{"station_id":"SRP","station_name":"Serpong","is_transit":false,"i_lat":-6.319871,"distance":2413,"i_long":106.66566,"time":4,"transit":false,"line":6},{"is_transit":false,"station_id":"CSK","line":3,"transit":false,"station_name":"Cisauk","distance":1784,"time":4,"i_lat":-6.32484,"i_long":106.640411},{"i_long":106.617853,"time":4,"station_id":"CC","transit":false,"line":3,"station_name":"Cicayur","i_lat":-6.329547,"is_transit":false,"distance":2519},{"time":8,"distance":5968,"is_transit":false,"i_lat":-6.3441410000000005,"station_id":"PRP","transit":false,"i_long":106.568863,"line":6,"station_name":"Parung Panjang"},{"time":9,"transit":false,"station_name":"Cilejit","distance":7025,"i_long":106.508482,"i_lat":-6.354349,"is_transit":false,"line":3,"station_id":"CJT"},{"i_lat":-6.338021,"line":0,"station_name":"Daru","transit":false,"station_id":"DAR","time":6,"distance":2675,"i_long":106.491338,"is_transit":false},{"is_transit":false,"line":6,"time":5,"transit":false,"station_id":"TEJ","station_name":"Tenjo","distance":3902,"i_long":106.460812,"i_lat":-6.327251},{"distance":2974,"station_id":"TGS","i_long":106.425991,"is_transit":false,"line":6,"transit":false,"i_lat":-6.328533,"station_name":"Tigaraksa","time":5}]]}