{"data":[[{"station_name":"Sudirman","i_lat":-6.202263,"distance":0,"line":1,"transit":false,"is_transit":false,"station_id":"SUD","time":0,"i_long":106.822649},{"station_name":"Sudirman Baru","transit":false,"i_lat":-6.201433,"i_long":106.819881,"distance":280,"time":1,"line":1,"station_id":"SUDB","is_transit":false},{"station_name":"Karet","i_lat":-6.20132,"i_long":106.816351,"line":1,"distance":471,"transit":false,"station_id":"KAT","is_transit":false,"time":1},{"station_id":"THB","i_long":106.811091,"distance":2029,"time":5,"i_lat":-6.185545,"station_name":"Tanah Abang","is_transit":true,"line":1,"transit":true},{"station_name":"Palmerah","time":6,"i_long":106.79689,"distance":3191,"line":6,"is_transit":false,"i_lat":-6.207404,"station_id":"PLM","transit":false},{"station_name":"Kebayoran","i_lat":-6.237242,"i_long":106.780334,"distance":3737,"line":6,"transit":false,"time":7,"station_id":"KBY","is_transit":false},{"distance":6218,"station_id":"PDJ","time":8,"i_long":106.74273,"is_transit":false,"station_name":"Pondokranji","i_lat":-6.276362,"transit":false,"line":6},{"station_name":"Jurangmangu","is_transit":false,"line":6,"transit":false,"i_lat":-6.288927,"distance":2179,"time":3,"i_long":106.728916,"station_id":"JMU"},{"is_transit":false,"station_name":"Sudimara","time":4,"distance":1994,"i_lat":-6.296963,"i_long":106.712277,"station_id":"SDM","line":6,"transit":false},{"distance":4566,"line":6,"station_name":"Rawa Buntu","transit":false,"time":6,"i_lat":-6.314823,"i_long":106.675475,"station_id":"RU","is_transit":false},{"time":4,"distance":2413,"station_id":"SRP","i_lat":-6.319871,"transit":false,"i_long":106.66566,"line":6,"station_name":"Serpong","is_transit":false},{"station_id":"CSK","time":4,"is_transit":false,"distance":1784,"transit":false,"i_lat":-6.32484,"station_name":"Cisauk","line":3,"i_long":106.640411},{"i_long":106.617853,"station_name":"Cicayur","transit":false,"is_transit":false,"distance":2519,"i_lat":-6.329547,"time":4,"station_id":"CC","line":3},{"station_name":"Parung Panjang","i_long":106.568863,"transit":false,"station_id":"PRP","distance":5968,"time":8,"i_lat":-6.3441410000000005,"line":6,"is_transit":false},{"transit":false,"time":9,"i_lat":-6.354349,"line":3,"station_id":"CJT","station_name":"Cilejit","distance":7025,"i_long":106.508482,"is_transit":false},{"i_lat":-6.338021,"i_long":106.491338,"is_transit":false,"line":0,"transit":false,"station_name":"Daru","station_id":"DAR","time":6,"distance":2675},{"line":6,"station_name":"Tenjo","distance":3902,"i_long":106.460812,"i_lat":-6.327251,"is_transit":false,"station_id":"TEJ","transit":false,"time":5},{"i_long":106.425991,"time":5,"transit":false,"distance":2974,"is_transit":false,"station_id":"TGS","i_lat":-6.328533,"line":6,"station_name":"Tigaraksa"},{"time":3,"transit":false,"station_id":"CKY","i_long":106.411216,"line":3,"is_transit":false,"station_name":"Cikoya","distance":2651,"i_lat":-6.33561},{"station_id":"MJ","transit":false,"line":6,"station_name":"Maja","i_long":106.394373,"time":4,"is_transit":false,"i_lat":-6.332307,"distance":1853},{"station_id":"CTR","is_transit":false,"i_long":106.332092,"line":3,"i_lat":-6.334892,"transit":false,"time":10,"station_name":"Citeras","distance":7293},{"transit":false,"i_long":106.250396,"line":3,"distance":9847,"is_transit":false,"station_id":"RK","station_name":"Rangkasbitung","time":13,"i_lat":-6.352675}],[{"is_transit":false,"transit":false,"time":0,"line":1,"distance":0,"station_id":"SUD","i_long":106.822649,"station_name":"Sudirman","i_lat":-6.202263},{"station_name":"Manggarai","line":2,"time":4,"station_id":"MRI","is_transit":true,"transit":true,"i_lat":-6.209883,"distance":3186,"i_long":106.84912},{"i_long":106.840169,"station_name":"Cikini","i_lat":-6.198556,"line":2,"is_transit":false,"transit":false,"station_id":"CKI","distance":1590,"time":4},{"i_long":106.832183,"station_name":"Gondangdia","time":3,"transit":false,"distance":1750,"station_id":"GDD","i_lat":-6.186295,"line":2,"is_transit":false},{"i_lat":-6.166716,"transit":false,"distance":2015,"station_id":"JUA","time":4,"station_name":"Juanda","line":2,"is_transit":false,"i_long":106.828284},{"transit":false,"is_transit":false,"station_id":"SW","distance":1149,"station_name":"Sawah Besar","line":2,"i_long":106.827103,"i_lat":-6.160725,"time":2},{"distance":906,"station_name":"Manggabesar","is_transit":false,"i_lat":-6.149769,"line":2,"station_id":"MGB","i_long":106.82482,"time":2,"transit":false},{"station_name":"Jayakarta","station_id":"JAY","line":2,"is_transit":false,"transit":false,"time":2,"distance":1080,"i_lat":-6.141205,"i_long":106.820901},{"transit":true,"station_name":"Jakarta Kota","is_transit":true,"station_id":"JAKK","i_lat":-6.137569,"line":2,"time":4,"distance":1264,"i_long":106.812439},{"station_name":"Kampung Bandan","time":3,"station_id":"KPB","is_transit":true,"i_long":106.826365,"distance":1364,"i_lat":-6.132549,"line":4,"transit":true},{"station_id":"AK","station_name":"Angke","line":1,"i_lat":-6.144674,"i_long":106.79867,"time":9,"is_transit":false,"transit":false,"distance":4102},{"line":1,"transit":false,"i_long":106.800832,"station_name":"Duri","station_id":"DU","distance":1230,"is_transit":false,"i_lat":-6.155215,"time":4},{"i_lat":-6.185545,"transit":true,"line":1,"i_long":106.811091,"is_transit":true,"station_name":"Tanah Abang","distance":3632,"station_id":"THB","time":8},{"time":6,"station_id":"PLM","transit":false,"distance":3191,"i_lat":-6.207404,"is_transit":false,"i_long":106.79689,"station_name":"Palmerah","line":6},{"is_transit":false,"time":7,"station_name":"Kebayoran","transit":false,"station_id":"KBY","distance":3737,"i_long":106.780334,"line":6,"i_lat":-6.237242},{"line":6,"time":8,"station_name":"Pondokranji","is_transit":false,"transit":false,"i_long":106.74273,"distance":6218,"station_id":"PDJ","i_lat":-6.276362},{"transit":false,"i_lat":-6.288927,"i_long":106.728916,"line":6,"is_transit":false,"station_name":"Jurangmangu","distance":2179,"station_id":"JMU","time":3},{"is_transit":false,"line":6,"station_id":"SDM","time":4,"i_long":106.712277,"i_lat":-6.296963,"distance":1994,"transit":false,"station_name":"Sudimara"},{"station_id":"RU","station_name":"Rawa Buntu","line":6,"i_lat":-6.314823,"is_transit":false,"distance":4566,"i_long":106.675475,"time":6,"transit":false},{"is_transit":false,"station_id":"SRP","line":6,"i_lat":-6.319871,"time":4,"station_name":"Serpong","i_long":106.66566,"transit":false,"distance":2413},{"distance":1784,"station_name":"Cisauk","time":4,"station_id":"CSK","i_lat":-6.32484,"line":3,"transit":false,"i_long":106.640411,"is_transit":false},{"time":4,"i_lat":-6.329547,"station_name":"Cicayur","line":3,"transit":false,"distance":2519,"station_id":"CC","is_transit":false,"i_long":106.617853},{"station_name":"Parung Panjang","is_transit":false,"i_lat":-6.3441410000000005,"transit":false,"distance":5968,"station_id":"PRP","time":8,"i_long":106.568863,"line":6},{"station_id":"CJT","i_lat":-6.354349,"distance":7025,"is_transit":false,"i_long":106.508482,"station_name":"Cilejit","line":3,"time":9,"transit":false},{"i_long":106.491338,"station_id":"DAR","time":6,"station_name":"Daru","is_transit":false,"distance":2675,"i_lat":-6.338021,"transit":false,"line":0},{"station_id":"TEJ","time":5,"transit":false,"is_transit":false,"distance":3902,"i_long":106.460812,"station_name":"Tenjo","i_lat":-6.327251,"line":6},{"transit":false,"time":5,"is_transit":false,"station_name":"Tigaraksa","distance":2974,"i_lat":-6.328533,"i_long":106.425991,"station_id":"TGS","line":6},{"i_long":106.411216,"i_lat":-6.33561,"is_transit":false,"station_name":"Cikoya","station_id":"CKY","distance":2651,"line":3,"transit":false,"time":3},{"is_transit":false,"i_long":106.394373,"transit":false,"station_id":"MJ","distance":1853,"time":4,"station_name":"Maja","i_lat":-6.332307,"line":6},{"station_name":"Citeras","i_lat":-6.334892,"transit":false,"i_long":106.332092,"station_id":"CTR","distance":7293,"time":10,"is_transit":false,"line":3},{"i_lat":-6.352675,"time":13,"station_name":"Rangkasbitung","i_long":106.250396,"line":3,"distance":9847,"station_id":"RK","transit":false,"is_transit":false}],[{"transit":false,"is_transit":false,"distance":0,"i_long":106.822649,"station_name":"Sudirman","station_id":"SUD","i_lat":-6.202263,"line":1,"time":0},{"time":4,"is_transit":false,"distance":3186,"line":2,"station_name":"Manggarai","station_id":"MRI","transit":false,"i_lat":-6.209883,"i_long":106.84912},{"station_name":"Matraman","is_transit":false,"line":1,"transit":false,"time":2,"i_long":106.858896,"station_id":"MTR","distance":1275,"i_lat":-6.212485},{"distance":1377,"is_transit":true,"i_long":106.86807400000001,"time":8,"transit":true,"i_lat":-6.215091,"station_id":"JNG","station_name":"Jatinegara","line":1},{"transit":false,"station_id":"POK","distance":1236,"i_long":106.861737,"i_lat":-6.209188,"station_name":"Pondok Jati","time":2,"is_transit":false,"line":11},{"distance":1829,"is_transit":false,"i_long":106.855437,"line":11,"station_name":"Kramat","i_lat":-6.193792,"station_id":"KMT","time":2,"transit":false},{"transit":false,"line":11,"station_name":"Gang Sentiong","is_transit":false,"distance":973,"time":1,"i_lat":-6.185975,"i_long":106.850107,"station_id":"GST"},{"transit":false,"i_lat":-6.174784,"line":11,"i_long":106.84368,"distance":1567,"time":8,"station_id":"PSE","station_name":"Pasar Senen","is_transit":false},{"station_id":"KMO","distance":1436,"time":4,"i_lat":-6.161728,"station_name":"Kemayoran","line":11,"transit":false,"i_long":106.839204,"is_transit":false},{"transit":false,"i_long":106.836569,"station_name":"Rajawali","is_transit":false,"distance":1901,"i_lat":-6.14505,"line":11,"time":5,"station_id":"RJW"},{"i_long":106.826365,"distance":1444,"station_id":"KPB","transit":true,"time":3,"station_name":"Kampung Bandan","line":4,"is_transit":true,"i_lat":-6.132549},{"i_lat":-6.144674,"line":1,"i_long":106.79867,"distance":4102,"station_name":"Angke","is_transit":false,"transit":false,"time":9,"station_id":"AK"},{"is_transit":false,"station_id":"DU","i_lat":-6.155215,"i_long":106.800832,"distance":1230,"line":1,"time":4,"transit":false,"station_name":"Duri"},{"i_lat":-6.185545,"is_transit":true,"distance":3632,"transit":true,"time":8,"i_long":106.811091,"station_id":"THB","station_name":"Tanah Abang","line":1},{"station_id":"PLM","time":6,"station_name":"Palmerah","transit":false,"i_lat":-6.207404,"distance":3191,"line":6,"i_long":106.79689,"is_transit":false},{"i_lat":-6.237242,"i_long":106.780334,"station_name":"Kebayoran","station_id":"KBY","is_transit":false,"distance":3737,"time":7,"transit":false,"line":6},{"i_lat":-6.276362,"distance":6218,"time":8,"station_name":"Pondokranji","line":6,"i_long":106.74273,"station_id":"PDJ","is_transit":false,"transit":false},{"i_long":106.728916,"transit":false,"line":6,"time":3,"i_lat":-6.288927,"station_id":"JMU","station_name":"Jurangmangu","is_transit":false,"distance":2179},{"station_id":"SDM","i_long":106.712277,"distance":1994,"line":6,"transit":false,"is_transit":false,"time":4,"station_name":"Sudimara","i_lat":-6.296963},{"line":6,"transit":false,"i_lat":-6.314823,"station_name":"Rawa Buntu","is_transit":false,"station_id":"RU","time":6,"i_long":106.675475,"distance":4566},{"line":6,"i_long":106.66566,"is_transit":false,"distance":2413,"station_id":"SRP","i_lat":-6.319871,"transit":false,"time":4,"station_name":"Serpong"},{"transit":false,"station_id":"CSK","station_name":"Cisauk","distance":1784,"is_transit":false,"i_long":106.640411,"i_lat":-6.32484,"time":4,"line":3},{"i_long":106.617853,"time":4,"is_transit":false,"station_name":"Cicayur","transit":false,"station_id":"CC","i_lat":-6.329547,"line":3,"distance":2519},{"station_id":"PRP","i_long":106.568863,"i_lat":-6.3441410000000005,"is_transit":false,"distance":5968,"time":8,"station_name":"Parung Panjang","line":6,"transit":false},{"time":9,"is_transit":false,"i_long":106.508482,"transit":false,"i_lat":-6.354349,"line":3,"station_name":"Cilejit","distance":7025,"station_id":"CJT"},{"station_id":"DAR","time":6,"is_transit":false,"distance":2675,"i_long":106.491338,"transit":false,"i_lat":-6.338021,"station_name":"Daru","line":0},{"station_name":"Tenjo","transit":false,"i_long":106.460812,"time":5,"is_transit":false,"distance":3902,"i_lat":-6.327251,"station_id":"TEJ","line":6},{"station_id":"TGS","time":5,"is_transit":false,"i_lat":-6.328533,"i_long":106.425991,"station_name":"Tigaraksa","line":6,"distance":2974,"transit":false},{"i_lat":-6.33561,"line":3,"distance":2651,"is_transit":false,"i_long":106.411216,"time":3,"transit":false,"station_id":"CKY","station_name":"Cikoya"},{"transit":false,"is_transit":false,"station_id":"MJ","i_long":106.394373,"line":6,"time":4,"station_name":"Maja","distance":1853,"i_lat":-6.332307},{"transit":false,"time":10,"i_long":106.332092,"i_lat":-6.334892,"distance":7293,"station_id":"CTR","station_name":"Citeras","line":3,"is_transit":false},{"i_lat":-6.352675,"transit":false,"time":13,"station_id":"RK","distance":9847,"is_transit":false,"line":3,"station_name":"Rangkasbitung","i_long":106.250396}]]}