{"data":[[{"is_transit":false,"i_long":106.822649,"time":0,"station_id":"SUD","station_name":"Sudirman","i_lat":-6.202263,"line":1,"distance":0,"transit":false},{"i_lat":-6.201433,"time":1,"station_name":"Sudirman Baru","distance":280,"is_transit":false,"i_long":106.819881,"line":1,"transit":false,"station_id":"SUDB"},{"station_id":"KAT","line":1,"distance":471,"transit":false,"i_lat":-6.20132,"station_name":"Karet","time":1,"is_transit":false,"i_long":106.816351},{"i_lat":-6.185545,"i_long":106.811091,"station_id":"THB","time":5,"distance":2029,"station_name":"Tanah Abang","line":1,"is_transit":false,"transit":false},{"transit":true,"station_id":"DU","time":8,"station_name":"Duri","distance":3632,"is_transit":true,"i_long":106.800832,"line":1,"i_lat":-6.155215},{"distance":1700,"station_name":"Grogol","is_transit":false,"station_id":"GGL","time":3,"transit":false,"line":5,"i_long":106.788277,"i_lat":-6.162021},{"line":5,"station_name":"Pesing","i_lat":-6.161433,"distance":2036,"is_transit":false,"transit":false,"time":2,"i_long":106.771379,"station_id":"PSG"},{"i_long":106.756522,"line":5,"station_name":"Taman Kota","is_transit":false,"distance":1614,"time":2,"station_id":"TKO","transit":false,"i_lat":-6.1587309999999995},{"transit":false,"line":5,"time":2,"is_transit":false,"i_lat":-6.159876,"i_long":106.737035,"distance":2334,"station_id":"BOI","station_name":"Bojongindah"},{"is_transit":false,"time":4,"station_id":"RW","i_lat":-6.162758,"i_long":106.723064,"station_name":"Rawa Buaya","transit":false,"distance":1152,"line":5},{"distance":2504,"is_transit":false,"time":3,"line":5,"station_id":"KDS","transit":false,"station_name":"Kalideres","i_lat":-6.166068,"i_long":106.701612},{"transit":false,"is_transit":false,"time":3,"station_id":"PI","i_long":106.679458,"line":5,"i_lat":-6.169933,"distance":2548,"station_name":"Poris"}],[{"i_lat":-6.202263,"i_long":106.822649,"station_id":"SUD","line":1,"distance":0,"time":0,"transit":false,"is_transit":false,"station_name":"Sudirman"},{"line":2,"transit":true,"station_id":"MRI","time":4,"is_transit":true,"distance":3186,"i_long":106.84912,"i_lat":-6.209883,"station_name":"Manggarai"},{"station_id":"CKI","distance":1590,"time":4,"station_name":"Cikini","transit":false,"line":2,"i_lat":-6.198556,"i_long":106.840169,"is_transit":false},{"station_name":"Gondangdia","station_id":"GDD","time":3,"is_transit":false,"i_lat":-6.186295,"line":2,"distance":1750,"transit":false,"i_long":106.832183},{"line":2,"station_id":"JUA","i_long":106.828284,"time":4,"station_name":"Juanda","transit":false,"distance":2015,"i_lat":-6.166716,"is_transit":false},{"transit":false,"i_lat":-6.160725,"station_id":"SW","is_transit":false,"station_name":"Sawah Besar","distance":1149,"time":2,"i_long":106.827103,"line":2},{"i_lat":-6.149769,"distance":906,"line":2,"time":2,"i_long":106.82482,"transit":false,"is_transit":false,"station_id":"MGB","station_name":"Manggabesar"},{"distance":1080,"line":2,"time":2,"i_long":106.820901,"i_lat":-6.141205,"transit":false,"is_transit":false,"station_name":"Jayakarta","station_id":"JAY"},{"transit":true,"distance":1264,"is_transit":true,"time":4,"station_name":"Jakarta Kota","station_id":"JAKK","i_lat":-6.137569,"line":2,"i_long":106.812439},{"is_transit":true,"i_lat":-6.132549,"i_long":106.826365,"time":3,"station_name":"Kampung Bandan","transit":true,"line":4,"distance":1364,"station_id":"KPB"},{"is_transit":false,"transit":false,"station_name":"Angke","time":9,"station_id":"AK","distance":4102,"i_long":106.79867,"i_lat":-6.144674,"line":1},{"station_name":"Duri","i_long":106.800832,"is_transit":true,"distance":1230,"time":4,"i_lat":-6.155215,"transit":true,"line":1,"station_id":"DU"},{"is_transit":false,"station_id":"GGL","line":5,"transit":false,"i_long":106.788277,"distance":1700,"time":3,"i_lat":-6.162021,"station_name":"Grogol"},{"transit":false,"i_long":106.771379,"is_transit":false,"time":2,"station_name":"Pesing","line":5,"distance":2036,"station_id":"PSG","i_lat":-6.161433},{"station_name":"Taman Kota","transit":false,"i_lat":-6.1587309999999995,"i_long":106.756522,"is_transit":false,"time":2,"line":5,"distance":1614,"station_id":"TKO"},{"i_lat":-6.159876,"time":2,"station_name":"Bojongindah","station_id":"BOI","is_transit":false,"distance":2334,"i_long":106.737035,"transit":false,"line":5},{"i_long":106.723064,"line":5,"is_transit":false,"transit":false,"station_name":"Rawa Buaya","time":4,"station_id":"RW","i_lat":-6.162758,"distance":1152},{"is_transit":false,"transit":false,"station_name":"Kalideres","i_lat":-6.166068,"i_long":106.701612,"distance":2504,"time":3,"station_id":"KDS","line":5},{"transit":false,"is_transit":false,"i_long":106.679458,"station_id":"PI","i_lat":-6.169933,"time":3,"line":5,"distance":2548,"station_name":"Poris"}],[{"transit":false,"station_id":"SUD","distance":0,"i_long":106.822649,"is_transit":false,"i_lat":-6.202263,"station_name":"Sudirman","line":1,"time":0},{"time":4,"distance":3186,"transit":false,"is_transit":false,"i_lat":-6.209883,"station_name":"Manggarai","i_long":106.84912,"line":2,"station_id":"MRI"},{"i_long":106.858896,"station_name":"Matraman","line":1,"is_transit":false,"distance":1275,"station_id":"MTR","i_lat":-6.212485,"time":2,"transit":false},{"line":1,"i_lat":-6.215091,"distance":1377,"transit":true,"station_id":"JNG","time":8,"is_transit":true,"i_long":106.86807400000001,"station_name":"Jatinegara"},{"i_long":106.861737,"line":11,"is_transit":false,"station_id":"POK","time":2,"distance":1236,"transit":false,"station_name":"Pondok Jati","i_lat":-6.209188},{"transit":false,"i_long":106.855437,"distance":1829,"is_transit":false,"station_id":"KMT","time":2,"station_name":"Kramat","i_lat":-6.193792,"line":11},{"transit":false,"time":1,"i_lat":-6.185975,"station_name":"Gang Sentiong","distance":973,"i_long":106.850107,"station_id":"GST","is_transit":false,"line":11},{"transit":false,"is_transit":false,"station_id":"PSE","time":8,"i_long":106.84368,"distance":1567,"i_lat":-6.174784,"station_name":"Pasar Senen","line":11},{"distance":1436,"line":11,"transit":false,"station_name":"Kemayoran","is_transit":false,"i_long":106.839204,"i_lat":-6.161728,"station_id":"KMO","time":4},{"i_long":106.836569,"station_name":"Rajawali","is_transit":false,"transit":false,"station_id":"RJW","i_lat":-6.14505,"time":5,"line":11,"distance":1901},{"is_transit":true,"time":3,"station_name":"Kampung Bandan","i_lat":-6.132549,"station_id":"KPB","distance":1444,"transit":true,"i_long":106.826365,"line":4},{"station_id":"AK","i_lat":-6.144674,"i_long":106.79867,"is_transit":false,"time":9,"distance":4102,"line":1,"station_name":"Angke","transit":false},{"station_id":"DU","i_long":106.800832,"transit":true,"time":4,"line":1,"station_name":"Duri","distance":1230,"is_transit":true,"i_lat":-6.155215},{"line":5,"station_id":"GGL","i_long":106.788277,"is_transit":false,"distance":1700,"transit":false,"station_name":"Grogol","time":3,"i_lat":-6.162021},{"i_lat":-6.161433,"station_name":"Pesing","distance":2036,"time":2,"is_transit":false,"i_long":106.771379,"line":5,"transit":false,"station_id":"PSG"},{"transit":false,"station_id":"TKO","is_transit":false,"line":5,"station_name":"Taman Kota","distance":1614,"i_lat":-6.1587309999999995,"i_long":106.756522,"time":2},{"i_long":106.737035,"station_name":"Bojongindah","distance":2334,"time":2,"station_id":"BOI","line":5,"is_transit":false,"transit":false,"i_lat":-6.159876},{"is_transit":false,"distance":1152,"station_id":"RW","i_long":106.723064,"line":5,"i_lat":-6.162758,"transit":false,"time":4,"station_name":"Rawa Buaya"},{"station_name":"Kalideres","station_id":"KDS","is_transit":false,"distance":2504,"i_lat":-6.166068,"i_long":106.701612,"time":3,"transit":false,"line":5},{"i_long":106.679458,"distance":2548,"transit":false,"station_id":"PI","is_transit":false,"station_name":"Poris","line":5,"time":3,"i_lat":-6.169933}]]}