{"data":[[{"line":1,"time":0,"station_id":"SUDB","i_lat":-6.201433,"station_name":"Sudirman Baru","distance":0,"transit":false,"i_long":106.819881,"is_transit":false},{"transit":false,"station_name":"Sudirman","station_id":"SUD","i_lat":-6.202263,"is_transit":false,"i_long":106.822649,"line":1,"time":1,"distance":280},{"is_transit":true,"i_long":106.84912,"line":2,"transit":true,"distance":3186,"station_name":"Manggarai","station_id":"MRI","time":4,"i_lat":-6.209883},{"transit":false,"i_lat":-6.226659,"time":4,"i_long":106.857948,"line":2,"distance":2610,"station_name":"Tebet","station_id":"TEB","is_transit":false},{"line":2,"is_transit":false,"station_name":"Cawang","station_id":"CW","time":2,"i_long":106.856607,"i_lat":-6.242512,"distance":1230,"transit":false},{"transit":false,"time":3,"station_id":"DRN","is_transit":false,"i_long":106.85449,"distance":1546,"station_name":"Duren Kalibata","i_lat":-6.255332,"line":2},{"line":2,"station_id":"PSMB","i_long":106.851577,"i_lat":-6.263214,"distance":824,"time":2,"transit":false,"station_name":"Pasar Minggu Baru","is_transit":false},{"line":2,"transit":false,"station_name":"Pasar Minggu","i_long":106.843999,"i_lat":-6.2842400000000005,"is_transit":false,"time":2,"station_id":"PSM","distance":2380},{"i_lat":-6.3080680000000005,"i_long":106.838896,"station_name":"Tanjung Barat","line":2,"is_transit":false,"station_id":"TNT","time":4,"transit":false,"distance":2820}],[{"transit":false,"time":0,"line":1,"is_transit":false,"station_id":"SUDB","i_long":106.819881,"distance":0,"i_lat":-6.201433,"station_name":"Sudirman Baru"},{"line":1,"station_id":"KAT","distance":471,"i_lat":-6.20132,"transit":false,"station_name":"Karet","is_transit":false,"time":1,"i_long":106.816351},{"line":1,"station_id":"THB","distance":2029,"is_transit":false,"time":5,"station_name":"Tanah Abang","transit":false,"i_lat":-6.185545,"i_long":106.811091},{"i_lat":-6.155215,"i_long":106.800832,"time":8,"line":1,"is_transit":false,"station_name":"Duri","transit":false,"station_id":"DU","distance":3632},{"station_id":"AK","i_lat":-6.144674,"is_transit":false,"i_long":106.79867,"line":1,"transit":false,"distance":1230,"time":4,"station_name":"Angke"},{"station_name":"Kampung Bandan","distance":4102,"transit":true,"i_lat":-6.132549,"station_id":"KPB","is_transit":true,"time":9,"line":4,"i_long":106.826365},{"i_lat":-6.137569,"is_transit":true,"time":3,"distance":1364,"station_id":"JAKK","station_name":"Jakarta Kota","i_long":106.812439,"transit":true,"line":2},{"distance":1264,"time":4,"is_transit":false,"i_long":106.820901,"transit":false,"station_id":"JAY","i_lat":-6.141205,"station_name":"Jayakarta","line":2},{"station_id":"MGB","distance":1080,"station_name":"Manggabesar","i_lat":-6.149769,"transit":false,"time":2,"is_transit":false,"line":2,"i_long":106.82482},{"i_long":106.827103,"time":2,"station_name":"Sawah Besar","transit":false,"station_id":"SW","is_transit":false,"distance":906,"line":2,"i_lat":-6.160725},{"station_name":"Juanda","transit":false,"time":2,"line":2,"i_lat":-6.166716,"station_id":"JUA","distance":1149,"i_long":106.828284,"is_transit":false},{"line":2,"time":4,"i_long":106.832183,"station_name":"Gondangdia","transit":false,"station_id":"GDD","distance":2015,"i_lat":-6.186295,"is_transit":false},{"i_lat":-6.198556,"time":3,"transit":false,"station_id":"CKI","distance":1750,"is_transit":false,"i_long":106.840169,"station_name":"Cikini","line":2},{"time":4,"i_lat":-6.209883,"station_name":"Manggarai","line":2,"is_transit":false,"transit":false,"i_long":106.84912,"station_id":"MRI","distance":1590},{"transit":false,"is_transit":false,"station_id":"TEB","distance":2610,"i_long":106.857948,"time":4,"i_lat":-6.226659,"station_name":"Tebet","line":2},{"station_name":"Cawang","line":2,"station_id":"CW","time":2,"distance":1230,"is_transit":false,"i_long":106.856607,"transit":false,"i_lat":-6.242512},{"station_name":"Duren Kalibata","time":3,"distance":1546,"i_long":106.85449,"transit":false,"i_lat":-6.255332,"is_transit":false,"line":2,"station_id":"DRN"},{"line":2,"station_name":"Pasar Minggu Baru","is_transit":false,"station_id":"PSMB","distance":824,"i_long":106.851577,"transit":false,"time":2,"i_lat":-6.263214},{"i_lat":-6.2842400000000005,"line":2,"i_long":106.843999,"time":2,"distance":2380,"transit":false,"station_id":"PSM","is_transit":false,"station_name":"Pasar Minggu"},{"transit":false,"i_lat":-6.3080680000000005,"is_transit":false,"station_id":"TNT","i_long":106.838896,"time":4,"line":2,"distance":2820,"station_name":"Tanjung Barat"}],[{"station_name":"Sudirman Baru","distance":0,"i_long":106.819881,"transit":false,"station_id":"SUDB","i_lat":-6.201433,"line":1,"is_transit":false,"time":0},{"i_long":106.816351,"distance":471,"station_id":"KAT","i_lat":-6.20132,"line":1,"station_name":"Karet","time":1,"transit":false,"is_transit":false},{"i_long":106.811091,"distance":2029,"is_transit":false,"line":1,"station_name":"Tanah Abang","i_lat":-6.185545,"transit":false,"station_id":"THB","time":5},{"station_name":"Duri","time":8,"station_id":"DU","transit":false,"distance":3632,"i_lat":-6.155215,"is_transit":false,"i_long":106.800832,"line":1},{"time":4,"i_lat":-6.144674,"is_transit":false,"line":1,"station_name":"Angke","station_id":"AK","i_long":106.79867,"transit":false,"distance":1230},{"distance":4102,"is_transit":true,"station_id":"KPB","station_name":"Kampung Bandan","transit":true,"time":9,"i_lat":-6.132549,"i_long":106.826365,"line":4},{"time":3,"station_id":"RJW","is_transit":false,"station_name":"Rajawali","distance":1444,"transit":false,"i_long":106.836569,"line":11,"i_lat":-6.14505},{"station_name":"Kemayoran","time":5,"is_transit":false,"i_lat":-6.161728,"transit":false,"distance":1901,"station_id":"KMO","line":11,"i_long":106.839204},{"is_transit":false,"line":11,"i_long":106.84368,"distance":1436,"transit":false,"time":4,"station_id":"PSE","i_lat":-6.174784,"station_name":"Pasar Senen"},{"station_id":"GST","i_long":106.850107,"station_name":"Gang Sentiong","distance":1567,"time":8,"is_transit":false,"transit":false,"i_lat":-6.185975,"line":11},{"station_name":"Kramat","line":11,"transit":false,"time":1,"i_lat":-6.193792,"is_transit":false,"station_id":"KMT","distance":973,"i_long":106.855437},{"line":11,"station_id":"POK","is_transit":false,"distance":1829,"i_long":106.861737,"time":2,"station_name":"Pondok Jati","i_lat":-6.209188,"transit":false},{"time":9,"station_name":"Jatinegara","is_transit":true,"line":1,"transit":true,"station_id":"JNG","distance":1236,"i_lat":-6.215091,"i_long":106.86807400000001},{"transit":false,"i_long":106.858896,"time":2,"station_id":"MTR","station_name":"Matraman","line":1,"distance":1377,"is_transit":false,"i_lat":-6.212485},{"i_lat":-6.209883,"station_id":"MRI","line":2,"i_long":106.84912,"station_name":"Manggarai","distance":1275,"time":2,"is_transit":true,"transit":true},{"transit":false,"distance":2610,"time":4,"i_long":106.857948,"is_transit":false,"i_lat":-6.226659,"line":2,"station_name":"Tebet","station_id":"TEB"},{"transit":false,"i_long":106.856607,"station_name":"Cawang","line":2,"is_transit":false,"time":2,"station_id":"CW","i_lat":-6.242512,"distance":1230},{"time":3,"i_lat":-6.255332,"distance":1546,"line":2,"station_name":"Duren Kalibata","station_id":"DRN","i_long":106.85449,"transit":false,"is_transit":false},{"transit":false,"is_transit":false,"distance":824,"i_long":106.851577,"time":2,"station_id":"PSMB","station_name":"Pasar Minggu Baru","line":2,"i_lat":-6.263214},{"transit":false,"line":2,"i_long":106.843999,"is_transit":false,"time":2,"station_name":"Pasar Minggu","station_id":"PSM","i_lat":-6.2842400000000005,"distance":2380},{"i_long":106.838896,"distance":2820,"is_transit":false,"line":2,"time":4,"i_lat":-6.3080680000000005,"transit":false,"station_name":"Tanjung Barat","station_id":"TNT"}]]}