{"data":[[{"i_lat":-6.201433,"distance":0,"transit":false,"station_name":"Sudirman Baru","line":1,"is_transit":false,"i_long":106.819881,"time":0,"station_id":"SUDB"},{"distance":471,"station_id":"KAT","transit":false,"is_transit":false,"line":1,"i_long":106.816351,"time":1,"station_name":"Karet","i_lat":-6.20132},{"is_transit":false,"station_id":"THB","station_name":"Tanah Abang","i_lat":-6.185545,"distance":2029,"time":5,"transit":false,"line":1,"i_long":106.811091},{"i_lat":-6.155215,"i_long":106.800832,"time":8,"station_name":"Duri","line":1,"is_transit":true,"station_id":"DU","distance":3632,"transit":true},{"i_long":106.788277,"station_id":"GGL","line":5,"distance":1700,"transit":false,"i_lat":-6.162021,"time":3,"station_name":"Grogol","is_transit":false},{"station_id":"PSG","line":5,"transit":false,"i_long":106.771379,"distance":2036,"is_transit":false,"time":2,"i_lat":-6.161433,"station_name":"Pesing"},{"distance":1614,"station_id":"TKO","transit":false,"line":5,"time":2,"station_name":"Taman Kota","i_lat":-6.1587309999999995,"i_long":106.756522,"is_transit":false},{"is_transit":false,"transit":false,"line":5,"distance":2334,"time":2,"station_id":"BOI","station_name":"Bojongindah","i_lat":-6.159876,"i_long":106.737035},{"station_id":"RW","i_long":106.723064,"line":5,"i_lat":-6.162758,"distance":1152,"is_transit":false,"transit":false,"time":4,"station_name":"Rawa Buaya"},{"transit":false,"i_lat":-6.166068,"time":3,"is_transit":false,"station_id":"KDS","station_name":"Kalideres","distance":2504,"i_long":106.701612,"line":5}],[{"is_transit":false,"station_name":"Sudirman Baru","station_id":"SUDB","time":0,"distance":0,"line":1,"i_long":106.819881,"i_lat":-6.201433,"transit":false},{"is_transit":false,"time":1,"transit":false,"station_id":"SUD","line":1,"station_name":"Sudirman","distance":280,"i_lat":-6.202263,"i_long":106.822649},{"distance":3186,"station_id":"MRI","i_lat":-6.209883,"i_long":106.84912,"line":2,"station_name":"Manggarai","is_transit":true,"transit":true,"time":4},{"line":2,"station_name":"Cikini","distance":1590,"station_id":"CKI","transit":false,"i_lat":-6.198556,"is_transit":false,"i_long":106.840169,"time":4},{"distance":1750,"time":3,"station_name":"Gondangdia","is_transit":false,"i_lat":-6.186295,"station_id":"GDD","line":2,"transit":false,"i_long":106.832183},{"station_id":"JUA","line":2,"transit":false,"time":4,"is_transit":false,"distance":2015,"i_lat":-6.166716,"i_long":106.828284,"station_name":"Juanda"},{"line":2,"is_transit":false,"transit":false,"i_long":106.827103,"time":2,"distance":1149,"station_id":"SW","station_name":"Sawah Besar","i_lat":-6.160725},{"i_lat":-6.149769,"line":2,"distance":906,"station_id":"MGB","time":2,"is_transit":false,"transit":false,"i_long":106.82482,"station_name":"Manggabesar"},{"time":2,"line":2,"station_id":"JAY","i_lat":-6.141205,"distance":1080,"transit":false,"is_transit":false,"station_name":"Jayakarta","i_long":106.820901},{"station_name":"Jakarta Kota","is_transit":true,"time":4,"transit":true,"i_long":106.812439,"line":2,"i_lat":-6.137569,"distance":1264,"station_id":"JAKK"},{"time":3,"station_name":"Kampung Bandan","is_transit":true,"transit":true,"station_id":"KPB","i_lat":-6.132549,"line":4,"distance":1364,"i_long":106.826365},{"i_long":106.79867,"line":1,"distance":4102,"station_id":"AK","is_transit":false,"station_name":"Angke","transit":false,"time":9,"i_lat":-6.144674},{"station_id":"DU","line":1,"is_transit":true,"transit":true,"station_name":"Duri","i_long":106.800832,"time":4,"distance":1230,"i_lat":-6.155215},{"station_name":"Grogol","distance":1700,"i_lat":-6.162021,"i_long":106.788277,"time":3,"is_transit":false,"line":5,"station_id":"GGL","transit":false},{"transit":false,"i_lat":-6.161433,"station_name":"Pesing","time":2,"distance":2036,"i_long":106.771379,"is_transit":false,"line":5,"station_id":"PSG"},{"station_id":"TKO","time":2,"station_name":"Taman Kota","line":5,"i_lat":-6.1587309999999995,"i_long":106.756522,"distance":1614,"transit":false,"is_transit":false},{"transit":false,"i_lat":-6.159876,"line":5,"station_name":"Bojongindah","time":2,"is_transit":false,"station_id":"BOI","distance":2334,"i_long":106.737035},{"i_long":106.723064,"distance":1152,"i_lat":-6.162758,"transit":false,"station_name":"Rawa Buaya","line":5,"is_transit":false,"time":4,"station_id":"RW"},{"distance":2504,"i_lat":-6.166068,"station_name":"Kalideres","i_long":106.701612,"line":5,"transit":false,"is_transit":false,"station_id":"KDS","time":3}],[{"transit":false,"time":0,"distance":0,"is_transit":false,"station_name":"Sudirman Baru","station_id":"SUDB","i_long":106.819881,"line":1,"i_lat":-6.201433},{"is_transit":false,"transit":false,"time":1,"distance":280,"station_name":"Sudirman","station_id":"SUD","i_lat":-6.202263,"line":1,"i_long":106.822649},{"station_name":"Manggarai","distance":3186,"transit":false,"is_transit":false,"i_lat":-6.209883,"time":4,"station_id":"MRI","i_long":106.84912,"line":2},{"i_lat":-6.212485,"i_long":106.858896,"line":1,"station_name":"Matraman","distance":1275,"time":2,"transit":false,"station_id":"MTR","is_transit":false},{"station_name":"Jatinegara","time":8,"i_long":106.86807400000001,"distance":1377,"is_transit":true,"transit":true,"station_id":"JNG","i_lat":-6.215091,"line":1},{"time":2,"station_name":"Pondok Jati","is_transit":false,"i_long":106.861737,"line":11,"distance":1236,"transit":false,"station_id":"POK","i_lat":-6.209188},{"i_lat":-6.193792,"line":11,"transit":false,"station_name":"Kramat","time":2,"distance":1829,"i_long":106.855437,"is_transit":false,"station_id":"KMT"},{"transit":false,"i_lat":-6.185975,"station_name":"Gang Sentiong","is_transit":false,"distance":973,"station_id":"GST","line":11,"time":1,"i_long":106.850107},{"line":11,"is_transit":false,"station_id":"PSE","time":8,"i_lat":-6.174784,"distance":1567,"station_name":"Pasar Senen","i_long":106.84368,"transit":false},{"is_transit":false,"station_name":"Kemayoran","station_id":"KMO","i_long":106.839204,"time":4,"transit":false,"i_lat":-6.161728,"line":11,"distance":1436},{"is_transit":false,"i_long":106.836569,"i_lat":-6.14505,"distance":1901,"station_id":"RJW","line":11,"transit":false,"time":5,"station_name":"Rajawali"},{"distance":1444,"is_transit":true,"station_name":"Kampung Bandan","station_id":"KPB","i_lat":-6.132549,"transit":true,"line":4,"time":3,"i_long":106.826365},{"time":9,"station_name":"Angke","i_lat":-6.144674,"is_transit":false,"transit":false,"i_long":106.79867,"station_id":"AK","distance":4102,"line":1},{"distance":1230,"i_long":106.800832,"transit":true,"station_name":"Duri","time":4,"is_transit":true,"station_id":"DU","line":1,"i_lat":-6.155215},{"station_name":"Grogol","i_long":106.788277,"is_transit":false,"station_id":"GGL","distance":1700,"i_lat":-6.162021,"time":3,"transit":false,"line":5},{"transit":false,"station_name":"Pesing","station_id":"PSG","i_long":106.771379,"time":2,"is_transit":false,"i_lat":-6.161433,"distance":2036,"line":5},{"line":5,"distance":1614,"i_long":106.756522,"transit":false,"station_id":"TKO","is_transit":false,"station_name":"Taman Kota","time":2,"i_lat":-6.1587309999999995},{"i_lat":-6.159876,"station_id":"BOI","line":5,"i_long":106.737035,"station_name":"Bojongindah","distance":2334,"is_transit":false,"time":2,"transit":false},{"station_name":"Rawa Buaya","is_transit":false,"distance":1152,"time":4,"line":5,"i_lat":-6.162758,"i_long":106.723064,"transit":false,"station_id":"RW"},{"station_id":"KDS","distance":2504,"station_name":"Kalideres","line":5,"is_transit":false,"transit":false,"time":3,"i_long":106.701612,"i_lat":-6.166068}]]}