{"data":[[{"line":1,"distance":0,"time":0,"station_id":"SUDB","is_transit":false,"transit":false,"i_lat":-6.201433,"i_long":106.819881,"station_name":"Sudirman Baru"},{"station_id":"SUD","station_name":"Sudirman","distance":280,"time":1,"line":1,"transit":false,"is_transit":false,"i_long":106.822649,"i_lat":-6.202263},{"line":2,"station_id":"MRI","i_lat":-6.209883,"is_transit":true,"i_long":106.84912,"time":4,"transit":true,"station_name":"Manggarai","distance":3186},{"transit":false,"i_lat":-6.226659,"i_long":106.857948,"station_name":"Tebet","line":2,"time":4,"distance":2610,"station_id":"TEB","is_transit":false},{"station_name":"Cawang","i_lat":-6.242512,"is_transit":false,"time":2,"transit":false,"line":2,"i_long":106.856607,"distance":1230,"station_id":"CW"},{"line":2,"is_transit":false,"i_long":106.85449,"station_id":"DRN","time":3,"station_name":"Duren Kalibata","distance":1546,"transit":false,"i_lat":-6.255332},{"line":2,"distance":824,"time":2,"i_lat":-6.263214,"is_transit":false,"station_name":"Pasar Minggu Baru","transit":false,"i_long":106.851577,"station_id":"PSMB"},{"station_id":"PSM","i_lat":-6.2842400000000005,"time":2,"distance":2380,"is_transit":false,"transit":false,"station_name":"Pasar Minggu","i_long":106.843999,"line":2},{"i_long":106.838896,"station_name":"Tanjung Barat","is_transit":false,"line":2,"station_id":"TNT","transit":false,"i_lat":-6.3080680000000005,"time":4,"distance":2820},{"line":2,"i_lat":-6.330363,"station_id":"LNA","i_long":106.832616,"distance":2671,"transit":false,"is_transit":false,"time":3,"station_name":"Lenteng Agung"},{"is_transit":false,"transit":false,"time":2,"station_id":"UP","station_name":"Univ. Pancasila","i_long":106.834175,"i_lat":-6.339291,"line":2,"distance":1029},{"i_long":106.831474,"station_id":"UI","line":2,"transit":false,"distance":2264,"i_lat":-6.360749,"is_transit":false,"station_name":"Univ. Indonesia","time":3},{"time":2,"transit":false,"i_lat":-6.369073,"line":2,"i_long":106.831114,"station_id":"POC","station_name":"Pondok Cina","distance":1109,"is_transit":false},{"distance":2727,"i_lat":-6.391065,"station_name":"Depokbaru","station_id":"DPB","is_transit":false,"i_long":106.819451,"line":2,"time":4,"transit":false},{"line":2,"time":3,"distance":1584,"is_transit":false,"transit":false,"station_id":"DP","station_name":"Depok","i_lat":-6.405256,"i_long":106.816926}],[{"station_id":"SUDB","time":0,"distance":0,"line":1,"station_name":"Sudirman Baru","i_long":106.819881,"transit":false,"is_transit":false,"i_lat":-6.201433},{"transit":false,"station_name":"Karet","distance":471,"station_id":"KAT","i_lat":-6.20132,"is_transit":false,"i_long":106.816351,"time":1,"line":1},{"is_transit":false,"line":1,"station_name":"Tanah Abang","i_lat":-6.185545,"time":5,"distance":2029,"i_long":106.811091,"transit":false,"station_id":"THB"},{"time":8,"station_id":"DU","is_transit":false,"i_long":106.800832,"station_name":"Duri","distance":3632,"line":1,"transit":false,"i_lat":-6.155215},{"is_transit":false,"station_name":"Angke","transit":false,"i_lat":-6.144674,"station_id":"AK","i_long":106.79867,"line":1,"time":4,"distance":1230},{"time":9,"transit":true,"is_transit":true,"i_lat":-6.132549,"station_id":"KPB","i_long":106.826365,"line":4,"distance":4102,"station_name":"Kampung Bandan"},{"i_long":106.812439,"station_id":"JAKK","i_lat":-6.137569,"time":3,"distance":1364,"station_name":"Jakarta Kota","transit":true,"is_transit":true,"line":2},{"time":4,"distance":1264,"i_lat":-6.141205,"line":2,"station_name":"Jayakarta","transit":false,"is_transit":false,"i_long":106.820901,"station_id":"JAY"},{"i_long":106.82482,"station_id":"MGB","transit":false,"station_name":"Manggabesar","i_lat":-6.149769,"time":2,"is_transit":false,"distance":1080,"line":2},{"station_name":"Sawah Besar","transit":false,"line":2,"time":2,"i_long":106.827103,"distance":906,"station_id":"SW","is_transit":false,"i_lat":-6.160725},{"station_id":"JUA","line":2,"i_lat":-6.166716,"time":2,"i_long":106.828284,"distance":1149,"station_name":"Juanda","transit":false,"is_transit":false},{"i_lat":-6.186295,"is_transit":false,"transit":false,"distance":2015,"line":2,"time":4,"station_name":"Gondangdia","station_id":"GDD","i_long":106.832183},{"i_long":106.840169,"i_lat":-6.198556,"station_name":"Cikini","station_id":"CKI","distance":1750,"is_transit":false,"transit":false,"line":2,"time":3},{"distance":1590,"station_name":"Manggarai","i_lat":-6.209883,"transit":false,"station_id":"MRI","is_transit":false,"time":4,"line":2,"i_long":106.84912},{"time":4,"is_transit":false,"station_id":"TEB","distance":2610,"i_long":106.857948,"line":2,"i_lat":-6.226659,"station_name":"Tebet","transit":false},{"line":2,"station_name":"Cawang","is_transit":false,"distance":1230,"transit":false,"i_long":106.856607,"station_id":"CW","time":2,"i_lat":-6.242512},{"is_transit":false,"distance":1546,"station_id":"DRN","transit":false,"i_lat":-6.255332,"time":3,"i_long":106.85449,"line":2,"station_name":"Duren Kalibata"},{"transit":false,"station_name":"Pasar Minggu Baru","is_transit":false,"station_id":"PSMB","time":2,"i_lat":-6.263214,"distance":824,"i_long":106.851577,"line":2},{"station_id":"PSM","i_lat":-6.2842400000000005,"line":2,"time":2,"distance":2380,"is_transit":false,"i_long":106.843999,"station_name":"Pasar Minggu","transit":false},{"i_long":106.838896,"time":4,"distance":2820,"station_name":"Tanjung Barat","line":2,"transit":false,"i_lat":-6.3080680000000005,"is_transit":false,"station_id":"TNT"},{"station_name":"Lenteng Agung","time":3,"i_long":106.832616,"distance":2671,"is_transit":false,"i_lat":-6.330363,"station_id":"LNA","line":2,"transit":false},{"i_long":106.834175,"time":2,"line":2,"station_name":"Univ. Pancasila","distance":1029,"is_transit":false,"i_lat":-6.339291,"transit":false,"station_id":"UP"},{"is_transit":false,"station_id":"UI","i_long":106.831474,"distance":2264,"station_name":"Univ. Indonesia","transit":false,"time":3,"i_lat":-6.360749,"line":2},{"i_lat":-6.369073,"transit":false,"station_name":"Pondok Cina","is_transit":false,"station_id":"POC","distance":1109,"time":2,"i_long":106.831114,"line":2},{"is_transit":false,"i_lat":-6.391065,"station_id":"DPB","time":4,"i_long":106.819451,"line":2,"distance":2727,"transit":false,"station_name":"Depokbaru"},{"station_name":"Depok","distance":1584,"i_long":106.816926,"time":3,"i_lat":-6.405256,"transit":false,"is_transit":false,"station_id":"DP","line":2}],[{"time":0,"station_name":"Sudirman Baru","i_long":106.819881,"transit":false,"is_transit":false,"station_id":"SUDB","i_lat":-6.201433,"distance":0,"line":1},{"is_transit":false,"distance":471,"i_lat":-6.20132,"line":1,"station_name":"Karet","time":1,"station_id":"KAT","i_long":106.816351,"transit":false},{"time":5,"distance":2029,"station_id":"THB","station_name":"Tanah Abang","transit":false,"line":1,"i_lat":-6.185545,"i_long":106.811091,"is_transit":false},{"is_transit":false,"line":1,"station_id":"DU","distance":3632,"transit":false,"i_lat":-6.155215,"i_long":106.800832,"time":8,"station_name":"Duri"},{"transit":false,"station_id":"AK","line":1,"station_name":"Angke","time":4,"distance":1230,"is_transit":false,"i_lat":-6.144674,"i_long":106.79867},{"i_lat":-6.132549,"line":4,"i_long":106.826365,"distance":4102,"time":9,"transit":true,"is_transit":true,"station_name":"Kampung Bandan","station_id":"KPB"},{"time":3,"transit":false,"distance":1444,"is_transit":false,"station_id":"RJW","station_name":"Rajawali","i_lat":-6.14505,"i_long":106.836569,"line":11},{"time":5,"line":11,"i_lat":-6.161728,"distance":1901,"i_long":106.839204,"station_name":"Kemayoran","station_id":"KMO","is_transit":false,"transit":false},{"time":4,"distance":1436,"station_name":"Pasar Senen","station_id":"PSE","is_transit":false,"line":11,"transit":false,"i_lat":-6.174784,"i_long":106.84368},{"time":8,"i_lat":-6.185975,"station_id":"GST","station_name":"Gang Sentiong","is_transit":false,"i_long":106.850107,"line":11,"transit":false,"distance":1567},{"i_lat":-6.193792,"station_name":"Kramat","is_transit":false,"station_id":"KMT","time":1,"distance":973,"transit":false,"i_long":106.855437,"line":11},{"distance":1829,"is_transit":false,"i_lat":-6.209188,"transit":false,"i_long":106.861737,"time":2,"station_name":"Pondok Jati","station_id":"POK","line":11},{"station_name":"Jatinegara","i_lat":-6.215091,"transit":true,"station_id":"JNG","i_long":106.86807400000001,"distance":1236,"line":1,"time":9,"is_transit":true},{"i_long":106.858896,"i_lat":-6.212485,"line":1,"time":2,"distance":1377,"is_transit":false,"station_id":"MTR","transit":false,"station_name":"Matraman"},{"station_name":"Manggarai","distance":1275,"station_id":"MRI","i_long":106.84912,"time":2,"i_lat":-6.209883,"is_transit":true,"transit":true,"line":2},{"transit":false,"station_id":"TEB","distance":2610,"time":4,"i_long":106.857948,"line":2,"is_transit":false,"i_lat":-6.226659,"station_name":"Tebet"},{"station_id":"CW","time":2,"distance":1230,"i_long":106.856607,"transit":false,"is_transit":false,"i_lat":-6.242512,"line":2,"station_name":"Cawang"},{"transit":false,"line":2,"station_name":"Duren Kalibata","i_lat":-6.255332,"time":3,"distance":1546,"i_long":106.85449,"station_id":"DRN","is_transit":false},{"station_id":"PSMB","i_lat":-6.263214,"transit":false,"station_name":"Pasar Minggu Baru","line":2,"is_transit":false,"distance":824,"time":2,"i_long":106.851577},{"time":2,"i_lat":-6.2842400000000005,"station_name":"Pasar Minggu","transit":false,"i_long":106.843999,"line":2,"distance":2380,"station_id":"PSM","is_transit":false},{"i_lat":-6.3080680000000005,"distance":2820,"is_transit":false,"station_name":"Tanjung Barat","time":4,"i_long":106.838896,"station_id":"TNT","line":2,"transit":false},{"distance":2671,"line":2,"i_lat":-6.330363,"is_transit":false,"i_long":106.832616,"transit":false,"station_id":"LNA","time":3,"station_name":"Lenteng Agung"},{"time":2,"station_id":"UP","transit":false,"is_transit":false,"station_name":"Univ. Pancasila","line":2,"distance":1029,"i_lat":-6.339291,"i_long":106.834175},{"i_lat":-6.360749,"station_id":"UI","line":2,"station_name":"Univ. Indonesia","time":3,"distance":2264,"is_transit":false,"transit":false,"i_long":106.831474},{"i_long":106.831114,"station_name":"Pondok Cina","distance":1109,"line":2,"i_lat":-6.369073,"is_transit":false,"transit":false,"time":2,"station_id":"POC"},{"transit":false,"distance":2727,"station_id":"DPB","station_name":"Depokbaru","is_transit":false,"i_lat":-6.391065,"line":2,"i_long":106.819451,"time":4},{"line":2,"distance":1584,"time":3,"i_lat":-6.405256,"station_id":"DP","i_long":106.816926,"is_transit":false,"transit":false,"station_name":"Depok"}]]}