{"data":[[{"time":0,"station_id":"SUDB","station_name":"Sudirman Baru","i_long":106.819881,"transit":false,"i_lat":-6.201433,"line":1,"is_transit":false,"distance":0},{"transit":false,"i_lat":-6.20132,"i_long":106.816351,"station_id":"KAT","station_name":"Karet","distance":471,"line":1,"time":1,"is_transit":false},{"line":1,"transit":true,"is_transit":true,"station_name":"Tanah Abang","time":5,"i_lat":-6.185545,"distance":2029,"station_id":"THB","i_long":106.811091},{"distance":3191,"station_name":"Palmerah","is_transit":false,"i_lat":-6.207404,"time":6,"i_long":106.79689,"transit":false,"line":6,"station_id":"PLM"},{"time":7,"station_id":"KBY","transit":false,"station_name":"Kebayoran","i_long":106.780334,"i_lat":-6.237242,"is_transit":false,"distance":3737,"line":6},{"transit":false,"time":8,"i_long":106.74273,"station_name":"Pondokranji","station_id":"PDJ","is_transit":false,"i_lat":-6.276362,"line":6,"distance":6218},{"transit":false,"line":6,"is_transit":false,"i_long":106.728916,"time":3,"station_name":"Jurangmangu","i_lat":-6.288927,"station_id":"JMU","distance":2179},{"distance":1994,"is_transit":false,"i_lat":-6.296963,"line":6,"time":4,"station_name":"Sudimara","i_long":106.712277,"station_id":"SDM","transit":false},{"time":6,"station_name":"Rawa Buntu","line":6,"i_lat":-6.314823,"is_transit":false,"station_id":"RU","transit":false,"distance":4566,"i_long":106.675475},{"i_long":106.66566,"line":6,"i_lat":-6.319871,"transit":false,"station_name":"Serpong","distance":2413,"station_id":"SRP","time":4,"is_transit":false},{"i_lat":-6.32484,"i_long":106.640411,"station_id":"CSK","is_transit":false,"line":3,"time":4,"station_name":"Cisauk","distance":1784,"transit":false},{"i_long":106.617853,"line":3,"station_id":"CC","station_name":"Cicayur","i_lat":-6.329547,"time":4,"distance":2519,"transit":false,"is_transit":false},{"distance":5968,"is_transit":false,"time":8,"i_lat":-6.3441410000000005,"station_id":"PRP","station_name":"Parung Panjang","transit":false,"i_long":106.568863,"line":6},{"is_transit":false,"station_name":"Cilejit","time":9,"station_id":"CJT","line":3,"transit":false,"i_lat":-6.354349,"i_long":106.508482,"distance":7025}],[{"transit":false,"line":1,"station_name":"Sudirman Baru","time":0,"distance":0,"i_lat":-6.201433,"station_id":"SUDB","is_transit":false,"i_long":106.819881},{"distance":280,"i_long":106.822649,"line":1,"i_lat":-6.202263,"station_id":"SUD","time":1,"is_transit":false,"station_name":"Sudirman","transit":false},{"station_name":"Manggarai","distance":3186,"time":4,"station_id":"MRI","is_transit":true,"i_lat":-6.209883,"line":2,"transit":true,"i_long":106.84912},{"station_name":"Cikini","distance":1590,"transit":false,"time":4,"station_id":"CKI","i_long":106.840169,"is_transit":false,"i_lat":-6.198556,"line":2},{"time":3,"transit":false,"i_long":106.832183,"i_lat":-6.186295,"station_name":"Gondangdia","distance":1750,"station_id":"GDD","line":2,"is_transit":false},{"distance":2015,"station_id":"JUA","station_name":"Juanda","i_lat":-6.166716,"line":2,"time":4,"is_transit":false,"transit":false,"i_long":106.828284},{"time":2,"station_name":"Sawah Besar","is_transit":false,"i_lat":-6.160725,"line":2,"transit":false,"distance":1149,"i_long":106.827103,"station_id":"SW"},{"station_id":"MGB","station_name":"Manggabesar","line":2,"is_transit":false,"transit":false,"i_lat":-6.149769,"i_long":106.82482,"time":2,"distance":906},{"i_lat":-6.141205,"line":2,"station_id":"JAY","time":2,"station_name":"Jayakarta","is_transit":false,"transit":false,"i_long":106.820901,"distance":1080},{"i_lat":-6.137569,"i_long":106.812439,"line":2,"time":4,"distance":1264,"station_id":"JAKK","station_name":"Jakarta Kota","is_transit":true,"transit":true},{"distance":1364,"time":3,"i_long":106.826365,"station_id":"KPB","line":4,"station_name":"Kampung Bandan","transit":true,"is_transit":true,"i_lat":-6.132549},{"distance":4102,"line":1,"transit":false,"i_lat":-6.144674,"is_transit":false,"i_long":106.79867,"station_id":"AK","time":9,"station_name":"Angke"},{"station_name":"Duri","transit":false,"time":4,"station_id":"DU","is_transit":false,"i_lat":-6.155215,"distance":1230,"i_long":106.800832,"line":1},{"is_transit":true,"i_lat":-6.185545,"station_id":"THB","line":1,"station_name":"Tanah Abang","transit":true,"i_long":106.811091,"distance":3632,"time":8},{"time":6,"station_name":"Palmerah","i_long":106.79689,"distance":3191,"is_transit":false,"i_lat":-6.207404,"station_id":"PLM","transit":false,"line":6},{"is_transit":false,"transit":false,"station_id":"KBY","station_name":"Kebayoran","line":6,"distance":3737,"time":7,"i_lat":-6.237242,"i_long":106.780334},{"station_name":"Pondokranji","i_lat":-6.276362,"is_transit":false,"distance":6218,"i_long":106.74273,"time":8,"transit":false,"line":6,"station_id":"PDJ"},{"i_lat":-6.288927,"line":6,"distance":2179,"is_transit":false,"transit":false,"time":3,"station_id":"JMU","i_long":106.728916,"station_name":"Jurangmangu"},{"i_long":106.712277,"line":6,"distance":1994,"time":4,"transit":false,"i_lat":-6.296963,"station_name":"Sudimara","is_transit":false,"station_id":"SDM"},{"distance":4566,"i_long":106.675475,"is_transit":false,"station_name":"Rawa Buntu","transit":false,"station_id":"RU","i_lat":-6.314823,"line":6,"time":6},{"station_id":"SRP","i_long":106.66566,"time":4,"transit":false,"is_transit":false,"distance":2413,"station_name":"Serpong","i_lat":-6.319871,"line":6},{"is_transit":false,"i_long":106.640411,"distance":1784,"station_name":"Cisauk","time":4,"transit":false,"station_id":"CSK","line":3,"i_lat":-6.32484},{"line":3,"time":4,"is_transit":false,"station_id":"CC","i_long":106.617853,"station_name":"Cicayur","transit":false,"i_lat":-6.329547,"distance":2519},{"i_long":106.568863,"transit":false,"line":6,"station_name":"Parung Panjang","i_lat":-6.3441410000000005,"station_id":"PRP","distance":5968,"time":8,"is_transit":false},{"transit":false,"i_long":106.508482,"is_transit":false,"station_id":"CJT","time":9,"i_lat":-6.354349,"line":3,"distance":7025,"station_name":"Cilejit"}],[{"distance":0,"transit":false,"i_lat":-6.201433,"i_long":106.819881,"station_name":"Sudirman Baru","line":1,"time":0,"is_transit":false,"station_id":"SUDB"},{"is_transit":false,"transit":false,"i_long":106.822649,"i_lat":-6.202263,"time":1,"distance":280,"line":1,"station_id":"SUD","station_name":"Sudirman"},{"is_transit":false,"transit":false,"station_name":"Manggarai","time":4,"station_id":"MRI","i_lat":-6.209883,"i_long":106.84912,"distance":3186,"line":2},{"station_id":"MTR","i_long":106.858896,"time":2,"distance":1275,"transit":false,"station_name":"Matraman","i_lat":-6.212485,"line":1,"is_transit":false},{"time":8,"i_lat":-6.215091,"line":1,"distance":1377,"station_id":"JNG","i_long":106.86807400000001,"transit":true,"station_name":"Jatinegara","is_transit":true},{"line":11,"station_id":"POK","is_transit":false,"time":2,"i_lat":-6.209188,"station_name":"Pondok Jati","distance":1236,"i_long":106.861737,"transit":false},{"is_transit":false,"station_name":"Kramat","line":11,"distance":1829,"time":2,"i_long":106.855437,"i_lat":-6.193792,"transit":false,"station_id":"KMT"},{"station_id":"GST","is_transit":false,"station_name":"Gang Sentiong","transit":false,"i_lat":-6.185975,"distance":973,"i_long":106.850107,"time":1,"line":11},{"is_transit":false,"time":8,"line":11,"distance":1567,"transit":false,"i_lat":-6.174784,"station_name":"Pasar Senen","station_id":"PSE","i_long":106.84368},{"station_name":"Kemayoran","i_lat":-6.161728,"line":11,"station_id":"KMO","distance":1436,"transit":false,"i_long":106.839204,"is_transit":false,"time":4},{"i_lat":-6.14505,"time":5,"line":11,"is_transit":false,"i_long":106.836569,"transit":false,"station_name":"Rajawali","station_id":"RJW","distance":1901},{"transit":true,"line":4,"is_transit":true,"i_lat":-6.132549,"distance":1444,"i_long":106.826365,"station_id":"KPB","station_name":"Kampung Bandan","time":3},{"is_transit":false,"line":1,"station_name":"Angke","i_lat":-6.144674,"distance":4102,"transit":false,"time":9,"station_id":"AK","i_long":106.79867},{"i_long":106.800832,"is_transit":false,"i_lat":-6.155215,"transit":false,"station_id":"DU","line":1,"time":4,"station_name":"Duri","distance":1230},{"line":1,"time":8,"distance":3632,"is_transit":true,"transit":true,"station_name":"Tanah Abang","station_id":"THB","i_lat":-6.185545,"i_long":106.811091},{"line":6,"station_name":"Palmerah","i_lat":-6.207404,"i_long":106.79689,"distance":3191,"time":6,"station_id":"PLM","transit":false,"is_transit":false},{"is_transit":false,"station_id":"KBY","i_lat":-6.237242,"time":7,"station_name":"Kebayoran","transit":false,"distance":3737,"line":6,"i_long":106.780334},{"time":8,"i_long":106.74273,"transit":false,"station_id":"PDJ","line":6,"is_transit":false,"station_name":"Pondokranji","i_lat":-6.276362,"distance":6218},{"time":3,"transit":false,"i_lat":-6.288927,"i_long":106.728916,"is_transit":false,"station_name":"Jurangmangu","station_id":"JMU","line":6,"distance":2179},{"station_id":"SDM","is_transit":false,"distance":1994,"i_lat":-6.296963,"line":6,"time":4,"transit":false,"station_name":"Sudimara","i_long":106.712277},{"station_name":"Rawa Buntu","distance":4566,"i_lat":-6.314823,"time":6,"line":6,"i_long":106.675475,"is_transit":false,"transit":false,"station_id":"RU"},{"distance":2413,"time":4,"line":6,"station_name":"Serpong","station_id":"SRP","transit":false,"i_lat":-6.319871,"i_long":106.66566,"is_transit":false},{"distance":1784,"station_id":"CSK","i_long":106.640411,"time":4,"line":3,"is_transit":false,"transit":false,"station_name":"Cisauk","i_lat":-6.32484},{"time":4,"i_long":106.617853,"station_name":"Cicayur","station_id":"CC","i_lat":-6.329547,"is_transit":false,"distance":2519,"transit":false,"line":3},{"transit":false,"time":8,"i_lat":-6.3441410000000005,"station_name":"Parung Panjang","station_id":"PRP","distance":5968,"i_long":106.568863,"line":6,"is_transit":false},{"is_transit":false,"i_long":106.508482,"time":9,"station_id":"CJT","line":3,"i_lat":-6.354349,"distance":7025,"transit":false,"station_name":"Cilejit"}]]}