{"data":[[{"time":0,"distance":0,"i_lat":-6.201433,"line":1,"transit":false,"is_transit":false,"i_long":106.819881,"station_id":"SUDB","station_name":"Sudirman Baru"},{"is_transit":false,"transit":false,"line":1,"i_lat":-6.20132,"station_id":"KAT","time":1,"i_long":106.816351,"distance":471,"station_name":"Karet"},{"time":5,"line":1,"i_lat":-6.185545,"station_name":"Tanah Abang","i_long":106.811091,"is_transit":true,"station_id":"THB","distance":2029,"transit":false}],[{"i_lat":-6.201433,"line":1,"is_transit":false,"time":0,"distance":0,"station_id":"SUDB","station_name":"Sudirman Baru","i_long":106.819881,"transit":false},{"is_transit":false,"time":1,"line":1,"distance":280,"station_name":"Sudirman","i_long":106.822649,"i_lat":-6.202263,"station_id":"SUD","transit":false},{"transit":true,"time":4,"i_lat":-6.209883,"i_long":106.84912,"line":0,"distance":3186,"station_name":"Manggarai","station_id":"MRI","is_transit":true},{"station_name":"Cikini","is_transit":false,"i_long":106.840169,"time":4,"i_lat":-6.198556,"distance":1590,"station_id":"CKI","line":0,"transit":false},{"time":3,"distance":1750,"i_long":106.832183,"i_lat":-6.186295,"line":2,"is_transit":false,"station_id":"GDD","station_name":"Gondangdia","transit":false},{"line":2,"station_name":"Juanda","transit":false,"i_lat":-6.166716,"i_long":106.828284,"distance":2015,"is_transit":false,"time":4,"station_id":"JUA"},{"time":2,"is_transit":false,"i_lat":-6.160725,"station_id":"SW","transit":false,"line":2,"distance":1149,"i_long":106.827103,"station_name":"Sawah Besar"},{"is_transit":false,"station_id":"MGB","station_name":"Manggabesar","time":2,"i_lat":-6.149769,"i_long":106.82482,"distance":906,"line":2,"transit":false},{"line":7,"transit":false,"distance":1080,"station_id":"JAY","station_name":"Jayakarta","i_lat":-6.141205,"i_long":106.820901,"is_transit":false,"time":2},{"station_id":"JAKK","i_lat":-6.137569,"line":0,"is_transit":true,"time":4,"transit":true,"distance":1264,"station_name":"Jakarta Kota","i_long":106.812439},{"i_long":106.826365,"station_name":"Kampung Bandan","transit":false,"is_transit":true,"distance":1364,"i_lat":-6.132549,"time":3,"station_id":"KPB","line":0},{"line":0,"station_name":"Angke","distance":4102,"transit":false,"time":9,"i_lat":-6.144674,"i_long":106.79867,"station_id":"AK","is_transit":false},{"is_transit":true,"station_id":"DU","time":4,"i_lat":-6.155215,"station_name":"Duri","transit":true,"i_long":106.800832,"distance":1230,"line":1},{"distance":3632,"i_long":106.811091,"i_lat":-6.185545,"line":1,"station_name":"Tanah Abang","transit":false,"station_id":"THB","is_transit":true,"time":8}],[{"time":0,"station_id":"SUDB","distance":0,"i_lat":-6.201433,"transit":false,"i_long":106.819881,"is_transit":false,"line":1,"station_name":"Sudirman Baru"},{"distance":280,"i_lat":-6.202263,"station_id":"SUD","station_name":"Sudirman","is_transit":false,"i_long":106.822649,"transit":false,"time":1,"line":1},{"station_name":"Manggarai","i_lat":-6.209883,"line":0,"time":4,"station_id":"MRI","is_transit":true,"transit":false,"distance":3186,"i_long":106.84912},{"distance":1275,"station_name":"Matraman","i_long":106.858896,"line":1,"i_lat":-6.212485,"time":2,"transit":false,"is_transit":false,"station_id":"MTR"},{"distance":1377,"station_id":"JNG","is_transit":true,"station_name":"Jatinegara","transit":true,"i_lat":-6.215091,"time":8,"i_long":106.86807400000001,"line":0},{"station_name":"Pondok Jati","i_lat":-6.209188,"time":2,"station_id":"POK","transit":false,"distance":1236,"is_transit":false,"i_long":106.861737,"line":11},{"is_transit":false,"i_lat":-6.193792,"time":2,"station_id":"KMT","station_name":"Kramat","i_long":106.855437,"line":11,"distance":1829,"transit":false},{"is_transit":false,"time":1,"transit":false,"station_name":"Gang Sentiong","i_lat":-6.185975,"line":11,"distance":973,"station_id":"GST","i_long":106.850107},{"line":11,"time":8,"distance":1567,"i_lat":-6.174784,"station_name":"Pasar Senen","is_transit":false,"i_long":106.84368,"station_id":"PSE","transit":false},{"station_name":"Kemayoran","is_transit":false,"station_id":"KMO","time":4,"i_lat":-6.161728,"transit":false,"distance":1436,"i_long":106.839204,"line":11},{"is_transit":false,"distance":1901,"line":11,"i_lat":-6.14505,"station_name":"Rajawali","time":5,"i_long":106.836569,"transit":false,"station_id":"RJW"},{"is_transit":true,"time":3,"i_lat":-6.132549,"distance":1444,"transit":true,"line":0,"station_id":"KPB","i_long":106.826365,"station_name":"Kampung Bandan"},{"is_transit":false,"transit":false,"station_id":"AK","distance":4102,"station_name":"Angke","i_lat":-6.144674,"line":0,"i_long":106.79867,"time":9},{"i_long":106.800832,"station_name":"Duri","is_transit":true,"station_id":"DU","transit":true,"time":4,"i_lat":-6.155215,"line":1,"distance":1230},{"station_id":"THB","i_long":106.811091,"distance":3632,"is_transit":true,"transit":false,"time":8,"station_name":"Tanah Abang","line":1,"i_lat":-6.185545}]]}