{"data":[[{"transit":false,"i_lat":-6.201433,"line":1,"time":0,"distance":0,"station_id":"SUDB","i_long":106.819881,"is_transit":false,"station_name":"Sudirman Baru"},{"station_name":"Karet","i_long":106.816351,"is_transit":false,"station_id":"KAT","line":1,"distance":471,"transit":false,"i_lat":-6.20132,"time":1},{"time":5,"station_id":"THB","is_transit":true,"distance":2029,"i_lat":-6.185545,"i_long":106.811091,"transit":true,"line":1,"station_name":"Tanah Abang"},{"transit":false,"station_name":"Palmerah","time":6,"i_lat":-6.207404,"station_id":"PLM","line":6,"i_long":106.79689,"is_transit":false,"distance":3191},{"i_long":106.780334,"i_lat":-6.237242,"is_transit":false,"station_name":"Kebayoran","transit":false,"station_id":"KBY","line":6,"distance":3737,"time":7},{"i_long":106.74273,"i_lat":-6.276362,"line":6,"time":8,"station_name":"Pondokranji","distance":6218,"is_transit":false,"station_id":"PDJ","transit":false},{"i_long":106.728916,"station_name":"Jurangmangu","distance":2179,"time":3,"line":6,"is_transit":false,"station_id":"JMU","i_lat":-6.288927,"transit":false},{"is_transit":false,"distance":1994,"station_id":"SDM","station_name":"Sudimara","time":4,"line":6,"i_lat":-6.296963,"transit":false,"i_long":106.712277},{"is_transit":false,"i_long":106.675475,"line":6,"i_lat":-6.314823,"distance":4566,"time":6,"transit":false,"station_id":"RU","station_name":"Rawa Buntu"},{"line":6,"distance":2413,"i_long":106.66566,"station_id":"SRP","is_transit":false,"station_name":"Serpong","time":4,"transit":false,"i_lat":-6.319871},{"transit":false,"station_name":"Cisauk","i_long":106.640411,"station_id":"CSK","is_transit":false,"i_lat":-6.32484,"time":4,"distance":1784,"line":0},{"distance":2519,"transit":false,"station_id":"CC","i_lat":-6.329547,"i_long":106.617853,"time":4,"station_name":"Cicayur","is_transit":false,"line":0},{"i_lat":-6.3441410000000005,"is_transit":false,"station_id":"PRP","line":6,"station_name":"Parung Panjang","transit":false,"time":8,"i_long":106.568863,"distance":5968},{"time":9,"station_name":"Cilejit","i_lat":-6.354349,"is_transit":false,"station_id":"CJT","distance":7025,"transit":false,"i_long":106.508482,"line":0}],[{"time":0,"station_id":"SUDB","line":1,"distance":0,"station_name":"Sudirman Baru","i_long":106.819881,"is_transit":false,"i_lat":-6.201433,"transit":false},{"i_long":106.822649,"line":1,"is_transit":false,"time":1,"distance":280,"i_lat":-6.202263,"station_name":"Sudirman","transit":false,"station_id":"SUD"},{"station_name":"Manggarai","i_lat":-6.209883,"i_long":106.84912,"distance":3186,"line":0,"is_transit":true,"transit":true,"time":4,"station_id":"MRI"},{"distance":1590,"transit":false,"time":4,"station_id":"CKI","is_transit":false,"i_long":106.840169,"i_lat":-6.198556,"station_name":"Cikini","line":0},{"i_long":106.832183,"transit":false,"time":3,"distance":1750,"line":2,"i_lat":-6.186295,"station_id":"GDD","station_name":"Gondangdia","is_transit":false},{"is_transit":false,"station_name":"Juanda","i_lat":-6.166716,"distance":2015,"station_id":"JUA","transit":false,"i_long":106.828284,"time":4,"line":2},{"distance":1149,"station_name":"Sawah Besar","station_id":"SW","is_transit":false,"time":2,"i_lat":-6.160725,"i_long":106.827103,"transit":false,"line":2},{"time":2,"distance":906,"station_id":"MGB","line":2,"transit":false,"is_transit":false,"i_lat":-6.149769,"i_long":106.82482,"station_name":"Manggabesar"},{"transit":false,"station_id":"JAY","i_lat":-6.141205,"station_name":"Jayakarta","distance":1080,"time":2,"line":7,"is_transit":false,"i_long":106.820901},{"station_name":"Jakarta Kota","distance":1264,"station_id":"JAKK","i_lat":-6.137569,"line":0,"is_transit":true,"transit":true,"time":4,"i_long":106.812439},{"station_id":"KPB","i_lat":-6.132549,"time":3,"distance":1364,"is_transit":true,"transit":false,"line":0,"station_name":"Kampung Bandan","i_long":106.826365},{"time":9,"distance":4102,"i_long":106.79867,"station_id":"AK","station_name":"Angke","line":0,"is_transit":false,"transit":false,"i_lat":-6.144674},{"transit":true,"distance":1230,"station_id":"DU","i_lat":-6.155215,"time":4,"station_name":"Duri","is_transit":true,"i_long":106.800832,"line":1},{"distance":3632,"transit":true,"line":1,"station_id":"THB","is_transit":true,"station_name":"Tanah Abang","i_lat":-6.185545,"time":8,"i_long":106.811091},{"time":6,"station_name":"Palmerah","transit":false,"distance":3191,"station_id":"PLM","i_long":106.79689,"is_transit":false,"line":6,"i_lat":-6.207404},{"i_lat":-6.237242,"i_long":106.780334,"line":6,"transit":false,"time":7,"distance":3737,"station_id":"KBY","station_name":"Kebayoran","is_transit":false},{"i_lat":-6.276362,"time":8,"distance":6218,"station_name":"Pondokranji","line":6,"transit":false,"i_long":106.74273,"is_transit":false,"station_id":"PDJ"},{"i_long":106.728916,"line":6,"is_transit":false,"distance":2179,"station_id":"JMU","time":3,"transit":false,"i_lat":-6.288927,"station_name":"Jurangmangu"},{"station_name":"Sudimara","time":4,"distance":1994,"i_long":106.712277,"i_lat":-6.296963,"line":6,"transit":false,"is_transit":false,"station_id":"SDM"},{"station_id":"RU","station_name":"Rawa Buntu","transit":false,"distance":4566,"line":6,"is_transit":false,"time":6,"i_lat":-6.314823,"i_long":106.675475},{"time":4,"is_transit":false,"i_long":106.66566,"line":6,"station_name":"Serpong","transit":false,"station_id":"SRP","distance":2413,"i_lat":-6.319871},{"line":0,"time":4,"station_name":"Cisauk","transit":false,"i_long":106.640411,"distance":1784,"is_transit":false,"station_id":"CSK","i_lat":-6.32484},{"distance":2519,"station_name":"Cicayur","line":0,"is_transit":false,"station_id":"CC","transit":false,"i_long":106.617853,"i_lat":-6.329547,"time":4},{"i_long":106.568863,"time":8,"is_transit":false,"station_id":"PRP","distance":5968,"line":6,"station_name":"Parung Panjang","i_lat":-6.3441410000000005,"transit":false},{"time":9,"line":0,"station_name":"Cilejit","i_lat":-6.354349,"distance":7025,"is_transit":false,"station_id":"CJT","transit":false,"i_long":106.508482}],[{"line":1,"i_long":106.819881,"is_transit":false,"transit":false,"i_lat":-6.201433,"station_name":"Sudirman Baru","time":0,"distance":0,"station_id":"SUDB"},{"distance":280,"i_long":106.822649,"station_id":"SUD","station_name":"Sudirman","is_transit":false,"line":1,"transit":false,"time":1,"i_lat":-6.202263},{"distance":3186,"line":0,"is_transit":true,"transit":false,"i_lat":-6.209883,"station_name":"Manggarai","time":4,"station_id":"MRI","i_long":106.84912},{"time":2,"i_long":106.858896,"i_lat":-6.212485,"is_transit":false,"line":1,"transit":false,"station_name":"Matraman","station_id":"MTR","distance":1275},{"transit":true,"time":8,"station_id":"JNG","line":0,"distance":1377,"is_transit":true,"i_lat":-6.215091,"i_long":106.86807400000001,"station_name":"Jatinegara"},{"time":2,"station_name":"Pondok Jati","station_id":"POK","i_lat":-6.209188,"i_long":106.861737,"distance":1236,"is_transit":false,"line":11,"transit":false},{"station_name":"Kramat","station_id":"KMT","i_lat":-6.193792,"line":11,"time":2,"i_long":106.855437,"distance":1829,"transit":false,"is_transit":false},{"transit":false,"i_lat":-6.185975,"i_long":106.850107,"distance":973,"time":1,"is_transit":false,"station_id":"GST","station_name":"Gang Sentiong","line":11},{"transit":false,"i_lat":-6.174784,"station_id":"PSE","distance":1567,"is_transit":false,"i_long":106.84368,"line":11,"time":8,"station_name":"Pasar Senen"},{"i_lat":-6.161728,"is_transit":false,"distance":1436,"line":11,"station_name":"Kemayoran","time":4,"i_long":106.839204,"transit":false,"station_id":"KMO"},{"station_id":"RJW","i_long":106.836569,"transit":false,"is_transit":false,"line":11,"time":5,"i_lat":-6.14505,"distance":1901,"station_name":"Rajawali"},{"i_lat":-6.132549,"line":0,"is_transit":true,"station_name":"Kampung Bandan","distance":1444,"transit":true,"time":3,"station_id":"KPB","i_long":106.826365},{"station_name":"Angke","distance":4102,"i_lat":-6.144674,"transit":false,"time":9,"is_transit":false,"station_id":"AK","line":0,"i_long":106.79867},{"distance":1230,"time":4,"i_long":106.800832,"station_id":"DU","transit":true,"line":1,"is_transit":true,"i_lat":-6.155215,"station_name":"Duri"},{"distance":3632,"station_name":"Tanah Abang","transit":true,"i_lat":-6.185545,"is_transit":true,"time":8,"i_long":106.811091,"line":1,"station_id":"THB"},{"i_lat":-6.207404,"time":6,"station_id":"PLM","i_long":106.79689,"distance":3191,"is_transit":false,"station_name":"Palmerah","transit":false,"line":6},{"time":7,"station_id":"KBY","station_name":"Kebayoran","line":6,"distance":3737,"i_lat":-6.237242,"i_long":106.780334,"transit":false,"is_transit":false},{"is_transit":false,"station_name":"Pondokranji","transit":false,"station_id":"PDJ","time":8,"line":6,"distance":6218,"i_long":106.74273,"i_lat":-6.276362},{"line":6,"i_long":106.728916,"station_name":"Jurangmangu","transit":false,"station_id":"JMU","time":3,"i_lat":-6.288927,"distance":2179,"is_transit":false},{"station_name":"Sudimara","time":4,"i_long":106.712277,"station_id":"SDM","distance":1994,"is_transit":false,"i_lat":-6.296963,"line":6,"transit":false},{"distance":4566,"is_transit":false,"transit":false,"station_id":"RU","time":6,"line":6,"station_name":"Rawa Buntu","i_lat":-6.314823,"i_long":106.675475},{"distance":2413,"station_name":"Serpong","i_long":106.66566,"transit":false,"is_transit":false,"time":4,"station_id":"SRP","i_lat":-6.319871,"line":6},{"line":0,"time":4,"station_id":"CSK","transit":false,"i_lat":-6.32484,"i_long":106.640411,"distance":1784,"is_transit":false,"station_name":"Cisauk"},{"distance":2519,"line":0,"is_transit":false,"station_name":"Cicayur","station_id":"CC","transit":false,"time":4,"i_lat":-6.329547,"i_long":106.617853},{"time":8,"station_id":"PRP","is_transit":false,"i_lat":-6.3441410000000005,"i_long":106.568863,"line":6,"transit":false,"distance":5968,"station_name":"Parung Panjang"},{"line":0,"time":9,"station_id":"CJT","i_long":106.508482,"distance":7025,"is_transit":false,"i_lat":-6.354349,"transit":false,"station_name":"Cilejit"}]]}