{"data":[[{"station_name":"Sudirman Baru","station_id":"SUDB","is_transit":false,"transit":false,"distance":0,"i_lat":-6.201433,"i_long":106.819881,"line":1,"time":0},{"line":1,"station_id":"KAT","transit":false,"is_transit":false,"distance":471,"station_name":"Karet","time":1,"i_lat":-6.20132,"i_long":106.816351},{"is_transit":true,"i_lat":-6.185545,"time":5,"distance":2029,"station_id":"THB","line":1,"i_long":106.811091,"transit":true,"station_name":"Tanah Abang"},{"i_long":106.79689,"time":6,"distance":3191,"transit":false,"i_lat":-6.207404,"station_id":"PLM","line":6,"station_name":"Palmerah","is_transit":false},{"i_long":106.780334,"transit":false,"station_id":"KBY","is_transit":false,"distance":3737,"time":7,"i_lat":-6.237242,"line":6,"station_name":"Kebayoran"},{"line":6,"is_transit":false,"station_name":"Pondokranji","i_lat":-6.276362,"distance":6218,"station_id":"PDJ","i_long":106.74273,"time":8,"transit":false},{"time":3,"distance":2179,"i_long":106.728916,"is_transit":false,"station_name":"Jurangmangu","i_lat":-6.288927,"station_id":"JMU","transit":false,"line":6},{"transit":false,"is_transit":false,"i_long":106.712277,"line":6,"time":4,"distance":1994,"station_name":"Sudimara","station_id":"SDM","i_lat":-6.296963},{"time":6,"station_id":"RU","is_transit":false,"station_name":"Rawa Buntu","transit":false,"i_long":106.675475,"distance":4566,"i_lat":-6.314823,"line":6},{"distance":2413,"station_name":"Serpong","i_long":106.66566,"line":6,"is_transit":false,"i_lat":-6.319871,"station_id":"SRP","time":4,"transit":false},{"transit":false,"time":4,"i_lat":-6.32484,"station_id":"CSK","line":3,"station_name":"Cisauk","i_long":106.640411,"distance":1784,"is_transit":false},{"time":4,"station_id":"CC","line":3,"transit":false,"distance":2519,"i_long":106.617853,"i_lat":-6.329547,"is_transit":false,"station_name":"Cicayur"},{"i_long":106.568863,"i_lat":-6.3441410000000005,"line":6,"station_name":"Parung Panjang","distance":5968,"is_transit":false,"station_id":"PRP","transit":false,"time":8},{"station_id":"CJT","is_transit":false,"i_long":106.508482,"distance":7025,"station_name":"Cilejit","time":9,"transit":false,"i_lat":-6.354349,"line":3},{"is_transit":false,"time":6,"station_id":"DAR","i_long":106.491338,"station_name":"Daru","transit":false,"i_lat":-6.338021,"line":0,"distance":2675},{"i_long":106.460812,"is_transit":false,"transit":false,"station_id":"TEJ","i_lat":-6.327251,"time":5,"line":6,"station_name":"Tenjo","distance":3902},{"i_lat":-6.328533,"line":6,"is_transit":false,"station_id":"TGS","distance":2974,"time":5,"station_name":"Tigaraksa","i_long":106.425991,"transit":false},{"line":3,"time":3,"transit":false,"i_lat":-6.33561,"station_name":"Cikoya","i_long":106.411216,"station_id":"CKY","distance":2651,"is_transit":false}],[{"line":1,"distance":0,"transit":false,"station_id":"SUDB","station_name":"Sudirman Baru","i_lat":-6.201433,"time":0,"is_transit":false,"i_long":106.819881},{"transit":false,"i_long":106.822649,"station_id":"SUD","distance":280,"station_name":"Sudirman","line":1,"is_transit":false,"time":1,"i_lat":-6.202263},{"line":2,"transit":true,"distance":3186,"i_lat":-6.209883,"i_long":106.84912,"time":4,"station_name":"Manggarai","is_transit":true,"station_id":"MRI"},{"station_id":"CKI","distance":1590,"i_lat":-6.198556,"line":2,"is_transit":false,"transit":false,"time":4,"station_name":"Cikini","i_long":106.840169},{"station_name":"Gondangdia","i_long":106.832183,"transit":false,"time":3,"is_transit":false,"distance":1750,"i_lat":-6.186295,"station_id":"GDD","line":2},{"distance":2015,"transit":false,"i_long":106.828284,"time":4,"line":2,"i_lat":-6.166716,"station_name":"Juanda","station_id":"JUA","is_transit":false},{"distance":1149,"station_name":"Sawah Besar","is_transit":false,"transit":false,"station_id":"SW","i_long":106.827103,"line":2,"time":2,"i_lat":-6.160725},{"transit":false,"station_name":"Manggabesar","i_long":106.82482,"distance":906,"line":2,"i_lat":-6.149769,"time":2,"station_id":"MGB","is_transit":false},{"station_name":"Jayakarta","i_lat":-6.141205,"transit":false,"distance":1080,"i_long":106.820901,"station_id":"JAY","line":2,"time":2,"is_transit":false},{"line":2,"time":4,"transit":true,"i_lat":-6.137569,"is_transit":true,"distance":1264,"station_name":"Jakarta Kota","station_id":"JAKK","i_long":106.812439},{"station_id":"KPB","time":3,"is_transit":true,"i_long":106.826365,"distance":1364,"station_name":"Kampung Bandan","line":4,"i_lat":-6.132549,"transit":true},{"distance":4102,"station_name":"Angke","station_id":"AK","i_lat":-6.144674,"transit":false,"i_long":106.79867,"time":9,"line":1,"is_transit":false},{"distance":1230,"i_lat":-6.155215,"time":4,"is_transit":false,"transit":false,"i_long":106.800832,"station_name":"Duri","line":1,"station_id":"DU"},{"is_transit":true,"station_id":"THB","distance":3632,"transit":true,"station_name":"Tanah Abang","i_long":106.811091,"time":8,"i_lat":-6.185545,"line":1},{"time":6,"transit":false,"is_transit":false,"line":6,"station_name":"Palmerah","i_long":106.79689,"station_id":"PLM","distance":3191,"i_lat":-6.207404},{"i_lat":-6.237242,"i_long":106.780334,"time":7,"station_id":"KBY","distance":3737,"line":6,"transit":false,"station_name":"Kebayoran","is_transit":false},{"time":8,"is_transit":false,"station_name":"Pondokranji","transit":false,"station_id":"PDJ","distance":6218,"i_lat":-6.276362,"line":6,"i_long":106.74273},{"station_id":"JMU","line":6,"station_name":"Jurangmangu","transit":false,"i_lat":-6.288927,"distance":2179,"i_long":106.728916,"is_transit":false,"time":3},{"station_name":"Sudimara","distance":1994,"station_id":"SDM","time":4,"i_lat":-6.296963,"line":6,"i_long":106.712277,"transit":false,"is_transit":false},{"i_long":106.675475,"transit":false,"station_id":"RU","line":6,"is_transit":false,"i_lat":-6.314823,"station_name":"Rawa Buntu","distance":4566,"time":6},{"station_name":"Serpong","i_long":106.66566,"station_id":"SRP","time":4,"distance":2413,"is_transit":false,"transit":false,"i_lat":-6.319871,"line":6},{"distance":1784,"transit":false,"i_long":106.640411,"station_id":"CSK","is_transit":false,"station_name":"Cisauk","time":4,"line":3,"i_lat":-6.32484},{"is_transit":false,"station_id":"CC","line":3,"distance":2519,"time":4,"i_long":106.617853,"transit":false,"station_name":"Cicayur","i_lat":-6.329547},{"transit":false,"is_transit":false,"distance":5968,"i_lat":-6.3441410000000005,"station_id":"PRP","station_name":"Parung Panjang","time":8,"line":6,"i_long":106.568863},{"time":9,"distance":7025,"is_transit":false,"station_id":"CJT","i_lat":-6.354349,"i_long":106.508482,"station_name":"Cilejit","line":3,"transit":false},{"i_lat":-6.338021,"i_long":106.491338,"line":0,"station_name":"Daru","transit":false,"station_id":"DAR","distance":2675,"is_transit":false,"time":6},{"i_long":106.460812,"station_id":"TEJ","i_lat":-6.327251,"time":5,"station_name":"Tenjo","is_transit":false,"transit":false,"distance":3902,"line":6},{"transit":false,"i_long":106.425991,"distance":2974,"station_name":"Tigaraksa","time":5,"is_transit":false,"line":6,"station_id":"TGS","i_lat":-6.328533},{"distance":2651,"station_name":"Cikoya","transit":false,"is_transit":false,"i_lat":-6.33561,"i_long":106.411216,"time":3,"station_id":"CKY","line":3}],[{"line":1,"station_id":"SUDB","i_lat":-6.201433,"distance":0,"station_name":"Sudirman Baru","time":0,"i_long":106.819881,"is_transit":false,"transit":false},{"station_name":"Sudirman","i_long":106.822649,"i_lat":-6.202263,"time":1,"transit":false,"line":1,"station_id":"SUD","distance":280,"is_transit":false},{"distance":3186,"time":4,"station_id":"MRI","is_transit":false,"i_lat":-6.209883,"i_long":106.84912,"line":2,"station_name":"Manggarai","transit":false},{"is_transit":false,"i_lat":-6.212485,"distance":1275,"station_name":"Matraman","i_long":106.858896,"line":1,"time":2,"transit":false,"station_id":"MTR"},{"line":1,"station_name":"Jatinegara","transit":true,"station_id":"JNG","is_transit":true,"time":8,"i_lat":-6.215091,"i_long":106.86807400000001,"distance":1377},{"i_long":106.861737,"time":2,"is_transit":false,"station_name":"Pondok Jati","station_id":"POK","distance":1236,"line":11,"transit":false,"i_lat":-6.209188},{"station_id":"KMT","line":11,"station_name":"Kramat","transit":false,"time":2,"is_transit":false,"i_lat":-6.193792,"i_long":106.855437,"distance":1829},{"station_id":"GST","i_lat":-6.185975,"is_transit":false,"time":1,"transit":false,"distance":973,"i_long":106.850107,"line":11,"station_name":"Gang Sentiong"},{"i_lat":-6.174784,"is_transit":false,"distance":1567,"line":11,"transit":false,"station_id":"PSE","time":8,"i_long":106.84368,"station_name":"Pasar Senen"},{"station_id":"KMO","line":11,"station_name":"Kemayoran","i_lat":-6.161728,"distance":1436,"time":4,"i_long":106.839204,"transit":false,"is_transit":false},{"station_id":"RJW","is_transit":false,"time":5,"distance":1901,"transit":false,"station_name":"Rajawali","line":11,"i_long":106.836569,"i_lat":-6.14505},{"station_id":"KPB","time":3,"transit":true,"i_long":106.826365,"distance":1444,"i_lat":-6.132549,"line":4,"station_name":"Kampung Bandan","is_transit":true},{"i_long":106.79867,"transit":false,"station_name":"Angke","station_id":"AK","is_transit":false,"line":1,"distance":4102,"time":9,"i_lat":-6.144674},{"station_name":"Duri","i_lat":-6.155215,"i_long":106.800832,"line":1,"station_id":"DU","time":4,"transit":false,"distance":1230,"is_transit":false},{"time":8,"distance":3632,"i_long":106.811091,"is_transit":true,"i_lat":-6.185545,"line":1,"station_id":"THB","station_name":"Tanah Abang","transit":true},{"distance":3191,"i_lat":-6.207404,"time":6,"is_transit":false,"i_long":106.79689,"station_id":"PLM","transit":false,"line":6,"station_name":"Palmerah"},{"line":6,"station_id":"KBY","i_lat":-6.237242,"time":7,"transit":false,"i_long":106.780334,"is_transit":false,"distance":3737,"station_name":"Kebayoran"},{"transit":false,"station_id":"PDJ","distance":6218,"is_transit":false,"i_lat":-6.276362,"i_long":106.74273,"line":6,"station_name":"Pondokranji","time":8},{"is_transit":false,"i_long":106.728916,"transit":false,"station_id":"JMU","time":3,"line":6,"station_name":"Jurangmangu","i_lat":-6.288927,"distance":2179},{"distance":1994,"is_transit":false,"line":6,"i_lat":-6.296963,"station_name":"Sudimara","transit":false,"station_id":"SDM","time":4,"i_long":106.712277},{"station_id":"RU","distance":4566,"is_transit":false,"transit":false,"line":6,"time":6,"station_name":"Rawa Buntu","i_long":106.675475,"i_lat":-6.314823},{"transit":false,"line":6,"i_lat":-6.319871,"is_transit":false,"distance":2413,"station_id":"SRP","station_name":"Serpong","i_long":106.66566,"time":4},{"station_name":"Cisauk","time":4,"transit":false,"line":3,"distance":1784,"is_transit":false,"i_long":106.640411,"i_lat":-6.32484,"station_id":"CSK"},{"station_name":"Cicayur","station_id":"CC","is_transit":false,"line":3,"i_lat":-6.329547,"time":4,"distance":2519,"i_long":106.617853,"transit":false},{"i_long":106.568863,"station_id":"PRP","distance":5968,"line":6,"time":8,"i_lat":-6.3441410000000005,"station_name":"Parung Panjang","is_transit":false,"transit":false},{"line":3,"i_long":106.508482,"i_lat":-6.354349,"is_transit":false,"station_id":"CJT","station_name":"Cilejit","time":9,"transit":false,"distance":7025},{"station_id":"DAR","distance":2675,"i_lat":-6.338021,"transit":false,"time":6,"line":0,"i_long":106.491338,"is_transit":false,"station_name":"Daru"},{"transit":false,"i_lat":-6.327251,"i_long":106.460812,"station_id":"TEJ","station_name":"Tenjo","distance":3902,"time":5,"line":6,"is_transit":false},{"transit":false,"i_long":106.425991,"line":6,"distance":2974,"i_lat":-6.328533,"station_name":"Tigaraksa","time":5,"is_transit":false,"station_id":"TGS"},{"distance":2651,"i_long":106.411216,"line":3,"station_id":"CKY","time":3,"i_lat":-6.33561,"station_name":"Cikoya","is_transit":false,"transit":false}]]}