{"data":[[{"transit":false,"i_lat":-6.201433,"distance":0,"is_transit":false,"station_id":"SUDB","time":0,"station_name":"Sudirman Baru","i_long":106.819881,"line":1},{"i_long":106.816351,"is_transit":false,"station_name":"Karet","transit":false,"time":1,"i_lat":-6.20132,"station_id":"KAT","line":1,"distance":471},{"is_transit":false,"station_id":"THB","line":1,"transit":false,"i_lat":-6.185545,"i_long":106.811091,"station_name":"Tanah Abang","time":5,"distance":2029},{"line":1,"station_id":"DU","i_long":106.800832,"distance":3632,"transit":true,"is_transit":true,"time":8,"i_lat":-6.155215,"station_name":"Duri"},{"transit":false,"station_name":"Grogol","time":3,"is_transit":false,"i_lat":-6.162021,"line":5,"distance":1700,"station_id":"GGL","i_long":106.788277},{"station_name":"Pesing","time":2,"i_long":106.771379,"station_id":"PSG","line":5,"is_transit":false,"transit":false,"distance":2036,"i_lat":-6.161433},{"line":5,"transit":false,"distance":1614,"station_name":"Taman Kota","station_id":"TKO","is_transit":false,"time":2,"i_lat":-6.1587309999999995,"i_long":106.756522},{"station_id":"BOI","distance":2334,"line":5,"i_lat":-6.159876,"transit":false,"station_name":"Bojongindah","is_transit":false,"time":2,"i_long":106.737035},{"transit":false,"station_name":"Rawa Buaya","is_transit":false,"i_long":106.723064,"i_lat":-6.162758,"station_id":"RW","time":4,"line":5,"distance":1152},{"transit":false,"station_name":"Kalideres","distance":2504,"i_long":106.701612,"station_id":"KDS","is_transit":false,"i_lat":-6.166068,"line":5,"time":3}],[{"is_transit":false,"i_long":106.819881,"station_name":"Sudirman Baru","distance":0,"transit":false,"time":0,"i_lat":-6.201433,"line":1,"station_id":"SUDB"},{"time":1,"line":1,"i_long":106.822649,"distance":280,"station_name":"Sudirman","transit":false,"station_id":"SUD","i_lat":-6.202263,"is_transit":false},{"line":2,"station_id":"MRI","distance":3186,"station_name":"Manggarai","is_transit":true,"transit":true,"time":4,"i_lat":-6.209883,"i_long":106.84912},{"line":2,"i_long":106.840169,"distance":1590,"time":4,"station_name":"Cikini","station_id":"CKI","is_transit":false,"transit":false,"i_lat":-6.198556},{"line":2,"transit":false,"station_id":"GDD","i_lat":-6.186295,"distance":1750,"is_transit":false,"station_name":"Gondangdia","time":3,"i_long":106.832183},{"time":4,"i_long":106.828284,"station_name":"Juanda","is_transit":false,"transit":false,"station_id":"JUA","distance":2015,"i_lat":-6.166716,"line":2},{"is_transit":false,"i_lat":-6.160725,"distance":1149,"station_name":"Sawah Besar","i_long":106.827103,"time":2,"line":2,"station_id":"SW","transit":false},{"line":2,"is_transit":false,"distance":906,"time":2,"station_name":"Manggabesar","i_lat":-6.149769,"transit":false,"i_long":106.82482,"station_id":"MGB"},{"distance":1080,"is_transit":false,"station_id":"JAY","line":2,"station_name":"Jayakarta","time":2,"i_lat":-6.141205,"i_long":106.820901,"transit":false},{"line":2,"time":4,"i_long":106.812439,"i_lat":-6.137569,"transit":true,"distance":1264,"is_transit":true,"station_name":"Jakarta Kota","station_id":"JAKK"},{"station_id":"KPB","i_lat":-6.132549,"station_name":"Kampung Bandan","is_transit":true,"i_long":106.826365,"line":4,"distance":1364,"time":3,"transit":true},{"i_long":106.79867,"distance":4102,"line":1,"transit":false,"station_name":"Angke","time":9,"station_id":"AK","is_transit":false,"i_lat":-6.144674},{"distance":1230,"transit":true,"time":4,"i_lat":-6.155215,"i_long":106.800832,"line":1,"station_name":"Duri","is_transit":true,"station_id":"DU"},{"station_id":"GGL","i_long":106.788277,"station_name":"Grogol","is_transit":false,"transit":false,"time":3,"distance":1700,"i_lat":-6.162021,"line":5},{"distance":2036,"i_lat":-6.161433,"line":5,"is_transit":false,"transit":false,"time":2,"i_long":106.771379,"station_name":"Pesing","station_id":"PSG"},{"line":5,"transit":false,"i_long":106.756522,"time":2,"i_lat":-6.1587309999999995,"distance":1614,"station_name":"Taman Kota","station_id":"TKO","is_transit":false},{"transit":false,"line":5,"i_long":106.737035,"i_lat":-6.159876,"station_id":"BOI","station_name":"Bojongindah","is_transit":false,"distance":2334,"time":2},{"distance":1152,"line":5,"station_name":"Rawa Buaya","i_long":106.723064,"station_id":"RW","time":4,"is_transit":false,"transit":false,"i_lat":-6.162758},{"station_id":"KDS","i_lat":-6.166068,"line":5,"transit":false,"distance":2504,"i_long":106.701612,"time":3,"is_transit":false,"station_name":"Kalideres"}],[{"station_id":"SUDB","is_transit":false,"time":0,"station_name":"Sudirman Baru","distance":0,"i_lat":-6.201433,"i_long":106.819881,"line":1,"transit":false},{"transit":false,"station_name":"Sudirman","i_long":106.822649,"is_transit":false,"time":1,"distance":280,"i_lat":-6.202263,"station_id":"SUD","line":1},{"transit":false,"is_transit":false,"time":4,"line":2,"station_name":"Manggarai","i_lat":-6.209883,"station_id":"MRI","i_long":106.84912,"distance":3186},{"transit":false,"station_name":"Matraman","distance":1275,"line":1,"i_long":106.858896,"is_transit":false,"time":2,"station_id":"MTR","i_lat":-6.212485},{"station_name":"Jatinegara","is_transit":true,"time":8,"distance":1377,"transit":true,"i_lat":-6.215091,"i_long":106.86807400000001,"station_id":"JNG","line":1},{"station_name":"Pondok Jati","is_transit":false,"i_long":106.861737,"time":2,"line":11,"station_id":"POK","distance":1236,"i_lat":-6.209188,"transit":false},{"transit":false,"distance":1829,"is_transit":false,"time":2,"i_long":106.855437,"line":11,"station_id":"KMT","i_lat":-6.193792,"station_name":"Kramat"},{"time":1,"station_name":"Gang Sentiong","distance":973,"station_id":"GST","i_lat":-6.185975,"line":11,"i_long":106.850107,"is_transit":false,"transit":false},{"transit":false,"station_id":"PSE","is_transit":false,"line":11,"station_name":"Pasar Senen","distance":1567,"i_lat":-6.174784,"i_long":106.84368,"time":8},{"transit":false,"time":4,"line":11,"i_lat":-6.161728,"station_id":"KMO","station_name":"Kemayoran","i_long":106.839204,"is_transit":false,"distance":1436},{"station_id":"RJW","transit":false,"time":5,"i_lat":-6.14505,"i_long":106.836569,"distance":1901,"line":11,"station_name":"Rajawali","is_transit":false},{"time":3,"i_long":106.826365,"transit":true,"station_name":"Kampung Bandan","is_transit":true,"station_id":"KPB","line":4,"distance":1444,"i_lat":-6.132549},{"i_lat":-6.144674,"line":1,"is_transit":false,"station_name":"Angke","distance":4102,"i_long":106.79867,"station_id":"AK","transit":false,"time":9},{"is_transit":true,"i_long":106.800832,"line":1,"transit":true,"i_lat":-6.155215,"station_id":"DU","distance":1230,"station_name":"Duri","time":4},{"station_name":"Grogol","i_lat":-6.162021,"transit":false,"is_transit":false,"distance":1700,"i_long":106.788277,"station_id":"GGL","time":3,"line":5},{"distance":2036,"i_lat":-6.161433,"station_name":"Pesing","station_id":"PSG","time":2,"i_long":106.771379,"transit":false,"is_transit":false,"line":5},{"is_transit":false,"time":2,"i_long":106.756522,"line":5,"station_name":"Taman Kota","station_id":"TKO","distance":1614,"i_lat":-6.1587309999999995,"transit":false},{"i_lat":-6.159876,"time":2,"line":5,"station_name":"Bojongindah","distance":2334,"i_long":106.737035,"is_transit":false,"station_id":"BOI","transit":false},{"station_id":"RW","is_transit":false,"distance":1152,"station_name":"Rawa Buaya","transit":false,"i_lat":-6.162758,"i_long":106.723064,"line":5,"time":4},{"time":3,"transit":false,"station_id":"KDS","distance":2504,"i_lat":-6.166068,"station_name":"Kalideres","i_long":106.701612,"line":5,"is_transit":false}]]}