{"data":[[{"transit":false,"i_lat":-6.201433,"station_id":"SUDB","is_transit":false,"distance":0,"i_long":106.819881,"station_name":"Sudirman Baru","line":1,"time":0},{"time":1,"i_long":106.816351,"transit":false,"line":1,"distance":471,"station_name":"Karet","i_lat":-6.20132,"is_transit":false,"station_id":"KAT"},{"station_id":"THB","station_name":"Tanah Abang","is_transit":true,"transit":true,"distance":2029,"line":1,"i_lat":-6.185545,"i_long":106.811091,"time":5},{"station_name":"Palmerah","is_transit":false,"time":6,"distance":3191,"i_long":106.79689,"station_id":"PLM","i_lat":-6.207404,"line":6,"transit":false},{"is_transit":false,"i_lat":-6.237242,"transit":false,"distance":3737,"time":7,"i_long":106.780334,"station_name":"Kebayoran","line":6,"station_id":"KBY"},{"transit":false,"station_name":"Pondokranji","i_lat":-6.276362,"is_transit":false,"station_id":"PDJ","time":8,"i_long":106.74273,"line":6,"distance":6218},{"distance":2179,"i_long":106.728916,"station_name":"Jurangmangu","is_transit":false,"station_id":"JMU","i_lat":-6.288927,"line":6,"time":3,"transit":false},{"station_name":"Sudimara","time":4,"transit":false,"is_transit":false,"distance":1994,"i_lat":-6.296963,"station_id":"SDM","line":6,"i_long":106.712277},{"i_long":106.675475,"is_transit":false,"station_id":"RU","i_lat":-6.314823,"transit":false,"time":6,"station_name":"Rawa Buntu","line":6,"distance":4566},{"i_long":106.66566,"transit":false,"line":6,"i_lat":-6.319871,"time":4,"is_transit":false,"station_id":"SRP","distance":2413,"station_name":"Serpong"},{"i_long":106.640411,"time":4,"station_id":"CSK","line":0,"i_lat":-6.32484,"station_name":"Cisauk","distance":1784,"transit":false,"is_transit":false},{"i_long":106.617853,"station_name":"Cicayur","station_id":"CC","is_transit":false,"i_lat":-6.329547,"line":0,"time":4,"transit":false,"distance":2519},{"is_transit":false,"transit":false,"station_name":"Parung Panjang","distance":5968,"i_long":106.568863,"line":6,"station_id":"PRP","time":8,"i_lat":-6.3441410000000005},{"is_transit":false,"station_id":"CJT","transit":false,"i_long":106.508482,"line":0,"time":9,"i_lat":-6.354349,"distance":7025,"station_name":"Cilejit"},{"i_lat":-6.338021,"is_transit":false,"time":6,"station_name":"Daru","line":0,"i_long":106.491338,"distance":2675,"station_id":"DAR","transit":false},{"i_lat":-6.327251,"station_id":"TEJ","distance":3902,"time":5,"is_transit":false,"i_long":106.460812,"transit":false,"line":6,"station_name":"Tenjo"},{"distance":2974,"time":5,"is_transit":false,"i_lat":-6.328533,"transit":false,"i_long":106.425991,"line":6,"station_name":"Tigaraksa","station_id":"TGS"},{"is_transit":false,"station_id":"CKY","transit":false,"distance":2651,"i_lat":-6.33561,"i_long":106.411216,"station_name":"Cikoya","line":0,"time":3}],[{"distance":0,"i_lat":-6.201433,"station_id":"SUDB","i_long":106.819881,"line":1,"time":0,"transit":false,"is_transit":false,"station_name":"Sudirman Baru"},{"time":1,"station_name":"Sudirman","i_lat":-6.202263,"transit":false,"station_id":"SUD","distance":280,"line":1,"is_transit":false,"i_long":106.822649},{"time":4,"distance":3186,"transit":true,"i_lat":-6.209883,"i_long":106.84912,"station_name":"Manggarai","is_transit":true,"line":0,"station_id":"MRI"},{"i_long":106.840169,"station_name":"Cikini","transit":false,"time":4,"i_lat":-6.198556,"line":0,"is_transit":false,"station_id":"CKI","distance":1590},{"station_name":"Gondangdia","distance":1750,"i_lat":-6.186295,"line":2,"i_long":106.832183,"time":3,"station_id":"GDD","is_transit":false,"transit":false},{"station_id":"JUA","station_name":"Juanda","is_transit":false,"distance":2015,"i_lat":-6.166716,"i_long":106.828284,"line":2,"transit":false,"time":4},{"station_id":"SW","transit":false,"station_name":"Sawah Besar","i_lat":-6.160725,"i_long":106.827103,"distance":1149,"line":2,"time":2,"is_transit":false},{"station_name":"Manggabesar","station_id":"MGB","time":2,"i_lat":-6.149769,"transit":false,"distance":906,"line":2,"i_long":106.82482,"is_transit":false},{"station_name":"Jayakarta","transit":false,"i_lat":-6.141205,"station_id":"JAY","i_long":106.820901,"line":7,"is_transit":false,"distance":1080,"time":2},{"i_long":106.812439,"line":0,"is_transit":true,"i_lat":-6.137569,"transit":true,"time":4,"station_name":"Jakarta Kota","station_id":"JAKK","distance":1264},{"station_id":"KPB","distance":1364,"transit":false,"line":0,"i_lat":-6.132549,"is_transit":true,"time":3,"station_name":"Kampung Bandan","i_long":106.826365},{"distance":4102,"transit":false,"station_id":"AK","station_name":"Angke","i_lat":-6.144674,"i_long":106.79867,"time":9,"is_transit":false,"line":0},{"distance":1230,"i_lat":-6.155215,"is_transit":true,"transit":true,"time":4,"station_name":"Duri","i_long":106.800832,"line":1,"station_id":"DU"},{"station_name":"Tanah Abang","i_lat":-6.185545,"line":1,"is_transit":true,"transit":true,"distance":3632,"i_long":106.811091,"time":8,"station_id":"THB"},{"i_long":106.79689,"is_transit":false,"station_id":"PLM","time":6,"i_lat":-6.207404,"line":6,"station_name":"Palmerah","transit":false,"distance":3191},{"i_long":106.780334,"i_lat":-6.237242,"is_transit":false,"line":6,"transit":false,"station_name":"Kebayoran","distance":3737,"station_id":"KBY","time":7},{"time":8,"i_long":106.74273,"distance":6218,"is_transit":false,"i_lat":-6.276362,"transit":false,"station_name":"Pondokranji","line":6,"station_id":"PDJ"},{"station_id":"JMU","transit":false,"time":3,"i_long":106.728916,"line":6,"distance":2179,"i_lat":-6.288927,"is_transit":false,"station_name":"Jurangmangu"},{"i_lat":-6.296963,"line":6,"is_transit":false,"transit":false,"distance":1994,"station_name":"Sudimara","time":4,"station_id":"SDM","i_long":106.712277},{"distance":4566,"transit":false,"station_id":"RU","time":6,"is_transit":false,"i_lat":-6.314823,"line":6,"i_long":106.675475,"station_name":"Rawa Buntu"},{"station_name":"Serpong","i_long":106.66566,"is_transit":false,"station_id":"SRP","line":6,"transit":false,"time":4,"i_lat":-6.319871,"distance":2413},{"line":0,"i_lat":-6.32484,"is_transit":false,"transit":false,"distance":1784,"time":4,"i_long":106.640411,"station_id":"CSK","station_name":"Cisauk"},{"i_long":106.617853,"station_id":"CC","station_name":"Cicayur","time":4,"line":0,"transit":false,"i_lat":-6.329547,"is_transit":false,"distance":2519},{"i_lat":-6.3441410000000005,"i_long":106.568863,"distance":5968,"is_transit":false,"line":6,"station_id":"PRP","time":8,"transit":false,"station_name":"Parung Panjang"},{"is_transit":false,"i_lat":-6.354349,"distance":7025,"station_id":"CJT","transit":false,"station_name":"Cilejit","time":9,"line":0,"i_long":106.508482},{"is_transit":false,"i_long":106.491338,"line":0,"transit":false,"time":6,"distance":2675,"station_id":"DAR","i_lat":-6.338021,"station_name":"Daru"},{"transit":false,"i_long":106.460812,"distance":3902,"station_id":"TEJ","i_lat":-6.327251,"station_name":"Tenjo","time":5,"is_transit":false,"line":6},{"station_name":"Tigaraksa","i_lat":-6.328533,"distance":2974,"is_transit":false,"time":5,"line":6,"i_long":106.425991,"station_id":"TGS","transit":false},{"line":0,"station_name":"Cikoya","time":3,"is_transit":false,"transit":false,"station_id":"CKY","i_long":106.411216,"i_lat":-6.33561,"distance":2651}],[{"time":0,"is_transit":false,"i_long":106.819881,"line":1,"station_id":"SUDB","distance":0,"station_name":"Sudirman Baru","i_lat":-6.201433,"transit":false},{"i_long":106.822649,"time":1,"i_lat":-6.202263,"station_name":"Sudirman","line":1,"is_transit":false,"transit":false,"distance":280,"station_id":"SUD"},{"line":0,"station_name":"Manggarai","is_transit":true,"time":4,"transit":false,"station_id":"MRI","distance":3186,"i_lat":-6.209883,"i_long":106.84912},{"station_id":"MTR","i_long":106.858896,"transit":false,"distance":1275,"i_lat":-6.212485,"is_transit":false,"station_name":"Matraman","time":2,"line":1},{"time":8,"station_name":"Jatinegara","i_long":106.86807400000001,"line":0,"i_lat":-6.215091,"station_id":"JNG","transit":true,"is_transit":true,"distance":1377},{"time":2,"transit":false,"line":11,"station_name":"Pondok Jati","station_id":"POK","distance":1236,"i_long":106.861737,"i_lat":-6.209188,"is_transit":false},{"transit":false,"distance":1829,"i_long":106.855437,"station_id":"KMT","time":2,"line":11,"i_lat":-6.193792,"is_transit":false,"station_name":"Kramat"},{"i_lat":-6.185975,"i_long":106.850107,"station_id":"GST","distance":973,"transit":false,"station_name":"Gang Sentiong","line":11,"time":1,"is_transit":false},{"line":11,"is_transit":false,"i_lat":-6.174784,"transit":false,"time":8,"i_long":106.84368,"station_name":"Pasar Senen","station_id":"PSE","distance":1567},{"i_long":106.839204,"line":11,"is_transit":false,"time":4,"station_id":"KMO","distance":1436,"station_name":"Kemayoran","i_lat":-6.161728,"transit":false},{"time":5,"is_transit":false,"station_id":"RJW","transit":false,"distance":1901,"i_long":106.836569,"line":11,"i_lat":-6.14505,"station_name":"Rajawali"},{"i_long":106.826365,"is_transit":true,"transit":true,"distance":1444,"line":0,"time":3,"station_name":"Kampung Bandan","station_id":"KPB","i_lat":-6.132549},{"i_lat":-6.144674,"distance":4102,"i_long":106.79867,"station_name":"Angke","is_transit":false,"station_id":"AK","transit":false,"time":9,"line":0},{"is_transit":true,"i_lat":-6.155215,"i_long":106.800832,"distance":1230,"time":4,"station_id":"DU","transit":true,"station_name":"Duri","line":1},{"is_transit":true,"station_name":"Tanah Abang","time":8,"distance":3632,"i_long":106.811091,"transit":true,"line":1,"i_lat":-6.185545,"station_id":"THB"},{"time":6,"distance":3191,"station_id":"PLM","is_transit":false,"station_name":"Palmerah","i_lat":-6.207404,"i_long":106.79689,"transit":false,"line":6},{"time":7,"is_transit":false,"station_name":"Kebayoran","line":6,"distance":3737,"transit":false,"station_id":"KBY","i_lat":-6.237242,"i_long":106.780334},{"line":6,"time":8,"distance":6218,"station_id":"PDJ","is_transit":false,"transit":false,"i_lat":-6.276362,"i_long":106.74273,"station_name":"Pondokranji"},{"is_transit":false,"station_name":"Jurangmangu","i_lat":-6.288927,"transit":false,"line":6,"time":3,"i_long":106.728916,"distance":2179,"station_id":"JMU"},{"transit":false,"station_id":"SDM","i_lat":-6.296963,"is_transit":false,"i_long":106.712277,"time":4,"distance":1994,"station_name":"Sudimara","line":6},{"is_transit":false,"transit":false,"station_name":"Rawa Buntu","distance":4566,"i_long":106.675475,"time":6,"line":6,"i_lat":-6.314823,"station_id":"RU"},{"station_id":"SRP","i_lat":-6.319871,"is_transit":false,"transit":false,"distance":2413,"line":6,"station_name":"Serpong","i_long":106.66566,"time":4},{"i_lat":-6.32484,"is_transit":false,"station_id":"CSK","station_name":"Cisauk","i_long":106.640411,"line":0,"transit":false,"time":4,"distance":1784},{"line":0,"i_long":106.617853,"is_transit":false,"station_name":"Cicayur","distance":2519,"transit":false,"time":4,"i_lat":-6.329547,"station_id":"CC"},{"line":6,"is_transit":false,"distance":5968,"time":8,"i_lat":-6.3441410000000005,"transit":false,"station_id":"PRP","i_long":106.568863,"station_name":"Parung Panjang"},{"is_transit":false,"transit":false,"station_id":"CJT","distance":7025,"station_name":"Cilejit","i_lat":-6.354349,"i_long":106.508482,"time":9,"line":0},{"i_long":106.491338,"station_id":"DAR","time":6,"station_name":"Daru","distance":2675,"is_transit":false,"transit":false,"line":0,"i_lat":-6.338021},{"is_transit":false,"time":5,"distance":3902,"i_lat":-6.327251,"transit":false,"station_name":"Tenjo","i_long":106.460812,"station_id":"TEJ","line":6},{"transit":false,"i_lat":-6.328533,"distance":2974,"station_name":"Tigaraksa","station_id":"TGS","is_transit":false,"line":6,"i_long":106.425991,"time":5},{"i_long":106.411216,"time":3,"station_name":"Cikoya","is_transit":false,"station_id":"CKY","transit":false,"distance":2651,"i_lat":-6.33561,"line":0}]]}