{"data":[[{"line":1,"station_name":"Sudirman Baru","i_lat":-6.201433,"distance":0,"i_long":106.819881,"is_transit":false,"station_id":"SUDB","time":0,"transit":false},{"i_lat":-6.202263,"i_long":106.822649,"is_transit":false,"transit":false,"line":1,"station_id":"SUD","time":1,"distance":280,"station_name":"Sudirman"},{"i_long":106.84912,"transit":true,"station_name":"Manggarai","distance":3186,"i_lat":-6.209883,"is_transit":true,"line":0,"time":4,"station_id":"MRI"},{"i_long":106.857948,"station_name":"Tebet","line":2,"time":4,"station_id":"TEB","is_transit":false,"distance":2610,"transit":false,"i_lat":-6.226659},{"time":2,"line":0,"distance":1230,"is_transit":false,"station_id":"CW","i_lat":-6.242512,"station_name":"Cawang","transit":false,"i_long":106.856607},{"i_long":106.85449,"i_lat":-6.255332,"transit":false,"line":0,"distance":1546,"time":3,"station_id":"DRN","is_transit":false,"station_name":"Duren Kalibata"},{"i_lat":-6.263214,"station_id":"PSMB","time":2,"i_long":106.851577,"is_transit":false,"line":2,"transit":false,"station_name":"Pasar Minggu Baru","distance":824},{"line":2,"is_transit":false,"time":2,"distance":2380,"transit":false,"i_lat":-6.2842400000000005,"station_id":"PSM","i_long":106.843999,"station_name":"Pasar Minggu"},{"i_lat":-6.3080680000000005,"is_transit":false,"time":4,"distance":2820,"i_long":106.838896,"line":2,"station_id":"TNT","station_name":"Tanjung Barat","transit":false},{"i_lat":-6.330363,"is_transit":false,"time":3,"station_name":"Lenteng Agung","transit":false,"line":2,"station_id":"LNA","i_long":106.832616,"distance":2671},{"is_transit":false,"distance":1029,"station_id":"UP","i_long":106.834175,"transit":false,"i_lat":-6.339291,"station_name":"Univ. Pancasila","time":2,"line":2},{"transit":false,"time":3,"i_lat":-6.360749,"i_long":106.831474,"station_id":"UI","station_name":"Univ. Indonesia","line":2,"distance":2264,"is_transit":false},{"i_long":106.831114,"line":2,"station_name":"Pondok Cina","is_transit":false,"transit":false,"i_lat":-6.369073,"distance":1109,"station_id":"POC","time":2},{"station_id":"DPB","transit":false,"time":4,"station_name":"Depokbaru","i_long":106.819451,"distance":2727,"i_lat":-6.391065,"is_transit":false,"line":0},{"time":3,"distance":1584,"transit":false,"station_name":"Depok","i_long":106.816926,"station_id":"DP","i_lat":-6.405256,"line":0,"is_transit":false}],[{"station_id":"SUDB","is_transit":false,"distance":0,"line":1,"i_long":106.819881,"time":0,"i_lat":-6.201433,"transit":false,"station_name":"Sudirman Baru"},{"transit":false,"time":1,"line":1,"station_name":"Karet","i_long":106.816351,"i_lat":-6.20132,"distance":471,"is_transit":false,"station_id":"KAT"},{"station_name":"Tanah Abang","line":1,"time":5,"is_transit":true,"i_long":106.811091,"distance":2029,"transit":false,"station_id":"THB","i_lat":-6.185545},{"transit":true,"is_transit":true,"station_name":"Duri","i_long":106.800832,"line":1,"i_lat":-6.155215,"distance":3632,"station_id":"DU","time":8},{"transit":false,"i_lat":-6.144674,"i_long":106.79867,"is_transit":false,"distance":1230,"station_id":"AK","time":4,"line":0,"station_name":"Angke"},{"distance":4102,"i_long":106.826365,"transit":false,"time":9,"is_transit":true,"station_id":"KPB","i_lat":-6.132549,"line":0,"station_name":"Kampung Bandan"},{"is_transit":true,"i_lat":-6.137569,"distance":1364,"station_id":"JAKK","line":0,"time":3,"transit":true,"i_long":106.812439,"station_name":"Jakarta Kota"},{"distance":1264,"transit":false,"time":4,"i_lat":-6.141205,"station_id":"JAY","line":7,"i_long":106.820901,"is_transit":false,"station_name":"Jayakarta"},{"time":2,"transit":false,"i_lat":-6.149769,"i_long":106.82482,"line":2,"distance":1080,"station_name":"Manggabesar","station_id":"MGB","is_transit":false},{"line":2,"time":2,"station_id":"SW","distance":906,"station_name":"Sawah Besar","i_lat":-6.160725,"transit":false,"is_transit":false,"i_long":106.827103},{"i_long":106.828284,"transit":false,"distance":1149,"line":2,"station_name":"Juanda","time":2,"station_id":"JUA","i_lat":-6.166716,"is_transit":false},{"line":2,"distance":2015,"time":4,"i_lat":-6.186295,"station_id":"GDD","is_transit":false,"station_name":"Gondangdia","transit":false,"i_long":106.832183},{"time":3,"line":0,"station_name":"Cikini","transit":false,"i_long":106.840169,"distance":1750,"i_lat":-6.198556,"station_id":"CKI","is_transit":false},{"is_transit":true,"i_lat":-6.209883,"time":4,"transit":true,"i_long":106.84912,"distance":1590,"station_id":"MRI","station_name":"Manggarai","line":0},{"station_id":"TEB","time":4,"transit":false,"i_long":106.857948,"station_name":"Tebet","i_lat":-6.226659,"is_transit":false,"distance":2610,"line":2},{"station_name":"Cawang","is_transit":false,"transit":false,"i_lat":-6.242512,"distance":1230,"time":2,"line":0,"i_long":106.856607,"station_id":"CW"},{"station_name":"Duren Kalibata","i_lat":-6.255332,"time":3,"i_long":106.85449,"is_transit":false,"transit":false,"station_id":"DRN","line":0,"distance":1546},{"i_lat":-6.263214,"station_id":"PSMB","transit":false,"line":2,"station_name":"Pasar Minggu Baru","is_transit":false,"i_long":106.851577,"time":2,"distance":824},{"station_name":"Pasar Minggu","time":2,"i_long":106.843999,"line":2,"station_id":"PSM","i_lat":-6.2842400000000005,"is_transit":false,"transit":false,"distance":2380},{"time":4,"transit":false,"i_lat":-6.3080680000000005,"i_long":106.838896,"is_transit":false,"station_id":"TNT","line":2,"station_name":"Tanjung Barat","distance":2820},{"i_long":106.832616,"i_lat":-6.330363,"is_transit":false,"line":2,"station_name":"Lenteng Agung","distance":2671,"time":3,"transit":false,"station_id":"LNA"},{"station_id":"UP","i_lat":-6.339291,"line":2,"distance":1029,"station_name":"Univ. Pancasila","is_transit":false,"transit":false,"time":2,"i_long":106.834175},{"is_transit":false,"transit":false,"station_id":"UI","i_long":106.831474,"i_lat":-6.360749,"distance":2264,"time":3,"station_name":"Univ. Indonesia","line":2},{"distance":1109,"transit":false,"is_transit":false,"station_id":"POC","station_name":"Pondok Cina","i_lat":-6.369073,"i_long":106.831114,"line":2,"time":2},{"i_long":106.819451,"time":4,"transit":false,"is_transit":false,"i_lat":-6.391065,"station_id":"DPB","distance":2727,"line":0,"station_name":"Depokbaru"},{"distance":1584,"is_transit":false,"station_name":"Depok","time":3,"transit":false,"i_long":106.816926,"line":0,"i_lat":-6.405256,"station_id":"DP"}],[{"station_id":"SUDB","distance":0,"i_long":106.819881,"line":1,"i_lat":-6.201433,"station_name":"Sudirman Baru","is_transit":false,"time":0,"transit":false},{"line":1,"station_name":"Karet","i_lat":-6.20132,"is_transit":false,"station_id":"KAT","transit":false,"i_long":106.816351,"time":1,"distance":471},{"transit":false,"i_lat":-6.185545,"station_id":"THB","is_transit":true,"time":5,"i_long":106.811091,"distance":2029,"station_name":"Tanah Abang","line":1},{"i_long":106.800832,"line":1,"is_transit":true,"distance":3632,"time":8,"transit":true,"station_name":"Duri","i_lat":-6.155215,"station_id":"DU"},{"transit":false,"time":4,"distance":1230,"i_lat":-6.144674,"i_long":106.79867,"is_transit":false,"station_id":"AK","line":0,"station_name":"Angke"},{"is_transit":true,"station_id":"KPB","i_long":106.826365,"distance":4102,"line":0,"time":9,"i_lat":-6.132549,"station_name":"Kampung Bandan","transit":true},{"line":11,"station_id":"RJW","is_transit":false,"time":3,"i_lat":-6.14505,"i_long":106.836569,"distance":1444,"station_name":"Rajawali","transit":false},{"distance":1901,"time":5,"transit":false,"is_transit":false,"line":11,"i_lat":-6.161728,"station_name":"Kemayoran","station_id":"KMO","i_long":106.839204},{"distance":1436,"station_name":"Pasar Senen","station_id":"PSE","transit":false,"time":4,"i_lat":-6.174784,"is_transit":false,"i_long":106.84368,"line":11},{"station_name":"Gang Sentiong","is_transit":false,"i_lat":-6.185975,"time":8,"distance":1567,"line":11,"station_id":"GST","transit":false,"i_long":106.850107},{"transit":false,"i_lat":-6.193792,"is_transit":false,"station_id":"KMT","time":1,"distance":973,"line":11,"station_name":"Kramat","i_long":106.855437},{"distance":1829,"is_transit":false,"time":2,"i_lat":-6.209188,"line":11,"i_long":106.861737,"station_name":"Pondok Jati","station_id":"POK","transit":false},{"station_name":"Jatinegara","i_lat":-6.215091,"i_long":106.86807400000001,"is_transit":true,"transit":true,"line":0,"station_id":"JNG","time":9,"distance":1236},{"time":2,"station_id":"MTR","transit":false,"distance":1377,"is_transit":false,"i_long":106.858896,"i_lat":-6.212485,"station_name":"Matraman","line":1},{"time":2,"i_long":106.84912,"distance":1275,"i_lat":-6.209883,"is_transit":true,"line":0,"station_id":"MRI","station_name":"Manggarai","transit":true},{"i_long":106.857948,"line":2,"station_id":"TEB","transit":false,"is_transit":false,"station_name":"Tebet","i_lat":-6.226659,"time":4,"distance":2610},{"distance":1230,"is_transit":false,"transit":false,"i_lat":-6.242512,"station_name":"Cawang","time":2,"i_long":106.856607,"line":0,"station_id":"CW"},{"station_name":"Duren Kalibata","distance":1546,"time":3,"line":0,"is_transit":false,"i_long":106.85449,"i_lat":-6.255332,"transit":false,"station_id":"DRN"},{"distance":824,"station_name":"Pasar Minggu Baru","i_long":106.851577,"station_id":"PSMB","i_lat":-6.263214,"transit":false,"is_transit":false,"time":2,"line":2},{"i_lat":-6.2842400000000005,"transit":false,"distance":2380,"station_id":"PSM","time":2,"station_name":"Pasar Minggu","i_long":106.843999,"line":2,"is_transit":false},{"is_transit":false,"station_name":"Tanjung Barat","transit":false,"i_lat":-6.3080680000000005,"line":2,"station_id":"TNT","time":4,"i_long":106.838896,"distance":2820},{"distance":2671,"i_long":106.832616,"is_transit":false,"station_name":"Lenteng Agung","i_lat":-6.330363,"station_id":"LNA","transit":false,"line":2,"time":3},{"line":2,"i_long":106.834175,"i_lat":-6.339291,"is_transit":false,"station_name":"Univ. Pancasila","distance":1029,"transit":false,"station_id":"UP","time":2},{"station_name":"Univ. Indonesia","transit":false,"time":3,"i_lat":-6.360749,"is_transit":false,"line":2,"station_id":"UI","distance":2264,"i_long":106.831474},{"distance":1109,"i_lat":-6.369073,"is_transit":false,"station_name":"Pondok Cina","i_long":106.831114,"transit":false,"line":2,"station_id":"POC","time":2},{"transit":false,"i_long":106.819451,"station_name":"Depokbaru","station_id":"DPB","time":4,"is_transit":false,"i_lat":-6.391065,"distance":2727,"line":0},{"station_name":"Depok","time":3,"line":0,"station_id":"DP","transit":false,"i_lat":-6.405256,"is_transit":false,"distance":1584,"i_long":106.816926}]]}