{"data":[[{"is_transit":false,"transit":false,"i_lat":-6.201433,"line":1,"time":0,"station_name":"Sudirman Baru","station_id":"SUDB","i_long":106.819881,"distance":0},{"is_transit":false,"time":1,"line":1,"distance":280,"i_lat":-6.202263,"transit":false,"station_name":"Sudirman","i_long":106.822649,"station_id":"SUD"},{"line":2,"transit":true,"station_id":"MRI","distance":3186,"station_name":"Manggarai","is_transit":true,"i_lat":-6.209883,"i_long":106.84912,"time":4},{"station_name":"Tebet","line":2,"time":4,"i_lat":-6.226659,"station_id":"TEB","distance":2610,"is_transit":false,"i_long":106.857948,"transit":false},{"distance":1230,"station_name":"Cawang","i_lat":-6.242512,"station_id":"CW","transit":false,"line":2,"i_long":106.856607,"is_transit":false,"time":2},{"distance":1546,"is_transit":false,"station_name":"Duren Kalibata","line":2,"i_lat":-6.255332,"transit":false,"station_id":"DRN","i_long":106.85449,"time":3},{"i_lat":-6.263214,"line":2,"i_long":106.851577,"time":2,"is_transit":false,"transit":false,"station_name":"Pasar Minggu Baru","station_id":"PSMB","distance":824},{"distance":2380,"station_id":"PSM","time":2,"i_lat":-6.2842400000000005,"station_name":"Pasar Minggu","line":2,"is_transit":false,"i_long":106.843999,"transit":false},{"is_transit":false,"distance":2820,"station_id":"TNT","i_lat":-6.3080680000000005,"i_long":106.838896,"line":2,"transit":false,"station_name":"Tanjung Barat","time":4}],[{"transit":false,"i_lat":-6.201433,"station_id":"SUDB","distance":0,"i_long":106.819881,"time":0,"is_transit":false,"station_name":"Sudirman Baru","line":1},{"station_id":"KAT","is_transit":false,"i_lat":-6.20132,"station_name":"Karet","time":1,"transit":false,"distance":471,"i_long":106.816351,"line":1},{"time":5,"line":1,"is_transit":false,"i_long":106.811091,"distance":2029,"station_id":"THB","transit":false,"station_name":"Tanah Abang","i_lat":-6.185545},{"time":8,"transit":false,"station_name":"Duri","i_long":106.800832,"i_lat":-6.155215,"station_id":"DU","is_transit":false,"line":1,"distance":3632},{"time":4,"station_id":"AK","is_transit":false,"i_lat":-6.144674,"transit":false,"i_long":106.79867,"station_name":"Angke","line":1,"distance":1230},{"time":9,"i_lat":-6.132549,"is_transit":true,"transit":true,"station_name":"Kampung Bandan","line":4,"i_long":106.826365,"distance":4102,"station_id":"KPB"},{"station_name":"Jakarta Kota","is_transit":true,"line":2,"i_lat":-6.137569,"time":3,"distance":1364,"i_long":106.812439,"transit":true,"station_id":"JAKK"},{"station_id":"JAY","i_lat":-6.141205,"distance":1264,"time":4,"station_name":"Jayakarta","transit":false,"is_transit":false,"i_long":106.820901,"line":2},{"station_name":"Manggabesar","is_transit":false,"distance":1080,"station_id":"MGB","i_lat":-6.149769,"i_long":106.82482,"line":2,"time":2,"transit":false},{"station_name":"Sawah Besar","is_transit":false,"line":2,"time":2,"station_id":"SW","i_long":106.827103,"distance":906,"i_lat":-6.160725,"transit":false},{"time":2,"station_id":"JUA","is_transit":false,"station_name":"Juanda","i_lat":-6.166716,"i_long":106.828284,"transit":false,"line":2,"distance":1149},{"station_name":"Gondangdia","i_lat":-6.186295,"time":4,"is_transit":false,"line":2,"i_long":106.832183,"distance":2015,"transit":false,"station_id":"GDD"},{"is_transit":false,"time":3,"i_long":106.840169,"station_name":"Cikini","distance":1750,"transit":false,"station_id":"CKI","i_lat":-6.198556,"line":2},{"station_id":"MRI","transit":false,"distance":1590,"station_name":"Manggarai","i_lat":-6.209883,"i_long":106.84912,"line":2,"is_transit":false,"time":4},{"station_id":"TEB","distance":2610,"transit":false,"is_transit":false,"time":4,"line":2,"i_long":106.857948,"station_name":"Tebet","i_lat":-6.226659},{"i_long":106.856607,"time":2,"transit":false,"station_id":"CW","line":2,"station_name":"Cawang","distance":1230,"is_transit":false,"i_lat":-6.242512},{"time":3,"i_lat":-6.255332,"station_name":"Duren Kalibata","distance":1546,"transit":false,"line":2,"is_transit":false,"i_long":106.85449,"station_id":"DRN"},{"i_long":106.851577,"is_transit":false,"line":2,"i_lat":-6.263214,"time":2,"transit":false,"station_name":"Pasar Minggu Baru","station_id":"PSMB","distance":824},{"distance":2380,"station_id":"PSM","i_lat":-6.2842400000000005,"i_long":106.843999,"line":2,"time":2,"transit":false,"station_name":"Pasar Minggu","is_transit":false},{"distance":2820,"transit":false,"station_id":"TNT","line":2,"time":4,"i_long":106.838896,"station_name":"Tanjung Barat","is_transit":false,"i_lat":-6.3080680000000005}],[{"transit":false,"station_id":"SUDB","station_name":"Sudirman Baru","line":1,"is_transit":false,"time":0,"distance":0,"i_lat":-6.201433,"i_long":106.819881},{"station_id":"KAT","i_long":106.816351,"transit":false,"distance":471,"is_transit":false,"station_name":"Karet","line":1,"time":1,"i_lat":-6.20132},{"time":5,"i_long":106.811091,"is_transit":false,"station_id":"THB","distance":2029,"transit":false,"station_name":"Tanah Abang","i_lat":-6.185545,"line":1},{"station_id":"DU","is_transit":false,"distance":3632,"i_lat":-6.155215,"station_name":"Duri","line":1,"transit":false,"i_long":106.800832,"time":8},{"time":4,"line":1,"i_lat":-6.144674,"distance":1230,"i_long":106.79867,"station_name":"Angke","is_transit":false,"station_id":"AK","transit":false},{"station_id":"KPB","i_lat":-6.132549,"is_transit":true,"time":9,"station_name":"Kampung Bandan","distance":4102,"transit":true,"i_long":106.826365,"line":4},{"station_id":"RJW","i_long":106.836569,"transit":false,"i_lat":-6.14505,"distance":1444,"line":11,"station_name":"Rajawali","is_transit":false,"time":3},{"line":11,"is_transit":false,"time":5,"i_lat":-6.161728,"station_id":"KMO","i_long":106.839204,"distance":1901,"station_name":"Kemayoran","transit":false},{"line":11,"station_name":"Pasar Senen","distance":1436,"transit":false,"time":4,"is_transit":false,"i_long":106.84368,"i_lat":-6.174784,"station_id":"PSE"},{"transit":false,"i_long":106.850107,"station_name":"Gang Sentiong","i_lat":-6.185975,"station_id":"GST","line":11,"distance":1567,"is_transit":false,"time":8},{"i_long":106.855437,"transit":false,"distance":973,"station_name":"Kramat","time":1,"station_id":"KMT","i_lat":-6.193792,"is_transit":false,"line":11},{"time":2,"transit":false,"station_name":"Pondok Jati","station_id":"POK","i_lat":-6.209188,"i_long":106.861737,"line":11,"is_transit":false,"distance":1829},{"transit":true,"station_id":"JNG","station_name":"Jatinegara","distance":1236,"is_transit":true,"i_long":106.86807400000001,"line":1,"i_lat":-6.215091,"time":9},{"i_lat":-6.212485,"is_transit":false,"time":2,"station_id":"MTR","line":1,"station_name":"Matraman","distance":1377,"i_long":106.858896,"transit":false},{"line":2,"is_transit":true,"i_lat":-6.209883,"i_long":106.84912,"transit":true,"time":2,"station_name":"Manggarai","distance":1275,"station_id":"MRI"},{"i_long":106.857948,"transit":false,"i_lat":-6.226659,"station_name":"Tebet","is_transit":false,"line":2,"station_id":"TEB","distance":2610,"time":4},{"station_id":"CW","station_name":"Cawang","i_long":106.856607,"line":2,"distance":1230,"i_lat":-6.242512,"transit":false,"time":2,"is_transit":false},{"distance":1546,"line":2,"station_id":"DRN","time":3,"is_transit":false,"i_long":106.85449,"station_name":"Duren Kalibata","transit":false,"i_lat":-6.255332},{"station_id":"PSMB","line":2,"time":2,"is_transit":false,"distance":824,"station_name":"Pasar Minggu Baru","transit":false,"i_long":106.851577,"i_lat":-6.263214},{"station_name":"Pasar Minggu","is_transit":false,"station_id":"PSM","i_long":106.843999,"i_lat":-6.2842400000000005,"line":2,"distance":2380,"transit":false,"time":2},{"station_name":"Tanjung Barat","i_lat":-6.3080680000000005,"distance":2820,"is_transit":false,"line":2,"time":4,"i_long":106.838896,"transit":false,"station_id":"TNT"}]]}