{"data":[[{"station_name":"Sudirman Baru","time":0,"i_long":106.819881,"distance":0,"i_lat":-6.201433,"line":1,"is_transit":false,"transit":false,"station_id":"SUDB"},{"time":1,"transit":false,"is_transit":false,"i_lat":-6.202263,"station_id":"SUD","line":1,"station_name":"Sudirman","distance":280,"i_long":106.822649},{"i_long":106.84912,"station_id":"MRI","distance":3186,"is_transit":false,"transit":false,"line":2,"station_name":"Manggarai","i_lat":-6.209883,"time":4},{"line":1,"distance":1275,"i_lat":-6.212485,"station_id":"MTR","i_long":106.858896,"is_transit":false,"time":2,"transit":false,"station_name":"Matraman"},{"line":1,"transit":false,"i_lat":-6.215091,"is_transit":false,"station_id":"JNG","station_name":"Jatinegara","i_long":106.86807400000001,"distance":1377,"time":8},{"is_transit":false,"time":3,"i_long":106.899548,"line":1,"i_lat":-6.2135,"station_name":"Klender","distance":3395,"transit":false,"station_id":"KLD"},{"i_long":106.922662,"time":2,"distance":3100,"transit":false,"is_transit":false,"line":1,"i_lat":-6.215568,"station_id":"BUA","station_name":"Buaran"},{"station_name":"Klenderbaru","i_lat":-6.217455,"station_id":"KLDB","is_transit":false,"time":1,"distance":1305,"transit":false,"line":1,"i_long":106.939679}],[{"transit":false,"station_id":"SUDB","distance":0,"is_transit":false,"i_lat":-6.201433,"i_long":106.819881,"line":1,"time":0,"station_name":"Sudirman Baru"},{"i_lat":-6.20132,"line":1,"time":1,"transit":false,"distance":471,"station_name":"Karet","station_id":"KAT","is_transit":false,"i_long":106.816351},{"time":5,"station_id":"THB","station_name":"Tanah Abang","distance":2029,"line":1,"transit":false,"i_lat":-6.185545,"is_transit":false,"i_long":106.811091},{"transit":false,"i_long":106.800832,"is_transit":false,"station_id":"DU","time":8,"station_name":"Duri","distance":3632,"line":1,"i_lat":-6.155215},{"is_transit":false,"station_name":"Angke","i_lat":-6.144674,"line":1,"time":4,"transit":false,"station_id":"AK","distance":1230,"i_long":106.79867},{"transit":true,"station_name":"Kampung Bandan","line":4,"i_lat":-6.132549,"distance":4102,"is_transit":true,"time":9,"station_id":"KPB","i_long":106.826365},{"transit":false,"distance":1444,"station_name":"Rajawali","is_transit":false,"time":3,"i_long":106.836569,"i_lat":-6.14505,"line":11,"station_id":"RJW"},{"station_id":"KMO","distance":1901,"station_name":"Kemayoran","i_lat":-6.161728,"line":11,"is_transit":false,"transit":false,"i_long":106.839204,"time":5},{"transit":false,"station_name":"Pasar Senen","line":11,"i_lat":-6.174784,"is_transit":false,"station_id":"PSE","time":4,"distance":1436,"i_long":106.84368},{"time":8,"line":11,"distance":1567,"transit":false,"is_transit":false,"station_name":"Gang Sentiong","i_lat":-6.185975,"i_long":106.850107,"station_id":"GST"},{"transit":false,"is_transit":false,"station_name":"Kramat","distance":973,"line":11,"time":1,"i_lat":-6.193792,"i_long":106.855437,"station_id":"KMT"},{"line":11,"station_name":"Pondok Jati","station_id":"POK","i_long":106.861737,"is_transit":false,"transit":false,"i_lat":-6.209188,"distance":1829,"time":2},{"transit":true,"distance":1236,"station_name":"Jatinegara","time":9,"i_lat":-6.215091,"i_long":106.86807400000001,"line":1,"station_id":"JNG","is_transit":true},{"time":3,"i_lat":-6.2135,"i_long":106.899548,"station_id":"KLD","station_name":"Klender","transit":false,"line":1,"distance":3395,"is_transit":false},{"distance":3100,"station_id":"BUA","station_name":"Buaran","i_lat":-6.215568,"i_long":106.922662,"is_transit":false,"transit":false,"line":1,"time":2},{"line":1,"i_lat":-6.217455,"station_id":"KLDB","is_transit":false,"distance":1305,"transit":false,"time":1,"station_name":"Klenderbaru","i_long":106.939679}],[{"station_name":"Sudirman Baru","i_long":106.819881,"transit":false,"is_transit":false,"i_lat":-6.201433,"line":1,"distance":0,"station_id":"SUDB","time":0},{"distance":471,"i_long":106.816351,"station_name":"Karet","time":1,"station_id":"KAT","i_lat":-6.20132,"line":1,"is_transit":false,"transit":false},{"i_lat":-6.185545,"station_id":"THB","i_long":106.811091,"line":1,"distance":2029,"transit":false,"time":5,"is_transit":false,"station_name":"Tanah Abang"},{"station_name":"Duri","station_id":"DU","is_transit":false,"transit":false,"i_lat":-6.155215,"time":8,"line":1,"distance":3632,"i_long":106.800832},{"station_id":"AK","is_transit":false,"time":4,"distance":1230,"i_lat":-6.144674,"transit":false,"station_name":"Angke","i_long":106.79867,"line":1},{"i_lat":-6.132549,"i_long":106.826365,"is_transit":true,"distance":4102,"station_name":"Kampung Bandan","station_id":"KPB","time":9,"transit":true,"line":4},{"line":2,"station_name":"Jakarta Kota","i_long":106.812439,"station_id":"JAKK","i_lat":-6.137569,"is_transit":true,"time":3,"distance":1364,"transit":true},{"transit":false,"is_transit":false,"station_id":"JAY","station_name":"Jayakarta","distance":1264,"time":4,"i_lat":-6.141205,"i_long":106.820901,"line":2},{"distance":1080,"station_name":"Manggabesar","transit":false,"i_long":106.82482,"station_id":"MGB","i_lat":-6.149769,"line":2,"is_transit":false,"time":2},{"station_name":"Sawah Besar","distance":906,"i_long":106.827103,"is_transit":false,"transit":false,"station_id":"SW","time":2,"i_lat":-6.160725,"line":2},{"time":2,"line":2,"transit":false,"i_long":106.828284,"i_lat":-6.166716,"station_name":"Juanda","is_transit":false,"distance":1149,"station_id":"JUA"},{"station_id":"GDD","distance":2015,"i_long":106.832183,"line":2,"is_transit":false,"time":4,"transit":false,"i_lat":-6.186295,"station_name":"Gondangdia"},{"is_transit":false,"station_id":"CKI","distance":1750,"i_lat":-6.198556,"line":2,"transit":false,"time":3,"station_name":"Cikini","i_long":106.840169},{"distance":1590,"station_id":"MRI","i_lat":-6.209883,"line":2,"i_long":106.84912,"transit":true,"station_name":"Manggarai","time":4,"is_transit":true},{"is_transit":false,"line":1,"i_long":106.858896,"station_name":"Matraman","time":2,"station_id":"MTR","distance":1275,"transit":false,"i_lat":-6.212485},{"i_long":106.86807400000001,"time":8,"station_name":"Jatinegara","line":1,"i_lat":-6.215091,"is_transit":false,"station_id":"JNG","transit":false,"distance":1377},{"i_lat":-6.2135,"time":3,"transit":false,"station_id":"KLD","distance":3395,"station_name":"Klender","is_transit":false,"line":1,"i_long":106.899548},{"line":1,"distance":3100,"i_lat":-6.215568,"station_id":"BUA","is_transit":false,"station_name":"Buaran","i_long":106.922662,"time":2,"transit":false},{"transit":false,"i_long":106.939679,"station_id":"KLDB","is_transit":false,"line":1,"distance":1305,"i_lat":-6.217455,"time":1,"station_name":"Klenderbaru"}],[{"station_name":"Sudirman Baru","i_lat":-6.201433,"i_long":106.819881,"line":1,"station_id":"SUDB","time":0,"distance":0,"transit":false,"is_transit":false},{"i_lat":-6.202263,"i_long":106.822649,"line":1,"distance":280,"is_transit":false,"station_id":"SUD","time":1,"station_name":"Sudirman","transit":false},{"transit":true,"is_transit":true,"i_lat":-6.209883,"station_id":"MRI","station_name":"Manggarai","time":4,"distance":3186,"line":2,"i_long":106.84912},{"transit":false,"station_id":"CKI","station_name":"Cikini","time":4,"distance":1590,"i_long":106.840169,"line":2,"is_transit":false,"i_lat":-6.198556},{"time":3,"i_long":106.832183,"station_id":"GDD","i_lat":-6.186295,"line":2,"station_name":"Gondangdia","is_transit":false,"distance":1750,"transit":false},{"distance":2015,"line":2,"i_long":106.828284,"i_lat":-6.166716,"station_name":"Juanda","station_id":"JUA","time":4,"transit":false,"is_transit":false},{"distance":1149,"station_id":"SW","transit":false,"i_lat":-6.160725,"i_long":106.827103,"is_transit":false,"line":2,"station_name":"Sawah Besar","time":2},{"transit":false,"i_long":106.82482,"i_lat":-6.149769,"station_name":"Manggabesar","time":2,"line":2,"is_transit":false,"station_id":"MGB","distance":906},{"time":2,"is_transit":false,"i_lat":-6.141205,"station_name":"Jayakarta","distance":1080,"transit":false,"i_long":106.820901,"station_id":"JAY","line":2},{"is_transit":true,"transit":true,"i_long":106.812439,"station_id":"JAKK","line":2,"time":4,"station_name":"Jakarta Kota","distance":1264,"i_lat":-6.137569},{"line":4,"i_long":106.826365,"station_id":"KPB","time":3,"transit":true,"i_lat":-6.132549,"is_transit":true,"distance":1364,"station_name":"Kampung Bandan"},{"i_lat":-6.14505,"transit":false,"time":3,"is_transit":false,"distance":1444,"line":11,"station_id":"RJW","station_name":"Rajawali","i_long":106.836569},{"transit":false,"distance":1901,"line":11,"i_long":106.839204,"station_name":"Kemayoran","time":5,"i_lat":-6.161728,"station_id":"KMO","is_transit":false},{"i_lat":-6.174784,"station_name":"Pasar Senen","i_long":106.84368,"line":11,"is_transit":false,"distance":1436,"time":4,"station_id":"PSE","transit":false},{"is_transit":false,"line":11,"station_id":"GST","time":8,"transit":false,"i_lat":-6.185975,"i_long":106.850107,"station_name":"Gang Sentiong","distance":1567},{"i_long":106.855437,"line":11,"transit":false,"time":1,"i_lat":-6.193792,"station_id":"KMT","distance":973,"station_name":"Kramat","is_transit":false},{"is_transit":false,"station_name":"Pondok Jati","distance":1829,"time":2,"station_id":"POK","line":11,"i_lat":-6.209188,"i_long":106.861737,"transit":false},{"distance":1236,"is_transit":true,"i_lat":-6.215091,"time":9,"station_id":"JNG","station_name":"Jatinegara","line":1,"transit":true,"i_long":106.86807400000001},{"line":1,"station_id":"KLD","is_transit":false,"distance":3395,"transit":false,"i_lat":-6.2135,"time":3,"station_name":"Klender","i_long":106.899548},{"station_id":"BUA","line":1,"time":2,"distance":3100,"station_name":"Buaran","is_transit":false,"i_lat":-6.215568,"i_long":106.922662,"transit":false},{"transit":false,"is_transit":false,"time":1,"line":1,"i_lat":-6.217455,"distance":1305,"station_name":"Klenderbaru","station_id":"KLDB","i_long":106.939679}]]}