{"data":[[{"station_id":"SUDB","i_long":106.819881,"time":0,"is_transit":false,"transit":false,"line":1,"distance":0,"station_name":"Sudirman Baru","i_lat":-6.201433},{"i_lat":-6.20132,"time":1,"is_transit":false,"line":1,"i_long":106.816351,"distance":471,"station_name":"Karet","station_id":"KAT","transit":false},{"station_name":"Tanah Abang","is_transit":true,"transit":true,"distance":2029,"line":1,"i_lat":-6.185545,"station_id":"THB","i_long":106.811091,"time":5},{"line":6,"transit":false,"station_id":"PLM","station_name":"Palmerah","i_lat":-6.207404,"distance":3191,"time":6,"i_long":106.79689,"is_transit":false}],[{"is_transit":false,"i_long":106.819881,"transit":false,"time":0,"station_name":"Sudirman Baru","i_lat":-6.201433,"station_id":"SUDB","line":1,"distance":0},{"transit":false,"i_long":106.822649,"is_transit":false,"i_lat":-6.202263,"line":1,"station_name":"Sudirman","time":1,"distance":280,"station_id":"SUD"},{"line":2,"distance":3186,"station_name":"Manggarai","is_transit":true,"i_long":106.84912,"station_id":"MRI","i_lat":-6.209883,"time":4,"transit":true},{"station_name":"Cikini","transit":false,"time":4,"i_long":106.840169,"line":2,"is_transit":false,"station_id":"CKI","distance":1590,"i_lat":-6.198556},{"is_transit":false,"transit":false,"i_lat":-6.186295,"station_name":"Gondangdia","station_id":"GDD","i_long":106.832183,"distance":1750,"line":2,"time":3},{"time":4,"distance":2015,"line":2,"i_long":106.828284,"station_id":"JUA","transit":false,"i_lat":-6.166716,"station_name":"Juanda","is_transit":false},{"i_long":106.827103,"station_id":"SW","station_name":"Sawah Besar","line":2,"distance":1149,"is_transit":false,"transit":false,"time":2,"i_lat":-6.160725},{"is_transit":false,"i_lat":-6.149769,"i_long":106.82482,"station_id":"MGB","transit":false,"line":2,"distance":906,"station_name":"Manggabesar","time":2},{"station_id":"JAY","station_name":"Jayakarta","i_long":106.820901,"line":2,"transit":false,"time":2,"i_lat":-6.141205,"distance":1080,"is_transit":false},{"transit":true,"i_lat":-6.137569,"time":4,"line":2,"is_transit":true,"station_name":"Jakarta Kota","i_long":106.812439,"distance":1264,"station_id":"JAKK"},{"distance":1364,"is_transit":true,"i_lat":-6.132549,"station_id":"KPB","station_name":"Kampung Bandan","i_long":106.826365,"transit":true,"time":3,"line":4},{"line":1,"i_long":106.79867,"is_transit":false,"station_name":"Angke","transit":false,"station_id":"AK","time":9,"i_lat":-6.144674,"distance":4102},{"distance":1230,"station_id":"DU","station_name":"Duri","time":4,"i_lat":-6.155215,"line":1,"transit":false,"is_transit":false,"i_long":106.800832},{"station_id":"THB","i_long":106.811091,"time":8,"distance":3632,"i_lat":-6.185545,"line":1,"is_transit":true,"station_name":"Tanah Abang","transit":true},{"line":6,"i_long":106.79689,"distance":3191,"station_id":"PLM","time":6,"is_transit":false,"i_lat":-6.207404,"station_name":"Palmerah","transit":false}],[{"time":0,"is_transit":false,"distance":0,"transit":false,"i_lat":-6.201433,"i_long":106.819881,"line":1,"station_name":"Sudirman Baru","station_id":"SUDB"},{"i_lat":-6.202263,"transit":false,"is_transit":false,"station_id":"SUD","distance":280,"i_long":106.822649,"line":1,"time":1,"station_name":"Sudirman"},{"time":4,"distance":3186,"station_id":"MRI","is_transit":false,"station_name":"Manggarai","transit":false,"i_lat":-6.209883,"i_long":106.84912,"line":2},{"is_transit":false,"transit":false,"i_lat":-6.212485,"station_name":"Matraman","line":1,"station_id":"MTR","distance":1275,"time":2,"i_long":106.858896},{"time":8,"i_lat":-6.215091,"station_name":"Jatinegara","transit":true,"i_long":106.86807400000001,"distance":1377,"is_transit":true,"line":1,"station_id":"JNG"},{"line":11,"time":2,"station_name":"Pondok Jati","station_id":"POK","distance":1236,"i_long":106.861737,"transit":false,"is_transit":false,"i_lat":-6.209188},{"time":2,"i_lat":-6.193792,"line":11,"is_transit":false,"distance":1829,"transit":false,"station_id":"KMT","station_name":"Kramat","i_long":106.855437},{"i_lat":-6.185975,"station_name":"Gang Sentiong","i_long":106.850107,"is_transit":false,"distance":973,"line":11,"transit":false,"time":1,"station_id":"GST"},{"time":8,"transit":false,"i_long":106.84368,"i_lat":-6.174784,"station_name":"Pasar Senen","line":11,"station_id":"PSE","distance":1567,"is_transit":false},{"distance":1436,"station_name":"Kemayoran","i_long":106.839204,"is_transit":false,"i_lat":-6.161728,"transit":false,"station_id":"KMO","line":11,"time":4},{"transit":false,"i_lat":-6.14505,"i_long":106.836569,"time":5,"station_name":"Rajawali","is_transit":false,"line":11,"distance":1901,"station_id":"RJW"},{"is_transit":true,"i_lat":-6.132549,"distance":1444,"time":3,"transit":true,"i_long":106.826365,"station_name":"Kampung Bandan","line":4,"station_id":"KPB"},{"line":1,"time":9,"distance":4102,"station_id":"AK","transit":false,"station_name":"Angke","is_transit":false,"i_lat":-6.144674,"i_long":106.79867},{"station_id":"DU","i_long":106.800832,"distance":1230,"is_transit":false,"time":4,"transit":false,"i_lat":-6.155215,"line":1,"station_name":"Duri"},{"line":1,"station_name":"Tanah Abang","time":8,"is_transit":true,"distance":3632,"i_lat":-6.185545,"station_id":"THB","i_long":106.811091,"transit":true},{"time":6,"station_id":"PLM","line":6,"is_transit":false,"station_name":"Palmerah","i_long":106.79689,"transit":false,"i_lat":-6.207404,"distance":3191}]]}