{"data":[[{"station_name":"Sudirman Baru","is_transit":false,"line":1,"i_lat":-6.201433,"distance":0,"station_id":"SUDB","time":0,"i_long":106.819881,"transit":false},{"i_long":106.822649,"i_lat":-6.202263,"station_id":"SUD","transit":false,"time":1,"line":1,"distance":280,"is_transit":false,"station_name":"Sudirman"},{"transit":true,"distance":3186,"time":4,"line":0,"is_transit":true,"station_id":"MRI","i_lat":-6.209883,"station_name":"Manggarai","i_long":106.84912},{"is_transit":false,"station_id":"TEB","time":4,"transit":false,"i_lat":-6.226659,"distance":2610,"line":2,"i_long":106.857948,"station_name":"Tebet"},{"line":0,"time":2,"i_lat":-6.242512,"is_transit":false,"i_long":106.856607,"distance":1230,"station_name":"Cawang","transit":false,"station_id":"CW"},{"i_lat":-6.255332,"is_transit":false,"distance":1546,"station_id":"DRN","time":3,"i_long":106.85449,"line":0,"station_name":"Duren Kalibata","transit":false},{"transit":false,"time":2,"i_lat":-6.263214,"i_long":106.851577,"line":2,"distance":824,"station_id":"PSMB","station_name":"Pasar Minggu Baru","is_transit":false},{"i_long":106.843999,"distance":2380,"is_transit":false,"station_id":"PSM","station_name":"Pasar Minggu","transit":false,"line":2,"time":2,"i_lat":-6.2842400000000005},{"is_transit":false,"station_id":"TNT","station_name":"Tanjung Barat","line":2,"distance":2820,"time":4,"i_lat":-6.3080680000000005,"i_long":106.838896,"transit":false}],[{"is_transit":false,"transit":false,"line":1,"time":0,"distance":0,"station_name":"Sudirman Baru","station_id":"SUDB","i_lat":-6.201433,"i_long":106.819881},{"i_long":106.816351,"station_id":"KAT","station_name":"Karet","is_transit":false,"distance":471,"line":1,"transit":false,"time":1,"i_lat":-6.20132},{"distance":2029,"station_name":"Tanah Abang","i_long":106.811091,"is_transit":true,"station_id":"THB","transit":false,"time":5,"line":1,"i_lat":-6.185545},{"is_transit":true,"station_name":"Duri","time":8,"transit":true,"station_id":"DU","i_lat":-6.155215,"i_long":106.800832,"line":1,"distance":3632},{"line":0,"is_transit":false,"i_lat":-6.144674,"i_long":106.79867,"distance":1230,"station_name":"Angke","transit":false,"time":4,"station_id":"AK"},{"line":0,"is_transit":true,"station_id":"KPB","transit":false,"time":9,"i_lat":-6.132549,"i_long":106.826365,"distance":4102,"station_name":"Kampung Bandan"},{"station_id":"JAKK","i_lat":-6.137569,"station_name":"Jakarta Kota","line":0,"time":3,"i_long":106.812439,"distance":1364,"is_transit":true,"transit":true},{"line":7,"station_name":"Jayakarta","i_long":106.820901,"time":4,"is_transit":false,"i_lat":-6.141205,"station_id":"JAY","transit":false,"distance":1264},{"transit":false,"i_long":106.82482,"line":2,"is_transit":false,"time":2,"distance":1080,"i_lat":-6.149769,"station_name":"Manggabesar","station_id":"MGB"},{"station_name":"Sawah Besar","i_lat":-6.160725,"is_transit":false,"station_id":"SW","line":2,"time":2,"i_long":106.827103,"transit":false,"distance":906},{"distance":1149,"transit":false,"time":2,"i_lat":-6.166716,"is_transit":false,"station_name":"Juanda","i_long":106.828284,"line":2,"station_id":"JUA"},{"is_transit":false,"transit":false,"time":4,"i_lat":-6.186295,"i_long":106.832183,"line":2,"distance":2015,"station_id":"GDD","station_name":"Gondangdia"},{"station_id":"CKI","i_lat":-6.198556,"transit":false,"is_transit":false,"station_name":"Cikini","line":0,"time":3,"i_long":106.840169,"distance":1750},{"transit":true,"distance":1590,"time":4,"station_id":"MRI","i_long":106.84912,"is_transit":true,"line":0,"station_name":"Manggarai","i_lat":-6.209883},{"distance":2610,"is_transit":false,"station_id":"TEB","line":2,"station_name":"Tebet","i_lat":-6.226659,"transit":false,"i_long":106.857948,"time":4},{"station_id":"CW","transit":false,"line":0,"distance":1230,"station_name":"Cawang","i_long":106.856607,"i_lat":-6.242512,"is_transit":false,"time":2},{"transit":false,"line":0,"station_id":"DRN","is_transit":false,"distance":1546,"station_name":"Duren Kalibata","i_long":106.85449,"time":3,"i_lat":-6.255332},{"is_transit":false,"i_long":106.851577,"line":2,"time":2,"distance":824,"transit":false,"station_id":"PSMB","station_name":"Pasar Minggu Baru","i_lat":-6.263214},{"time":2,"i_long":106.843999,"station_id":"PSM","station_name":"Pasar Minggu","i_lat":-6.2842400000000005,"line":2,"transit":false,"distance":2380,"is_transit":false},{"distance":2820,"i_long":106.838896,"station_id":"TNT","time":4,"i_lat":-6.3080680000000005,"is_transit":false,"transit":false,"station_name":"Tanjung Barat","line":2}],[{"i_lat":-6.201433,"time":0,"station_id":"SUDB","station_name":"Sudirman Baru","i_long":106.819881,"transit":false,"line":1,"distance":0,"is_transit":false},{"station_id":"KAT","i_lat":-6.20132,"is_transit":false,"distance":471,"time":1,"line":1,"i_long":106.816351,"station_name":"Karet","transit":false},{"line":1,"station_id":"THB","station_name":"Tanah Abang","i_lat":-6.185545,"transit":false,"time":5,"i_long":106.811091,"distance":2029,"is_transit":true},{"i_lat":-6.155215,"distance":3632,"transit":true,"line":1,"i_long":106.800832,"station_id":"DU","time":8,"station_name":"Duri","is_transit":true},{"station_id":"AK","distance":1230,"time":4,"i_lat":-6.144674,"is_transit":false,"station_name":"Angke","transit":false,"i_long":106.79867,"line":0},{"is_transit":true,"station_id":"KPB","transit":true,"station_name":"Kampung Bandan","time":9,"line":0,"distance":4102,"i_long":106.826365,"i_lat":-6.132549},{"station_id":"RJW","i_lat":-6.14505,"line":11,"time":3,"i_long":106.836569,"transit":false,"distance":1444,"station_name":"Rajawali","is_transit":false},{"station_id":"KMO","distance":1901,"station_name":"Kemayoran","transit":false,"is_transit":false,"line":11,"time":5,"i_long":106.839204,"i_lat":-6.161728},{"station_id":"PSE","is_transit":false,"time":4,"station_name":"Pasar Senen","transit":false,"distance":1436,"line":11,"i_lat":-6.174784,"i_long":106.84368},{"transit":false,"line":11,"i_long":106.850107,"is_transit":false,"station_name":"Gang Sentiong","i_lat":-6.185975,"distance":1567,"station_id":"GST","time":8},{"i_lat":-6.193792,"i_long":106.855437,"line":11,"station_id":"KMT","distance":973,"station_name":"Kramat","transit":false,"is_transit":false,"time":1},{"time":2,"i_long":106.861737,"station_id":"POK","is_transit":false,"i_lat":-6.209188,"station_name":"Pondok Jati","distance":1829,"line":11,"transit":false},{"transit":true,"is_transit":true,"i_lat":-6.215091,"i_long":106.86807400000001,"distance":1236,"station_id":"JNG","station_name":"Jatinegara","time":9,"line":0},{"station_name":"Matraman","transit":false,"line":1,"station_id":"MTR","i_long":106.858896,"i_lat":-6.212485,"is_transit":false,"distance":1377,"time":2},{"station_name":"Manggarai","transit":true,"i_lat":-6.209883,"station_id":"MRI","distance":1275,"time":2,"is_transit":true,"line":0,"i_long":106.84912},{"transit":false,"i_long":106.857948,"line":2,"station_id":"TEB","distance":2610,"time":4,"i_lat":-6.226659,"station_name":"Tebet","is_transit":false},{"distance":1230,"station_name":"Cawang","line":0,"i_long":106.856607,"i_lat":-6.242512,"transit":false,"station_id":"CW","time":2,"is_transit":false},{"station_name":"Duren Kalibata","i_lat":-6.255332,"transit":false,"distance":1546,"time":3,"line":0,"i_long":106.85449,"is_transit":false,"station_id":"DRN"},{"i_long":106.851577,"time":2,"distance":824,"station_id":"PSMB","line":2,"is_transit":false,"station_name":"Pasar Minggu Baru","transit":false,"i_lat":-6.263214},{"i_long":106.843999,"distance":2380,"is_transit":false,"station_id":"PSM","station_name":"Pasar Minggu","time":2,"line":2,"transit":false,"i_lat":-6.2842400000000005},{"time":4,"i_long":106.838896,"distance":2820,"station_name":"Tanjung Barat","station_id":"TNT","i_lat":-6.3080680000000005,"line":2,"is_transit":false,"transit":false}]]}