{"data":[[{"station_id":"SUDB","i_lat":-6.201433,"i_long":106.819881,"station_name":"Sudirman Baru","line":1,"is_transit":false,"time":0,"distance":0,"transit":false},{"transit":false,"time":1,"distance":280,"is_transit":false,"station_id":"SUD","station_name":"Sudirman","i_lat":-6.202263,"i_long":106.822649,"line":1},{"time":4,"is_transit":true,"i_long":106.84912,"i_lat":-6.209883,"station_name":"Manggarai","station_id":"MRI","line":2,"transit":true,"distance":3186},{"time":4,"transit":false,"station_id":"TEB","is_transit":false,"station_name":"Tebet","line":2,"distance":2610,"i_long":106.857948,"i_lat":-6.226659},{"i_long":106.856607,"station_id":"CW","is_transit":false,"distance":1230,"station_name":"Cawang","line":2,"time":2,"i_lat":-6.242512,"transit":false},{"time":3,"transit":false,"station_name":"Duren Kalibata","station_id":"DRN","distance":1546,"is_transit":false,"line":2,"i_lat":-6.255332,"i_long":106.85449},{"transit":false,"is_transit":false,"distance":824,"station_name":"Pasar Minggu Baru","i_lat":-6.263214,"i_long":106.851577,"time":2,"line":2,"station_id":"PSMB"},{"station_id":"PSM","time":2,"line":2,"distance":2380,"transit":false,"is_transit":false,"station_name":"Pasar Minggu","i_lat":-6.2842400000000005,"i_long":106.843999},{"i_long":106.838896,"transit":false,"is_transit":false,"i_lat":-6.3080680000000005,"station_name":"Tanjung Barat","distance":2820,"station_id":"TNT","line":2,"time":4},{"station_name":"Lenteng Agung","line":2,"station_id":"LNA","transit":false,"is_transit":false,"i_lat":-6.330363,"time":3,"distance":2671,"i_long":106.832616},{"time":2,"station_name":"Univ. Pancasila","transit":false,"i_long":106.834175,"line":2,"is_transit":false,"station_id":"UP","i_lat":-6.339291,"distance":1029},{"time":3,"station_id":"UI","transit":false,"is_transit":false,"i_long":106.831474,"station_name":"Univ. Indonesia","distance":2264,"i_lat":-6.360749,"line":2},{"station_name":"Pondok Cina","i_long":106.831114,"time":2,"transit":false,"distance":1109,"is_transit":false,"station_id":"POC","i_lat":-6.369073,"line":2},{"i_lat":-6.391065,"distance":2727,"station_id":"DPB","i_long":106.819451,"line":2,"station_name":"Depokbaru","time":4,"is_transit":false,"transit":false},{"station_id":"DP","is_transit":false,"i_lat":-6.405256,"i_long":106.816926,"station_name":"Depok","time":3,"transit":false,"distance":1584,"line":2}],[{"station_name":"Sudirman Baru","is_transit":false,"line":1,"i_long":106.819881,"time":0,"i_lat":-6.201433,"station_id":"SUDB","distance":0,"transit":false},{"time":1,"is_transit":false,"line":1,"station_name":"Karet","station_id":"KAT","i_lat":-6.20132,"distance":471,"i_long":106.816351,"transit":false},{"i_lat":-6.185545,"transit":false,"time":5,"station_id":"THB","i_long":106.811091,"line":1,"is_transit":false,"distance":2029,"station_name":"Tanah Abang"},{"is_transit":false,"line":1,"time":8,"transit":false,"station_name":"Duri","distance":3632,"station_id":"DU","i_lat":-6.155215,"i_long":106.800832},{"line":1,"transit":false,"i_long":106.79867,"time":4,"distance":1230,"station_id":"AK","station_name":"Angke","is_transit":false,"i_lat":-6.144674},{"transit":true,"station_name":"Kampung Bandan","time":9,"distance":4102,"station_id":"KPB","i_lat":-6.132549,"i_long":106.826365,"is_transit":true,"line":4},{"station_id":"JAKK","distance":1364,"is_transit":true,"station_name":"Jakarta Kota","i_long":106.812439,"transit":true,"i_lat":-6.137569,"time":3,"line":2},{"transit":false,"i_long":106.820901,"station_id":"JAY","distance":1264,"i_lat":-6.141205,"is_transit":false,"time":4,"station_name":"Jayakarta","line":2},{"transit":false,"i_lat":-6.149769,"i_long":106.82482,"line":2,"time":2,"is_transit":false,"station_id":"MGB","station_name":"Manggabesar","distance":1080},{"line":2,"is_transit":false,"station_id":"SW","transit":false,"i_lat":-6.160725,"station_name":"Sawah Besar","distance":906,"time":2,"i_long":106.827103},{"time":2,"line":2,"station_name":"Juanda","distance":1149,"i_lat":-6.166716,"transit":false,"is_transit":false,"station_id":"JUA","i_long":106.828284},{"i_lat":-6.186295,"time":4,"is_transit":false,"station_id":"GDD","line":2,"transit":false,"i_long":106.832183,"distance":2015,"station_name":"Gondangdia"},{"is_transit":false,"distance":1750,"time":3,"station_name":"Cikini","line":2,"transit":false,"i_long":106.840169,"station_id":"CKI","i_lat":-6.198556},{"station_id":"MRI","time":4,"line":2,"station_name":"Manggarai","transit":false,"i_long":106.84912,"i_lat":-6.209883,"distance":1590,"is_transit":false},{"i_long":106.857948,"line":2,"station_id":"TEB","is_transit":false,"distance":2610,"transit":false,"i_lat":-6.226659,"time":4,"station_name":"Tebet"},{"station_name":"Cawang","transit":false,"i_long":106.856607,"i_lat":-6.242512,"is_transit":false,"distance":1230,"line":2,"time":2,"station_id":"CW"},{"time":3,"distance":1546,"i_lat":-6.255332,"transit":false,"station_name":"Duren Kalibata","i_long":106.85449,"station_id":"DRN","line":2,"is_transit":false},{"i_lat":-6.263214,"distance":824,"is_transit":false,"i_long":106.851577,"station_id":"PSMB","time":2,"line":2,"station_name":"Pasar Minggu Baru","transit":false},{"i_long":106.843999,"i_lat":-6.2842400000000005,"station_name":"Pasar Minggu","time":2,"distance":2380,"station_id":"PSM","line":2,"transit":false,"is_transit":false},{"transit":false,"i_lat":-6.3080680000000005,"line":2,"station_name":"Tanjung Barat","i_long":106.838896,"is_transit":false,"time":4,"station_id":"TNT","distance":2820},{"distance":2671,"line":2,"station_name":"Lenteng Agung","time":3,"i_lat":-6.330363,"station_id":"LNA","transit":false,"is_transit":false,"i_long":106.832616},{"line":2,"i_long":106.834175,"station_name":"Univ. Pancasila","distance":1029,"time":2,"is_transit":false,"i_lat":-6.339291,"station_id":"UP","transit":false},{"station_id":"UI","transit":false,"time":3,"is_transit":false,"distance":2264,"i_lat":-6.360749,"line":2,"station_name":"Univ. Indonesia","i_long":106.831474},{"i_long":106.831114,"time":2,"distance":1109,"transit":false,"station_name":"Pondok Cina","line":2,"station_id":"POC","is_transit":false,"i_lat":-6.369073},{"i_long":106.819451,"time":4,"line":2,"station_id":"DPB","is_transit":false,"station_name":"Depokbaru","i_lat":-6.391065,"distance":2727,"transit":false},{"transit":false,"time":3,"i_long":106.816926,"is_transit":false,"i_lat":-6.405256,"distance":1584,"station_id":"DP","line":2,"station_name":"Depok"}],[{"i_long":106.819881,"transit":false,"i_lat":-6.201433,"station_name":"Sudirman Baru","line":1,"distance":0,"station_id":"SUDB","is_transit":false,"time":0},{"distance":471,"is_transit":false,"station_id":"KAT","transit":false,"station_name":"Karet","line":1,"i_lat":-6.20132,"i_long":106.816351,"time":1},{"transit":false,"is_transit":false,"station_name":"Tanah Abang","time":5,"i_lat":-6.185545,"line":1,"distance":2029,"i_long":106.811091,"station_id":"THB"},{"is_transit":false,"time":8,"transit":false,"station_id":"DU","i_lat":-6.155215,"station_name":"Duri","i_long":106.800832,"line":1,"distance":3632},{"station_name":"Angke","station_id":"AK","is_transit":false,"line":1,"i_lat":-6.144674,"distance":1230,"i_long":106.79867,"transit":false,"time":4},{"is_transit":true,"station_id":"KPB","station_name":"Kampung Bandan","distance":4102,"i_lat":-6.132549,"time":9,"transit":true,"i_long":106.826365,"line":4},{"time":3,"station_name":"Rajawali","transit":false,"is_transit":false,"line":11,"i_lat":-6.14505,"distance":1444,"station_id":"RJW","i_long":106.836569},{"i_long":106.839204,"station_name":"Kemayoran","line":11,"transit":false,"i_lat":-6.161728,"time":5,"is_transit":false,"distance":1901,"station_id":"KMO"},{"distance":1436,"station_id":"PSE","line":11,"station_name":"Pasar Senen","i_long":106.84368,"transit":false,"i_lat":-6.174784,"is_transit":false,"time":4},{"distance":1567,"station_id":"GST","transit":false,"is_transit":false,"station_name":"Gang Sentiong","i_lat":-6.185975,"time":8,"i_long":106.850107,"line":11},{"line":11,"station_id":"KMT","transit":false,"i_long":106.855437,"station_name":"Kramat","time":1,"i_lat":-6.193792,"distance":973,"is_transit":false},{"distance":1829,"transit":false,"is_transit":false,"station_name":"Pondok Jati","station_id":"POK","time":2,"i_long":106.861737,"line":11,"i_lat":-6.209188},{"distance":1236,"transit":true,"line":1,"i_lat":-6.215091,"station_id":"JNG","station_name":"Jatinegara","is_transit":true,"time":9,"i_long":106.86807400000001},{"time":2,"station_id":"MTR","distance":1377,"station_name":"Matraman","line":1,"transit":false,"i_long":106.858896,"is_transit":false,"i_lat":-6.212485},{"i_long":106.84912,"distance":1275,"time":2,"station_id":"MRI","line":2,"is_transit":true,"station_name":"Manggarai","transit":true,"i_lat":-6.209883},{"station_id":"TEB","time":4,"station_name":"Tebet","i_long":106.857948,"line":2,"is_transit":false,"distance":2610,"i_lat":-6.226659,"transit":false},{"distance":1230,"station_id":"CW","station_name":"Cawang","is_transit":false,"i_lat":-6.242512,"i_long":106.856607,"transit":false,"line":2,"time":2},{"station_name":"Duren Kalibata","is_transit":false,"distance":1546,"transit":false,"station_id":"DRN","time":3,"line":2,"i_lat":-6.255332,"i_long":106.85449},{"station_id":"PSMB","is_transit":false,"line":2,"i_lat":-6.263214,"i_long":106.851577,"time":2,"station_name":"Pasar Minggu Baru","distance":824,"transit":false},{"transit":false,"time":2,"line":2,"station_name":"Pasar Minggu","i_long":106.843999,"is_transit":false,"distance":2380,"i_lat":-6.2842400000000005,"station_id":"PSM"},{"station_id":"TNT","i_lat":-6.3080680000000005,"distance":2820,"line":2,"transit":false,"is_transit":false,"station_name":"Tanjung Barat","i_long":106.838896,"time":4},{"i_lat":-6.330363,"line":2,"time":3,"station_name":"Lenteng Agung","distance":2671,"is_transit":false,"i_long":106.832616,"station_id":"LNA","transit":false},{"is_transit":false,"line":2,"station_name":"Univ. Pancasila","distance":1029,"transit":false,"i_lat":-6.339291,"i_long":106.834175,"station_id":"UP","time":2},{"station_name":"Univ. Indonesia","time":3,"transit":false,"is_transit":false,"i_lat":-6.360749,"i_long":106.831474,"line":2,"distance":2264,"station_id":"UI"},{"time":2,"station_name":"Pondok Cina","distance":1109,"is_transit":false,"i_lat":-6.369073,"transit":false,"station_id":"POC","i_long":106.831114,"line":2},{"station_id":"DPB","transit":false,"is_transit":false,"station_name":"Depokbaru","time":4,"i_lat":-6.391065,"i_long":106.819451,"distance":2727,"line":2},{"station_name":"Depok","i_lat":-6.405256,"transit":false,"station_id":"DP","distance":1584,"is_transit":false,"time":3,"i_long":106.816926,"line":2}]]}