{"data":[[{"is_transit":false,"time":0,"station_name":"Sudirman Baru","station_id":"SUDB","line":1,"transit":false,"i_long":106.819881,"distance":0,"i_lat":-6.201433},{"station_id":"SUD","is_transit":false,"time":1,"i_lat":-6.202263,"i_long":106.822649,"line":1,"station_name":"Sudirman","transit":false,"distance":280},{"i_long":106.84912,"i_lat":-6.209883,"transit":true,"line":2,"station_id":"MRI","distance":3186,"is_transit":true,"station_name":"Manggarai","time":4},{"distance":2610,"station_id":"TEB","i_lat":-6.226659,"transit":false,"time":4,"station_name":"Tebet","is_transit":false,"i_long":106.857948,"line":2},{"distance":1230,"station_id":"CW","is_transit":false,"time":2,"transit":false,"station_name":"Cawang","line":2,"i_long":106.856607,"i_lat":-6.242512},{"is_transit":false,"i_lat":-6.255332,"line":2,"i_long":106.85449,"time":3,"transit":false,"station_name":"Duren Kalibata","station_id":"DRN","distance":1546},{"is_transit":false,"i_lat":-6.263214,"line":2,"station_id":"PSMB","time":2,"distance":824,"transit":false,"station_name":"Pasar Minggu Baru","i_long":106.851577},{"station_name":"Pasar Minggu","i_lat":-6.2842400000000005,"i_long":106.843999,"is_transit":false,"station_id":"PSM","time":2,"distance":2380,"transit":false,"line":2},{"transit":false,"line":2,"is_transit":false,"station_name":"Tanjung Barat","i_lat":-6.3080680000000005,"i_long":106.838896,"station_id":"TNT","time":4,"distance":2820},{"station_id":"LNA","is_transit":false,"distance":2671,"line":2,"i_lat":-6.330363,"station_name":"Lenteng Agung","time":3,"i_long":106.832616,"transit":false},{"i_lat":-6.339291,"time":2,"transit":false,"station_name":"Univ. Pancasila","station_id":"UP","line":2,"distance":1029,"is_transit":false,"i_long":106.834175},{"transit":false,"station_name":"Univ. Indonesia","distance":2264,"is_transit":false,"i_long":106.831474,"time":3,"station_id":"UI","line":2,"i_lat":-6.360749},{"i_long":106.831114,"station_id":"POC","station_name":"Pondok Cina","distance":1109,"time":2,"i_lat":-6.369073,"line":2,"is_transit":false,"transit":false},{"transit":false,"is_transit":false,"i_lat":-6.391065,"station_name":"Depokbaru","i_long":106.819451,"station_id":"DPB","time":4,"distance":2727,"line":2},{"i_long":106.816926,"station_name":"Depok","is_transit":false,"distance":1584,"i_lat":-6.405256,"line":2,"station_id":"DP","time":3,"transit":false},{"station_id":"CTA","line":2,"station_name":"Citayam","transit":false,"distance":5084,"i_long":106.800298,"i_lat":-6.448811,"time":6,"is_transit":false},{"station_name":"Bojonggede","distance":5197,"i_lat":-6.493243,"i_long":106.792719,"line":2,"transit":false,"time":5,"station_id":"BJD","is_transit":false},{"time":5,"is_transit":false,"station_name":"Cilebut","distance":4331,"station_id":"CLT","i_lat":-6.530544,"line":2,"transit":false,"i_long":106.800016}],[{"is_transit":false,"station_name":"Sudirman Baru","station_id":"SUDB","transit":false,"distance":0,"time":0,"i_long":106.819881,"i_lat":-6.201433,"line":1},{"station_name":"Karet","distance":471,"is_transit":false,"i_lat":-6.20132,"transit":false,"station_id":"KAT","time":1,"i_long":106.816351,"line":1},{"i_lat":-6.185545,"time":5,"transit":false,"station_name":"Tanah Abang","is_transit":false,"distance":2029,"i_long":106.811091,"line":1,"station_id":"THB"},{"is_transit":false,"transit":false,"station_id":"DU","i_lat":-6.155215,"station_name":"Duri","time":8,"distance":3632,"i_long":106.800832,"line":1},{"line":1,"station_name":"Angke","station_id":"AK","is_transit":false,"time":4,"i_lat":-6.144674,"i_long":106.79867,"distance":1230,"transit":false},{"distance":4102,"i_lat":-6.132549,"i_long":106.826365,"station_id":"KPB","is_transit":true,"time":9,"station_name":"Kampung Bandan","line":4,"transit":true},{"station_name":"Jakarta Kota","distance":1364,"station_id":"JAKK","i_long":106.812439,"i_lat":-6.137569,"line":2,"transit":true,"is_transit":true,"time":3},{"transit":false,"station_name":"Jayakarta","time":4,"distance":1264,"station_id":"JAY","is_transit":false,"i_lat":-6.141205,"line":2,"i_long":106.820901},{"station_name":"Manggabesar","station_id":"MGB","i_long":106.82482,"i_lat":-6.149769,"line":2,"transit":false,"distance":1080,"is_transit":false,"time":2},{"is_transit":false,"station_name":"Sawah Besar","station_id":"SW","i_lat":-6.160725,"line":2,"transit":false,"time":2,"distance":906,"i_long":106.827103},{"time":2,"line":2,"station_name":"Juanda","transit":false,"station_id":"JUA","is_transit":false,"distance":1149,"i_lat":-6.166716,"i_long":106.828284},{"line":2,"time":4,"transit":false,"distance":2015,"i_long":106.832183,"station_id":"GDD","station_name":"Gondangdia","is_transit":false,"i_lat":-6.186295},{"station_id":"CKI","is_transit":false,"station_name":"Cikini","time":3,"distance":1750,"i_lat":-6.198556,"i_long":106.840169,"line":2,"transit":false},{"station_id":"MRI","i_lat":-6.209883,"is_transit":false,"transit":false,"time":4,"distance":1590,"i_long":106.84912,"station_name":"Manggarai","line":2},{"i_lat":-6.226659,"line":2,"distance":2610,"station_id":"TEB","i_long":106.857948,"transit":false,"station_name":"Tebet","is_transit":false,"time":4},{"distance":1230,"i_long":106.856607,"station_id":"CW","is_transit":false,"i_lat":-6.242512,"transit":false,"line":2,"time":2,"station_name":"Cawang"},{"time":3,"i_lat":-6.255332,"distance":1546,"line":2,"station_id":"DRN","i_long":106.85449,"is_transit":false,"station_name":"Duren Kalibata","transit":false},{"time":2,"line":2,"is_transit":false,"transit":false,"i_lat":-6.263214,"distance":824,"station_name":"Pasar Minggu Baru","i_long":106.851577,"station_id":"PSMB"},{"i_long":106.843999,"station_name":"Pasar Minggu","i_lat":-6.2842400000000005,"is_transit":false,"line":2,"station_id":"PSM","transit":false,"distance":2380,"time":2},{"line":2,"time":4,"is_transit":false,"distance":2820,"station_name":"Tanjung Barat","station_id":"TNT","i_lat":-6.3080680000000005,"transit":false,"i_long":106.838896},{"is_transit":false,"line":2,"i_lat":-6.330363,"station_id":"LNA","i_long":106.832616,"station_name":"Lenteng Agung","transit":false,"distance":2671,"time":3},{"distance":1029,"i_lat":-6.339291,"i_long":106.834175,"is_transit":false,"line":2,"station_id":"UP","station_name":"Univ. Pancasila","transit":false,"time":2},{"time":3,"transit":false,"is_transit":false,"line":2,"distance":2264,"i_lat":-6.360749,"i_long":106.831474,"station_id":"UI","station_name":"Univ. Indonesia"},{"time":2,"i_long":106.831114,"station_name":"Pondok Cina","transit":false,"distance":1109,"is_transit":false,"line":2,"i_lat":-6.369073,"station_id":"POC"},{"transit":false,"line":2,"station_name":"Depokbaru","station_id":"DPB","time":4,"is_transit":false,"distance":2727,"i_lat":-6.391065,"i_long":106.819451},{"station_name":"Depok","i_lat":-6.405256,"transit":false,"is_transit":false,"i_long":106.816926,"distance":1584,"station_id":"DP","time":3,"line":2},{"i_long":106.800298,"time":6,"station_name":"Citayam","line":2,"station_id":"CTA","transit":false,"distance":5084,"is_transit":false,"i_lat":-6.448811},{"transit":false,"is_transit":false,"i_lat":-6.493243,"station_name":"Bojonggede","time":5,"distance":5197,"line":2,"i_long":106.792719,"station_id":"BJD"},{"transit":false,"is_transit":false,"station_id":"CLT","distance":4331,"station_name":"Cilebut","time":5,"i_lat":-6.530544,"i_long":106.800016,"line":2}],[{"time":0,"station_id":"SUDB","distance":0,"is_transit":false,"i_lat":-6.201433,"transit":false,"line":1,"i_long":106.819881,"station_name":"Sudirman Baru"},{"i_lat":-6.20132,"station_id":"KAT","time":1,"transit":false,"station_name":"Karet","line":1,"is_transit":false,"distance":471,"i_long":106.816351},{"time":5,"i_long":106.811091,"distance":2029,"transit":false,"station_name":"Tanah Abang","is_transit":false,"line":1,"station_id":"THB","i_lat":-6.185545},{"transit":false,"i_long":106.800832,"station_id":"DU","distance":3632,"line":1,"time":8,"i_lat":-6.155215,"station_name":"Duri","is_transit":false},{"i_lat":-6.144674,"time":4,"is_transit":false,"distance":1230,"i_long":106.79867,"transit":false,"line":1,"station_id":"AK","station_name":"Angke"},{"station_id":"KPB","i_lat":-6.132549,"distance":4102,"is_transit":true,"time":9,"i_long":106.826365,"station_name":"Kampung Bandan","transit":true,"line":4},{"is_transit":false,"time":3,"i_lat":-6.14505,"transit":false,"line":11,"station_id":"RJW","i_long":106.836569,"distance":1444,"station_name":"Rajawali"},{"transit":false,"station_name":"Kemayoran","station_id":"KMO","is_transit":false,"i_lat":-6.161728,"line":11,"time":5,"distance":1901,"i_long":106.839204},{"line":11,"transit":false,"station_name":"Pasar Senen","i_long":106.84368,"distance":1436,"time":4,"is_transit":false,"station_id":"PSE","i_lat":-6.174784},{"distance":1567,"i_long":106.850107,"transit":false,"is_transit":false,"station_id":"GST","line":11,"time":8,"station_name":"Gang Sentiong","i_lat":-6.185975},{"i_lat":-6.193792,"transit":false,"station_id":"KMT","is_transit":false,"distance":973,"i_long":106.855437,"line":11,"station_name":"Kramat","time":1},{"transit":false,"distance":1829,"i_lat":-6.209188,"station_id":"POK","time":2,"station_name":"Pondok Jati","is_transit":false,"i_long":106.861737,"line":11},{"i_lat":-6.215091,"station_name":"Jatinegara","line":1,"i_long":106.86807400000001,"is_transit":true,"station_id":"JNG","transit":true,"distance":1236,"time":9},{"is_transit":false,"station_id":"MTR","i_long":106.858896,"station_name":"Matraman","distance":1377,"i_lat":-6.212485,"time":2,"line":1,"transit":false},{"station_id":"MRI","is_transit":true,"i_long":106.84912,"time":2,"distance":1275,"i_lat":-6.209883,"line":2,"station_name":"Manggarai","transit":true},{"distance":2610,"i_long":106.857948,"station_id":"TEB","time":4,"transit":false,"station_name":"Tebet","line":2,"i_lat":-6.226659,"is_transit":false},{"i_long":106.856607,"station_name":"Cawang","line":2,"station_id":"CW","distance":1230,"is_transit":false,"transit":false,"i_lat":-6.242512,"time":2},{"distance":1546,"line":2,"i_lat":-6.255332,"transit":false,"station_id":"DRN","is_transit":false,"station_name":"Duren Kalibata","time":3,"i_long":106.85449},{"time":2,"i_long":106.851577,"station_name":"Pasar Minggu Baru","distance":824,"station_id":"PSMB","line":2,"transit":false,"i_lat":-6.263214,"is_transit":false},{"station_id":"PSM","line":2,"station_name":"Pasar Minggu","distance":2380,"time":2,"transit":false,"i_long":106.843999,"i_lat":-6.2842400000000005,"is_transit":false},{"distance":2820,"transit":false,"i_lat":-6.3080680000000005,"time":4,"line":2,"station_id":"TNT","is_transit":false,"i_long":106.838896,"station_name":"Tanjung Barat"},{"line":2,"is_transit":false,"i_long":106.832616,"distance":2671,"station_id":"LNA","time":3,"station_name":"Lenteng Agung","i_lat":-6.330363,"transit":false},{"distance":1029,"i_long":106.834175,"station_name":"Univ. Pancasila","i_lat":-6.339291,"line":2,"station_id":"UP","time":2,"transit":false,"is_transit":false},{"line":2,"is_transit":false,"transit":false,"time":3,"distance":2264,"station_name":"Univ. Indonesia","station_id":"UI","i_lat":-6.360749,"i_long":106.831474},{"is_transit":false,"i_long":106.831114,"station_name":"Pondok Cina","time":2,"distance":1109,"line":2,"station_id":"POC","transit":false,"i_lat":-6.369073},{"i_lat":-6.391065,"transit":false,"is_transit":false,"line":2,"station_name":"Depokbaru","station_id":"DPB","time":4,"distance":2727,"i_long":106.819451},{"station_id":"DP","line":2,"transit":false,"distance":1584,"i_lat":-6.405256,"i_long":106.816926,"station_name":"Depok","is_transit":false,"time":3},{"station_id":"CTA","time":6,"i_lat":-6.448811,"line":2,"transit":false,"station_name":"Citayam","is_transit":false,"distance":5084,"i_long":106.800298},{"station_id":"BJD","line":2,"station_name":"Bojonggede","i_long":106.792719,"distance":5197,"time":5,"is_transit":false,"i_lat":-6.493243,"transit":false},{"time":5,"distance":4331,"station_id":"CLT","line":2,"is_transit":false,"transit":false,"i_lat":-6.530544,"i_long":106.800016,"station_name":"Cilebut"}]]}