{"data":[[{"distance":0,"line":1,"transit":false,"is_transit":false,"station_id":"SUDB","station_name":"Sudirman Baru","i_lat":-6.201433,"time":0,"i_long":106.819881},{"distance":280,"i_long":106.822649,"station_name":"Sudirman","line":1,"i_lat":-6.202263,"is_transit":false,"station_id":"SUD","transit":false,"time":1},{"i_lat":-6.209883,"transit":true,"line":0,"distance":3186,"time":4,"i_long":106.84912,"station_id":"MRI","is_transit":true,"station_name":"Manggarai"},{"time":4,"transit":false,"i_long":106.840169,"line":0,"distance":1590,"station_name":"Cikini","is_transit":false,"station_id":"CKI","i_lat":-6.198556},{"time":3,"line":2,"distance":1750,"station_id":"GDD","station_name":"Gondangdia","i_lat":-6.186295,"i_long":106.832183,"is_transit":false,"transit":false},{"line":2,"transit":false,"time":4,"i_lat":-6.166716,"is_transit":false,"station_name":"Juanda","distance":2015,"i_long":106.828284,"station_id":"JUA"},{"transit":false,"station_id":"SW","station_name":"Sawah Besar","time":2,"i_long":106.827103,"line":2,"distance":1149,"i_lat":-6.160725,"is_transit":false}],[{"distance":0,"is_transit":false,"station_name":"Sudirman Baru","transit":false,"station_id":"SUDB","i_long":106.819881,"line":1,"i_lat":-6.201433,"time":0},{"transit":false,"is_transit":false,"station_name":"Karet","i_long":106.816351,"line":1,"distance":471,"time":1,"station_id":"KAT","i_lat":-6.20132},{"time":5,"distance":2029,"station_name":"Tanah Abang","transit":false,"i_long":106.811091,"line":1,"i_lat":-6.185545,"station_id":"THB","is_transit":true},{"is_transit":true,"i_lat":-6.155215,"station_name":"Duri","time":8,"distance":3632,"station_id":"DU","i_long":106.800832,"transit":true,"line":1},{"line":0,"distance":1230,"station_id":"AK","station_name":"Angke","time":4,"i_lat":-6.144674,"i_long":106.79867,"transit":false,"is_transit":false},{"i_lat":-6.132549,"station_id":"KPB","station_name":"Kampung Bandan","distance":4102,"time":9,"is_transit":true,"line":0,"transit":false,"i_long":106.826365},{"line":0,"station_id":"JAKK","distance":1364,"i_long":106.812439,"time":3,"is_transit":true,"transit":true,"station_name":"Jakarta Kota","i_lat":-6.137569},{"line":7,"transit":false,"i_lat":-6.141205,"station_name":"Jayakarta","station_id":"JAY","distance":1264,"time":4,"is_transit":false,"i_long":106.820901},{"is_transit":false,"time":2,"station_id":"MGB","i_lat":-6.149769,"i_long":106.82482,"line":2,"station_name":"Manggabesar","transit":false,"distance":1080},{"i_lat":-6.160725,"transit":false,"i_long":106.827103,"distance":906,"time":2,"is_transit":false,"station_name":"Sawah Besar","station_id":"SW","line":2}],[{"i_long":106.819881,"station_id":"SUDB","i_lat":-6.201433,"station_name":"Sudirman Baru","is_transit":false,"time":0,"distance":0,"transit":false,"line":1},{"line":1,"is_transit":false,"transit":false,"distance":280,"i_lat":-6.202263,"time":1,"i_long":106.822649,"station_name":"Sudirman","station_id":"SUD"},{"i_long":106.84912,"line":0,"station_name":"Manggarai","distance":3186,"is_transit":true,"transit":false,"station_id":"MRI","time":4,"i_lat":-6.209883},{"station_name":"Matraman","station_id":"MTR","transit":false,"i_long":106.858896,"time":2,"distance":1275,"is_transit":false,"line":1,"i_lat":-6.212485},{"line":0,"distance":1377,"time":8,"station_id":"JNG","is_transit":true,"transit":true,"i_lat":-6.215091,"station_name":"Jatinegara","i_long":106.86807400000001},{"station_id":"POK","i_lat":-6.209188,"is_transit":false,"time":2,"i_long":106.861737,"distance":1236,"transit":false,"station_name":"Pondok Jati","line":11},{"i_lat":-6.193792,"distance":1829,"i_long":106.855437,"station_id":"KMT","transit":false,"time":2,"is_transit":false,"line":11,"station_name":"Kramat"},{"station_id":"GST","i_lat":-6.185975,"distance":973,"transit":false,"station_name":"Gang Sentiong","i_long":106.850107,"line":11,"is_transit":false,"time":1},{"distance":1567,"time":8,"station_id":"PSE","line":11,"station_name":"Pasar Senen","is_transit":false,"i_long":106.84368,"transit":false,"i_lat":-6.174784},{"transit":false,"time":4,"is_transit":false,"i_long":106.839204,"distance":1436,"i_lat":-6.161728,"line":11,"station_id":"KMO","station_name":"Kemayoran"},{"i_lat":-6.14505,"line":11,"transit":false,"station_id":"RJW","time":5,"i_long":106.836569,"distance":1901,"is_transit":false,"station_name":"Rajawali"},{"is_transit":true,"time":3,"transit":true,"distance":1444,"station_id":"KPB","i_long":106.826365,"station_name":"Kampung Bandan","i_lat":-6.132549,"line":0},{"station_name":"Jakarta Kota","line":0,"transit":true,"station_id":"JAKK","time":3,"i_lat":-6.137569,"distance":1364,"is_transit":true,"i_long":106.812439},{"transit":false,"time":4,"line":7,"station_name":"Jayakarta","is_transit":false,"i_long":106.820901,"station_id":"JAY","distance":1264,"i_lat":-6.141205},{"transit":false,"i_lat":-6.149769,"i_long":106.82482,"is_transit":false,"distance":1080,"station_name":"Manggabesar","line":2,"time":2,"station_id":"MGB"},{"i_long":106.827103,"station_id":"SW","transit":false,"is_transit":false,"station_name":"Sawah Besar","i_lat":-6.160725,"time":2,"line":2,"distance":906}],[{"is_transit":false,"station_name":"Sudirman Baru","time":0,"i_long":106.819881,"distance":0,"station_id":"SUDB","transit":false,"line":1,"i_lat":-6.201433},{"line":1,"distance":471,"station_name":"Karet","time":1,"station_id":"KAT","i_lat":-6.20132,"i_long":106.816351,"transit":false,"is_transit":false},{"station_name":"Tanah Abang","i_lat":-6.185545,"station_id":"THB","time":5,"distance":2029,"i_long":106.811091,"line":1,"is_transit":true,"transit":false},{"i_long":106.800832,"transit":true,"i_lat":-6.155215,"is_transit":true,"line":1,"time":8,"station_id":"DU","station_name":"Duri","distance":3632},{"station_id":"AK","station_name":"Angke","i_lat":-6.144674,"transit":false,"is_transit":false,"distance":1230,"i_long":106.79867,"time":4,"line":0},{"station_name":"Kampung Bandan","i_lat":-6.132549,"line":0,"time":9,"distance":4102,"i_long":106.826365,"is_transit":true,"station_id":"KPB","transit":true},{"i_long":106.836569,"distance":1444,"transit":false,"is_transit":false,"time":3,"station_id":"RJW","station_name":"Rajawali","line":11,"i_lat":-6.14505},{"time":5,"i_lat":-6.161728,"station_id":"KMO","i_long":106.839204,"distance":1901,"is_transit":false,"line":11,"transit":false,"station_name":"Kemayoran"},{"station_id":"PSE","is_transit":false,"i_long":106.84368,"line":11,"distance":1436,"time":4,"station_name":"Pasar Senen","i_lat":-6.174784,"transit":false},{"i_long":106.850107,"i_lat":-6.185975,"distance":1567,"time":8,"is_transit":false,"station_name":"Gang Sentiong","transit":false,"line":11,"station_id":"GST"},{"distance":973,"is_transit":false,"station_name":"Kramat","i_long":106.855437,"station_id":"KMT","time":1,"i_lat":-6.193792,"line":11,"transit":false},{"station_id":"POK","is_transit":false,"time":2,"distance":1829,"station_name":"Pondok Jati","i_lat":-6.209188,"i_long":106.861737,"line":11,"transit":false},{"i_long":106.86807400000001,"distance":1236,"transit":true,"is_transit":true,"time":9,"line":0,"station_id":"JNG","i_lat":-6.215091,"station_name":"Jatinegara"},{"distance":1377,"i_lat":-6.212485,"transit":false,"line":1,"station_id":"MTR","i_long":106.858896,"station_name":"Matraman","is_transit":false,"time":2},{"i_lat":-6.209883,"i_long":106.84912,"line":0,"station_id":"MRI","transit":true,"time":2,"distance":1275,"is_transit":true,"station_name":"Manggarai"},{"time":4,"distance":1590,"station_id":"CKI","transit":false,"line":0,"is_transit":false,"station_name":"Cikini","i_lat":-6.198556,"i_long":106.840169},{"distance":1750,"transit":false,"line":2,"station_name":"Gondangdia","station_id":"GDD","time":3,"is_transit":false,"i_lat":-6.186295,"i_long":106.832183},{"line":2,"distance":2015,"station_id":"JUA","time":4,"station_name":"Juanda","i_lat":-6.166716,"transit":false,"i_long":106.828284,"is_transit":false},{"i_long":106.827103,"station_id":"SW","line":2,"i_lat":-6.160725,"station_name":"Sawah Besar","transit":false,"time":2,"distance":1149,"is_transit":false}]]}