{"data":[[{"is_transit":false,"time":0,"station_id":"SUDB","distance":0,"i_lat":-6.201433,"transit":false,"i_long":106.819881,"line":1,"station_name":"Sudirman Baru"},{"i_long":106.822649,"station_id":"SUD","distance":280,"time":1,"line":1,"transit":false,"is_transit":false,"i_lat":-6.202263,"station_name":"Sudirman"},{"i_long":106.84912,"station_name":"Manggarai","line":2,"i_lat":-6.209883,"time":4,"transit":false,"is_transit":false,"distance":3186,"station_id":"MRI"},{"is_transit":false,"time":2,"i_lat":-6.212485,"i_long":106.858896,"line":1,"station_name":"Matraman","transit":false,"distance":1275,"station_id":"MTR"},{"transit":false,"i_long":106.86807400000001,"line":1,"station_id":"JNG","distance":1377,"is_transit":false,"station_name":"Jatinegara","i_lat":-6.215091,"time":8},{"time":3,"line":1,"transit":false,"station_id":"KLD","is_transit":false,"distance":3395,"i_long":106.899548,"station_name":"Klender","i_lat":-6.2135}],[{"time":0,"i_lat":-6.201433,"transit":false,"i_long":106.819881,"is_transit":false,"station_id":"SUDB","line":1,"distance":0,"station_name":"Sudirman Baru"},{"time":1,"station_name":"Karet","i_lat":-6.20132,"line":1,"transit":false,"station_id":"KAT","distance":471,"i_long":106.816351,"is_transit":false},{"time":5,"line":1,"station_name":"Tanah Abang","is_transit":false,"transit":false,"station_id":"THB","i_lat":-6.185545,"i_long":106.811091,"distance":2029},{"station_id":"DU","station_name":"Duri","is_transit":false,"time":8,"line":1,"distance":3632,"transit":false,"i_long":106.800832,"i_lat":-6.155215},{"i_lat":-6.144674,"i_long":106.79867,"line":1,"station_id":"AK","transit":false,"station_name":"Angke","is_transit":false,"distance":1230,"time":4},{"line":4,"station_id":"KPB","time":9,"i_lat":-6.132549,"is_transit":true,"station_name":"Kampung Bandan","distance":4102,"i_long":106.826365,"transit":true},{"i_long":106.836569,"transit":false,"station_id":"RJW","is_transit":false,"distance":1444,"i_lat":-6.14505,"line":11,"time":3,"station_name":"Rajawali"},{"time":5,"i_lat":-6.161728,"distance":1901,"station_id":"KMO","i_long":106.839204,"line":11,"is_transit":false,"transit":false,"station_name":"Kemayoran"},{"transit":false,"time":4,"i_lat":-6.174784,"line":11,"is_transit":false,"station_name":"Pasar Senen","station_id":"PSE","distance":1436,"i_long":106.84368},{"distance":1567,"i_long":106.850107,"is_transit":false,"station_id":"GST","transit":false,"station_name":"Gang Sentiong","time":8,"i_lat":-6.185975,"line":11},{"transit":false,"time":1,"is_transit":false,"i_long":106.855437,"line":11,"station_name":"Kramat","i_lat":-6.193792,"station_id":"KMT","distance":973},{"transit":false,"is_transit":false,"line":11,"distance":1829,"i_lat":-6.209188,"time":2,"i_long":106.861737,"station_id":"POK","station_name":"Pondok Jati"},{"station_id":"JNG","station_name":"Jatinegara","line":1,"time":9,"is_transit":true,"distance":1236,"i_lat":-6.215091,"transit":true,"i_long":106.86807400000001},{"i_lat":-6.2135,"line":1,"time":3,"i_long":106.899548,"transit":false,"station_id":"KLD","is_transit":false,"distance":3395,"station_name":"Klender"}],[{"time":0,"i_lat":-6.201433,"distance":0,"i_long":106.819881,"transit":false,"station_name":"Sudirman Baru","station_id":"SUDB","is_transit":false,"line":1},{"transit":false,"station_name":"Karet","time":1,"i_lat":-6.20132,"is_transit":false,"distance":471,"line":1,"i_long":106.816351,"station_id":"KAT"},{"i_long":106.811091,"transit":false,"station_id":"THB","is_transit":false,"line":1,"time":5,"station_name":"Tanah Abang","distance":2029,"i_lat":-6.185545},{"station_id":"DU","time":8,"i_lat":-6.155215,"is_transit":false,"distance":3632,"transit":false,"i_long":106.800832,"station_name":"Duri","line":1},{"time":4,"i_long":106.79867,"station_id":"AK","station_name":"Angke","transit":false,"is_transit":false,"line":1,"distance":1230,"i_lat":-6.144674},{"is_transit":true,"time":9,"station_id":"KPB","i_long":106.826365,"line":4,"i_lat":-6.132549,"transit":true,"station_name":"Kampung Bandan","distance":4102},{"i_long":106.812439,"station_id":"JAKK","transit":true,"station_name":"Jakarta Kota","time":3,"is_transit":true,"distance":1364,"i_lat":-6.137569,"line":2},{"station_id":"JAY","transit":false,"i_long":106.820901,"i_lat":-6.141205,"time":4,"is_transit":false,"distance":1264,"station_name":"Jayakarta","line":2},{"is_transit":false,"i_lat":-6.149769,"station_id":"MGB","transit":false,"station_name":"Manggabesar","i_long":106.82482,"line":2,"distance":1080,"time":2},{"i_lat":-6.160725,"transit":false,"is_transit":false,"i_long":106.827103,"distance":906,"station_name":"Sawah Besar","time":2,"line":2,"station_id":"SW"},{"station_id":"JUA","distance":1149,"station_name":"Juanda","i_lat":-6.166716,"line":2,"transit":false,"is_transit":false,"time":2,"i_long":106.828284},{"i_lat":-6.186295,"station_id":"GDD","is_transit":false,"distance":2015,"station_name":"Gondangdia","transit":false,"time":4,"i_long":106.832183,"line":2},{"station_name":"Cikini","is_transit":false,"i_lat":-6.198556,"line":2,"transit":false,"station_id":"CKI","time":3,"i_long":106.840169,"distance":1750},{"station_id":"MRI","distance":1590,"transit":true,"line":2,"i_long":106.84912,"time":4,"i_lat":-6.209883,"station_name":"Manggarai","is_transit":true},{"station_id":"MTR","i_lat":-6.212485,"distance":1275,"station_name":"Matraman","i_long":106.858896,"is_transit":false,"line":1,"transit":false,"time":2},{"line":1,"station_id":"JNG","time":8,"transit":false,"station_name":"Jatinegara","i_long":106.86807400000001,"is_transit":false,"distance":1377,"i_lat":-6.215091},{"time":3,"distance":3395,"line":1,"station_name":"Klender","i_long":106.899548,"is_transit":false,"i_lat":-6.2135,"transit":false,"station_id":"KLD"}],[{"i_long":106.819881,"station_name":"Sudirman Baru","station_id":"SUDB","line":1,"is_transit":false,"time":0,"i_lat":-6.201433,"distance":0,"transit":false},{"station_id":"SUD","station_name":"Sudirman","i_lat":-6.202263,"is_transit":false,"line":1,"transit":false,"time":1,"distance":280,"i_long":106.822649},{"time":4,"station_name":"Manggarai","i_lat":-6.209883,"line":2,"is_transit":true,"transit":true,"i_long":106.84912,"station_id":"MRI","distance":3186},{"time":4,"i_long":106.840169,"station_id":"CKI","line":2,"is_transit":false,"distance":1590,"i_lat":-6.198556,"transit":false,"station_name":"Cikini"},{"is_transit":false,"time":3,"transit":false,"i_long":106.832183,"i_lat":-6.186295,"station_name":"Gondangdia","distance":1750,"station_id":"GDD","line":2},{"transit":false,"i_lat":-6.166716,"station_name":"Juanda","time":4,"is_transit":false,"distance":2015,"i_long":106.828284,"line":2,"station_id":"JUA"},{"distance":1149,"line":2,"station_id":"SW","is_transit":false,"time":2,"i_long":106.827103,"transit":false,"station_name":"Sawah Besar","i_lat":-6.160725},{"time":2,"i_long":106.82482,"transit":false,"i_lat":-6.149769,"station_name":"Manggabesar","station_id":"MGB","distance":906,"line":2,"is_transit":false},{"i_lat":-6.141205,"time":2,"i_long":106.820901,"distance":1080,"station_id":"JAY","is_transit":false,"station_name":"Jayakarta","transit":false,"line":2},{"station_id":"JAKK","distance":1264,"station_name":"Jakarta Kota","time":4,"is_transit":true,"line":2,"i_long":106.812439,"transit":true,"i_lat":-6.137569},{"is_transit":true,"station_name":"Kampung Bandan","i_long":106.826365,"transit":true,"i_lat":-6.132549,"line":4,"time":3,"distance":1364,"station_id":"KPB"},{"i_long":106.836569,"station_id":"RJW","line":11,"i_lat":-6.14505,"is_transit":false,"station_name":"Rajawali","time":3,"distance":1444,"transit":false},{"line":11,"time":5,"station_name":"Kemayoran","transit":false,"i_lat":-6.161728,"i_long":106.839204,"station_id":"KMO","is_transit":false,"distance":1901},{"time":4,"transit":false,"distance":1436,"is_transit":false,"i_lat":-6.174784,"i_long":106.84368,"station_name":"Pasar Senen","station_id":"PSE","line":11},{"line":11,"transit":false,"time":8,"i_long":106.850107,"station_id":"GST","station_name":"Gang Sentiong","is_transit":false,"i_lat":-6.185975,"distance":1567},{"station_name":"Kramat","station_id":"KMT","is_transit":false,"i_lat":-6.193792,"line":11,"distance":973,"i_long":106.855437,"transit":false,"time":1},{"line":11,"station_name":"Pondok Jati","station_id":"POK","i_long":106.861737,"is_transit":false,"distance":1829,"time":2,"transit":false,"i_lat":-6.209188},{"transit":true,"line":1,"i_long":106.86807400000001,"station_id":"JNG","is_transit":true,"distance":1236,"time":9,"station_name":"Jatinegara","i_lat":-6.215091},{"i_long":106.899548,"time":3,"is_transit":false,"station_name":"Klender","station_id":"KLD","distance":3395,"i_lat":-6.2135,"transit":false,"line":1}]]}