{"data":[[{"is_transit":false,"distance":0,"station_name":"Sudirman Baru","i_lat":-6.201433,"line":1,"station_id":"SUDB","transit":false,"i_long":106.819881,"time":0},{"distance":280,"station_name":"Sudirman","station_id":"SUD","line":1,"i_long":106.822649,"transit":false,"i_lat":-6.202263,"time":1,"is_transit":false},{"distance":3186,"line":0,"station_name":"Manggarai","transit":true,"time":4,"i_lat":-6.209883,"station_id":"MRI","i_long":106.84912,"is_transit":true},{"station_name":"Tebet","line":2,"time":4,"is_transit":false,"transit":false,"i_lat":-6.226659,"station_id":"TEB","i_long":106.857948,"distance":2610},{"station_id":"CW","is_transit":false,"transit":false,"station_name":"Cawang","i_long":106.856607,"line":0,"i_lat":-6.242512,"time":2,"distance":1230},{"station_id":"DRN","i_long":106.85449,"line":0,"is_transit":false,"station_name":"Duren Kalibata","transit":false,"distance":1546,"time":3,"i_lat":-6.255332},{"is_transit":false,"i_lat":-6.263214,"line":2,"transit":false,"station_id":"PSMB","station_name":"Pasar Minggu Baru","i_long":106.851577,"distance":824,"time":2},{"i_long":106.843999,"is_transit":false,"line":2,"i_lat":-6.2842400000000005,"time":2,"distance":2380,"station_name":"Pasar Minggu","transit":false,"station_id":"PSM"},{"line":2,"distance":2820,"time":4,"i_long":106.838896,"i_lat":-6.3080680000000005,"transit":false,"is_transit":false,"station_id":"TNT","station_name":"Tanjung Barat"},{"transit":false,"line":2,"is_transit":false,"i_long":106.832616,"time":3,"distance":2671,"station_id":"LNA","station_name":"Lenteng Agung","i_lat":-6.330363},{"time":2,"i_lat":-6.339291,"is_transit":false,"i_long":106.834175,"line":2,"station_id":"UP","station_name":"Univ. Pancasila","distance":1029,"transit":false},{"is_transit":false,"i_long":106.831474,"distance":2264,"station_id":"UI","i_lat":-6.360749,"time":3,"line":2,"station_name":"Univ. Indonesia","transit":false},{"i_long":106.831114,"distance":1109,"line":2,"i_lat":-6.369073,"is_transit":false,"station_name":"Pondok Cina","station_id":"POC","time":2,"transit":false},{"i_long":106.819451,"line":0,"is_transit":false,"i_lat":-6.391065,"station_id":"DPB","transit":false,"time":4,"distance":2727,"station_name":"Depokbaru"}],[{"station_id":"SUDB","is_transit":false,"distance":0,"station_name":"Sudirman Baru","time":0,"i_long":106.819881,"transit":false,"line":1,"i_lat":-6.201433},{"station_id":"KAT","station_name":"Karet","i_long":106.816351,"line":1,"distance":471,"is_transit":false,"time":1,"i_lat":-6.20132,"transit":false},{"line":1,"is_transit":true,"i_lat":-6.185545,"station_name":"Tanah Abang","i_long":106.811091,"distance":2029,"transit":false,"station_id":"THB","time":5},{"station_id":"DU","station_name":"Duri","is_transit":true,"time":8,"line":1,"transit":true,"i_lat":-6.155215,"i_long":106.800832,"distance":3632},{"line":0,"i_long":106.79867,"time":4,"transit":false,"distance":1230,"station_id":"AK","is_transit":false,"i_lat":-6.144674,"station_name":"Angke"},{"station_id":"KPB","station_name":"Kampung Bandan","i_long":106.826365,"line":0,"distance":4102,"time":9,"transit":false,"is_transit":true,"i_lat":-6.132549},{"is_transit":true,"station_id":"JAKK","time":3,"distance":1364,"station_name":"Jakarta Kota","transit":true,"i_lat":-6.137569,"i_long":106.812439,"line":0},{"i_lat":-6.141205,"station_name":"Jayakarta","time":4,"transit":false,"station_id":"JAY","line":7,"is_transit":false,"i_long":106.820901,"distance":1264},{"distance":1080,"transit":false,"time":2,"station_id":"MGB","station_name":"Manggabesar","is_transit":false,"i_lat":-6.149769,"i_long":106.82482,"line":2},{"distance":906,"is_transit":false,"station_id":"SW","station_name":"Sawah Besar","transit":false,"i_long":106.827103,"time":2,"i_lat":-6.160725,"line":2},{"time":2,"i_long":106.828284,"is_transit":false,"distance":1149,"transit":false,"line":2,"i_lat":-6.166716,"station_id":"JUA","station_name":"Juanda"},{"is_transit":false,"station_id":"GDD","i_lat":-6.186295,"line":2,"i_long":106.832183,"time":4,"distance":2015,"station_name":"Gondangdia","transit":false},{"i_long":106.840169,"station_name":"Cikini","distance":1750,"station_id":"CKI","line":0,"time":3,"is_transit":false,"transit":false,"i_lat":-6.198556},{"transit":true,"station_id":"MRI","line":0,"distance":1590,"is_transit":true,"station_name":"Manggarai","i_long":106.84912,"i_lat":-6.209883,"time":4},{"is_transit":false,"distance":2610,"i_lat":-6.226659,"i_long":106.857948,"station_name":"Tebet","time":4,"station_id":"TEB","transit":false,"line":2},{"station_id":"CW","is_transit":false,"line":0,"distance":1230,"station_name":"Cawang","transit":false,"i_lat":-6.242512,"i_long":106.856607,"time":2},{"station_id":"DRN","station_name":"Duren Kalibata","i_long":106.85449,"i_lat":-6.255332,"transit":false,"line":0,"distance":1546,"is_transit":false,"time":3},{"station_id":"PSMB","station_name":"Pasar Minggu Baru","time":2,"transit":false,"distance":824,"i_lat":-6.263214,"is_transit":false,"line":2,"i_long":106.851577},{"i_lat":-6.2842400000000005,"i_long":106.843999,"line":2,"transit":false,"station_name":"Pasar Minggu","distance":2380,"is_transit":false,"station_id":"PSM","time":2},{"station_name":"Tanjung Barat","distance":2820,"i_lat":-6.3080680000000005,"i_long":106.838896,"line":2,"is_transit":false,"station_id":"TNT","transit":false,"time":4},{"line":2,"distance":2671,"is_transit":false,"station_id":"LNA","station_name":"Lenteng Agung","i_long":106.832616,"i_lat":-6.330363,"time":3,"transit":false},{"i_lat":-6.339291,"i_long":106.834175,"transit":false,"distance":1029,"station_name":"Univ. Pancasila","station_id":"UP","line":2,"is_transit":false,"time":2},{"time":3,"line":2,"station_id":"UI","is_transit":false,"i_lat":-6.360749,"station_name":"Univ. Indonesia","transit":false,"i_long":106.831474,"distance":2264},{"i_long":106.831114,"distance":1109,"time":2,"station_name":"Pondok Cina","station_id":"POC","transit":false,"line":2,"is_transit":false,"i_lat":-6.369073},{"i_lat":-6.391065,"time":4,"distance":2727,"station_id":"DPB","station_name":"Depokbaru","is_transit":false,"i_long":106.819451,"transit":false,"line":0}],[{"time":0,"i_lat":-6.201433,"distance":0,"station_name":"Sudirman Baru","i_long":106.819881,"line":1,"is_transit":false,"transit":false,"station_id":"SUDB"},{"transit":false,"distance":471,"is_transit":false,"station_id":"KAT","station_name":"Karet","i_long":106.816351,"i_lat":-6.20132,"time":1,"line":1},{"line":1,"time":5,"i_lat":-6.185545,"i_long":106.811091,"distance":2029,"station_id":"THB","station_name":"Tanah Abang","is_transit":true,"transit":false},{"station_name":"Duri","i_lat":-6.155215,"i_long":106.800832,"station_id":"DU","is_transit":true,"distance":3632,"time":8,"line":1,"transit":true},{"line":0,"is_transit":false,"i_lat":-6.144674,"station_name":"Angke","time":4,"station_id":"AK","transit":false,"i_long":106.79867,"distance":1230},{"is_transit":true,"transit":true,"i_lat":-6.132549,"line":0,"station_id":"KPB","time":9,"distance":4102,"i_long":106.826365,"station_name":"Kampung Bandan"},{"distance":1444,"station_id":"RJW","station_name":"Rajawali","time":3,"line":11,"i_long":106.836569,"i_lat":-6.14505,"is_transit":false,"transit":false},{"line":11,"station_id":"KMO","is_transit":false,"time":5,"i_lat":-6.161728,"i_long":106.839204,"distance":1901,"station_name":"Kemayoran","transit":false},{"distance":1436,"time":4,"transit":false,"is_transit":false,"line":11,"i_lat":-6.174784,"station_name":"Pasar Senen","station_id":"PSE","i_long":106.84368},{"distance":1567,"station_name":"Gang Sentiong","station_id":"GST","transit":false,"time":8,"i_lat":-6.185975,"is_transit":false,"i_long":106.850107,"line":11},{"station_name":"Kramat","is_transit":false,"i_lat":-6.193792,"time":1,"distance":973,"line":11,"station_id":"KMT","transit":false,"i_long":106.855437},{"transit":false,"i_lat":-6.209188,"is_transit":false,"station_id":"POK","time":2,"distance":1829,"line":11,"station_name":"Pondok Jati","i_long":106.861737},{"distance":1236,"is_transit":true,"time":9,"i_lat":-6.215091,"line":0,"i_long":106.86807400000001,"station_name":"Jatinegara","station_id":"JNG","transit":true},{"station_name":"Matraman","i_lat":-6.212485,"i_long":106.858896,"is_transit":false,"transit":false,"line":1,"station_id":"MTR","time":2,"distance":1377},{"time":2,"station_id":"MRI","transit":true,"distance":1275,"is_transit":true,"i_long":106.84912,"i_lat":-6.209883,"station_name":"Manggarai","line":0},{"time":4,"i_long":106.857948,"distance":2610,"i_lat":-6.226659,"is_transit":false,"line":2,"station_id":"TEB","station_name":"Tebet","transit":false},{"i_long":106.856607,"line":0,"station_id":"CW","transit":false,"is_transit":false,"station_name":"Cawang","i_lat":-6.242512,"time":2,"distance":1230},{"distance":1546,"station_id":"DRN","i_lat":-6.255332,"time":3,"line":0,"is_transit":false,"i_long":106.85449,"station_name":"Duren Kalibata","transit":false},{"is_transit":false,"i_lat":-6.263214,"transit":false,"distance":824,"station_id":"PSMB","i_long":106.851577,"station_name":"Pasar Minggu Baru","time":2,"line":2},{"i_long":106.843999,"station_name":"Pasar Minggu","transit":false,"line":2,"distance":2380,"is_transit":false,"station_id":"PSM","time":2,"i_lat":-6.2842400000000005},{"is_transit":false,"transit":false,"i_lat":-6.3080680000000005,"time":4,"i_long":106.838896,"distance":2820,"line":2,"station_name":"Tanjung Barat","station_id":"TNT"},{"station_name":"Lenteng Agung","is_transit":false,"distance":2671,"time":3,"transit":false,"line":2,"station_id":"LNA","i_lat":-6.330363,"i_long":106.832616},{"i_lat":-6.339291,"station_id":"UP","transit":false,"station_name":"Univ. Pancasila","distance":1029,"time":2,"is_transit":false,"line":2,"i_long":106.834175},{"is_transit":false,"time":3,"station_name":"Univ. Indonesia","distance":2264,"i_long":106.831474,"line":2,"i_lat":-6.360749,"transit":false,"station_id":"UI"},{"i_lat":-6.369073,"station_id":"POC","transit":false,"i_long":106.831114,"distance":1109,"station_name":"Pondok Cina","line":2,"time":2,"is_transit":false},{"time":4,"transit":false,"line":0,"station_id":"DPB","distance":2727,"i_lat":-6.391065,"i_long":106.819451,"is_transit":false,"station_name":"Depokbaru"}]]}