{"data":[[{"i_lat":-6.201433,"station_name":"Sudirman Baru","line":1,"distance":0,"station_id":"SUDB","transit":false,"i_long":106.819881,"time":0,"is_transit":false},{"station_name":"Sudirman","station_id":"SUD","transit":false,"is_transit":false,"i_long":106.822649,"line":1,"distance":280,"i_lat":-6.202263,"time":1},{"line":2,"station_name":"Manggarai","i_long":106.84912,"distance":3186,"i_lat":-6.209883,"station_id":"MRI","time":4,"is_transit":true,"transit":true},{"station_id":"TEB","station_name":"Tebet","time":4,"i_long":106.857948,"transit":false,"i_lat":-6.226659,"distance":2610,"line":2,"is_transit":false},{"time":2,"station_id":"CW","station_name":"Cawang","line":2,"distance":1230,"is_transit":false,"transit":false,"i_lat":-6.242512,"i_long":106.856607},{"is_transit":false,"station_id":"DRN","station_name":"Duren Kalibata","distance":1546,"i_lat":-6.255332,"time":3,"line":2,"i_long":106.85449,"transit":false},{"transit":false,"i_lat":-6.263214,"i_long":106.851577,"line":2,"station_id":"PSMB","station_name":"Pasar Minggu Baru","time":2,"distance":824,"is_transit":false},{"station_name":"Pasar Minggu","is_transit":false,"transit":false,"time":2,"station_id":"PSM","distance":2380,"i_long":106.843999,"line":2,"i_lat":-6.2842400000000005},{"distance":2820,"station_id":"TNT","is_transit":false,"i_long":106.838896,"transit":false,"i_lat":-6.3080680000000005,"station_name":"Tanjung Barat","line":2,"time":4}],[{"transit":false,"time":0,"i_long":106.819881,"station_id":"SUDB","line":1,"is_transit":false,"i_lat":-6.201433,"distance":0,"station_name":"Sudirman Baru"},{"distance":471,"time":1,"station_name":"Karet","i_lat":-6.20132,"is_transit":false,"transit":false,"station_id":"KAT","line":1,"i_long":106.816351},{"transit":false,"station_id":"THB","i_long":106.811091,"station_name":"Tanah Abang","distance":2029,"line":1,"i_lat":-6.185545,"time":5,"is_transit":false},{"distance":3632,"station_name":"Duri","line":1,"is_transit":false,"transit":false,"i_lat":-6.155215,"i_long":106.800832,"station_id":"DU","time":8},{"i_long":106.79867,"is_transit":false,"distance":1230,"station_name":"Angke","time":4,"line":1,"transit":false,"station_id":"AK","i_lat":-6.144674},{"time":9,"i_long":106.826365,"line":4,"station_name":"Kampung Bandan","i_lat":-6.132549,"distance":4102,"station_id":"KPB","is_transit":true,"transit":true},{"is_transit":true,"station_name":"Jakarta Kota","i_lat":-6.137569,"time":3,"line":2,"distance":1364,"station_id":"JAKK","transit":true,"i_long":106.812439},{"line":2,"distance":1264,"transit":false,"i_lat":-6.141205,"i_long":106.820901,"is_transit":false,"time":4,"station_id":"JAY","station_name":"Jayakarta"},{"station_id":"MGB","is_transit":false,"station_name":"Manggabesar","i_lat":-6.149769,"time":2,"transit":false,"i_long":106.82482,"line":2,"distance":1080},{"transit":false,"i_lat":-6.160725,"is_transit":false,"distance":906,"station_name":"Sawah Besar","time":2,"i_long":106.827103,"line":2,"station_id":"SW"},{"time":2,"is_transit":false,"i_lat":-6.166716,"station_id":"JUA","line":2,"distance":1149,"station_name":"Juanda","transit":false,"i_long":106.828284},{"line":2,"station_name":"Gondangdia","i_lat":-6.186295,"time":4,"station_id":"GDD","is_transit":false,"distance":2015,"transit":false,"i_long":106.832183},{"station_id":"CKI","transit":false,"i_lat":-6.198556,"time":3,"distance":1750,"line":2,"station_name":"Cikini","i_long":106.840169,"is_transit":false},{"i_long":106.84912,"i_lat":-6.209883,"time":4,"station_id":"MRI","line":2,"station_name":"Manggarai","distance":1590,"is_transit":false,"transit":false},{"station_id":"TEB","station_name":"Tebet","i_long":106.857948,"line":2,"i_lat":-6.226659,"is_transit":false,"transit":false,"time":4,"distance":2610},{"is_transit":false,"i_lat":-6.242512,"time":2,"distance":1230,"station_id":"CW","station_name":"Cawang","transit":false,"i_long":106.856607,"line":2},{"transit":false,"distance":1546,"i_lat":-6.255332,"station_id":"DRN","i_long":106.85449,"time":3,"is_transit":false,"line":2,"station_name":"Duren Kalibata"},{"transit":false,"i_lat":-6.263214,"i_long":106.851577,"line":2,"is_transit":false,"time":2,"distance":824,"station_name":"Pasar Minggu Baru","station_id":"PSMB"},{"transit":false,"station_id":"PSM","time":2,"distance":2380,"i_lat":-6.2842400000000005,"line":2,"is_transit":false,"station_name":"Pasar Minggu","i_long":106.843999},{"station_id":"TNT","station_name":"Tanjung Barat","distance":2820,"time":4,"transit":false,"i_lat":-6.3080680000000005,"i_long":106.838896,"is_transit":false,"line":2}],[{"station_name":"Sudirman Baru","distance":0,"is_transit":false,"i_lat":-6.201433,"time":0,"line":1,"transit":false,"station_id":"SUDB","i_long":106.819881},{"is_transit":false,"station_name":"Karet","time":1,"line":1,"station_id":"KAT","i_lat":-6.20132,"i_long":106.816351,"transit":false,"distance":471},{"i_lat":-6.185545,"line":1,"station_id":"THB","distance":2029,"i_long":106.811091,"transit":false,"station_name":"Tanah Abang","time":5,"is_transit":false},{"is_transit":false,"distance":3632,"i_lat":-6.155215,"transit":false,"i_long":106.800832,"line":1,"station_name":"Duri","station_id":"DU","time":8},{"is_transit":false,"station_name":"Angke","transit":false,"i_lat":-6.144674,"i_long":106.79867,"distance":1230,"station_id":"AK","line":1,"time":4},{"line":4,"time":9,"station_id":"KPB","is_transit":true,"transit":true,"station_name":"Kampung Bandan","i_long":106.826365,"distance":4102,"i_lat":-6.132549},{"line":11,"transit":false,"distance":1444,"is_transit":false,"time":3,"station_id":"RJW","i_lat":-6.14505,"i_long":106.836569,"station_name":"Rajawali"},{"is_transit":false,"time":5,"station_name":"Kemayoran","transit":false,"distance":1901,"station_id":"KMO","i_lat":-6.161728,"i_long":106.839204,"line":11},{"station_id":"PSE","station_name":"Pasar Senen","i_lat":-6.174784,"time":4,"is_transit":false,"distance":1436,"line":11,"transit":false,"i_long":106.84368},{"distance":1567,"is_transit":false,"transit":false,"i_long":106.850107,"time":8,"i_lat":-6.185975,"station_name":"Gang Sentiong","line":11,"station_id":"GST"},{"station_id":"KMT","time":1,"transit":false,"i_long":106.855437,"is_transit":false,"station_name":"Kramat","i_lat":-6.193792,"line":11,"distance":973},{"line":11,"is_transit":false,"station_name":"Pondok Jati","time":2,"station_id":"POK","distance":1829,"i_lat":-6.209188,"transit":false,"i_long":106.861737},{"line":1,"time":9,"is_transit":true,"distance":1236,"station_name":"Jatinegara","i_lat":-6.215091,"transit":true,"i_long":106.86807400000001,"station_id":"JNG"},{"i_lat":-6.212485,"line":1,"transit":false,"distance":1377,"station_name":"Matraman","time":2,"station_id":"MTR","is_transit":false,"i_long":106.858896},{"is_transit":true,"transit":true,"i_lat":-6.209883,"station_name":"Manggarai","station_id":"MRI","i_long":106.84912,"time":2,"line":2,"distance":1275},{"station_name":"Tebet","is_transit":false,"distance":2610,"station_id":"TEB","i_lat":-6.226659,"i_long":106.857948,"line":2,"time":4,"transit":false},{"station_id":"CW","i_long":106.856607,"is_transit":false,"station_name":"Cawang","line":2,"time":2,"transit":false,"distance":1230,"i_lat":-6.242512},{"is_transit":false,"transit":false,"distance":1546,"time":3,"i_lat":-6.255332,"line":2,"i_long":106.85449,"station_name":"Duren Kalibata","station_id":"DRN"},{"time":2,"transit":false,"i_long":106.851577,"distance":824,"station_name":"Pasar Minggu Baru","is_transit":false,"i_lat":-6.263214,"station_id":"PSMB","line":2},{"line":2,"i_lat":-6.2842400000000005,"time":2,"is_transit":false,"station_id":"PSM","distance":2380,"transit":false,"station_name":"Pasar Minggu","i_long":106.843999},{"station_id":"TNT","time":4,"i_long":106.838896,"transit":false,"i_lat":-6.3080680000000005,"station_name":"Tanjung Barat","line":2,"distance":2820,"is_transit":false}]]}