{"data":[[{"transit":false,"i_long":106.819881,"line":1,"station_name":"Sudirman Baru","is_transit":false,"time":0,"distance":0,"i_lat":-6.201433,"station_id":"SUDB"},{"i_long":106.816351,"transit":false,"station_id":"KAT","distance":471,"i_lat":-6.20132,"station_name":"Karet","is_transit":false,"line":1,"time":1},{"is_transit":true,"i_long":106.811091,"station_name":"Tanah Abang","station_id":"THB","distance":2029,"transit":true,"i_lat":-6.185545,"line":1,"time":5},{"is_transit":false,"line":6,"station_id":"PLM","transit":false,"station_name":"Palmerah","distance":3191,"i_lat":-6.207404,"i_long":106.79689,"time":6}],[{"line":1,"station_name":"Sudirman Baru","time":0,"is_transit":false,"station_id":"SUDB","distance":0,"transit":false,"i_lat":-6.201433,"i_long":106.819881},{"i_long":106.822649,"transit":false,"distance":280,"is_transit":false,"station_id":"SUD","line":1,"i_lat":-6.202263,"station_name":"Sudirman","time":1},{"distance":3186,"line":2,"i_lat":-6.209883,"i_long":106.84912,"time":4,"station_id":"MRI","station_name":"Manggarai","transit":true,"is_transit":true},{"transit":false,"station_id":"CKI","i_lat":-6.198556,"is_transit":false,"i_long":106.840169,"line":2,"time":4,"distance":1590,"station_name":"Cikini"},{"transit":false,"i_lat":-6.186295,"station_id":"GDD","i_long":106.832183,"is_transit":false,"time":3,"distance":1750,"station_name":"Gondangdia","line":2},{"transit":false,"time":4,"i_lat":-6.166716,"line":2,"station_name":"Juanda","station_id":"JUA","distance":2015,"is_transit":false,"i_long":106.828284},{"i_lat":-6.160725,"i_long":106.827103,"is_transit":false,"transit":false,"line":2,"time":2,"distance":1149,"station_name":"Sawah Besar","station_id":"SW"},{"i_lat":-6.149769,"transit":false,"time":2,"station_name":"Manggabesar","station_id":"MGB","i_long":106.82482,"distance":906,"line":2,"is_transit":false},{"time":2,"i_long":106.820901,"station_id":"JAY","distance":1080,"transit":false,"station_name":"Jayakarta","line":2,"is_transit":false,"i_lat":-6.141205},{"is_transit":true,"distance":1264,"time":4,"line":2,"transit":true,"i_lat":-6.137569,"station_name":"Jakarta Kota","station_id":"JAKK","i_long":106.812439},{"i_long":106.826365,"time":3,"station_name":"Kampung Bandan","is_transit":true,"distance":1364,"station_id":"KPB","line":4,"i_lat":-6.132549,"transit":true},{"station_id":"AK","distance":4102,"time":9,"i_lat":-6.144674,"transit":false,"i_long":106.79867,"station_name":"Angke","is_transit":false,"line":1},{"station_name":"Duri","line":1,"transit":false,"time":4,"i_lat":-6.155215,"is_transit":false,"distance":1230,"station_id":"DU","i_long":106.800832},{"time":8,"i_long":106.811091,"line":1,"distance":3632,"i_lat":-6.185545,"is_transit":true,"transit":true,"station_id":"THB","station_name":"Tanah Abang"},{"time":6,"distance":3191,"is_transit":false,"transit":false,"i_lat":-6.207404,"i_long":106.79689,"line":6,"station_id":"PLM","station_name":"Palmerah"}],[{"station_id":"SUDB","i_lat":-6.201433,"station_name":"Sudirman Baru","line":1,"distance":0,"is_transit":false,"transit":false,"i_long":106.819881,"time":0},{"transit":false,"i_lat":-6.202263,"station_id":"SUD","line":1,"is_transit":false,"time":1,"distance":280,"i_long":106.822649,"station_name":"Sudirman"},{"is_transit":false,"transit":false,"station_id":"MRI","line":2,"station_name":"Manggarai","time":4,"distance":3186,"i_long":106.84912,"i_lat":-6.209883},{"distance":1275,"station_name":"Matraman","station_id":"MTR","transit":false,"is_transit":false,"time":2,"i_lat":-6.212485,"i_long":106.858896,"line":1},{"line":1,"distance":1377,"station_id":"JNG","i_lat":-6.215091,"transit":true,"station_name":"Jatinegara","i_long":106.86807400000001,"is_transit":true,"time":8},{"transit":false,"station_name":"Pondok Jati","distance":1236,"i_lat":-6.209188,"station_id":"POK","i_long":106.861737,"line":11,"is_transit":false,"time":2},{"station_id":"KMT","time":2,"i_lat":-6.193792,"line":11,"station_name":"Kramat","distance":1829,"i_long":106.855437,"transit":false,"is_transit":false},{"i_long":106.850107,"distance":973,"i_lat":-6.185975,"station_id":"GST","transit":false,"station_name":"Gang Sentiong","is_transit":false,"time":1,"line":11},{"station_id":"PSE","time":8,"distance":1567,"station_name":"Pasar Senen","i_long":106.84368,"is_transit":false,"transit":false,"i_lat":-6.174784,"line":11},{"time":4,"line":11,"station_id":"KMO","i_long":106.839204,"i_lat":-6.161728,"is_transit":false,"station_name":"Kemayoran","transit":false,"distance":1436},{"station_id":"RJW","distance":1901,"i_long":106.836569,"i_lat":-6.14505,"station_name":"Rajawali","is_transit":false,"time":5,"line":11,"transit":false},{"station_name":"Kampung Bandan","line":4,"transit":true,"is_transit":true,"i_long":106.826365,"distance":1444,"i_lat":-6.132549,"station_id":"KPB","time":3},{"station_name":"Angke","distance":4102,"time":9,"line":1,"i_lat":-6.144674,"station_id":"AK","is_transit":false,"i_long":106.79867,"transit":false},{"i_long":106.800832,"distance":1230,"transit":false,"is_transit":false,"station_id":"DU","line":1,"i_lat":-6.155215,"station_name":"Duri","time":4},{"time":8,"station_name":"Tanah Abang","i_lat":-6.185545,"station_id":"THB","is_transit":true,"distance":3632,"i_long":106.811091,"transit":true,"line":1},{"distance":3191,"i_long":106.79689,"is_transit":false,"transit":false,"station_id":"PLM","i_lat":-6.207404,"line":6,"time":6,"station_name":"Palmerah"}]]}