{"data":[[{"i_long":106.819881,"line":1,"time":0,"i_lat":-6.201433,"distance":0,"station_id":"SUDB","is_transit":false,"station_name":"Sudirman Baru","transit":false},{"line":1,"station_id":"SUD","station_name":"Sudirman","time":1,"i_long":106.822649,"i_lat":-6.202263,"is_transit":false,"distance":280,"transit":false},{"station_id":"MRI","i_lat":-6.209883,"line":0,"time":4,"transit":false,"i_long":106.84912,"distance":3186,"is_transit":true,"station_name":"Manggarai"},{"line":1,"is_transit":false,"transit":false,"distance":1275,"i_lat":-6.212485,"i_long":106.858896,"station_id":"MTR","station_name":"Matraman","time":2},{"transit":false,"i_long":106.86807400000001,"station_id":"JNG","is_transit":true,"station_name":"Jatinegara","time":8,"distance":1377,"i_lat":-6.215091,"line":0},{"i_lat":-6.2135,"time":3,"i_long":106.899548,"line":1,"is_transit":false,"station_id":"KLD","station_name":"Klender","distance":3395,"transit":false},{"distance":3100,"transit":false,"time":2,"i_long":106.922662,"station_id":"BUA","i_lat":-6.215568,"station_name":"Buaran","line":0,"is_transit":false},{"distance":1305,"station_name":"Klenderbaru","station_id":"KLDB","i_lat":-6.217455,"i_long":106.939679,"is_transit":false,"line":1,"transit":false,"time":1}],[{"i_lat":-6.201433,"station_name":"Sudirman Baru","distance":0,"transit":false,"time":0,"line":1,"is_transit":false,"station_id":"SUDB","i_long":106.819881},{"station_id":"KAT","time":1,"i_long":106.816351,"line":1,"is_transit":false,"station_name":"Karet","transit":false,"distance":471,"i_lat":-6.20132},{"i_long":106.811091,"is_transit":true,"transit":false,"time":5,"i_lat":-6.185545,"line":1,"distance":2029,"station_id":"THB","station_name":"Tanah Abang"},{"i_long":106.800832,"line":1,"distance":3632,"station_name":"Duri","transit":true,"is_transit":true,"station_id":"DU","i_lat":-6.155215,"time":8},{"station_name":"Angke","transit":false,"time":4,"distance":1230,"is_transit":false,"i_lat":-6.144674,"i_long":106.79867,"line":0,"station_id":"AK"},{"station_name":"Kampung Bandan","station_id":"KPB","time":9,"i_lat":-6.132549,"transit":true,"distance":4102,"line":0,"i_long":106.826365,"is_transit":true},{"station_id":"RJW","is_transit":false,"transit":false,"time":3,"i_long":106.836569,"distance":1444,"i_lat":-6.14505,"line":11,"station_name":"Rajawali"},{"is_transit":false,"transit":false,"station_id":"KMO","i_lat":-6.161728,"time":5,"i_long":106.839204,"line":11,"distance":1901,"station_name":"Kemayoran"},{"i_lat":-6.174784,"distance":1436,"station_id":"PSE","station_name":"Pasar Senen","transit":false,"line":11,"is_transit":false,"i_long":106.84368,"time":4},{"i_lat":-6.185975,"i_long":106.850107,"station_name":"Gang Sentiong","time":8,"line":11,"transit":false,"distance":1567,"is_transit":false,"station_id":"GST"},{"station_name":"Kramat","i_lat":-6.193792,"is_transit":false,"station_id":"KMT","time":1,"i_long":106.855437,"line":11,"transit":false,"distance":973},{"time":2,"is_transit":false,"i_lat":-6.209188,"line":11,"station_id":"POK","transit":false,"station_name":"Pondok Jati","i_long":106.861737,"distance":1829},{"distance":1236,"is_transit":true,"transit":true,"i_long":106.86807400000001,"i_lat":-6.215091,"station_name":"Jatinegara","time":9,"line":0,"station_id":"JNG"},{"station_id":"KLD","line":1,"distance":3395,"i_lat":-6.2135,"i_long":106.899548,"is_transit":false,"station_name":"Klender","transit":false,"time":3},{"distance":3100,"is_transit":false,"transit":false,"time":2,"i_lat":-6.215568,"line":0,"station_id":"BUA","i_long":106.922662,"station_name":"Buaran"},{"is_transit":false,"station_name":"Klenderbaru","i_lat":-6.217455,"line":1,"i_long":106.939679,"transit":false,"time":1,"distance":1305,"station_id":"KLDB"}],[{"distance":0,"time":0,"station_name":"Sudirman Baru","line":1,"is_transit":false,"i_lat":-6.201433,"i_long":106.819881,"station_id":"SUDB","transit":false},{"line":1,"time":1,"distance":471,"is_transit":false,"station_name":"Karet","station_id":"KAT","transit":false,"i_lat":-6.20132,"i_long":106.816351},{"line":1,"station_id":"THB","is_transit":true,"time":5,"i_lat":-6.185545,"i_long":106.811091,"distance":2029,"station_name":"Tanah Abang","transit":false},{"distance":3632,"time":8,"transit":true,"is_transit":true,"line":1,"i_lat":-6.155215,"station_name":"Duri","station_id":"DU","i_long":106.800832},{"distance":1230,"station_name":"Angke","station_id":"AK","transit":false,"time":4,"i_lat":-6.144674,"is_transit":false,"i_long":106.79867,"line":0},{"station_name":"Kampung Bandan","is_transit":true,"i_lat":-6.132549,"time":9,"distance":4102,"line":0,"station_id":"KPB","transit":false,"i_long":106.826365},{"transit":true,"i_lat":-6.137569,"is_transit":true,"station_id":"JAKK","time":3,"distance":1364,"line":0,"station_name":"Jakarta Kota","i_long":106.812439},{"distance":1264,"is_transit":false,"time":4,"i_lat":-6.141205,"line":7,"i_long":106.820901,"station_name":"Jayakarta","station_id":"JAY","transit":false},{"station_name":"Manggabesar","i_lat":-6.149769,"i_long":106.82482,"is_transit":false,"transit":false,"line":2,"station_id":"MGB","time":2,"distance":1080},{"time":2,"station_id":"SW","transit":false,"distance":906,"is_transit":false,"i_long":106.827103,"i_lat":-6.160725,"station_name":"Sawah Besar","line":2},{"time":2,"i_long":106.828284,"distance":1149,"i_lat":-6.166716,"is_transit":false,"line":2,"station_id":"JUA","station_name":"Juanda","transit":false},{"i_long":106.832183,"line":2,"station_id":"GDD","transit":false,"is_transit":false,"station_name":"Gondangdia","i_lat":-6.186295,"time":4,"distance":2015},{"distance":1750,"is_transit":false,"transit":false,"i_lat":-6.198556,"station_name":"Cikini","time":3,"i_long":106.840169,"line":0,"station_id":"CKI"},{"station_name":"Manggarai","distance":1590,"time":4,"line":0,"is_transit":true,"i_long":106.84912,"i_lat":-6.209883,"transit":true,"station_id":"MRI"},{"distance":1275,"station_name":"Matraman","i_long":106.858896,"station_id":"MTR","i_lat":-6.212485,"transit":false,"is_transit":false,"time":2,"line":1},{"i_lat":-6.215091,"transit":false,"distance":1377,"station_id":"JNG","time":8,"station_name":"Jatinegara","i_long":106.86807400000001,"line":0,"is_transit":true},{"is_transit":false,"station_name":"Klender","transit":false,"i_lat":-6.2135,"line":1,"station_id":"KLD","time":3,"i_long":106.899548,"distance":3395},{"distance":3100,"i_long":106.922662,"is_transit":false,"station_name":"Buaran","i_lat":-6.215568,"station_id":"BUA","transit":false,"line":0,"time":2},{"line":1,"i_long":106.939679,"i_lat":-6.217455,"is_transit":false,"station_name":"Klenderbaru","distance":1305,"transit":false,"station_id":"KLDB","time":1}],[{"station_name":"Sudirman Baru","transit":false,"time":0,"i_lat":-6.201433,"is_transit":false,"line":1,"station_id":"SUDB","distance":0,"i_long":106.819881},{"distance":280,"i_lat":-6.202263,"is_transit":false,"station_name":"Sudirman","i_long":106.822649,"transit":false,"line":1,"station_id":"SUD","time":1},{"transit":true,"i_long":106.84912,"station_name":"Manggarai","station_id":"MRI","time":4,"is_transit":true,"i_lat":-6.209883,"distance":3186,"line":0},{"station_name":"Cikini","time":4,"line":0,"station_id":"CKI","transit":false,"i_lat":-6.198556,"is_transit":false,"distance":1590,"i_long":106.840169},{"is_transit":false,"distance":1750,"time":3,"line":2,"transit":false,"station_id":"GDD","i_long":106.832183,"station_name":"Gondangdia","i_lat":-6.186295},{"transit":false,"is_transit":false,"time":4,"i_lat":-6.166716,"i_long":106.828284,"line":2,"station_id":"JUA","distance":2015,"station_name":"Juanda"},{"i_lat":-6.160725,"line":2,"station_name":"Sawah Besar","station_id":"SW","i_long":106.827103,"transit":false,"time":2,"is_transit":false,"distance":1149},{"time":2,"is_transit":false,"i_long":106.82482,"station_id":"MGB","i_lat":-6.149769,"line":2,"distance":906,"transit":false,"station_name":"Manggabesar"},{"i_lat":-6.141205,"distance":1080,"is_transit":false,"i_long":106.820901,"station_name":"Jayakarta","line":7,"station_id":"JAY","time":2,"transit":false},{"is_transit":true,"station_id":"JAKK","time":4,"i_long":106.812439,"distance":1264,"station_name":"Jakarta Kota","transit":true,"i_lat":-6.137569,"line":0},{"transit":true,"i_long":106.826365,"line":0,"is_transit":true,"station_id":"KPB","distance":1364,"i_lat":-6.132549,"station_name":"Kampung Bandan","time":3},{"is_transit":false,"time":3,"distance":1444,"station_name":"Rajawali","i_lat":-6.14505,"line":11,"station_id":"RJW","transit":false,"i_long":106.836569},{"i_long":106.839204,"station_id":"KMO","line":11,"station_name":"Kemayoran","time":5,"transit":false,"distance":1901,"is_transit":false,"i_lat":-6.161728},{"i_lat":-6.174784,"station_id":"PSE","station_name":"Pasar Senen","distance":1436,"i_long":106.84368,"line":11,"transit":false,"time":4,"is_transit":false},{"is_transit":false,"station_id":"GST","i_lat":-6.185975,"time":8,"transit":false,"line":11,"station_name":"Gang Sentiong","i_long":106.850107,"distance":1567},{"station_id":"KMT","station_name":"Kramat","time":1,"i_long":106.855437,"is_transit":false,"distance":973,"line":11,"i_lat":-6.193792,"transit":false},{"station_name":"Pondok Jati","i_lat":-6.209188,"is_transit":false,"station_id":"POK","distance":1829,"i_long":106.861737,"time":2,"transit":false,"line":11},{"i_long":106.86807400000001,"station_id":"JNG","is_transit":true,"station_name":"Jatinegara","line":0,"transit":true,"distance":1236,"i_lat":-6.215091,"time":9},{"transit":false,"line":1,"i_long":106.899548,"i_lat":-6.2135,"is_transit":false,"distance":3395,"time":3,"station_name":"Klender","station_id":"KLD"},{"line":0,"station_id":"BUA","is_transit":false,"time":2,"transit":false,"i_long":106.922662,"distance":3100,"i_lat":-6.215568,"station_name":"Buaran"},{"i_lat":-6.217455,"distance":1305,"station_name":"Klenderbaru","is_transit":false,"line":1,"time":1,"station_id":"KLDB","transit":false,"i_long":106.939679}]]}