{"data":[[{"line":1,"distance":0,"i_long":106.819881,"station_name":"Sudirman Baru","is_transit":false,"time":0,"station_id":"SUDB","i_lat":-6.201433,"transit":false},{"station_name":"Sudirman","is_transit":false,"station_id":"SUD","distance":280,"transit":false,"i_lat":-6.202263,"i_long":106.822649,"time":1,"line":1},{"time":4,"station_id":"MRI","is_transit":true,"transit":false,"i_long":106.84912,"i_lat":-6.209883,"distance":3186,"station_name":"Manggarai","line":0},{"time":2,"transit":false,"line":1,"distance":1275,"i_long":106.858896,"station_name":"Matraman","i_lat":-6.212485,"is_transit":false,"station_id":"MTR"},{"i_lat":-6.215091,"i_long":106.86807400000001,"transit":false,"station_name":"Jatinegara","distance":1377,"line":0,"time":8,"is_transit":true,"station_id":"JNG"},{"is_transit":false,"line":1,"transit":false,"station_id":"KLD","station_name":"Klender","i_lat":-6.2135,"i_long":106.899548,"distance":3395,"time":3}],[{"i_long":106.819881,"time":0,"i_lat":-6.201433,"station_name":"Sudirman Baru","transit":false,"line":1,"station_id":"SUDB","distance":0,"is_transit":false},{"line":1,"i_long":106.816351,"transit":false,"i_lat":-6.20132,"is_transit":false,"station_name":"Karet","station_id":"KAT","time":1,"distance":471},{"station_name":"Tanah Abang","i_long":106.811091,"transit":false,"line":1,"i_lat":-6.185545,"distance":2029,"is_transit":true,"station_id":"THB","time":5},{"station_name":"Duri","station_id":"DU","distance":3632,"time":8,"i_lat":-6.155215,"is_transit":true,"transit":true,"line":1,"i_long":106.800832},{"i_lat":-6.144674,"is_transit":false,"distance":1230,"station_id":"AK","transit":false,"time":4,"i_long":106.79867,"station_name":"Angke","line":0},{"is_transit":true,"transit":true,"i_long":106.826365,"time":9,"station_name":"Kampung Bandan","i_lat":-6.132549,"station_id":"KPB","line":0,"distance":4102},{"i_long":106.836569,"station_name":"Rajawali","transit":false,"line":11,"i_lat":-6.14505,"is_transit":false,"station_id":"RJW","distance":1444,"time":3},{"is_transit":false,"station_id":"KMO","station_name":"Kemayoran","time":5,"i_lat":-6.161728,"line":11,"transit":false,"i_long":106.839204,"distance":1901},{"station_id":"PSE","i_lat":-6.174784,"station_name":"Pasar Senen","is_transit":false,"transit":false,"i_long":106.84368,"distance":1436,"time":4,"line":11},{"i_long":106.850107,"station_name":"Gang Sentiong","line":11,"i_lat":-6.185975,"time":8,"transit":false,"distance":1567,"is_transit":false,"station_id":"GST"},{"i_long":106.855437,"line":11,"i_lat":-6.193792,"distance":973,"station_name":"Kramat","is_transit":false,"transit":false,"station_id":"KMT","time":1},{"i_long":106.861737,"line":11,"transit":false,"station_id":"POK","i_lat":-6.209188,"distance":1829,"is_transit":false,"time":2,"station_name":"Pondok Jati"},{"i_long":106.86807400000001,"line":0,"i_lat":-6.215091,"transit":true,"station_name":"Jatinegara","distance":1236,"is_transit":true,"station_id":"JNG","time":9},{"i_long":106.899548,"line":1,"is_transit":false,"time":3,"distance":3395,"station_id":"KLD","station_name":"Klender","transit":false,"i_lat":-6.2135}],[{"time":0,"station_name":"Sudirman Baru","distance":0,"transit":false,"station_id":"SUDB","i_lat":-6.201433,"i_long":106.819881,"line":1,"is_transit":false},{"time":1,"line":1,"i_lat":-6.20132,"station_name":"Karet","transit":false,"i_long":106.816351,"distance":471,"is_transit":false,"station_id":"KAT"},{"distance":2029,"time":5,"i_long":106.811091,"line":1,"station_name":"Tanah Abang","transit":false,"is_transit":true,"i_lat":-6.185545,"station_id":"THB"},{"station_id":"DU","time":8,"is_transit":true,"transit":true,"distance":3632,"i_lat":-6.155215,"i_long":106.800832,"line":1,"station_name":"Duri"},{"distance":1230,"station_id":"AK","i_long":106.79867,"is_transit":false,"time":4,"i_lat":-6.144674,"station_name":"Angke","line":0,"transit":false},{"station_id":"KPB","transit":false,"time":9,"distance":4102,"i_long":106.826365,"i_lat":-6.132549,"station_name":"Kampung Bandan","line":0,"is_transit":true},{"transit":true,"time":3,"line":0,"distance":1364,"station_id":"JAKK","is_transit":true,"i_lat":-6.137569,"station_name":"Jakarta Kota","i_long":106.812439},{"transit":false,"is_transit":false,"line":7,"i_long":106.820901,"time":4,"i_lat":-6.141205,"station_name":"Jayakarta","distance":1264,"station_id":"JAY"},{"line":2,"station_id":"MGB","is_transit":false,"time":2,"i_lat":-6.149769,"i_long":106.82482,"distance":1080,"station_name":"Manggabesar","transit":false},{"distance":906,"time":2,"transit":false,"is_transit":false,"line":2,"i_lat":-6.160725,"station_name":"Sawah Besar","station_id":"SW","i_long":106.827103},{"distance":1149,"station_name":"Juanda","station_id":"JUA","transit":false,"time":2,"i_lat":-6.166716,"is_transit":false,"i_long":106.828284,"line":2},{"station_name":"Gondangdia","is_transit":false,"i_lat":-6.186295,"time":4,"distance":2015,"line":2,"station_id":"GDD","transit":false,"i_long":106.832183},{"transit":false,"i_lat":-6.198556,"is_transit":false,"station_id":"CKI","time":3,"distance":1750,"line":0,"station_name":"Cikini","i_long":106.840169},{"distance":1590,"is_transit":true,"time":4,"i_lat":-6.209883,"line":0,"i_long":106.84912,"station_name":"Manggarai","station_id":"MRI","transit":true},{"station_name":"Matraman","i_lat":-6.212485,"i_long":106.858896,"is_transit":false,"transit":false,"line":1,"station_id":"MTR","time":2,"distance":1275},{"time":8,"station_id":"JNG","transit":false,"distance":1377,"is_transit":true,"i_long":106.86807400000001,"i_lat":-6.215091,"station_name":"Jatinegara","line":0},{"time":3,"i_long":106.899548,"distance":3395,"i_lat":-6.2135,"is_transit":false,"line":1,"station_id":"KLD","station_name":"Klender","transit":false}],[{"i_lat":-6.201433,"station_name":"Sudirman Baru","distance":0,"station_id":"SUDB","i_long":106.819881,"line":1,"is_transit":false,"transit":false,"time":0},{"distance":280,"station_id":"SUD","i_lat":-6.202263,"time":1,"line":1,"is_transit":false,"i_long":106.822649,"station_name":"Sudirman","transit":false},{"is_transit":true,"i_lat":-6.209883,"transit":true,"distance":3186,"station_id":"MRI","i_long":106.84912,"station_name":"Manggarai","time":4,"line":0},{"i_long":106.840169,"station_name":"Cikini","transit":false,"line":0,"distance":1590,"is_transit":false,"station_id":"CKI","time":4,"i_lat":-6.198556},{"is_transit":false,"transit":false,"i_lat":-6.186295,"time":3,"i_long":106.832183,"distance":1750,"line":2,"station_name":"Gondangdia","station_id":"GDD"},{"station_name":"Juanda","is_transit":false,"distance":2015,"time":4,"transit":false,"line":2,"station_id":"JUA","i_lat":-6.166716,"i_long":106.828284},{"i_lat":-6.160725,"station_id":"SW","transit":false,"station_name":"Sawah Besar","distance":1149,"time":2,"is_transit":false,"line":2,"i_long":106.827103},{"is_transit":false,"time":2,"station_name":"Manggabesar","distance":906,"i_long":106.82482,"line":2,"i_lat":-6.149769,"transit":false,"station_id":"MGB"},{"i_lat":-6.141205,"station_id":"JAY","transit":false,"i_long":106.820901,"distance":1080,"station_name":"Jayakarta","line":7,"time":2,"is_transit":false},{"time":4,"transit":true,"line":0,"station_id":"JAKK","distance":1264,"i_lat":-6.137569,"i_long":106.812439,"is_transit":true,"station_name":"Jakarta Kota"},{"distance":1364,"is_transit":true,"station_id":"KPB","transit":true,"time":3,"line":0,"i_long":106.826365,"station_name":"Kampung Bandan","i_lat":-6.132549},{"transit":false,"line":11,"distance":1444,"is_transit":false,"station_name":"Rajawali","time":3,"i_lat":-6.14505,"station_id":"RJW","i_long":106.836569},{"is_transit":false,"station_name":"Kemayoran","time":5,"transit":false,"distance":1901,"line":11,"station_id":"KMO","i_long":106.839204,"i_lat":-6.161728},{"i_lat":-6.174784,"is_transit":false,"distance":1436,"station_id":"PSE","station_name":"Pasar Senen","line":11,"transit":false,"i_long":106.84368,"time":4},{"distance":1567,"line":11,"i_lat":-6.185975,"is_transit":false,"station_id":"GST","time":8,"station_name":"Gang Sentiong","transit":false,"i_long":106.850107},{"distance":973,"transit":false,"station_name":"Kramat","station_id":"KMT","time":1,"i_lat":-6.193792,"is_transit":false,"i_long":106.855437,"line":11},{"transit":false,"distance":1829,"station_id":"POK","is_transit":false,"time":2,"station_name":"Pondok Jati","line":11,"i_lat":-6.209188,"i_long":106.861737},{"station_name":"Jatinegara","i_long":106.86807400000001,"is_transit":true,"i_lat":-6.215091,"distance":1236,"station_id":"JNG","time":9,"line":0,"transit":true},{"time":3,"is_transit":false,"i_long":106.899548,"distance":3395,"station_name":"Klender","line":1,"station_id":"KLD","i_lat":-6.2135,"transit":false}]]}