{"data":[[{"time":0,"station_id":"SUDB","distance":0,"station_name":"Sudirman Baru","is_transit":false,"transit":false,"i_lat":-6.201433,"i_long":106.819881,"line":1},{"station_id":"SUD","is_transit":false,"time":1,"i_long":106.822649,"i_lat":-6.202263,"distance":280,"line":1,"transit":false,"station_name":"Sudirman"},{"station_name":"Manggarai","is_transit":false,"i_long":106.84912,"station_id":"MRI","line":2,"distance":3186,"transit":false,"time":4,"i_lat":-6.209883},{"distance":1275,"time":2,"i_lat":-6.212485,"station_id":"MTR","i_long":106.858896,"transit":false,"line":1,"is_transit":false,"station_name":"Matraman"}],[{"station_name":"Sudirman Baru","transit":false,"time":0,"is_transit":false,"station_id":"SUDB","i_long":106.819881,"i_lat":-6.201433,"line":1,"distance":0},{"station_name":"Karet","i_long":106.816351,"line":1,"time":1,"distance":471,"i_lat":-6.20132,"station_id":"KAT","transit":false,"is_transit":false},{"is_transit":false,"station_name":"Tanah Abang","station_id":"THB","time":5,"distance":2029,"line":1,"transit":false,"i_long":106.811091,"i_lat":-6.185545},{"time":8,"is_transit":false,"i_long":106.800832,"station_id":"DU","station_name":"Duri","distance":3632,"i_lat":-6.155215,"line":1,"transit":false},{"transit":false,"i_long":106.79867,"station_name":"Angke","station_id":"AK","is_transit":false,"distance":1230,"i_lat":-6.144674,"time":4,"line":1},{"station_name":"Kampung Bandan","is_transit":true,"transit":true,"distance":4102,"line":4,"station_id":"KPB","time":9,"i_lat":-6.132549,"i_long":106.826365},{"transit":false,"line":11,"station_name":"Rajawali","station_id":"RJW","i_long":106.836569,"is_transit":false,"time":3,"distance":1444,"i_lat":-6.14505},{"i_long":106.839204,"line":11,"transit":false,"station_name":"Kemayoran","distance":1901,"station_id":"KMO","time":5,"is_transit":false,"i_lat":-6.161728},{"transit":false,"time":4,"station_id":"PSE","i_lat":-6.174784,"station_name":"Pasar Senen","distance":1436,"is_transit":false,"i_long":106.84368,"line":11},{"distance":1567,"i_lat":-6.185975,"transit":false,"i_long":106.850107,"line":11,"station_name":"Gang Sentiong","is_transit":false,"station_id":"GST","time":8},{"station_name":"Kramat","station_id":"KMT","i_lat":-6.193792,"i_long":106.855437,"distance":973,"time":1,"line":11,"is_transit":false,"transit":false},{"i_lat":-6.209188,"station_id":"POK","transit":false,"is_transit":false,"distance":1829,"line":11,"time":2,"i_long":106.861737,"station_name":"Pondok Jati"},{"transit":true,"station_name":"Jatinegara","station_id":"JNG","distance":1236,"time":9,"i_lat":-6.215091,"i_long":106.86807400000001,"line":1,"is_transit":true},{"time":2,"transit":false,"distance":1377,"station_name":"Matraman","i_lat":-6.212485,"i_long":106.858896,"station_id":"MTR","line":1,"is_transit":false}],[{"i_lat":-6.201433,"station_id":"SUDB","station_name":"Sudirman Baru","is_transit":false,"time":0,"transit":false,"distance":0,"line":1,"i_long":106.819881},{"time":1,"line":1,"i_lat":-6.20132,"i_long":106.816351,"station_id":"KAT","distance":471,"transit":false,"is_transit":false,"station_name":"Karet"},{"station_id":"THB","distance":2029,"is_transit":false,"time":5,"transit":false,"station_name":"Tanah Abang","i_lat":-6.185545,"i_long":106.811091,"line":1},{"line":1,"is_transit":false,"i_lat":-6.155215,"station_name":"Duri","i_long":106.800832,"transit":false,"station_id":"DU","time":8,"distance":3632},{"station_name":"Angke","station_id":"AK","is_transit":false,"line":1,"transit":false,"i_lat":-6.144674,"distance":1230,"time":4,"i_long":106.79867},{"transit":true,"station_name":"Kampung Bandan","i_long":106.826365,"distance":4102,"line":4,"station_id":"KPB","is_transit":true,"time":9,"i_lat":-6.132549},{"time":3,"distance":1364,"i_lat":-6.137569,"i_long":106.812439,"is_transit":true,"line":2,"station_id":"JAKK","station_name":"Jakarta Kota","transit":true},{"station_name":"Jayakarta","distance":1264,"i_lat":-6.141205,"is_transit":false,"transit":false,"i_long":106.820901,"line":2,"station_id":"JAY","time":4},{"time":2,"station_id":"MGB","i_lat":-6.149769,"is_transit":false,"transit":false,"station_name":"Manggabesar","line":2,"i_long":106.82482,"distance":1080},{"distance":906,"station_id":"SW","is_transit":false,"station_name":"Sawah Besar","line":2,"i_lat":-6.160725,"time":2,"transit":false,"i_long":106.827103},{"station_id":"JUA","transit":false,"i_long":106.828284,"distance":1149,"time":2,"i_lat":-6.166716,"station_name":"Juanda","is_transit":false,"line":2},{"station_id":"GDD","time":4,"transit":false,"is_transit":false,"station_name":"Gondangdia","i_lat":-6.186295,"i_long":106.832183,"line":2,"distance":2015},{"transit":false,"station_name":"Cikini","time":3,"distance":1750,"station_id":"CKI","i_long":106.840169,"line":2,"is_transit":false,"i_lat":-6.198556},{"transit":true,"i_long":106.84912,"distance":1590,"line":2,"is_transit":true,"time":4,"i_lat":-6.209883,"station_name":"Manggarai","station_id":"MRI"},{"i_long":106.858896,"transit":false,"station_name":"Matraman","is_transit":false,"distance":1275,"i_lat":-6.212485,"time":2,"line":1,"station_id":"MTR"}],[{"station_name":"Sudirman Baru","i_long":106.819881,"i_lat":-6.201433,"is_transit":false,"transit":false,"time":0,"station_id":"SUDB","distance":0,"line":1},{"line":1,"i_lat":-6.202263,"is_transit":false,"station_id":"SUD","distance":280,"transit":false,"i_long":106.822649,"station_name":"Sudirman","time":1},{"i_lat":-6.209883,"station_name":"Manggarai","is_transit":true,"time":4,"transit":true,"i_long":106.84912,"line":2,"distance":3186,"station_id":"MRI"},{"transit":false,"time":4,"distance":1590,"station_name":"Cikini","i_lat":-6.198556,"i_long":106.840169,"line":2,"station_id":"CKI","is_transit":false},{"station_name":"Gondangdia","i_long":106.832183,"is_transit":false,"i_lat":-6.186295,"distance":1750,"line":2,"station_id":"GDD","time":3,"transit":false},{"distance":2015,"station_id":"JUA","is_transit":false,"time":4,"i_lat":-6.166716,"station_name":"Juanda","i_long":106.828284,"transit":false,"line":2},{"is_transit":false,"line":2,"transit":false,"distance":1149,"station_id":"SW","i_long":106.827103,"station_name":"Sawah Besar","i_lat":-6.160725,"time":2},{"line":2,"time":2,"distance":906,"transit":false,"station_name":"Manggabesar","is_transit":false,"i_lat":-6.149769,"i_long":106.82482,"station_id":"MGB"},{"distance":1080,"i_lat":-6.141205,"station_id":"JAY","is_transit":false,"time":2,"i_long":106.820901,"line":2,"transit":false,"station_name":"Jayakarta"},{"is_transit":true,"i_long":106.812439,"i_lat":-6.137569,"transit":true,"station_id":"JAKK","station_name":"Jakarta Kota","line":2,"distance":1264,"time":4},{"i_long":106.826365,"is_transit":true,"i_lat":-6.132549,"transit":true,"station_id":"KPB","distance":1364,"line":4,"time":3,"station_name":"Kampung Bandan"},{"is_transit":false,"i_lat":-6.14505,"station_name":"Rajawali","transit":false,"time":3,"i_long":106.836569,"station_id":"RJW","line":11,"distance":1444},{"station_id":"KMO","i_lat":-6.161728,"time":5,"distance":1901,"i_long":106.839204,"station_name":"Kemayoran","transit":false,"line":11,"is_transit":false},{"is_transit":false,"distance":1436,"i_lat":-6.174784,"i_long":106.84368,"line":11,"transit":false,"station_name":"Pasar Senen","station_id":"PSE","time":4},{"transit":false,"line":11,"is_transit":false,"station_id":"GST","time":8,"distance":1567,"station_name":"Gang Sentiong","i_lat":-6.185975,"i_long":106.850107},{"i_long":106.855437,"is_transit":false,"transit":false,"station_id":"KMT","time":1,"i_lat":-6.193792,"line":11,"distance":973,"station_name":"Kramat"},{"time":2,"i_lat":-6.209188,"station_id":"POK","distance":1829,"station_name":"Pondok Jati","is_transit":false,"transit":false,"i_long":106.861737,"line":11},{"time":9,"transit":true,"i_lat":-6.215091,"station_name":"Jatinegara","is_transit":true,"station_id":"JNG","distance":1236,"i_long":106.86807400000001,"line":1},{"i_long":106.858896,"line":1,"station_name":"Matraman","distance":1377,"i_lat":-6.212485,"transit":false,"is_transit":false,"time":2,"station_id":"MTR"}]]}