{"data":[[{"station_id":"SUDB","distance":0,"station_name":"Sudirman Baru","i_long":106.819881,"is_transit":false,"line":1,"i_lat":-6.201433,"time":0,"transit":false},{"i_long":106.822649,"station_name":"Sudirman","is_transit":false,"line":1,"distance":280,"time":1,"station_id":"SUD","transit":false,"i_lat":-6.202263},{"time":4,"transit":false,"station_name":"Manggarai","distance":3186,"i_long":106.84912,"station_id":"MRI","i_lat":-6.209883,"line":0,"is_transit":true},{"line":1,"is_transit":false,"distance":1275,"station_id":"MTR","i_lat":-6.212485,"i_long":106.858896,"station_name":"Matraman","time":2,"transit":false}],[{"line":1,"distance":0,"is_transit":false,"station_name":"Sudirman Baru","i_lat":-6.201433,"station_id":"SUDB","transit":false,"time":0,"i_long":106.819881},{"is_transit":false,"station_name":"Karet","station_id":"KAT","distance":471,"time":1,"i_lat":-6.20132,"line":1,"transit":false,"i_long":106.816351},{"i_lat":-6.185545,"station_name":"Tanah Abang","is_transit":true,"station_id":"THB","transit":false,"line":1,"time":5,"i_long":106.811091,"distance":2029},{"is_transit":true,"line":1,"i_lat":-6.155215,"transit":true,"distance":3632,"i_long":106.800832,"station_id":"DU","station_name":"Duri","time":8},{"is_transit":false,"transit":false,"time":4,"i_lat":-6.144674,"line":0,"station_name":"Angke","station_id":"AK","distance":1230,"i_long":106.79867},{"distance":4102,"i_lat":-6.132549,"is_transit":true,"transit":true,"station_id":"KPB","station_name":"Kampung Bandan","time":9,"i_long":106.826365,"line":0},{"station_name":"Rajawali","is_transit":false,"station_id":"RJW","i_long":106.836569,"distance":1444,"time":3,"i_lat":-6.14505,"transit":false,"line":11},{"transit":false,"distance":1901,"is_transit":false,"i_lat":-6.161728,"line":11,"station_id":"KMO","time":5,"station_name":"Kemayoran","i_long":106.839204},{"i_lat":-6.174784,"time":4,"distance":1436,"is_transit":false,"station_id":"PSE","station_name":"Pasar Senen","transit":false,"i_long":106.84368,"line":11},{"distance":1567,"line":11,"transit":false,"station_name":"Gang Sentiong","time":8,"i_lat":-6.185975,"i_long":106.850107,"is_transit":false,"station_id":"GST"},{"station_id":"KMT","is_transit":false,"station_name":"Kramat","distance":973,"line":11,"i_long":106.855437,"transit":false,"time":1,"i_lat":-6.193792},{"station_id":"POK","distance":1829,"station_name":"Pondok Jati","i_long":106.861737,"is_transit":false,"line":11,"transit":false,"time":2,"i_lat":-6.209188},{"station_id":"JNG","line":0,"is_transit":true,"transit":true,"i_lat":-6.215091,"distance":1236,"i_long":106.86807400000001,"time":9,"station_name":"Jatinegara"},{"is_transit":false,"i_long":106.858896,"line":1,"distance":1377,"time":2,"station_id":"MTR","station_name":"Matraman","i_lat":-6.212485,"transit":false}],[{"distance":0,"station_name":"Sudirman Baru","i_lat":-6.201433,"is_transit":false,"time":0,"line":1,"transit":false,"i_long":106.819881,"station_id":"SUDB"},{"i_long":106.816351,"i_lat":-6.20132,"distance":471,"is_transit":false,"station_id":"KAT","transit":false,"time":1,"line":1,"station_name":"Karet"},{"distance":2029,"transit":false,"i_long":106.811091,"i_lat":-6.185545,"is_transit":true,"station_id":"THB","time":5,"station_name":"Tanah Abang","line":1},{"is_transit":true,"station_name":"Duri","line":1,"transit":true,"i_long":106.800832,"distance":3632,"station_id":"DU","i_lat":-6.155215,"time":8},{"line":0,"is_transit":false,"transit":false,"distance":1230,"time":4,"station_id":"AK","station_name":"Angke","i_lat":-6.144674,"i_long":106.79867},{"line":0,"distance":4102,"transit":false,"station_id":"KPB","time":9,"i_long":106.826365,"is_transit":true,"i_lat":-6.132549,"station_name":"Kampung Bandan"},{"is_transit":true,"transit":true,"i_lat":-6.137569,"i_long":106.812439,"time":3,"station_name":"Jakarta Kota","line":0,"station_id":"JAKK","distance":1364},{"line":7,"station_id":"JAY","station_name":"Jayakarta","transit":false,"distance":1264,"i_long":106.820901,"is_transit":false,"time":4,"i_lat":-6.141205},{"station_id":"MGB","distance":1080,"station_name":"Manggabesar","i_long":106.82482,"time":2,"i_lat":-6.149769,"transit":false,"line":2,"is_transit":false},{"line":2,"distance":906,"station_id":"SW","station_name":"Sawah Besar","time":2,"is_transit":false,"transit":false,"i_lat":-6.160725,"i_long":106.827103},{"transit":false,"i_lat":-6.166716,"line":2,"station_id":"JUA","station_name":"Juanda","distance":1149,"time":2,"i_long":106.828284,"is_transit":false},{"station_id":"GDD","transit":false,"time":4,"i_long":106.832183,"line":2,"is_transit":false,"distance":2015,"i_lat":-6.186295,"station_name":"Gondangdia"},{"distance":1750,"is_transit":false,"station_name":"Cikini","transit":false,"i_long":106.840169,"line":0,"time":3,"station_id":"CKI","i_lat":-6.198556},{"distance":1590,"station_id":"MRI","line":0,"i_long":106.84912,"time":4,"i_lat":-6.209883,"is_transit":true,"station_name":"Manggarai","transit":true},{"i_lat":-6.212485,"station_id":"MTR","i_long":106.858896,"line":1,"distance":1275,"is_transit":false,"time":2,"transit":false,"station_name":"Matraman"}],[{"i_long":106.819881,"is_transit":false,"transit":false,"station_id":"SUDB","time":0,"station_name":"Sudirman Baru","line":1,"i_lat":-6.201433,"distance":0},{"is_transit":false,"line":1,"station_id":"SUD","i_lat":-6.202263,"i_long":106.822649,"distance":280,"time":1,"station_name":"Sudirman","transit":false},{"i_long":106.84912,"time":4,"is_transit":true,"station_id":"MRI","distance":3186,"station_name":"Manggarai","transit":true,"i_lat":-6.209883,"line":0},{"station_name":"Cikini","line":0,"distance":1590,"is_transit":false,"station_id":"CKI","i_lat":-6.198556,"i_long":106.840169,"time":4,"transit":false},{"is_transit":false,"i_long":106.832183,"station_id":"GDD","i_lat":-6.186295,"station_name":"Gondangdia","transit":false,"time":3,"line":2,"distance":1750},{"distance":2015,"i_lat":-6.166716,"station_id":"JUA","i_long":106.828284,"transit":false,"is_transit":false,"station_name":"Juanda","line":2,"time":4},{"line":2,"distance":1149,"is_transit":false,"time":2,"station_id":"SW","i_long":106.827103,"station_name":"Sawah Besar","transit":false,"i_lat":-6.160725},{"is_transit":false,"i_lat":-6.149769,"i_long":106.82482,"line":2,"time":2,"station_id":"MGB","distance":906,"station_name":"Manggabesar","transit":false},{"station_name":"Jayakarta","time":2,"line":7,"station_id":"JAY","transit":false,"i_lat":-6.141205,"i_long":106.820901,"distance":1080,"is_transit":false},{"transit":true,"distance":1264,"line":0,"time":4,"i_lat":-6.137569,"station_id":"JAKK","i_long":106.812439,"station_name":"Jakarta Kota","is_transit":true},{"i_long":106.826365,"station_name":"Kampung Bandan","line":0,"time":3,"distance":1364,"transit":true,"i_lat":-6.132549,"is_transit":true,"station_id":"KPB"},{"station_id":"RJW","i_long":106.836569,"distance":1444,"is_transit":false,"transit":false,"time":3,"station_name":"Rajawali","i_lat":-6.14505,"line":11},{"i_long":106.839204,"line":11,"transit":false,"station_name":"Kemayoran","station_id":"KMO","time":5,"i_lat":-6.161728,"is_transit":false,"distance":1901},{"distance":1436,"i_lat":-6.174784,"station_id":"PSE","line":11,"is_transit":false,"station_name":"Pasar Senen","transit":false,"i_long":106.84368,"time":4},{"station_name":"Gang Sentiong","i_lat":-6.185975,"line":11,"time":8,"station_id":"GST","is_transit":false,"transit":false,"distance":1567,"i_long":106.850107},{"distance":973,"station_id":"KMT","station_name":"Kramat","is_transit":false,"line":11,"transit":false,"i_lat":-6.193792,"i_long":106.855437,"time":1},{"distance":1829,"station_name":"Pondok Jati","time":2,"i_lat":-6.209188,"is_transit":false,"transit":false,"i_long":106.861737,"line":11,"station_id":"POK"},{"distance":1236,"i_long":106.86807400000001,"i_lat":-6.215091,"is_transit":true,"station_name":"Jatinegara","time":9,"line":0,"transit":true,"station_id":"JNG"},{"i_long":106.858896,"station_id":"MTR","i_lat":-6.212485,"station_name":"Matraman","is_transit":false,"distance":1377,"transit":false,"time":2,"line":1}]]}