{"data":[[{"distance":0,"station_id":"SUDB","i_long":106.819881,"is_transit":false,"transit":false,"i_lat":-6.201433,"line":1,"time":0,"station_name":"Sudirman Baru"},{"is_transit":false,"station_id":"SUD","time":1,"i_lat":-6.202263,"distance":280,"transit":false,"line":1,"station_name":"Sudirman","i_long":106.822649},{"line":2,"is_transit":false,"time":4,"station_id":"MRI","distance":3186,"i_lat":-6.209883,"i_long":106.84912,"station_name":"Manggarai","transit":false},{"distance":1275,"time":2,"transit":false,"i_long":106.858896,"station_id":"MTR","station_name":"Matraman","line":1,"is_transit":false,"i_lat":-6.212485},{"station_id":"JNG","station_name":"Jatinegara","i_long":106.86807400000001,"line":1,"is_transit":false,"distance":1377,"time":8,"transit":false,"i_lat":-6.215091},{"station_id":"KLD","is_transit":false,"distance":3395,"line":1,"station_name":"Klender","transit":false,"i_long":106.899548,"i_lat":-6.2135,"time":3},{"line":1,"station_id":"BUA","i_long":106.922662,"transit":false,"i_lat":-6.215568,"time":2,"distance":3100,"is_transit":false,"station_name":"Buaran"},{"station_name":"Klenderbaru","transit":false,"is_transit":false,"i_long":106.939679,"line":1,"i_lat":-6.217455,"time":1,"distance":1305,"station_id":"KLDB"}],[{"time":0,"station_id":"SUDB","station_name":"Sudirman Baru","is_transit":false,"transit":false,"i_lat":-6.201433,"i_long":106.819881,"line":1,"distance":0},{"time":1,"distance":471,"i_lat":-6.20132,"transit":false,"station_id":"KAT","station_name":"Karet","line":1,"i_long":106.816351,"is_transit":false},{"station_id":"THB","station_name":"Tanah Abang","transit":false,"time":5,"is_transit":false,"i_lat":-6.185545,"distance":2029,"line":1,"i_long":106.811091},{"i_long":106.800832,"distance":3632,"line":1,"time":8,"station_id":"DU","station_name":"Duri","transit":false,"is_transit":false,"i_lat":-6.155215},{"is_transit":false,"i_lat":-6.144674,"station_id":"AK","line":1,"station_name":"Angke","distance":1230,"transit":false,"i_long":106.79867,"time":4},{"time":9,"station_id":"KPB","i_lat":-6.132549,"station_name":"Kampung Bandan","is_transit":true,"transit":true,"distance":4102,"i_long":106.826365,"line":4},{"station_name":"Rajawali","transit":false,"i_long":106.836569,"time":3,"is_transit":false,"line":11,"distance":1444,"i_lat":-6.14505,"station_id":"RJW"},{"i_long":106.839204,"is_transit":false,"line":11,"station_id":"KMO","transit":false,"time":5,"i_lat":-6.161728,"station_name":"Kemayoran","distance":1901},{"station_name":"Pasar Senen","station_id":"PSE","i_lat":-6.174784,"i_long":106.84368,"transit":false,"time":4,"is_transit":false,"distance":1436,"line":11},{"transit":false,"station_name":"Gang Sentiong","i_long":106.850107,"distance":1567,"line":11,"time":8,"is_transit":false,"i_lat":-6.185975,"station_id":"GST"},{"station_id":"KMT","is_transit":false,"i_long":106.855437,"i_lat":-6.193792,"line":11,"station_name":"Kramat","distance":973,"transit":false,"time":1},{"is_transit":false,"station_id":"POK","transit":false,"i_lat":-6.209188,"i_long":106.861737,"distance":1829,"station_name":"Pondok Jati","time":2,"line":11},{"time":9,"station_name":"Jatinegara","line":1,"station_id":"JNG","i_long":106.86807400000001,"i_lat":-6.215091,"is_transit":true,"transit":true,"distance":1236},{"is_transit":false,"i_lat":-6.2135,"station_name":"Klender","distance":3395,"line":1,"station_id":"KLD","i_long":106.899548,"time":3,"transit":false},{"station_name":"Buaran","time":2,"is_transit":false,"i_lat":-6.215568,"station_id":"BUA","line":1,"i_long":106.922662,"distance":3100,"transit":false},{"station_id":"KLDB","distance":1305,"i_long":106.939679,"time":1,"is_transit":false,"line":1,"transit":false,"i_lat":-6.217455,"station_name":"Klenderbaru"}],[{"time":0,"distance":0,"transit":false,"station_name":"Sudirman Baru","is_transit":false,"i_lat":-6.201433,"i_long":106.819881,"line":1,"station_id":"SUDB"},{"transit":false,"line":1,"distance":471,"station_id":"KAT","i_lat":-6.20132,"station_name":"Karet","is_transit":false,"i_long":106.816351,"time":1},{"distance":2029,"i_lat":-6.185545,"is_transit":false,"station_id":"THB","i_long":106.811091,"station_name":"Tanah Abang","line":1,"time":5,"transit":false},{"line":1,"station_id":"DU","time":8,"is_transit":false,"distance":3632,"transit":false,"i_long":106.800832,"i_lat":-6.155215,"station_name":"Duri"},{"station_name":"Angke","station_id":"AK","transit":false,"i_lat":-6.144674,"time":4,"distance":1230,"is_transit":false,"i_long":106.79867,"line":1},{"transit":true,"line":4,"distance":4102,"station_name":"Kampung Bandan","is_transit":true,"station_id":"KPB","i_long":106.826365,"i_lat":-6.132549,"time":9},{"is_transit":true,"line":2,"time":3,"distance":1364,"station_id":"JAKK","station_name":"Jakarta Kota","i_long":106.812439,"transit":true,"i_lat":-6.137569},{"distance":1264,"transit":false,"station_name":"Jayakarta","i_long":106.820901,"line":2,"is_transit":false,"i_lat":-6.141205,"time":4,"station_id":"JAY"},{"station_name":"Manggabesar","distance":1080,"transit":false,"i_long":106.82482,"is_transit":false,"time":2,"station_id":"MGB","i_lat":-6.149769,"line":2},{"line":2,"transit":false,"i_lat":-6.160725,"is_transit":false,"i_long":106.827103,"time":2,"station_name":"Sawah Besar","distance":906,"station_id":"SW"},{"station_name":"Juanda","i_long":106.828284,"line":2,"distance":1149,"is_transit":false,"time":2,"i_lat":-6.166716,"transit":false,"station_id":"JUA"},{"distance":2015,"transit":false,"station_name":"Gondangdia","i_lat":-6.186295,"i_long":106.832183,"station_id":"GDD","line":2,"time":4,"is_transit":false},{"time":3,"station_name":"Cikini","is_transit":false,"i_long":106.840169,"i_lat":-6.198556,"transit":false,"station_id":"CKI","line":2,"distance":1750},{"station_id":"MRI","i_lat":-6.209883,"station_name":"Manggarai","transit":true,"line":2,"time":4,"is_transit":true,"distance":1590,"i_long":106.84912},{"is_transit":false,"station_id":"MTR","time":2,"distance":1275,"transit":false,"i_long":106.858896,"line":1,"station_name":"Matraman","i_lat":-6.212485},{"station_name":"Jatinegara","i_long":106.86807400000001,"station_id":"JNG","distance":1377,"i_lat":-6.215091,"is_transit":false,"time":8,"transit":false,"line":1},{"transit":false,"time":3,"station_id":"KLD","is_transit":false,"i_long":106.899548,"line":1,"distance":3395,"i_lat":-6.2135,"station_name":"Klender"},{"is_transit":false,"time":2,"transit":false,"station_id":"BUA","i_lat":-6.215568,"i_long":106.922662,"station_name":"Buaran","distance":3100,"line":1},{"i_long":106.939679,"transit":false,"i_lat":-6.217455,"time":1,"is_transit":false,"line":1,"station_name":"Klenderbaru","distance":1305,"station_id":"KLDB"}],[{"i_long":106.819881,"time":0,"is_transit":false,"transit":false,"line":1,"distance":0,"station_name":"Sudirman Baru","i_lat":-6.201433,"station_id":"SUDB"},{"transit":false,"line":1,"time":1,"station_id":"SUD","i_lat":-6.202263,"i_long":106.822649,"distance":280,"station_name":"Sudirman","is_transit":false},{"station_id":"MRI","is_transit":true,"transit":true,"i_lat":-6.209883,"line":2,"distance":3186,"i_long":106.84912,"station_name":"Manggarai","time":4},{"i_lat":-6.198556,"station_name":"Cikini","i_long":106.840169,"station_id":"CKI","time":4,"line":2,"distance":1590,"is_transit":false,"transit":false},{"i_lat":-6.186295,"station_name":"Gondangdia","line":2,"i_long":106.832183,"is_transit":false,"station_id":"GDD","time":3,"distance":1750,"transit":false},{"station_id":"JUA","i_long":106.828284,"station_name":"Juanda","time":4,"distance":2015,"i_lat":-6.166716,"line":2,"transit":false,"is_transit":false},{"is_transit":false,"station_name":"Sawah Besar","station_id":"SW","i_long":106.827103,"i_lat":-6.160725,"distance":1149,"line":2,"time":2,"transit":false},{"is_transit":false,"station_name":"Manggabesar","time":2,"distance":906,"i_lat":-6.149769,"line":2,"i_long":106.82482,"transit":false,"station_id":"MGB"},{"time":2,"distance":1080,"transit":false,"station_id":"JAY","i_lat":-6.141205,"station_name":"Jayakarta","is_transit":false,"i_long":106.820901,"line":2},{"distance":1264,"transit":true,"station_name":"Jakarta Kota","i_long":106.812439,"line":2,"time":4,"station_id":"JAKK","i_lat":-6.137569,"is_transit":true},{"station_name":"Kampung Bandan","line":4,"station_id":"KPB","i_long":106.826365,"distance":1364,"i_lat":-6.132549,"is_transit":true,"transit":true,"time":3},{"line":11,"station_name":"Rajawali","i_long":106.836569,"station_id":"RJW","time":3,"transit":false,"is_transit":false,"i_lat":-6.14505,"distance":1444},{"transit":false,"i_lat":-6.161728,"distance":1901,"station_name":"Kemayoran","time":5,"station_id":"KMO","i_long":106.839204,"is_transit":false,"line":11},{"i_lat":-6.174784,"line":11,"station_id":"PSE","distance":1436,"station_name":"Pasar Senen","time":4,"transit":false,"is_transit":false,"i_long":106.84368},{"i_lat":-6.185975,"i_long":106.850107,"line":11,"transit":false,"distance":1567,"station_id":"GST","is_transit":false,"station_name":"Gang Sentiong","time":8},{"is_transit":false,"time":1,"distance":973,"i_long":106.855437,"station_id":"KMT","i_lat":-6.193792,"transit":false,"station_name":"Kramat","line":11},{"is_transit":false,"station_name":"Pondok Jati","i_lat":-6.209188,"time":2,"distance":1829,"station_id":"POK","i_long":106.861737,"line":11,"transit":false},{"time":9,"i_long":106.86807400000001,"distance":1236,"station_name":"Jatinegara","is_transit":true,"line":1,"transit":true,"station_id":"JNG","i_lat":-6.215091},{"distance":3395,"i_lat":-6.2135,"i_long":106.899548,"time":3,"station_id":"KLD","line":1,"station_name":"Klender","transit":false,"is_transit":false},{"i_lat":-6.215568,"is_transit":false,"station_name":"Buaran","time":2,"line":1,"transit":false,"station_id":"BUA","distance":3100,"i_long":106.922662},{"i_lat":-6.217455,"station_name":"Klenderbaru","line":1,"i_long":106.939679,"station_id":"KLDB","time":1,"is_transit":false,"distance":1305,"transit":false}]]}