{"data":[[{"time":0,"transit":false,"station_id":"SUDB","station_name":"Sudirman Baru","i_lat":-6.201433,"i_long":106.819881,"is_transit":false,"distance":0,"line":1},{"distance":471,"line":1,"is_transit":false,"station_id":"KAT","station_name":"Karet","i_long":106.816351,"time":1,"transit":false,"i_lat":-6.20132},{"time":5,"station_name":"Tanah Abang","i_lat":-6.185545,"is_transit":false,"i_long":106.811091,"line":1,"station_id":"THB","transit":false,"distance":2029}],[{"station_id":"SUDB","transit":false,"i_long":106.819881,"distance":0,"is_transit":false,"station_name":"Sudirman Baru","i_lat":-6.201433,"time":0,"line":1},{"i_long":106.822649,"time":1,"distance":280,"transit":false,"station_id":"SUD","line":1,"station_name":"Sudirman","is_transit":false,"i_lat":-6.202263},{"i_lat":-6.209883,"transit":true,"station_id":"MRI","i_long":106.84912,"time":4,"is_transit":true,"distance":3186,"line":2,"station_name":"Manggarai"},{"station_id":"CKI","i_lat":-6.198556,"transit":false,"station_name":"Cikini","is_transit":false,"distance":1590,"i_long":106.840169,"time":4,"line":2},{"distance":1750,"is_transit":false,"time":3,"i_long":106.832183,"station_name":"Gondangdia","transit":false,"i_lat":-6.186295,"station_id":"GDD","line":2},{"time":4,"line":2,"transit":false,"is_transit":false,"distance":2015,"i_lat":-6.166716,"station_name":"Juanda","station_id":"JUA","i_long":106.828284},{"line":2,"station_name":"Sawah Besar","distance":1149,"station_id":"SW","transit":false,"time":2,"i_long":106.827103,"is_transit":false,"i_lat":-6.160725},{"distance":906,"is_transit":false,"i_lat":-6.149769,"i_long":106.82482,"time":2,"station_id":"MGB","line":2,"station_name":"Manggabesar","transit":false},{"i_long":106.820901,"transit":false,"is_transit":false,"station_id":"JAY","station_name":"Jayakarta","i_lat":-6.141205,"distance":1080,"line":2,"time":2},{"i_lat":-6.137569,"station_id":"JAKK","i_long":106.812439,"line":2,"distance":1264,"is_transit":true,"station_name":"Jakarta Kota","time":4,"transit":true},{"line":4,"is_transit":true,"distance":1364,"transit":true,"station_name":"Kampung Bandan","station_id":"KPB","i_lat":-6.132549,"time":3,"i_long":106.826365},{"line":1,"time":9,"distance":4102,"station_name":"Angke","station_id":"AK","is_transit":false,"transit":false,"i_lat":-6.144674,"i_long":106.79867},{"i_long":106.800832,"station_name":"Duri","time":4,"station_id":"DU","line":1,"i_lat":-6.155215,"distance":1230,"is_transit":false,"transit":false},{"distance":3632,"is_transit":false,"station_name":"Tanah Abang","time":8,"transit":false,"i_long":106.811091,"station_id":"THB","line":1,"i_lat":-6.185545}],[{"station_id":"SUDB","i_lat":-6.201433,"time":0,"line":1,"distance":0,"transit":false,"i_long":106.819881,"is_transit":false,"station_name":"Sudirman Baru"},{"i_long":106.822649,"line":1,"time":1,"transit":false,"i_lat":-6.202263,"distance":280,"station_name":"Sudirman","station_id":"SUD","is_transit":false},{"time":4,"distance":3186,"i_lat":-6.209883,"transit":false,"i_long":106.84912,"station_id":"MRI","line":2,"station_name":"Manggarai","is_transit":false},{"line":1,"is_transit":false,"station_id":"MTR","distance":1275,"station_name":"Matraman","i_lat":-6.212485,"i_long":106.858896,"time":2,"transit":false},{"transit":true,"station_name":"Jatinegara","i_lat":-6.215091,"is_transit":true,"i_long":106.86807400000001,"time":8,"distance":1377,"station_id":"JNG","line":1},{"time":2,"is_transit":false,"transit":false,"i_lat":-6.209188,"station_name":"Pondok Jati","line":11,"station_id":"POK","i_long":106.861737,"distance":1236},{"is_transit":false,"i_long":106.855437,"distance":1829,"station_name":"Kramat","line":11,"time":2,"transit":false,"i_lat":-6.193792,"station_id":"KMT"},{"line":11,"is_transit":false,"i_lat":-6.185975,"time":1,"station_id":"GST","transit":false,"distance":973,"station_name":"Gang Sentiong","i_long":106.850107},{"station_name":"Pasar Senen","i_lat":-6.174784,"line":11,"time":8,"is_transit":false,"station_id":"PSE","transit":false,"i_long":106.84368,"distance":1567},{"transit":false,"distance":1436,"i_lat":-6.161728,"i_long":106.839204,"station_name":"Kemayoran","time":4,"station_id":"KMO","line":11,"is_transit":false},{"line":11,"transit":false,"i_long":106.836569,"time":5,"i_lat":-6.14505,"distance":1901,"station_id":"RJW","is_transit":false,"station_name":"Rajawali"},{"distance":1444,"time":3,"is_transit":true,"transit":true,"i_lat":-6.132549,"i_long":106.826365,"line":4,"station_id":"KPB","station_name":"Kampung Bandan"},{"i_lat":-6.144674,"line":1,"distance":4102,"i_long":106.79867,"station_id":"AK","is_transit":false,"transit":false,"station_name":"Angke","time":9},{"distance":1230,"i_lat":-6.155215,"transit":false,"i_long":106.800832,"line":1,"time":4,"station_name":"Duri","is_transit":false,"station_id":"DU"},{"time":8,"station_id":"THB","transit":false,"i_lat":-6.185545,"distance":3632,"is_transit":false,"line":1,"station_name":"Tanah Abang","i_long":106.811091}]]}