{"data":[[{"line":1,"station_id":"SUDB","i_lat":-6.201433,"is_transit":false,"time":0,"station_name":"Sudirman Baru","distance":0,"i_long":106.819881,"transit":false},{"distance":471,"is_transit":false,"transit":false,"station_id":"KAT","i_long":106.816351,"line":1,"time":1,"i_lat":-6.20132,"station_name":"Karet"},{"time":5,"is_transit":true,"i_long":106.811091,"transit":true,"line":1,"i_lat":-6.185545,"distance":2029,"station_name":"Tanah Abang","station_id":"THB"},{"is_transit":false,"transit":false,"i_lat":-6.207404,"i_long":106.79689,"line":6,"time":6,"distance":3191,"station_id":"PLM","station_name":"Palmerah"},{"is_transit":false,"transit":false,"i_lat":-6.237242,"time":7,"station_id":"KBY","line":6,"station_name":"Kebayoran","distance":3737,"i_long":106.780334},{"transit":false,"station_name":"Pondokranji","distance":6218,"is_transit":false,"i_long":106.74273,"line":6,"i_lat":-6.276362,"time":8,"station_id":"PDJ"},{"is_transit":false,"station_id":"JMU","i_lat":-6.288927,"i_long":106.728916,"distance":2179,"transit":false,"station_name":"Jurangmangu","line":6,"time":3},{"station_id":"SDM","distance":1994,"station_name":"Sudimara","i_long":106.712277,"transit":false,"i_lat":-6.296963,"is_transit":false,"line":6,"time":4},{"station_name":"Rawa Buntu","line":6,"time":6,"i_long":106.675475,"distance":4566,"station_id":"RU","is_transit":false,"transit":false,"i_lat":-6.314823},{"i_long":106.66566,"transit":false,"station_id":"SRP","station_name":"Serpong","time":4,"is_transit":false,"i_lat":-6.319871,"line":6,"distance":2413},{"time":4,"station_id":"CSK","i_long":106.640411,"transit":false,"i_lat":-6.32484,"line":3,"distance":1784,"is_transit":false,"station_name":"Cisauk"},{"distance":2519,"station_name":"Cicayur","i_lat":-6.329547,"transit":false,"i_long":106.617853,"time":4,"station_id":"CC","is_transit":false,"line":3},{"station_name":"Parung Panjang","i_lat":-6.3441410000000005,"station_id":"PRP","distance":5968,"time":8,"transit":false,"i_long":106.568863,"line":6,"is_transit":false},{"line":3,"distance":7025,"i_lat":-6.354349,"is_transit":false,"transit":false,"station_name":"Cilejit","time":9,"i_long":106.508482,"station_id":"CJT"}],[{"transit":false,"time":0,"is_transit":false,"line":1,"distance":0,"i_lat":-6.201433,"station_name":"Sudirman Baru","i_long":106.819881,"station_id":"SUDB"},{"i_long":106.822649,"is_transit":false,"time":1,"transit":false,"line":1,"station_id":"SUD","distance":280,"i_lat":-6.202263,"station_name":"Sudirman"},{"time":4,"station_id":"MRI","station_name":"Manggarai","i_long":106.84912,"line":2,"is_transit":true,"transit":true,"distance":3186,"i_lat":-6.209883},{"i_lat":-6.198556,"is_transit":false,"station_name":"Cikini","line":2,"station_id":"CKI","i_long":106.840169,"distance":1590,"time":4,"transit":false},{"station_name":"Gondangdia","distance":1750,"station_id":"GDD","i_long":106.832183,"time":3,"is_transit":false,"i_lat":-6.186295,"line":2,"transit":false},{"distance":2015,"station_name":"Juanda","station_id":"JUA","transit":false,"time":4,"i_long":106.828284,"i_lat":-6.166716,"is_transit":false,"line":2},{"i_long":106.827103,"i_lat":-6.160725,"is_transit":false,"transit":false,"line":2,"station_name":"Sawah Besar","distance":1149,"station_id":"SW","time":2},{"distance":906,"i_lat":-6.149769,"line":2,"i_long":106.82482,"station_name":"Manggabesar","time":2,"transit":false,"station_id":"MGB","is_transit":false},{"distance":1080,"i_lat":-6.141205,"is_transit":false,"line":2,"i_long":106.820901,"station_id":"JAY","time":2,"transit":false,"station_name":"Jayakarta"},{"station_name":"Jakarta Kota","i_lat":-6.137569,"line":2,"is_transit":true,"distance":1264,"transit":true,"i_long":106.812439,"time":4,"station_id":"JAKK"},{"i_long":106.826365,"line":4,"i_lat":-6.132549,"station_id":"KPB","distance":1364,"is_transit":true,"transit":true,"time":3,"station_name":"Kampung Bandan"},{"line":1,"transit":false,"station_name":"Angke","is_transit":false,"station_id":"AK","i_lat":-6.144674,"time":9,"i_long":106.79867,"distance":4102},{"time":4,"line":1,"station_id":"DU","i_lat":-6.155215,"station_name":"Duri","distance":1230,"i_long":106.800832,"is_transit":false,"transit":false},{"is_transit":true,"transit":true,"i_long":106.811091,"line":1,"i_lat":-6.185545,"time":8,"station_id":"THB","station_name":"Tanah Abang","distance":3632},{"i_long":106.79689,"time":6,"station_id":"PLM","distance":3191,"transit":false,"station_name":"Palmerah","is_transit":false,"i_lat":-6.207404,"line":6},{"station_name":"Kebayoran","i_lat":-6.237242,"time":7,"i_long":106.780334,"transit":false,"station_id":"KBY","is_transit":false,"distance":3737,"line":6},{"i_lat":-6.276362,"distance":6218,"is_transit":false,"transit":false,"station_id":"PDJ","time":8,"station_name":"Pondokranji","line":6,"i_long":106.74273},{"station_id":"JMU","time":3,"station_name":"Jurangmangu","distance":2179,"transit":false,"is_transit":false,"i_lat":-6.288927,"i_long":106.728916,"line":6},{"transit":false,"station_id":"SDM","line":6,"station_name":"Sudimara","distance":1994,"time":4,"is_transit":false,"i_lat":-6.296963,"i_long":106.712277},{"time":6,"transit":false,"station_name":"Rawa Buntu","line":6,"is_transit":false,"i_long":106.675475,"i_lat":-6.314823,"station_id":"RU","distance":4566},{"time":4,"is_transit":false,"station_id":"SRP","transit":false,"distance":2413,"line":6,"station_name":"Serpong","i_lat":-6.319871,"i_long":106.66566},{"is_transit":false,"station_id":"CSK","line":3,"distance":1784,"station_name":"Cisauk","time":4,"transit":false,"i_lat":-6.32484,"i_long":106.640411},{"i_long":106.617853,"station_id":"CC","time":4,"line":3,"is_transit":false,"i_lat":-6.329547,"transit":false,"station_name":"Cicayur","distance":2519},{"station_name":"Parung Panjang","distance":5968,"line":6,"time":8,"transit":false,"i_lat":-6.3441410000000005,"station_id":"PRP","is_transit":false,"i_long":106.568863},{"line":3,"is_transit":false,"time":9,"i_lat":-6.354349,"station_id":"CJT","distance":7025,"station_name":"Cilejit","transit":false,"i_long":106.508482}],[{"station_id":"SUDB","station_name":"Sudirman Baru","time":0,"line":1,"is_transit":false,"i_long":106.819881,"distance":0,"i_lat":-6.201433,"transit":false},{"line":1,"i_long":106.822649,"is_transit":false,"station_id":"SUD","time":1,"i_lat":-6.202263,"transit":false,"distance":280,"station_name":"Sudirman"},{"i_long":106.84912,"station_id":"MRI","transit":false,"distance":3186,"i_lat":-6.209883,"time":4,"line":2,"station_name":"Manggarai","is_transit":false},{"is_transit":false,"transit":false,"distance":1275,"i_lat":-6.212485,"time":2,"station_id":"MTR","i_long":106.858896,"line":1,"station_name":"Matraman"},{"line":1,"i_lat":-6.215091,"distance":1377,"time":8,"is_transit":true,"station_id":"JNG","station_name":"Jatinegara","transit":true,"i_long":106.86807400000001},{"i_long":106.861737,"line":11,"time":2,"station_id":"POK","distance":1236,"transit":false,"station_name":"Pondok Jati","i_lat":-6.209188,"is_transit":false},{"i_lat":-6.193792,"time":2,"station_id":"KMT","distance":1829,"station_name":"Kramat","transit":false,"is_transit":false,"line":11,"i_long":106.855437},{"is_transit":false,"i_long":106.850107,"station_id":"GST","station_name":"Gang Sentiong","transit":false,"time":1,"line":11,"distance":973,"i_lat":-6.185975},{"time":8,"distance":1567,"transit":false,"station_name":"Pasar Senen","i_lat":-6.174784,"i_long":106.84368,"line":11,"station_id":"PSE","is_transit":false},{"station_name":"Kemayoran","is_transit":false,"distance":1436,"station_id":"KMO","transit":false,"i_lat":-6.161728,"time":4,"i_long":106.839204,"line":11},{"transit":false,"line":11,"distance":1901,"station_name":"Rajawali","i_lat":-6.14505,"station_id":"RJW","time":5,"is_transit":false,"i_long":106.836569},{"transit":true,"is_transit":true,"i_long":106.826365,"line":4,"i_lat":-6.132549,"distance":1444,"station_id":"KPB","time":3,"station_name":"Kampung Bandan"},{"i_long":106.79867,"i_lat":-6.144674,"station_name":"Angke","time":9,"transit":false,"line":1,"station_id":"AK","distance":4102,"is_transit":false},{"time":4,"distance":1230,"is_transit":false,"i_long":106.800832,"station_id":"DU","i_lat":-6.155215,"line":1,"station_name":"Duri","transit":false},{"station_name":"Tanah Abang","transit":true,"is_transit":true,"distance":3632,"time":8,"station_id":"THB","i_lat":-6.185545,"i_long":106.811091,"line":1},{"i_lat":-6.207404,"station_id":"PLM","is_transit":false,"i_long":106.79689,"time":6,"transit":false,"line":6,"station_name":"Palmerah","distance":3191},{"station_id":"KBY","transit":false,"station_name":"Kebayoran","time":7,"i_long":106.780334,"i_lat":-6.237242,"line":6,"distance":3737,"is_transit":false},{"distance":6218,"transit":false,"station_id":"PDJ","time":8,"is_transit":false,"line":6,"i_long":106.74273,"i_lat":-6.276362,"station_name":"Pondokranji"},{"distance":2179,"transit":false,"is_transit":false,"i_lat":-6.288927,"station_name":"Jurangmangu","time":3,"station_id":"JMU","line":6,"i_long":106.728916},{"station_name":"Sudimara","time":4,"is_transit":false,"transit":false,"station_id":"SDM","distance":1994,"line":6,"i_lat":-6.296963,"i_long":106.712277},{"transit":false,"station_name":"Rawa Buntu","i_long":106.675475,"distance":4566,"time":6,"line":6,"is_transit":false,"station_id":"RU","i_lat":-6.314823},{"distance":2413,"station_id":"SRP","i_long":106.66566,"i_lat":-6.319871,"is_transit":false,"transit":false,"time":4,"station_name":"Serpong","line":6},{"is_transit":false,"station_id":"CSK","transit":false,"line":3,"i_lat":-6.32484,"time":4,"distance":1784,"i_long":106.640411,"station_name":"Cisauk"},{"line":3,"is_transit":false,"i_long":106.617853,"station_name":"Cicayur","station_id":"CC","time":4,"distance":2519,"transit":false,"i_lat":-6.329547},{"time":8,"transit":false,"station_name":"Parung Panjang","station_id":"PRP","i_lat":-6.3441410000000005,"i_long":106.568863,"distance":5968,"is_transit":false,"line":6},{"distance":7025,"transit":false,"line":3,"time":9,"i_lat":-6.354349,"station_id":"CJT","station_name":"Cilejit","is_transit":false,"i_long":106.508482}]]}