{"data":[[{"station_id":"SUDB","time":0,"distance":0,"i_long":106.819881,"line":1,"is_transit":false,"i_lat":-6.201433,"station_name":"Sudirman Baru","transit":false},{"is_transit":false,"station_name":"Karet","line":1,"time":1,"transit":false,"station_id":"KAT","i_lat":-6.20132,"i_long":106.816351,"distance":471},{"i_lat":-6.185545,"station_name":"Tanah Abang","is_transit":true,"i_long":106.811091,"distance":2029,"line":1,"transit":true,"station_id":"THB","time":5},{"station_name":"Palmerah","transit":false,"station_id":"PLM","i_lat":-6.207404,"time":6,"i_long":106.79689,"distance":3191,"line":6,"is_transit":false},{"i_lat":-6.237242,"is_transit":false,"transit":false,"distance":3737,"i_long":106.780334,"station_name":"Kebayoran","station_id":"KBY","time":7,"line":6},{"i_long":106.74273,"is_transit":false,"station_id":"PDJ","station_name":"Pondokranji","distance":6218,"i_lat":-6.276362,"line":6,"transit":false,"time":8},{"distance":2179,"i_long":106.728916,"time":3,"line":6,"i_lat":-6.288927,"station_name":"Jurangmangu","is_transit":false,"station_id":"JMU","transit":false},{"i_lat":-6.296963,"is_transit":false,"distance":1994,"time":4,"i_long":106.712277,"transit":false,"station_id":"SDM","station_name":"Sudimara","line":6},{"transit":false,"line":6,"time":6,"i_lat":-6.314823,"is_transit":false,"station_name":"Rawa Buntu","distance":4566,"i_long":106.675475,"station_id":"RU"},{"transit":false,"i_lat":-6.319871,"is_transit":false,"station_name":"Serpong","station_id":"SRP","time":4,"line":6,"distance":2413,"i_long":106.66566},{"transit":false,"time":4,"station_id":"CSK","is_transit":false,"distance":1784,"station_name":"Cisauk","i_lat":-6.32484,"i_long":106.640411,"line":3},{"i_lat":-6.329547,"distance":2519,"is_transit":false,"time":4,"station_id":"CC","i_long":106.617853,"station_name":"Cicayur","line":3,"transit":false},{"time":8,"transit":false,"station_id":"PRP","i_lat":-6.3441410000000005,"i_long":106.568863,"is_transit":false,"station_name":"Parung Panjang","line":6,"distance":5968},{"transit":false,"station_id":"CJT","i_lat":-6.354349,"line":3,"is_transit":false,"distance":7025,"i_long":106.508482,"station_name":"Cilejit","time":9}],[{"station_name":"Sudirman Baru","i_long":106.819881,"i_lat":-6.201433,"time":0,"is_transit":false,"line":1,"transit":false,"distance":0,"station_id":"SUDB"},{"is_transit":false,"transit":false,"line":1,"distance":280,"i_long":106.822649,"station_id":"SUD","time":1,"station_name":"Sudirman","i_lat":-6.202263},{"i_lat":-6.209883,"line":2,"i_long":106.84912,"distance":3186,"is_transit":true,"station_id":"MRI","transit":true,"station_name":"Manggarai","time":4},{"distance":1590,"station_name":"Cikini","i_lat":-6.198556,"transit":false,"time":4,"is_transit":false,"i_long":106.840169,"station_id":"CKI","line":2},{"station_name":"Gondangdia","i_long":106.832183,"transit":false,"line":2,"is_transit":false,"time":3,"distance":1750,"i_lat":-6.186295,"station_id":"GDD"},{"line":2,"is_transit":false,"station_name":"Juanda","i_long":106.828284,"transit":false,"station_id":"JUA","distance":2015,"i_lat":-6.166716,"time":4},{"transit":false,"station_name":"Sawah Besar","is_transit":false,"i_lat":-6.160725,"station_id":"SW","line":2,"time":2,"i_long":106.827103,"distance":1149},{"transit":false,"station_name":"Manggabesar","distance":906,"i_lat":-6.149769,"i_long":106.82482,"station_id":"MGB","is_transit":false,"time":2,"line":2},{"station_id":"JAY","transit":false,"is_transit":false,"distance":1080,"time":2,"i_long":106.820901,"station_name":"Jayakarta","line":2,"i_lat":-6.141205},{"transit":true,"time":4,"is_transit":true,"station_name":"Jakarta Kota","i_lat":-6.137569,"station_id":"JAKK","distance":1264,"i_long":106.812439,"line":2},{"is_transit":true,"i_long":106.826365,"station_id":"KPB","i_lat":-6.132549,"time":3,"transit":true,"distance":1364,"line":4,"station_name":"Kampung Bandan"},{"station_id":"AK","transit":false,"is_transit":false,"i_long":106.79867,"station_name":"Angke","distance":4102,"i_lat":-6.144674,"line":1,"time":9},{"transit":false,"distance":1230,"i_long":106.800832,"i_lat":-6.155215,"is_transit":false,"station_id":"DU","time":4,"station_name":"Duri","line":1},{"i_long":106.811091,"i_lat":-6.185545,"station_name":"Tanah Abang","line":1,"time":8,"distance":3632,"transit":true,"station_id":"THB","is_transit":true},{"time":6,"line":6,"distance":3191,"i_long":106.79689,"is_transit":false,"station_name":"Palmerah","i_lat":-6.207404,"station_id":"PLM","transit":false},{"transit":false,"station_id":"KBY","time":7,"i_long":106.780334,"line":6,"distance":3737,"station_name":"Kebayoran","i_lat":-6.237242,"is_transit":false},{"i_long":106.74273,"station_name":"Pondokranji","line":6,"distance":6218,"i_lat":-6.276362,"transit":false,"station_id":"PDJ","is_transit":false,"time":8},{"i_lat":-6.288927,"is_transit":false,"transit":false,"station_id":"JMU","i_long":106.728916,"line":6,"distance":2179,"time":3,"station_name":"Jurangmangu"},{"distance":1994,"is_transit":false,"i_long":106.712277,"line":6,"time":4,"transit":false,"station_name":"Sudimara","station_id":"SDM","i_lat":-6.296963},{"station_name":"Rawa Buntu","i_lat":-6.314823,"station_id":"RU","time":6,"is_transit":false,"distance":4566,"transit":false,"i_long":106.675475,"line":6},{"transit":false,"station_id":"SRP","i_long":106.66566,"line":6,"distance":2413,"is_transit":false,"time":4,"i_lat":-6.319871,"station_name":"Serpong"},{"i_long":106.640411,"line":3,"time":4,"is_transit":false,"i_lat":-6.32484,"station_name":"Cisauk","station_id":"CSK","transit":false,"distance":1784},{"distance":2519,"i_lat":-6.329547,"station_id":"CC","is_transit":false,"station_name":"Cicayur","time":4,"i_long":106.617853,"line":3,"transit":false},{"time":8,"distance":5968,"i_long":106.568863,"transit":false,"line":6,"station_name":"Parung Panjang","station_id":"PRP","is_transit":false,"i_lat":-6.3441410000000005},{"i_lat":-6.354349,"i_long":106.508482,"time":9,"line":3,"distance":7025,"station_name":"Cilejit","is_transit":false,"transit":false,"station_id":"CJT"}],[{"time":0,"i_long":106.819881,"transit":false,"distance":0,"station_id":"SUDB","is_transit":false,"station_name":"Sudirman Baru","i_lat":-6.201433,"line":1},{"time":1,"i_lat":-6.202263,"i_long":106.822649,"is_transit":false,"line":1,"station_name":"Sudirman","transit":false,"station_id":"SUD","distance":280},{"time":4,"distance":3186,"i_lat":-6.209883,"station_name":"Manggarai","is_transit":false,"line":2,"i_long":106.84912,"transit":false,"station_id":"MRI"},{"i_long":106.858896,"i_lat":-6.212485,"is_transit":false,"station_id":"MTR","distance":1275,"time":2,"transit":false,"station_name":"Matraman","line":1},{"i_lat":-6.215091,"time":8,"transit":true,"line":1,"i_long":106.86807400000001,"station_id":"JNG","is_transit":true,"station_name":"Jatinegara","distance":1377},{"station_id":"POK","station_name":"Pondok Jati","i_lat":-6.209188,"distance":1236,"time":2,"i_long":106.861737,"line":11,"is_transit":false,"transit":false},{"i_lat":-6.193792,"line":11,"station_id":"KMT","is_transit":false,"station_name":"Kramat","transit":false,"time":2,"distance":1829,"i_long":106.855437},{"station_id":"GST","transit":false,"is_transit":false,"distance":973,"i_long":106.850107,"line":11,"time":1,"i_lat":-6.185975,"station_name":"Gang Sentiong"},{"is_transit":false,"i_lat":-6.174784,"time":8,"line":11,"transit":false,"station_id":"PSE","distance":1567,"station_name":"Pasar Senen","i_long":106.84368},{"transit":false,"station_id":"KMO","station_name":"Kemayoran","is_transit":false,"time":4,"line":11,"distance":1436,"i_lat":-6.161728,"i_long":106.839204},{"i_long":106.836569,"line":11,"transit":false,"station_id":"RJW","station_name":"Rajawali","i_lat":-6.14505,"time":5,"distance":1901,"is_transit":false},{"transit":true,"time":3,"station_name":"Kampung Bandan","i_long":106.826365,"line":4,"station_id":"KPB","is_transit":true,"i_lat":-6.132549,"distance":1444},{"time":9,"i_lat":-6.144674,"transit":false,"line":1,"distance":4102,"i_long":106.79867,"station_name":"Angke","station_id":"AK","is_transit":false},{"station_name":"Duri","station_id":"DU","line":1,"transit":false,"distance":1230,"is_transit":false,"i_long":106.800832,"i_lat":-6.155215,"time":4},{"i_lat":-6.185545,"i_long":106.811091,"line":1,"time":8,"transit":true,"station_name":"Tanah Abang","station_id":"THB","is_transit":true,"distance":3632},{"distance":3191,"station_id":"PLM","i_long":106.79689,"line":6,"transit":false,"station_name":"Palmerah","is_transit":false,"i_lat":-6.207404,"time":6},{"station_name":"Kebayoran","is_transit":false,"i_lat":-6.237242,"transit":false,"i_long":106.780334,"distance":3737,"line":6,"station_id":"KBY","time":7},{"line":6,"transit":false,"distance":6218,"is_transit":false,"time":8,"station_name":"Pondokranji","i_long":106.74273,"station_id":"PDJ","i_lat":-6.276362},{"station_name":"Jurangmangu","is_transit":false,"distance":2179,"time":3,"transit":false,"line":6,"i_long":106.728916,"station_id":"JMU","i_lat":-6.288927},{"i_lat":-6.296963,"line":6,"time":4,"transit":false,"station_name":"Sudimara","station_id":"SDM","is_transit":false,"distance":1994,"i_long":106.712277},{"i_long":106.675475,"line":6,"station_id":"RU","time":6,"transit":false,"distance":4566,"i_lat":-6.314823,"is_transit":false,"station_name":"Rawa Buntu"},{"is_transit":false,"i_lat":-6.319871,"time":4,"i_long":106.66566,"line":6,"station_id":"SRP","station_name":"Serpong","distance":2413,"transit":false},{"i_long":106.640411,"line":3,"time":4,"transit":false,"is_transit":false,"station_name":"Cisauk","distance":1784,"station_id":"CSK","i_lat":-6.32484},{"i_lat":-6.329547,"transit":false,"station_name":"Cicayur","line":3,"i_long":106.617853,"time":4,"distance":2519,"station_id":"CC","is_transit":false},{"i_lat":-6.3441410000000005,"i_long":106.568863,"time":8,"line":6,"distance":5968,"station_name":"Parung Panjang","station_id":"PRP","transit":false,"is_transit":false},{"time":9,"distance":7025,"transit":false,"i_lat":-6.354349,"line":3,"i_long":106.508482,"station_name":"Cilejit","station_id":"CJT","is_transit":false}]]}