{"data":[[{"transit":false,"i_lat":-6.201433,"is_transit":false,"line":1,"i_long":106.819881,"station_id":"SUDB","time":0,"station_name":"Sudirman Baru","distance":0},{"i_long":106.816351,"is_transit":false,"i_lat":-6.20132,"station_id":"KAT","station_name":"Karet","transit":false,"distance":471,"time":1,"line":1},{"station_name":"Tanah Abang","line":1,"transit":true,"time":5,"station_id":"THB","is_transit":true,"distance":2029,"i_lat":-6.185545,"i_long":106.811091},{"station_name":"Palmerah","line":6,"i_long":106.79689,"i_lat":-6.207404,"is_transit":false,"time":6,"distance":3191,"station_id":"PLM","transit":false},{"line":6,"time":7,"transit":false,"station_name":"Kebayoran","is_transit":false,"station_id":"KBY","i_lat":-6.237242,"distance":3737,"i_long":106.780334},{"line":6,"is_transit":false,"transit":false,"station_name":"Pondokranji","station_id":"PDJ","i_long":106.74273,"distance":6218,"time":8,"i_lat":-6.276362},{"i_lat":-6.288927,"line":6,"transit":false,"distance":2179,"station_id":"JMU","i_long":106.728916,"time":3,"is_transit":false,"station_name":"Jurangmangu"},{"is_transit":false,"i_long":106.712277,"transit":false,"station_name":"Sudimara","i_lat":-6.296963,"time":4,"distance":1994,"station_id":"SDM","line":6}],[{"is_transit":false,"station_id":"SUDB","transit":false,"i_long":106.819881,"distance":0,"i_lat":-6.201433,"station_name":"Sudirman Baru","time":0,"line":1},{"is_transit":false,"station_name":"Sudirman","transit":false,"station_id":"SUD","time":1,"i_long":106.822649,"i_lat":-6.202263,"line":1,"distance":280},{"transit":true,"line":0,"distance":3186,"is_transit":true,"station_name":"Manggarai","station_id":"MRI","time":4,"i_lat":-6.209883,"i_long":106.84912},{"station_id":"CKI","distance":1590,"transit":false,"i_long":106.840169,"line":0,"i_lat":-6.198556,"time":4,"station_name":"Cikini","is_transit":false},{"transit":false,"station_name":"Gondangdia","time":3,"is_transit":false,"i_long":106.832183,"i_lat":-6.186295,"distance":1750,"line":2,"station_id":"GDD"},{"i_long":106.828284,"station_id":"JUA","is_transit":false,"time":4,"line":2,"transit":false,"distance":2015,"i_lat":-6.166716,"station_name":"Juanda"},{"time":2,"is_transit":false,"line":2,"station_id":"SW","i_long":106.827103,"station_name":"Sawah Besar","distance":1149,"i_lat":-6.160725,"transit":false},{"station_name":"Manggabesar","station_id":"MGB","time":2,"i_long":106.82482,"distance":906,"i_lat":-6.149769,"transit":false,"is_transit":false,"line":2},{"i_lat":-6.141205,"is_transit":false,"station_id":"JAY","i_long":106.820901,"station_name":"Jayakarta","transit":false,"time":2,"distance":1080,"line":7},{"transit":true,"distance":1264,"time":4,"line":0,"is_transit":true,"station_id":"JAKK","station_name":"Jakarta Kota","i_lat":-6.137569,"i_long":106.812439},{"time":3,"i_lat":-6.132549,"line":0,"station_name":"Kampung Bandan","transit":false,"i_long":106.826365,"distance":1364,"is_transit":true,"station_id":"KPB"},{"station_name":"Angke","transit":false,"i_long":106.79867,"line":0,"distance":4102,"i_lat":-6.144674,"time":9,"is_transit":false,"station_id":"AK"},{"station_name":"Duri","time":4,"i_long":106.800832,"distance":1230,"i_lat":-6.155215,"line":1,"station_id":"DU","is_transit":true,"transit":true},{"transit":true,"time":8,"distance":3632,"i_long":106.811091,"line":1,"station_name":"Tanah Abang","station_id":"THB","i_lat":-6.185545,"is_transit":true},{"is_transit":false,"time":6,"i_long":106.79689,"station_id":"PLM","transit":false,"i_lat":-6.207404,"line":6,"distance":3191,"station_name":"Palmerah"},{"distance":3737,"station_id":"KBY","station_name":"Kebayoran","is_transit":false,"i_lat":-6.237242,"transit":false,"line":6,"i_long":106.780334,"time":7},{"station_name":"Pondokranji","line":6,"i_lat":-6.276362,"time":8,"transit":false,"distance":6218,"station_id":"PDJ","is_transit":false,"i_long":106.74273},{"station_name":"Jurangmangu","i_long":106.728916,"line":6,"time":3,"distance":2179,"is_transit":false,"station_id":"JMU","transit":false,"i_lat":-6.288927},{"station_id":"SDM","transit":false,"i_lat":-6.296963,"time":4,"distance":1994,"i_long":106.712277,"station_name":"Sudimara","line":6,"is_transit":false}],[{"distance":0,"i_long":106.819881,"time":0,"i_lat":-6.201433,"is_transit":false,"station_name":"Sudirman Baru","station_id":"SUDB","line":1,"transit":false},{"station_id":"SUD","transit":false,"i_lat":-6.202263,"station_name":"Sudirman","distance":280,"line":1,"i_long":106.822649,"is_transit":false,"time":1},{"i_lat":-6.209883,"distance":3186,"time":4,"i_long":106.84912,"line":0,"station_name":"Manggarai","transit":false,"station_id":"MRI","is_transit":true},{"transit":false,"distance":1275,"station_name":"Matraman","station_id":"MTR","time":2,"i_lat":-6.212485,"line":1,"is_transit":false,"i_long":106.858896},{"time":8,"station_id":"JNG","line":0,"transit":true,"i_long":106.86807400000001,"is_transit":true,"station_name":"Jatinegara","distance":1377,"i_lat":-6.215091},{"line":11,"station_id":"POK","distance":1236,"is_transit":false,"i_long":106.861737,"i_lat":-6.209188,"time":2,"transit":false,"station_name":"Pondok Jati"},{"distance":1829,"station_id":"KMT","time":2,"station_name":"Kramat","i_long":106.855437,"line":11,"transit":false,"i_lat":-6.193792,"is_transit":false},{"time":1,"station_id":"GST","transit":false,"is_transit":false,"i_lat":-6.185975,"i_long":106.850107,"distance":973,"station_name":"Gang Sentiong","line":11},{"transit":false,"station_name":"Pasar Senen","time":8,"i_lat":-6.174784,"i_long":106.84368,"is_transit":false,"line":11,"distance":1567,"station_id":"PSE"},{"transit":false,"distance":1436,"station_name":"Kemayoran","is_transit":false,"i_long":106.839204,"line":11,"station_id":"KMO","time":4,"i_lat":-6.161728},{"line":11,"time":5,"station_name":"Rajawali","i_lat":-6.14505,"is_transit":false,"distance":1901,"station_id":"RJW","transit":false,"i_long":106.836569},{"distance":1444,"i_lat":-6.132549,"is_transit":true,"transit":true,"station_id":"KPB","time":3,"station_name":"Kampung Bandan","i_long":106.826365,"line":0},{"is_transit":false,"station_id":"AK","time":9,"distance":4102,"station_name":"Angke","i_lat":-6.144674,"i_long":106.79867,"transit":false,"line":0},{"i_long":106.800832,"station_id":"DU","time":4,"distance":1230,"is_transit":true,"line":1,"station_name":"Duri","i_lat":-6.155215,"transit":true},{"line":1,"station_name":"Tanah Abang","is_transit":true,"distance":3632,"station_id":"THB","time":8,"transit":true,"i_lat":-6.185545,"i_long":106.811091},{"distance":3191,"transit":false,"station_name":"Palmerah","i_long":106.79689,"is_transit":false,"time":6,"station_id":"PLM","i_lat":-6.207404,"line":6},{"i_lat":-6.237242,"distance":3737,"transit":false,"station_name":"Kebayoran","station_id":"KBY","i_long":106.780334,"is_transit":false,"time":7,"line":6},{"i_long":106.74273,"station_id":"PDJ","i_lat":-6.276362,"station_name":"Pondokranji","time":8,"line":6,"distance":6218,"transit":false,"is_transit":false},{"time":3,"station_id":"JMU","i_long":106.728916,"i_lat":-6.288927,"line":6,"transit":false,"is_transit":false,"distance":2179,"station_name":"Jurangmangu"},{"distance":1994,"is_transit":false,"time":4,"station_id":"SDM","station_name":"Sudimara","i_lat":-6.296963,"line":6,"i_long":106.712277,"transit":false}]]}