{"data":[[{"time":0,"i_lat":-6.201433,"station_name":"Sudirman Baru","station_id":"SUDB","i_long":106.819881,"distance":0,"line":1,"transit":false,"is_transit":false},{"station_id":"KAT","transit":false,"i_lat":-6.20132,"i_long":106.816351,"line":1,"time":1,"station_name":"Karet","is_transit":false,"distance":471},{"is_transit":true,"transit":true,"station_id":"THB","i_long":106.811091,"time":5,"station_name":"Tanah Abang","distance":2029,"i_lat":-6.185545,"line":1},{"station_id":"PLM","line":6,"transit":false,"station_name":"Palmerah","time":6,"distance":3191,"i_lat":-6.207404,"is_transit":false,"i_long":106.79689},{"is_transit":false,"distance":3737,"line":6,"i_long":106.780334,"time":7,"i_lat":-6.237242,"station_name":"Kebayoran","station_id":"KBY","transit":false},{"time":8,"line":6,"is_transit":false,"i_lat":-6.276362,"i_long":106.74273,"distance":6218,"transit":false,"station_name":"Pondokranji","station_id":"PDJ"},{"station_id":"JMU","time":3,"distance":2179,"i_lat":-6.288927,"transit":false,"is_transit":false,"line":6,"station_name":"Jurangmangu","i_long":106.728916},{"i_lat":-6.296963,"is_transit":false,"station_id":"SDM","distance":1994,"line":6,"i_long":106.712277,"time":4,"transit":false,"station_name":"Sudimara"},{"i_lat":-6.314823,"time":6,"i_long":106.675475,"station_name":"Rawa Buntu","is_transit":false,"transit":false,"line":6,"station_id":"RU","distance":4566},{"is_transit":false,"distance":2413,"i_lat":-6.319871,"time":4,"transit":false,"i_long":106.66566,"line":6,"station_id":"SRP","station_name":"Serpong"},{"transit":false,"station_id":"CSK","is_transit":false,"i_lat":-6.32484,"distance":1784,"i_long":106.640411,"line":3,"station_name":"Cisauk","time":4},{"line":3,"is_transit":false,"transit":false,"i_long":106.617853,"distance":2519,"time":4,"station_name":"Cicayur","i_lat":-6.329547,"station_id":"CC"},{"station_name":"Parung Panjang","is_transit":false,"i_lat":-6.3441410000000005,"station_id":"PRP","distance":5968,"transit":false,"time":8,"line":6,"i_long":106.568863},{"i_long":106.508482,"station_name":"Cilejit","transit":false,"line":3,"is_transit":false,"distance":7025,"i_lat":-6.354349,"station_id":"CJT","time":9},{"transit":false,"i_long":106.491338,"distance":2675,"time":6,"is_transit":false,"i_lat":-6.338021,"station_id":"DAR","line":0,"station_name":"Daru"},{"distance":3902,"transit":false,"time":5,"station_id":"TEJ","i_lat":-6.327251,"line":6,"i_long":106.460812,"is_transit":false,"station_name":"Tenjo"},{"station_id":"TGS","station_name":"Tigaraksa","i_long":106.425991,"transit":false,"line":6,"time":5,"is_transit":false,"i_lat":-6.328533,"distance":2974},{"i_lat":-6.33561,"is_transit":false,"time":3,"station_id":"CKY","line":3,"distance":2651,"transit":false,"station_name":"Cikoya","i_long":106.411216}],[{"station_id":"SUDB","time":0,"is_transit":false,"i_lat":-6.201433,"station_name":"Sudirman Baru","transit":false,"i_long":106.819881,"line":1,"distance":0},{"station_id":"SUD","distance":280,"transit":false,"time":1,"i_lat":-6.202263,"i_long":106.822649,"line":1,"station_name":"Sudirman","is_transit":false},{"line":2,"transit":true,"station_name":"Manggarai","distance":3186,"time":4,"is_transit":true,"station_id":"MRI","i_lat":-6.209883,"i_long":106.84912},{"transit":false,"is_transit":false,"station_id":"CKI","line":2,"station_name":"Cikini","distance":1590,"i_lat":-6.198556,"i_long":106.840169,"time":4},{"time":3,"distance":1750,"i_lat":-6.186295,"station_id":"GDD","station_name":"Gondangdia","transit":false,"i_long":106.832183,"is_transit":false,"line":2},{"distance":2015,"station_name":"Juanda","i_lat":-6.166716,"station_id":"JUA","transit":false,"line":2,"time":4,"i_long":106.828284,"is_transit":false},{"line":2,"distance":1149,"i_lat":-6.160725,"transit":false,"station_id":"SW","is_transit":false,"time":2,"station_name":"Sawah Besar","i_long":106.827103},{"i_lat":-6.149769,"transit":false,"time":2,"i_long":106.82482,"is_transit":false,"station_name":"Manggabesar","distance":906,"line":2,"station_id":"MGB"},{"distance":1080,"transit":false,"is_transit":false,"line":2,"i_lat":-6.141205,"station_id":"JAY","i_long":106.820901,"time":2,"station_name":"Jayakarta"},{"transit":true,"is_transit":true,"time":4,"station_name":"Jakarta Kota","i_lat":-6.137569,"line":2,"station_id":"JAKK","i_long":106.812439,"distance":1264},{"time":3,"station_name":"Kampung Bandan","is_transit":true,"line":4,"transit":true,"station_id":"KPB","i_long":106.826365,"distance":1364,"i_lat":-6.132549},{"is_transit":false,"i_long":106.79867,"i_lat":-6.144674,"distance":4102,"transit":false,"time":9,"line":1,"station_name":"Angke","station_id":"AK"},{"distance":1230,"i_lat":-6.155215,"line":1,"i_long":106.800832,"station_id":"DU","transit":false,"station_name":"Duri","is_transit":false,"time":4},{"time":8,"distance":3632,"transit":true,"station_name":"Tanah Abang","station_id":"THB","is_transit":true,"i_lat":-6.185545,"i_long":106.811091,"line":1},{"line":6,"station_id":"PLM","i_lat":-6.207404,"is_transit":false,"time":6,"station_name":"Palmerah","i_long":106.79689,"distance":3191,"transit":false},{"distance":3737,"time":7,"i_long":106.780334,"station_id":"KBY","is_transit":false,"i_lat":-6.237242,"line":6,"station_name":"Kebayoran","transit":false},{"i_long":106.74273,"distance":6218,"i_lat":-6.276362,"station_id":"PDJ","is_transit":false,"line":6,"time":8,"transit":false,"station_name":"Pondokranji"},{"transit":false,"station_name":"Jurangmangu","line":6,"time":3,"distance":2179,"is_transit":false,"station_id":"JMU","i_long":106.728916,"i_lat":-6.288927},{"transit":false,"distance":1994,"time":4,"station_name":"Sudimara","station_id":"SDM","i_long":106.712277,"i_lat":-6.296963,"is_transit":false,"line":6},{"time":6,"line":6,"station_name":"Rawa Buntu","is_transit":false,"distance":4566,"transit":false,"i_lat":-6.314823,"station_id":"RU","i_long":106.675475},{"i_lat":-6.319871,"station_name":"Serpong","station_id":"SRP","i_long":106.66566,"transit":false,"distance":2413,"is_transit":false,"line":6,"time":4},{"distance":1784,"station_name":"Cisauk","i_lat":-6.32484,"transit":false,"is_transit":false,"line":3,"station_id":"CSK","time":4,"i_long":106.640411},{"is_transit":false,"i_long":106.617853,"i_lat":-6.329547,"line":3,"station_name":"Cicayur","distance":2519,"station_id":"CC","transit":false,"time":4},{"is_transit":false,"i_long":106.568863,"station_name":"Parung Panjang","distance":5968,"station_id":"PRP","line":6,"time":8,"i_lat":-6.3441410000000005,"transit":false},{"i_long":106.508482,"station_name":"Cilejit","distance":7025,"station_id":"CJT","time":9,"transit":false,"is_transit":false,"i_lat":-6.354349,"line":3},{"transit":false,"station_name":"Daru","station_id":"DAR","time":6,"distance":2675,"i_lat":-6.338021,"i_long":106.491338,"is_transit":false,"line":0},{"i_long":106.460812,"station_id":"TEJ","time":5,"distance":3902,"is_transit":false,"i_lat":-6.327251,"transit":false,"line":6,"station_name":"Tenjo"},{"station_id":"TGS","distance":2974,"line":6,"i_long":106.425991,"transit":false,"station_name":"Tigaraksa","is_transit":false,"i_lat":-6.328533,"time":5},{"distance":2651,"station_name":"Cikoya","transit":false,"time":3,"station_id":"CKY","i_lat":-6.33561,"is_transit":false,"i_long":106.411216,"line":3}],[{"i_lat":-6.201433,"i_long":106.819881,"station_id":"SUDB","transit":false,"station_name":"Sudirman Baru","line":1,"is_transit":false,"time":0,"distance":0},{"distance":280,"line":1,"i_long":106.822649,"transit":false,"is_transit":false,"station_name":"Sudirman","time":1,"station_id":"SUD","i_lat":-6.202263},{"i_lat":-6.209883,"i_long":106.84912,"time":4,"distance":3186,"is_transit":false,"line":2,"station_name":"Manggarai","transit":false,"station_id":"MRI"},{"i_long":106.858896,"line":1,"station_id":"MTR","time":2,"station_name":"Matraman","i_lat":-6.212485,"transit":false,"is_transit":false,"distance":1275},{"distance":1377,"transit":true,"station_name":"Jatinegara","is_transit":true,"time":8,"i_lat":-6.215091,"i_long":106.86807400000001,"station_id":"JNG","line":1},{"station_id":"POK","time":2,"station_name":"Pondok Jati","distance":1236,"is_transit":false,"i_lat":-6.209188,"i_long":106.861737,"line":11,"transit":false},{"station_name":"Kramat","transit":false,"is_transit":false,"time":2,"line":11,"station_id":"KMT","distance":1829,"i_lat":-6.193792,"i_long":106.855437},{"distance":973,"is_transit":false,"line":11,"transit":false,"i_lat":-6.185975,"time":1,"station_name":"Gang Sentiong","station_id":"GST","i_long":106.850107},{"i_long":106.84368,"station_id":"PSE","transit":false,"is_transit":false,"time":8,"distance":1567,"i_lat":-6.174784,"station_name":"Pasar Senen","line":11},{"i_lat":-6.161728,"distance":1436,"transit":false,"station_name":"Kemayoran","is_transit":false,"station_id":"KMO","time":4,"i_long":106.839204,"line":11},{"line":11,"i_lat":-6.14505,"distance":1901,"i_long":106.836569,"transit":false,"station_name":"Rajawali","station_id":"RJW","time":5,"is_transit":false},{"is_transit":true,"transit":true,"station_id":"KPB","i_long":106.826365,"time":3,"i_lat":-6.132549,"line":4,"distance":1444,"station_name":"Kampung Bandan"},{"i_lat":-6.144674,"is_transit":false,"distance":4102,"station_id":"AK","time":9,"transit":false,"line":1,"i_long":106.79867,"station_name":"Angke"},{"transit":false,"is_transit":false,"station_id":"DU","distance":1230,"time":4,"i_lat":-6.155215,"i_long":106.800832,"station_name":"Duri","line":1},{"transit":true,"is_transit":true,"i_long":106.811091,"station_name":"Tanah Abang","i_lat":-6.185545,"distance":3632,"line":1,"station_id":"THB","time":8},{"i_lat":-6.207404,"station_id":"PLM","transit":false,"i_long":106.79689,"time":6,"line":6,"station_name":"Palmerah","is_transit":false,"distance":3191},{"transit":false,"station_id":"KBY","i_long":106.780334,"distance":3737,"time":7,"i_lat":-6.237242,"station_name":"Kebayoran","line":6,"is_transit":false},{"transit":false,"station_name":"Pondokranji","i_lat":-6.276362,"line":6,"i_long":106.74273,"station_id":"PDJ","is_transit":false,"time":8,"distance":6218},{"time":3,"is_transit":false,"distance":2179,"i_long":106.728916,"station_name":"Jurangmangu","line":6,"transit":false,"i_lat":-6.288927,"station_id":"JMU"},{"station_name":"Sudimara","distance":1994,"line":6,"is_transit":false,"transit":false,"station_id":"SDM","time":4,"i_long":106.712277,"i_lat":-6.296963},{"time":6,"distance":4566,"i_long":106.675475,"transit":false,"station_id":"RU","is_transit":false,"i_lat":-6.314823,"station_name":"Rawa Buntu","line":6},{"i_lat":-6.319871,"distance":2413,"is_transit":false,"time":4,"i_long":106.66566,"station_id":"SRP","station_name":"Serpong","transit":false,"line":6},{"i_lat":-6.32484,"i_long":106.640411,"station_name":"Cisauk","transit":false,"distance":1784,"line":3,"station_id":"CSK","is_transit":false,"time":4},{"i_lat":-6.329547,"transit":false,"time":4,"station_id":"CC","is_transit":false,"line":3,"distance":2519,"station_name":"Cicayur","i_long":106.617853},{"time":8,"transit":false,"station_id":"PRP","i_lat":-6.3441410000000005,"i_long":106.568863,"distance":5968,"station_name":"Parung Panjang","is_transit":false,"line":6},{"i_lat":-6.354349,"line":3,"transit":false,"station_id":"CJT","is_transit":false,"distance":7025,"i_long":106.508482,"time":9,"station_name":"Cilejit"},{"i_long":106.491338,"station_id":"DAR","time":6,"station_name":"Daru","i_lat":-6.338021,"is_transit":false,"transit":false,"distance":2675,"line":0},{"line":6,"station_name":"Tenjo","i_lat":-6.327251,"i_long":106.460812,"station_id":"TEJ","transit":false,"time":5,"is_transit":false,"distance":3902},{"station_name":"Tigaraksa","transit":false,"is_transit":false,"line":6,"i_long":106.425991,"station_id":"TGS","distance":2974,"time":5,"i_lat":-6.328533},{"station_name":"Cikoya","line":3,"station_id":"CKY","is_transit":false,"distance":2651,"time":3,"i_lat":-6.33561,"transit":false,"i_long":106.411216}]]}