{"data":[[{"i_lat":-6.201433,"transit":false,"station_name":"Sudirman Baru","distance":0,"time":0,"station_id":"SUDB","i_long":106.819881,"line":1,"is_transit":false},{"distance":280,"transit":false,"station_name":"Sudirman","station_id":"SUD","i_lat":-6.202263,"i_long":106.822649,"line":1,"time":1,"is_transit":false},{"transit":true,"i_long":106.84912,"is_transit":true,"line":0,"time":4,"distance":3186,"station_name":"Manggarai","i_lat":-6.209883,"station_id":"MRI"},{"transit":false,"is_transit":false,"station_id":"TEB","i_long":106.857948,"time":4,"station_name":"Tebet","distance":2610,"i_lat":-6.226659,"line":2},{"line":0,"time":2,"distance":1230,"transit":false,"station_name":"Cawang","is_transit":false,"i_long":106.856607,"i_lat":-6.242512,"station_id":"CW"},{"i_lat":-6.255332,"station_id":"DRN","is_transit":false,"station_name":"Duren Kalibata","line":0,"transit":false,"time":3,"distance":1546,"i_long":106.85449},{"i_long":106.851577,"station_name":"Pasar Minggu Baru","i_lat":-6.263214,"distance":824,"station_id":"PSMB","transit":false,"is_transit":false,"time":2,"line":2},{"i_long":106.843999,"distance":2380,"station_name":"Pasar Minggu","transit":false,"i_lat":-6.2842400000000005,"line":2,"time":2,"is_transit":false,"station_id":"PSM"},{"line":2,"i_lat":-6.3080680000000005,"station_id":"TNT","station_name":"Tanjung Barat","distance":2820,"transit":false,"is_transit":false,"i_long":106.838896,"time":4},{"station_id":"LNA","is_transit":false,"i_lat":-6.330363,"i_long":106.832616,"line":2,"time":3,"station_name":"Lenteng Agung","distance":2671,"transit":false},{"is_transit":false,"station_id":"UP","distance":1029,"transit":false,"i_long":106.834175,"time":2,"line":2,"station_name":"Univ. Pancasila","i_lat":-6.339291},{"transit":false,"time":3,"station_id":"UI","i_lat":-6.360749,"line":2,"station_name":"Univ. Indonesia","i_long":106.831474,"distance":2264,"is_transit":false},{"is_transit":false,"i_lat":-6.369073,"line":2,"distance":1109,"time":2,"station_id":"POC","station_name":"Pondok Cina","transit":false,"i_long":106.831114},{"station_name":"Depokbaru","i_long":106.819451,"time":4,"distance":2727,"station_id":"DPB","line":0,"i_lat":-6.391065,"transit":false,"is_transit":false},{"i_long":106.816926,"time":3,"station_id":"DP","line":0,"transit":false,"i_lat":-6.405256,"is_transit":false,"station_name":"Depok","distance":1584},{"is_transit":true,"distance":5084,"i_lat":-6.448811,"time":6,"transit":false,"station_name":"Citayam","i_long":106.800298,"line":1,"station_id":"CTA"},{"line":0,"distance":5197,"is_transit":false,"time":5,"station_id":"BJD","station_name":"Bojonggede","i_lat":-6.493243,"i_long":106.792719,"transit":false},{"station_name":"Cilebut","distance":4331,"station_id":"CLT","i_lat":-6.530544,"line":0,"is_transit":false,"transit":false,"time":5,"i_long":106.800016}],[{"station_id":"SUDB","i_lat":-6.201433,"time":0,"distance":0,"is_transit":false,"transit":false,"line":1,"station_name":"Sudirman Baru","i_long":106.819881},{"time":1,"distance":471,"i_long":106.816351,"station_id":"KAT","station_name":"Karet","line":1,"transit":false,"is_transit":false,"i_lat":-6.20132},{"transit":false,"distance":2029,"station_id":"THB","i_lat":-6.185545,"time":5,"station_name":"Tanah Abang","is_transit":true,"i_long":106.811091,"line":1},{"distance":3632,"transit":true,"line":1,"station_id":"DU","is_transit":true,"station_name":"Duri","i_lat":-6.155215,"time":8,"i_long":106.800832},{"time":4,"station_name":"Angke","station_id":"AK","distance":1230,"transit":false,"i_long":106.79867,"is_transit":false,"line":0,"i_lat":-6.144674},{"i_lat":-6.132549,"i_long":106.826365,"line":0,"transit":false,"time":9,"distance":4102,"station_id":"KPB","station_name":"Kampung Bandan","is_transit":true},{"i_lat":-6.137569,"time":3,"distance":1364,"station_name":"Jakarta Kota","line":0,"transit":true,"i_long":106.812439,"station_id":"JAKK","is_transit":true},{"transit":false,"line":7,"station_id":"JAY","time":4,"i_long":106.820901,"station_name":"Jayakarta","i_lat":-6.141205,"distance":1264,"is_transit":false},{"transit":false,"i_lat":-6.149769,"station_id":"MGB","station_name":"Manggabesar","time":2,"i_long":106.82482,"distance":1080,"is_transit":false,"line":2},{"i_long":106.827103,"is_transit":false,"line":2,"station_id":"SW","time":2,"distance":906,"transit":false,"station_name":"Sawah Besar","i_lat":-6.160725},{"transit":false,"is_transit":false,"line":2,"station_id":"JUA","i_long":106.828284,"distance":1149,"station_name":"Juanda","time":2,"i_lat":-6.166716},{"is_transit":false,"i_long":106.832183,"transit":false,"time":4,"station_id":"GDD","station_name":"Gondangdia","distance":2015,"i_lat":-6.186295,"line":2},{"transit":false,"time":3,"station_id":"CKI","is_transit":false,"distance":1750,"station_name":"Cikini","line":0,"i_long":106.840169,"i_lat":-6.198556},{"is_transit":true,"i_lat":-6.209883,"i_long":106.84912,"station_id":"MRI","distance":1590,"transit":true,"station_name":"Manggarai","time":4,"line":0},{"station_name":"Tebet","is_transit":false,"i_lat":-6.226659,"line":2,"time":4,"station_id":"TEB","transit":false,"distance":2610,"i_long":106.857948},{"is_transit":false,"line":0,"transit":false,"station_name":"Cawang","time":2,"distance":1230,"station_id":"CW","i_lat":-6.242512,"i_long":106.856607},{"time":3,"i_lat":-6.255332,"transit":false,"is_transit":false,"i_long":106.85449,"distance":1546,"station_id":"DRN","station_name":"Duren Kalibata","line":0},{"distance":824,"line":2,"is_transit":false,"transit":false,"i_lat":-6.263214,"station_name":"Pasar Minggu Baru","time":2,"station_id":"PSMB","i_long":106.851577},{"time":2,"i_long":106.843999,"i_lat":-6.2842400000000005,"is_transit":false,"line":2,"transit":false,"station_name":"Pasar Minggu","station_id":"PSM","distance":2380},{"station_id":"TNT","transit":false,"station_name":"Tanjung Barat","line":2,"distance":2820,"is_transit":false,"i_lat":-6.3080680000000005,"i_long":106.838896,"time":4},{"time":3,"station_name":"Lenteng Agung","station_id":"LNA","i_lat":-6.330363,"i_long":106.832616,"distance":2671,"is_transit":false,"line":2,"transit":false},{"is_transit":false,"station_name":"Univ. Pancasila","i_lat":-6.339291,"line":2,"time":2,"i_long":106.834175,"distance":1029,"station_id":"UP","transit":false},{"transit":false,"i_lat":-6.360749,"i_long":106.831474,"distance":2264,"time":3,"station_id":"UI","is_transit":false,"station_name":"Univ. Indonesia","line":2},{"transit":false,"i_lat":-6.369073,"station_id":"POC","distance":1109,"is_transit":false,"i_long":106.831114,"line":2,"time":2,"station_name":"Pondok Cina"},{"i_lat":-6.391065,"is_transit":false,"distance":2727,"line":0,"time":4,"station_name":"Depokbaru","i_long":106.819451,"transit":false,"station_id":"DPB"},{"station_name":"Depok","i_long":106.816926,"transit":false,"is_transit":false,"line":0,"time":3,"i_lat":-6.405256,"distance":1584,"station_id":"DP"},{"i_lat":-6.448811,"line":1,"station_id":"CTA","transit":false,"distance":5084,"is_transit":true,"time":6,"station_name":"Citayam","i_long":106.800298},{"station_name":"Bojonggede","distance":5197,"i_lat":-6.493243,"transit":false,"station_id":"BJD","is_transit":false,"time":5,"line":0,"i_long":106.792719},{"distance":4331,"station_name":"Cilebut","i_long":106.800016,"station_id":"CLT","transit":false,"line":0,"is_transit":false,"i_lat":-6.530544,"time":5}],[{"distance":0,"station_name":"Sudirman Baru","transit":false,"i_lat":-6.201433,"is_transit":false,"time":0,"i_long":106.819881,"line":1,"station_id":"SUDB"},{"i_lat":-6.20132,"time":1,"station_id":"KAT","i_long":106.816351,"distance":471,"transit":false,"is_transit":false,"station_name":"Karet","line":1},{"time":5,"station_id":"THB","station_name":"Tanah Abang","line":1,"distance":2029,"i_lat":-6.185545,"i_long":106.811091,"transit":false,"is_transit":true},{"transit":true,"distance":3632,"station_id":"DU","i_long":106.800832,"time":8,"is_transit":true,"station_name":"Duri","i_lat":-6.155215,"line":1},{"distance":1230,"time":4,"i_lat":-6.144674,"i_long":106.79867,"transit":false,"station_name":"Angke","line":0,"is_transit":false,"station_id":"AK"},{"time":9,"station_name":"Kampung Bandan","station_id":"KPB","transit":true,"distance":4102,"i_lat":-6.132549,"i_long":106.826365,"line":0,"is_transit":true},{"distance":1444,"station_id":"RJW","transit":false,"time":3,"station_name":"Rajawali","i_lat":-6.14505,"i_long":106.836569,"line":11,"is_transit":false},{"is_transit":false,"line":11,"transit":false,"time":5,"station_name":"Kemayoran","station_id":"KMO","i_lat":-6.161728,"distance":1901,"i_long":106.839204},{"line":11,"time":4,"station_id":"PSE","i_long":106.84368,"is_transit":false,"distance":1436,"station_name":"Pasar Senen","i_lat":-6.174784,"transit":false},{"time":8,"i_long":106.850107,"station_id":"GST","transit":false,"is_transit":false,"distance":1567,"i_lat":-6.185975,"line":11,"station_name":"Gang Sentiong"},{"station_id":"KMT","is_transit":false,"time":1,"distance":973,"station_name":"Kramat","i_lat":-6.193792,"i_long":106.855437,"line":11,"transit":false},{"is_transit":false,"station_id":"POK","time":2,"i_lat":-6.209188,"transit":false,"distance":1829,"line":11,"i_long":106.861737,"station_name":"Pondok Jati"},{"is_transit":true,"station_name":"Jatinegara","i_long":106.86807400000001,"line":0,"i_lat":-6.215091,"transit":true,"time":9,"distance":1236,"station_id":"JNG"},{"transit":false,"station_id":"MTR","is_transit":false,"time":2,"line":1,"station_name":"Matraman","i_lat":-6.212485,"distance":1377,"i_long":106.858896},{"time":2,"line":0,"transit":true,"station_id":"MRI","is_transit":true,"i_lat":-6.209883,"distance":1275,"station_name":"Manggarai","i_long":106.84912},{"i_lat":-6.226659,"line":2,"distance":2610,"station_id":"TEB","is_transit":false,"i_long":106.857948,"station_name":"Tebet","transit":false,"time":4},{"i_long":106.856607,"is_transit":false,"station_id":"CW","transit":false,"distance":1230,"i_lat":-6.242512,"time":2,"line":0,"station_name":"Cawang"},{"i_long":106.85449,"line":0,"station_id":"DRN","is_transit":false,"distance":1546,"station_name":"Duren Kalibata","transit":false,"time":3,"i_lat":-6.255332},{"time":2,"i_lat":-6.263214,"line":2,"is_transit":false,"distance":824,"station_id":"PSMB","i_long":106.851577,"station_name":"Pasar Minggu Baru","transit":false},{"is_transit":false,"station_id":"PSM","i_lat":-6.2842400000000005,"line":2,"transit":false,"time":2,"station_name":"Pasar Minggu","i_long":106.843999,"distance":2380},{"i_lat":-6.3080680000000005,"is_transit":false,"station_name":"Tanjung Barat","station_id":"TNT","line":2,"time":4,"i_long":106.838896,"transit":false,"distance":2820},{"distance":2671,"station_name":"Lenteng Agung","line":2,"is_transit":false,"i_long":106.832616,"transit":false,"time":3,"station_id":"LNA","i_lat":-6.330363},{"is_transit":false,"station_name":"Univ. Pancasila","time":2,"i_long":106.834175,"transit":false,"i_lat":-6.339291,"station_id":"UP","line":2,"distance":1029},{"is_transit":false,"station_id":"UI","distance":2264,"transit":false,"station_name":"Univ. Indonesia","i_long":106.831474,"line":2,"i_lat":-6.360749,"time":3},{"is_transit":false,"line":2,"i_lat":-6.369073,"station_name":"Pondok Cina","distance":1109,"transit":false,"time":2,"station_id":"POC","i_long":106.831114},{"station_id":"DPB","station_name":"Depokbaru","i_lat":-6.391065,"is_transit":false,"i_long":106.819451,"transit":false,"line":0,"time":4,"distance":2727},{"transit":false,"line":0,"distance":1584,"i_long":106.816926,"station_name":"Depok","is_transit":false,"station_id":"DP","time":3,"i_lat":-6.405256},{"i_lat":-6.448811,"i_long":106.800298,"time":6,"is_transit":true,"distance":5084,"transit":false,"station_name":"Citayam","station_id":"CTA","line":1},{"i_long":106.792719,"i_lat":-6.493243,"distance":5197,"line":0,"station_id":"BJD","station_name":"Bojonggede","is_transit":false,"time":5,"transit":false},{"distance":4331,"i_long":106.800016,"station_id":"CLT","transit":false,"is_transit":false,"i_lat":-6.530544,"station_name":"Cilebut","line":0,"time":5}]]}