{"data":[[{"station_name":"Sudirman Baru","transit":false,"station_id":"SUDB","distance":0,"is_transit":false,"i_long":106.819881,"i_lat":-6.201433,"line":1,"time":0},{"i_lat":-6.202263,"station_name":"Sudirman","i_long":106.822649,"time":1,"station_id":"SUD","transit":false,"is_transit":false,"distance":280,"line":1},{"i_long":106.84912,"line":2,"transit":false,"station_id":"MRI","time":4,"station_name":"Manggarai","distance":3186,"is_transit":false,"i_lat":-6.209883},{"station_name":"Matraman","station_id":"MTR","is_transit":false,"transit":false,"i_long":106.858896,"i_lat":-6.212485,"distance":1275,"line":1,"time":2}],[{"station_id":"SUDB","i_long":106.819881,"line":1,"distance":0,"is_transit":false,"time":0,"transit":false,"i_lat":-6.201433,"station_name":"Sudirman Baru"},{"line":1,"transit":false,"distance":471,"i_long":106.816351,"station_name":"Karet","time":1,"station_id":"KAT","is_transit":false,"i_lat":-6.20132},{"time":5,"transit":false,"station_name":"Tanah Abang","is_transit":false,"line":1,"station_id":"THB","distance":2029,"i_lat":-6.185545,"i_long":106.811091},{"station_name":"Duri","i_long":106.800832,"i_lat":-6.155215,"time":8,"station_id":"DU","is_transit":false,"distance":3632,"transit":false,"line":1},{"i_long":106.79867,"line":1,"is_transit":false,"station_name":"Angke","transit":false,"i_lat":-6.144674,"distance":1230,"time":4,"station_id":"AK"},{"transit":true,"i_lat":-6.132549,"station_name":"Kampung Bandan","i_long":106.826365,"time":9,"distance":4102,"line":4,"is_transit":true,"station_id":"KPB"},{"is_transit":false,"station_id":"RJW","i_long":106.836569,"time":3,"station_name":"Rajawali","distance":1444,"line":11,"i_lat":-6.14505,"transit":false},{"station_name":"Kemayoran","is_transit":false,"time":5,"i_long":106.839204,"distance":1901,"station_id":"KMO","transit":false,"i_lat":-6.161728,"line":11},{"i_long":106.84368,"station_name":"Pasar Senen","transit":false,"station_id":"PSE","line":11,"is_transit":false,"i_lat":-6.174784,"time":4,"distance":1436},{"distance":1567,"i_long":106.850107,"transit":false,"i_lat":-6.185975,"line":11,"station_name":"Gang Sentiong","station_id":"GST","is_transit":false,"time":8},{"is_transit":false,"i_lat":-6.193792,"transit":false,"i_long":106.855437,"station_name":"Kramat","station_id":"KMT","time":1,"distance":973,"line":11},{"i_lat":-6.209188,"i_long":106.861737,"time":2,"is_transit":false,"line":11,"station_name":"Pondok Jati","distance":1829,"station_id":"POK","transit":false},{"station_id":"JNG","i_lat":-6.215091,"station_name":"Jatinegara","distance":1236,"i_long":106.86807400000001,"is_transit":true,"time":9,"transit":true,"line":1},{"i_long":106.858896,"i_lat":-6.212485,"transit":false,"station_id":"MTR","time":2,"station_name":"Matraman","is_transit":false,"distance":1377,"line":1}],[{"distance":0,"station_id":"SUDB","is_transit":false,"i_lat":-6.201433,"station_name":"Sudirman Baru","transit":false,"i_long":106.819881,"line":1,"time":0},{"line":1,"time":1,"transit":false,"station_name":"Karet","i_long":106.816351,"station_id":"KAT","distance":471,"is_transit":false,"i_lat":-6.20132},{"distance":2029,"i_long":106.811091,"i_lat":-6.185545,"time":5,"is_transit":false,"station_id":"THB","line":1,"station_name":"Tanah Abang","transit":false},{"i_long":106.800832,"transit":false,"station_name":"Duri","line":1,"i_lat":-6.155215,"distance":3632,"is_transit":false,"time":8,"station_id":"DU"},{"station_id":"AK","station_name":"Angke","i_long":106.79867,"distance":1230,"transit":false,"i_lat":-6.144674,"is_transit":false,"line":1,"time":4},{"is_transit":true,"distance":4102,"station_id":"KPB","i_long":106.826365,"line":4,"i_lat":-6.132549,"transit":true,"station_name":"Kampung Bandan","time":9},{"i_lat":-6.137569,"time":3,"distance":1364,"station_name":"Jakarta Kota","is_transit":true,"station_id":"JAKK","i_long":106.812439,"line":2,"transit":true},{"i_lat":-6.141205,"distance":1264,"station_name":"Jayakarta","line":2,"time":4,"is_transit":false,"transit":false,"station_id":"JAY","i_long":106.820901},{"distance":1080,"station_id":"MGB","is_transit":false,"time":2,"transit":false,"station_name":"Manggabesar","i_lat":-6.149769,"i_long":106.82482,"line":2},{"time":2,"distance":906,"transit":false,"i_lat":-6.160725,"station_id":"SW","i_long":106.827103,"is_transit":false,"line":2,"station_name":"Sawah Besar"},{"distance":1149,"time":2,"station_id":"JUA","transit":false,"i_lat":-6.166716,"is_transit":false,"i_long":106.828284,"line":2,"station_name":"Juanda"},{"time":4,"transit":false,"distance":2015,"station_name":"Gondangdia","is_transit":false,"i_lat":-6.186295,"station_id":"GDD","i_long":106.832183,"line":2},{"is_transit":false,"time":3,"line":2,"station_name":"Cikini","transit":false,"i_lat":-6.198556,"station_id":"CKI","i_long":106.840169,"distance":1750},{"station_id":"MRI","time":4,"is_transit":true,"i_lat":-6.209883,"distance":1590,"transit":true,"station_name":"Manggarai","i_long":106.84912,"line":2},{"i_lat":-6.212485,"line":1,"distance":1275,"station_name":"Matraman","transit":false,"is_transit":false,"i_long":106.858896,"time":2,"station_id":"MTR"}],[{"i_long":106.819881,"distance":0,"i_lat":-6.201433,"line":1,"is_transit":false,"transit":false,"station_id":"SUDB","station_name":"Sudirman Baru","time":0},{"distance":280,"is_transit":false,"station_name":"Sudirman","i_long":106.822649,"i_lat":-6.202263,"station_id":"SUD","line":1,"time":1,"transit":false},{"transit":true,"i_long":106.84912,"station_name":"Manggarai","line":2,"distance":3186,"station_id":"MRI","is_transit":true,"i_lat":-6.209883,"time":4},{"station_name":"Cikini","line":2,"distance":1590,"i_lat":-6.198556,"station_id":"CKI","i_long":106.840169,"is_transit":false,"time":4,"transit":false},{"line":2,"time":3,"i_long":106.832183,"station_id":"GDD","station_name":"Gondangdia","distance":1750,"is_transit":false,"transit":false,"i_lat":-6.186295},{"distance":2015,"i_long":106.828284,"transit":false,"line":2,"station_name":"Juanda","is_transit":false,"i_lat":-6.166716,"station_id":"JUA","time":4},{"station_name":"Sawah Besar","station_id":"SW","distance":1149,"time":2,"transit":false,"i_long":106.827103,"i_lat":-6.160725,"line":2,"is_transit":false},{"station_id":"MGB","line":2,"time":2,"i_lat":-6.149769,"i_long":106.82482,"station_name":"Manggabesar","transit":false,"distance":906,"is_transit":false},{"time":2,"line":2,"is_transit":false,"station_name":"Jayakarta","i_lat":-6.141205,"transit":false,"distance":1080,"station_id":"JAY","i_long":106.820901},{"is_transit":true,"i_long":106.812439,"distance":1264,"line":2,"station_name":"Jakarta Kota","transit":true,"i_lat":-6.137569,"station_id":"JAKK","time":4},{"i_lat":-6.132549,"time":3,"distance":1364,"station_id":"KPB","station_name":"Kampung Bandan","transit":true,"line":4,"is_transit":true,"i_long":106.826365},{"station_name":"Rajawali","station_id":"RJW","distance":1444,"transit":false,"line":11,"time":3,"is_transit":false,"i_lat":-6.14505,"i_long":106.836569},{"station_id":"KMO","is_transit":false,"transit":false,"i_lat":-6.161728,"station_name":"Kemayoran","i_long":106.839204,"line":11,"time":5,"distance":1901},{"distance":1436,"station_name":"Pasar Senen","station_id":"PSE","i_long":106.84368,"line":11,"i_lat":-6.174784,"time":4,"is_transit":false,"transit":false},{"is_transit":false,"station_id":"GST","i_long":106.850107,"i_lat":-6.185975,"time":8,"distance":1567,"station_name":"Gang Sentiong","transit":false,"line":11},{"station_id":"KMT","is_transit":false,"station_name":"Kramat","distance":973,"time":1,"transit":false,"line":11,"i_lat":-6.193792,"i_long":106.855437},{"station_id":"POK","time":2,"station_name":"Pondok Jati","is_transit":false,"transit":false,"i_lat":-6.209188,"i_long":106.861737,"line":11,"distance":1829},{"time":9,"line":1,"station_name":"Jatinegara","i_lat":-6.215091,"distance":1236,"i_long":106.86807400000001,"transit":true,"station_id":"JNG","is_transit":true},{"i_long":106.858896,"distance":1377,"transit":false,"station_name":"Matraman","i_lat":-6.212485,"station_id":"MTR","is_transit":false,"line":1,"time":2}]]}