{"data":[[{"station_id":"SUDB","transit":false,"line":1,"distance":0,"is_transit":false,"i_lat":-6.201433,"time":0,"station_name":"Sudirman Baru","i_long":106.819881},{"time":1,"is_transit":false,"i_lat":-6.20132,"line":1,"station_name":"Karet","transit":false,"station_id":"KAT","distance":471,"i_long":106.816351},{"distance":2029,"is_transit":true,"i_lat":-6.185545,"station_name":"Tanah Abang","time":5,"transit":false,"station_id":"THB","line":1,"i_long":106.811091},{"transit":true,"station_name":"Duri","station_id":"DU","i_lat":-6.155215,"line":1,"distance":3632,"is_transit":true,"i_long":106.800832,"time":8},{"time":3,"line":5,"station_name":"Grogol","i_long":106.788277,"is_transit":false,"transit":false,"i_lat":-6.162021,"station_id":"GGL","distance":1700},{"transit":false,"station_id":"PSG","distance":2036,"time":2,"i_long":106.771379,"line":5,"station_name":"Pesing","is_transit":false,"i_lat":-6.161433},{"transit":false,"i_lat":-6.1587309999999995,"distance":1614,"is_transit":false,"i_long":106.756522,"station_id":"TKO","line":5,"time":2,"station_name":"Taman Kota"},{"distance":2334,"line":0,"transit":false,"time":2,"station_id":"BOI","i_lat":-6.159876,"i_long":106.737035,"station_name":"Bojongindah","is_transit":false},{"distance":1152,"station_name":"Rawa Buaya","is_transit":false,"i_lat":-6.162758,"time":4,"line":5,"i_long":106.723064,"station_id":"RW","transit":false}],[{"distance":0,"is_transit":false,"line":1,"i_lat":-6.201433,"time":0,"i_long":106.819881,"transit":false,"station_name":"Sudirman Baru","station_id":"SUDB"},{"i_long":106.822649,"distance":280,"i_lat":-6.202263,"transit":false,"station_name":"Sudirman","station_id":"SUD","time":1,"line":1,"is_transit":false},{"time":4,"distance":3186,"is_transit":true,"line":0,"transit":true,"i_lat":-6.209883,"station_name":"Manggarai","i_long":106.84912,"station_id":"MRI"},{"time":4,"line":0,"i_lat":-6.198556,"station_name":"Cikini","transit":false,"i_long":106.840169,"distance":1590,"station_id":"CKI","is_transit":false},{"station_name":"Gondangdia","station_id":"GDD","time":3,"is_transit":false,"distance":1750,"i_long":106.832183,"line":2,"transit":false,"i_lat":-6.186295},{"is_transit":false,"transit":false,"i_lat":-6.166716,"time":4,"line":2,"station_name":"Juanda","i_long":106.828284,"station_id":"JUA","distance":2015},{"i_lat":-6.160725,"line":2,"distance":1149,"station_name":"Sawah Besar","i_long":106.827103,"station_id":"SW","transit":false,"time":2,"is_transit":false},{"i_long":106.82482,"transit":false,"station_name":"Manggabesar","time":2,"is_transit":false,"line":2,"i_lat":-6.149769,"distance":906,"station_id":"MGB"},{"transit":false,"i_lat":-6.141205,"i_long":106.820901,"line":7,"is_transit":false,"time":2,"station_name":"Jayakarta","station_id":"JAY","distance":1080},{"transit":true,"station_id":"JAKK","is_transit":true,"time":4,"i_long":106.812439,"line":0,"station_name":"Jakarta Kota","distance":1264,"i_lat":-6.137569},{"line":0,"transit":false,"i_long":106.826365,"station_id":"KPB","distance":1364,"i_lat":-6.132549,"time":3,"station_name":"Kampung Bandan","is_transit":true},{"station_name":"Angke","transit":false,"time":9,"station_id":"AK","line":0,"distance":4102,"i_long":106.79867,"is_transit":false,"i_lat":-6.144674},{"i_lat":-6.155215,"i_long":106.800832,"time":4,"line":1,"distance":1230,"is_transit":true,"station_name":"Duri","transit":true,"station_id":"DU"},{"transit":false,"station_id":"GGL","is_transit":false,"i_lat":-6.162021,"distance":1700,"station_name":"Grogol","time":3,"line":5,"i_long":106.788277},{"time":2,"station_name":"Pesing","station_id":"PSG","transit":false,"is_transit":false,"i_lat":-6.161433,"line":5,"i_long":106.771379,"distance":2036},{"is_transit":false,"i_long":106.756522,"line":5,"time":2,"station_id":"TKO","i_lat":-6.1587309999999995,"station_name":"Taman Kota","distance":1614,"transit":false},{"i_long":106.737035,"station_name":"Bojongindah","time":2,"i_lat":-6.159876,"station_id":"BOI","transit":false,"distance":2334,"is_transit":false,"line":0},{"is_transit":false,"transit":false,"station_id":"RW","i_lat":-6.162758,"time":4,"distance":1152,"station_name":"Rawa Buaya","i_long":106.723064,"line":5}],[{"station_name":"Sudirman Baru","transit":false,"is_transit":false,"line":1,"time":0,"distance":0,"i_long":106.819881,"station_id":"SUDB","i_lat":-6.201433},{"station_name":"Sudirman","distance":280,"transit":false,"time":1,"i_lat":-6.202263,"is_transit":false,"station_id":"SUD","i_long":106.822649,"line":1},{"station_name":"Manggarai","station_id":"MRI","transit":false,"line":0,"distance":3186,"time":4,"i_lat":-6.209883,"i_long":106.84912,"is_transit":true},{"distance":1275,"station_id":"MTR","time":2,"i_lat":-6.212485,"is_transit":false,"line":1,"transit":false,"i_long":106.858896,"station_name":"Matraman"},{"is_transit":true,"station_name":"Jatinegara","station_id":"JNG","distance":1377,"i_long":106.86807400000001,"line":0,"i_lat":-6.215091,"time":8,"transit":true},{"time":2,"distance":1236,"i_lat":-6.209188,"line":11,"i_long":106.861737,"station_name":"Pondok Jati","station_id":"POK","transit":false,"is_transit":false},{"time":2,"i_lat":-6.193792,"i_long":106.855437,"station_id":"KMT","line":11,"transit":false,"station_name":"Kramat","distance":1829,"is_transit":false},{"distance":973,"i_long":106.850107,"is_transit":false,"line":11,"time":1,"transit":false,"station_name":"Gang Sentiong","station_id":"GST","i_lat":-6.185975},{"is_transit":false,"station_id":"PSE","time":8,"distance":1567,"i_lat":-6.174784,"transit":false,"i_long":106.84368,"station_name":"Pasar Senen","line":11},{"distance":1436,"station_name":"Kemayoran","i_lat":-6.161728,"transit":false,"station_id":"KMO","i_long":106.839204,"line":11,"is_transit":false,"time":4},{"distance":1901,"station_name":"Rajawali","transit":false,"is_transit":false,"time":5,"i_long":106.836569,"line":11,"i_lat":-6.14505,"station_id":"RJW"},{"line":0,"i_long":106.826365,"transit":true,"station_name":"Kampung Bandan","time":3,"station_id":"KPB","distance":1444,"is_transit":true,"i_lat":-6.132549},{"station_name":"Angke","line":0,"station_id":"AK","time":9,"i_long":106.79867,"distance":4102,"is_transit":false,"i_lat":-6.144674,"transit":false},{"is_transit":true,"transit":true,"station_id":"DU","distance":1230,"station_name":"Duri","i_lat":-6.155215,"line":1,"i_long":106.800832,"time":4},{"i_long":106.788277,"i_lat":-6.162021,"transit":false,"distance":1700,"time":3,"station_name":"Grogol","is_transit":false,"station_id":"GGL","line":5},{"line":5,"station_name":"Pesing","i_long":106.771379,"is_transit":false,"transit":false,"i_lat":-6.161433,"station_id":"PSG","distance":2036,"time":2},{"time":2,"i_lat":-6.1587309999999995,"station_name":"Taman Kota","i_long":106.756522,"is_transit":false,"distance":1614,"transit":false,"line":5,"station_id":"TKO"},{"line":0,"transit":false,"time":2,"i_long":106.737035,"station_id":"BOI","distance":2334,"i_lat":-6.159876,"station_name":"Bojongindah","is_transit":false},{"distance":1152,"station_name":"Rawa Buaya","is_transit":false,"time":4,"line":5,"i_long":106.723064,"transit":false,"i_lat":-6.162758,"station_id":"RW"}]]}