{"data":[[{"transit":false,"station_id":"SUDB","line":1,"time":0,"station_name":"Sudirman Baru","i_lat":-6.201433,"i_long":106.819881,"is_transit":false,"distance":0},{"i_long":106.816351,"distance":471,"i_lat":-6.20132,"station_name":"Karet","line":1,"is_transit":false,"transit":false,"station_id":"KAT","time":1},{"distance":2029,"line":1,"station_id":"THB","is_transit":true,"time":5,"i_lat":-6.185545,"station_name":"Tanah Abang","transit":true,"i_long":106.811091},{"is_transit":false,"line":6,"station_id":"PLM","station_name":"Palmerah","time":6,"transit":false,"distance":3191,"i_long":106.79689,"i_lat":-6.207404},{"transit":false,"is_transit":false,"line":6,"distance":3737,"i_long":106.780334,"time":7,"station_name":"Kebayoran","station_id":"KBY","i_lat":-6.237242},{"line":6,"i_lat":-6.276362,"is_transit":false,"time":8,"transit":false,"station_name":"Pondokranji","station_id":"PDJ","i_long":106.74273,"distance":6218},{"is_transit":false,"time":3,"station_name":"Jurangmangu","transit":false,"line":6,"i_lat":-6.288927,"i_long":106.728916,"distance":2179,"station_id":"JMU"},{"station_name":"Sudimara","i_long":106.712277,"transit":false,"station_id":"SDM","time":4,"is_transit":false,"i_lat":-6.296963,"distance":1994,"line":6}],[{"is_transit":false,"station_id":"SUDB","station_name":"Sudirman Baru","i_lat":-6.201433,"time":0,"distance":0,"line":1,"i_long":106.819881,"transit":false},{"station_id":"SUD","time":1,"is_transit":false,"line":1,"distance":280,"i_lat":-6.202263,"i_long":106.822649,"transit":false,"station_name":"Sudirman"},{"is_transit":true,"distance":3186,"line":2,"transit":true,"station_id":"MRI","time":4,"i_lat":-6.209883,"i_long":106.84912,"station_name":"Manggarai"},{"line":2,"station_id":"CKI","transit":false,"i_long":106.840169,"distance":1590,"i_lat":-6.198556,"station_name":"Cikini","is_transit":false,"time":4},{"line":2,"i_long":106.832183,"distance":1750,"station_name":"Gondangdia","transit":false,"is_transit":false,"time":3,"station_id":"GDD","i_lat":-6.186295},{"i_long":106.828284,"station_name":"Juanda","i_lat":-6.166716,"time":4,"transit":false,"station_id":"JUA","line":2,"is_transit":false,"distance":2015},{"time":2,"transit":false,"station_id":"SW","station_name":"Sawah Besar","is_transit":false,"line":2,"i_lat":-6.160725,"i_long":106.827103,"distance":1149},{"is_transit":false,"time":2,"i_long":106.82482,"transit":false,"station_id":"MGB","distance":906,"station_name":"Manggabesar","line":2,"i_lat":-6.149769},{"time":2,"station_name":"Jayakarta","station_id":"JAY","i_lat":-6.141205,"i_long":106.820901,"distance":1080,"transit":false,"line":2,"is_transit":false},{"i_lat":-6.137569,"is_transit":true,"station_name":"Jakarta Kota","time":4,"transit":true,"station_id":"JAKK","i_long":106.812439,"line":2,"distance":1264},{"line":4,"transit":true,"station_name":"Kampung Bandan","i_lat":-6.132549,"station_id":"KPB","is_transit":true,"distance":1364,"i_long":106.826365,"time":3},{"line":1,"i_long":106.79867,"station_id":"AK","station_name":"Angke","transit":false,"is_transit":false,"distance":4102,"i_lat":-6.144674,"time":9},{"distance":1230,"station_id":"DU","i_lat":-6.155215,"station_name":"Duri","i_long":106.800832,"line":1,"is_transit":false,"transit":false,"time":4},{"i_long":106.811091,"line":1,"station_name":"Tanah Abang","time":8,"station_id":"THB","distance":3632,"is_transit":true,"i_lat":-6.185545,"transit":true},{"distance":3191,"line":6,"i_lat":-6.207404,"i_long":106.79689,"station_id":"PLM","transit":false,"is_transit":false,"station_name":"Palmerah","time":6},{"line":6,"i_lat":-6.237242,"station_id":"KBY","transit":false,"station_name":"Kebayoran","is_transit":false,"i_long":106.780334,"time":7,"distance":3737},{"transit":false,"station_id":"PDJ","i_lat":-6.276362,"i_long":106.74273,"station_name":"Pondokranji","time":8,"line":6,"is_transit":false,"distance":6218},{"i_lat":-6.288927,"i_long":106.728916,"station_id":"JMU","line":6,"distance":2179,"transit":false,"station_name":"Jurangmangu","is_transit":false,"time":3},{"transit":false,"station_name":"Sudimara","is_transit":false,"i_long":106.712277,"i_lat":-6.296963,"time":4,"distance":1994,"line":6,"station_id":"SDM"}],[{"station_id":"SUDB","time":0,"distance":0,"i_lat":-6.201433,"i_long":106.819881,"is_transit":false,"line":1,"station_name":"Sudirman Baru","transit":false},{"line":1,"station_name":"Sudirman","station_id":"SUD","time":1,"distance":280,"transit":false,"is_transit":false,"i_lat":-6.202263,"i_long":106.822649},{"distance":3186,"station_id":"MRI","i_long":106.84912,"line":2,"station_name":"Manggarai","is_transit":false,"transit":false,"i_lat":-6.209883,"time":4},{"i_lat":-6.212485,"line":1,"station_name":"Matraman","distance":1275,"i_long":106.858896,"time":2,"is_transit":false,"transit":false,"station_id":"MTR"},{"time":8,"distance":1377,"transit":true,"i_lat":-6.215091,"i_long":106.86807400000001,"line":1,"station_name":"Jatinegara","station_id":"JNG","is_transit":true},{"station_name":"Pondok Jati","i_long":106.861737,"transit":false,"station_id":"POK","distance":1236,"i_lat":-6.209188,"time":2,"is_transit":false,"line":11},{"is_transit":false,"i_lat":-6.193792,"station_id":"KMT","distance":1829,"station_name":"Kramat","transit":false,"i_long":106.855437,"line":11,"time":2},{"transit":false,"station_name":"Gang Sentiong","time":1,"station_id":"GST","line":11,"distance":973,"i_long":106.850107,"is_transit":false,"i_lat":-6.185975},{"line":11,"is_transit":false,"i_lat":-6.174784,"station_id":"PSE","time":8,"i_long":106.84368,"station_name":"Pasar Senen","transit":false,"distance":1567},{"is_transit":false,"line":11,"station_id":"KMO","time":4,"i_lat":-6.161728,"transit":false,"station_name":"Kemayoran","distance":1436,"i_long":106.839204},{"i_long":106.836569,"distance":1901,"i_lat":-6.14505,"line":11,"time":5,"station_name":"Rajawali","transit":false,"is_transit":false,"station_id":"RJW"},{"station_name":"Kampung Bandan","i_long":106.826365,"i_lat":-6.132549,"station_id":"KPB","line":4,"distance":1444,"is_transit":true,"time":3,"transit":true},{"line":1,"is_transit":false,"station_name":"Angke","time":9,"transit":false,"distance":4102,"i_lat":-6.144674,"i_long":106.79867,"station_id":"AK"},{"is_transit":false,"station_name":"Duri","distance":1230,"line":1,"time":4,"i_lat":-6.155215,"transit":false,"station_id":"DU","i_long":106.800832},{"i_lat":-6.185545,"time":8,"is_transit":true,"distance":3632,"station_id":"THB","i_long":106.811091,"line":1,"station_name":"Tanah Abang","transit":true},{"i_long":106.79689,"line":6,"transit":false,"i_lat":-6.207404,"is_transit":false,"station_name":"Palmerah","time":6,"distance":3191,"station_id":"PLM"},{"distance":3737,"i_long":106.780334,"station_name":"Kebayoran","line":6,"i_lat":-6.237242,"is_transit":false,"time":7,"station_id":"KBY","transit":false},{"time":8,"i_long":106.74273,"station_name":"Pondokranji","is_transit":false,"line":6,"distance":6218,"station_id":"PDJ","transit":false,"i_lat":-6.276362},{"is_transit":false,"i_lat":-6.288927,"transit":false,"station_name":"Jurangmangu","distance":2179,"i_long":106.728916,"station_id":"JMU","time":3,"line":6},{"time":4,"station_name":"Sudimara","is_transit":false,"transit":false,"station_id":"SDM","i_long":106.712277,"distance":1994,"line":6,"i_lat":-6.296963}]]}