{"data":[[{"line":1,"transit":false,"is_transit":false,"distance":0,"station_id":"SUDB","i_lat":-6.201433,"i_long":106.819881,"station_name":"Sudirman Baru","time":0},{"station_id":"SUD","time":1,"line":1,"is_transit":false,"i_lat":-6.202263,"i_long":106.822649,"distance":280,"station_name":"Sudirman","transit":false},{"time":4,"i_lat":-6.209883,"is_transit":true,"i_long":106.84912,"distance":3186,"transit":true,"station_name":"Manggarai","line":2,"station_id":"MRI"},{"station_name":"Tebet","distance":2610,"i_lat":-6.226659,"station_id":"TEB","line":2,"time":4,"is_transit":false,"i_long":106.857948,"transit":false},{"distance":1230,"transit":false,"i_long":106.856607,"time":2,"station_name":"Cawang","station_id":"CW","is_transit":false,"i_lat":-6.242512,"line":2},{"time":3,"distance":1546,"transit":false,"i_long":106.85449,"station_id":"DRN","is_transit":false,"i_lat":-6.255332,"line":2,"station_name":"Duren Kalibata"},{"time":2,"transit":false,"line":2,"is_transit":false,"i_lat":-6.263214,"i_long":106.851577,"station_id":"PSMB","station_name":"Pasar Minggu Baru","distance":824},{"distance":2380,"i_lat":-6.2842400000000005,"transit":false,"station_id":"PSM","station_name":"Pasar Minggu","is_transit":false,"time":2,"line":2,"i_long":106.843999},{"time":4,"transit":false,"is_transit":false,"i_long":106.838896,"station_name":"Tanjung Barat","distance":2820,"i_lat":-6.3080680000000005,"line":2,"station_id":"TNT"},{"is_transit":false,"station_id":"LNA","i_lat":-6.330363,"time":3,"transit":false,"line":2,"distance":2671,"i_long":106.832616,"station_name":"Lenteng Agung"},{"station_name":"Univ. Pancasila","i_long":106.834175,"line":2,"is_transit":false,"transit":false,"time":2,"distance":1029,"station_id":"UP","i_lat":-6.339291},{"i_long":106.831474,"line":2,"station_name":"Univ. Indonesia","transit":false,"is_transit":false,"time":3,"distance":2264,"i_lat":-6.360749,"station_id":"UI"},{"line":2,"station_id":"POC","is_transit":false,"transit":false,"distance":1109,"station_name":"Pondok Cina","i_lat":-6.369073,"time":2,"i_long":106.831114},{"line":2,"distance":2727,"i_long":106.819451,"station_id":"DPB","time":4,"station_name":"Depokbaru","is_transit":false,"transit":false,"i_lat":-6.391065},{"i_long":106.816926,"transit":false,"i_lat":-6.405256,"station_id":"DP","line":2,"distance":1584,"time":3,"station_name":"Depok","is_transit":false},{"station_id":"CTA","i_long":106.800298,"distance":5084,"station_name":"Citayam","transit":false,"i_lat":-6.448811,"is_transit":false,"line":2,"time":6},{"time":5,"station_name":"Bojonggede","i_lat":-6.493243,"line":2,"is_transit":false,"transit":false,"distance":5197,"station_id":"BJD","i_long":106.792719},{"i_long":106.800016,"station_id":"CLT","line":2,"transit":false,"station_name":"Cilebut","i_lat":-6.530544,"distance":4331,"time":5,"is_transit":false}],[{"distance":0,"station_id":"SUDB","station_name":"Sudirman Baru","i_long":106.819881,"transit":false,"is_transit":false,"i_lat":-6.201433,"line":1,"time":0},{"transit":false,"is_transit":false,"station_name":"Karet","station_id":"KAT","i_lat":-6.20132,"line":1,"i_long":106.816351,"time":1,"distance":471},{"is_transit":false,"i_long":106.811091,"station_name":"Tanah Abang","transit":false,"line":1,"station_id":"THB","time":5,"i_lat":-6.185545,"distance":2029},{"line":1,"transit":false,"time":8,"is_transit":false,"station_name":"Duri","station_id":"DU","i_lat":-6.155215,"distance":3632,"i_long":106.800832},{"line":1,"distance":1230,"time":4,"is_transit":false,"station_name":"Angke","station_id":"AK","i_lat":-6.144674,"i_long":106.79867,"transit":false},{"transit":true,"i_long":106.826365,"time":9,"is_transit":true,"distance":4102,"station_id":"KPB","i_lat":-6.132549,"line":4,"station_name":"Kampung Bandan"},{"distance":1364,"station_name":"Jakarta Kota","station_id":"JAKK","i_long":106.812439,"time":3,"i_lat":-6.137569,"line":2,"is_transit":true,"transit":true},{"transit":false,"station_id":"JAY","i_lat":-6.141205,"station_name":"Jayakarta","i_long":106.820901,"is_transit":false,"time":4,"distance":1264,"line":2},{"is_transit":false,"transit":false,"station_name":"Manggabesar","i_long":106.82482,"time":2,"distance":1080,"line":2,"i_lat":-6.149769,"station_id":"MGB"},{"time":2,"distance":906,"transit":false,"station_name":"Sawah Besar","i_long":106.827103,"i_lat":-6.160725,"line":2,"station_id":"SW","is_transit":false},{"is_transit":false,"distance":1149,"i_lat":-6.166716,"line":2,"transit":false,"station_id":"JUA","station_name":"Juanda","time":2,"i_long":106.828284},{"i_lat":-6.186295,"i_long":106.832183,"line":2,"station_name":"Gondangdia","station_id":"GDD","is_transit":false,"time":4,"transit":false,"distance":2015},{"is_transit":false,"i_lat":-6.198556,"line":2,"distance":1750,"time":3,"station_name":"Cikini","station_id":"CKI","i_long":106.840169,"transit":false},{"i_long":106.84912,"is_transit":false,"station_id":"MRI","distance":1590,"transit":false,"station_name":"Manggarai","time":4,"i_lat":-6.209883,"line":2},{"is_transit":false,"time":4,"transit":false,"i_lat":-6.226659,"station_id":"TEB","i_long":106.857948,"station_name":"Tebet","distance":2610,"line":2},{"distance":1230,"is_transit":false,"station_name":"Cawang","line":2,"transit":false,"time":2,"i_lat":-6.242512,"station_id":"CW","i_long":106.856607},{"station_name":"Duren Kalibata","station_id":"DRN","distance":1546,"transit":false,"line":2,"time":3,"i_lat":-6.255332,"is_transit":false,"i_long":106.85449},{"i_lat":-6.263214,"i_long":106.851577,"time":2,"station_name":"Pasar Minggu Baru","line":2,"is_transit":false,"station_id":"PSMB","distance":824,"transit":false},{"i_long":106.843999,"station_id":"PSM","line":2,"distance":2380,"transit":false,"i_lat":-6.2842400000000005,"time":2,"is_transit":false,"station_name":"Pasar Minggu"},{"station_id":"TNT","line":2,"transit":false,"i_long":106.838896,"is_transit":false,"distance":2820,"time":4,"i_lat":-6.3080680000000005,"station_name":"Tanjung Barat"},{"transit":false,"distance":2671,"station_id":"LNA","line":2,"time":3,"station_name":"Lenteng Agung","i_lat":-6.330363,"i_long":106.832616,"is_transit":false},{"is_transit":false,"transit":false,"line":2,"distance":1029,"time":2,"station_id":"UP","station_name":"Univ. Pancasila","i_lat":-6.339291,"i_long":106.834175},{"station_id":"UI","i_long":106.831474,"line":2,"i_lat":-6.360749,"is_transit":false,"transit":false,"distance":2264,"time":3,"station_name":"Univ. Indonesia"},{"transit":false,"i_lat":-6.369073,"is_transit":false,"time":2,"station_id":"POC","station_name":"Pondok Cina","distance":1109,"i_long":106.831114,"line":2},{"is_transit":false,"station_name":"Depokbaru","station_id":"DPB","time":4,"distance":2727,"line":2,"i_long":106.819451,"i_lat":-6.391065,"transit":false},{"is_transit":false,"time":3,"transit":false,"station_id":"DP","line":2,"station_name":"Depok","distance":1584,"i_lat":-6.405256,"i_long":106.816926},{"distance":5084,"station_id":"CTA","i_lat":-6.448811,"i_long":106.800298,"line":2,"station_name":"Citayam","is_transit":false,"transit":false,"time":6},{"line":2,"station_name":"Bojonggede","distance":5197,"station_id":"BJD","transit":false,"i_lat":-6.493243,"is_transit":false,"i_long":106.792719,"time":5},{"distance":4331,"time":5,"station_name":"Cilebut","is_transit":false,"i_lat":-6.530544,"station_id":"CLT","line":2,"transit":false,"i_long":106.800016}],[{"station_id":"SUDB","line":1,"transit":false,"time":0,"is_transit":false,"distance":0,"i_lat":-6.201433,"i_long":106.819881,"station_name":"Sudirman Baru"},{"line":1,"is_transit":false,"transit":false,"i_long":106.816351,"time":1,"distance":471,"station_id":"KAT","station_name":"Karet","i_lat":-6.20132},{"i_lat":-6.185545,"line":1,"is_transit":false,"distance":2029,"time":5,"transit":false,"station_id":"THB","i_long":106.811091,"station_name":"Tanah Abang"},{"time":8,"line":1,"station_id":"DU","i_lat":-6.155215,"distance":3632,"transit":false,"is_transit":false,"station_name":"Duri","i_long":106.800832},{"is_transit":false,"transit":false,"time":4,"station_name":"Angke","i_long":106.79867,"line":1,"i_lat":-6.144674,"distance":1230,"station_id":"AK"},{"time":9,"is_transit":true,"transit":true,"station_name":"Kampung Bandan","station_id":"KPB","i_lat":-6.132549,"line":4,"distance":4102,"i_long":106.826365},{"i_long":106.836569,"line":11,"distance":1444,"station_id":"RJW","is_transit":false,"transit":false,"station_name":"Rajawali","time":3,"i_lat":-6.14505},{"station_id":"KMO","line":11,"is_transit":false,"transit":false,"station_name":"Kemayoran","i_long":106.839204,"time":5,"distance":1901,"i_lat":-6.161728},{"station_name":"Pasar Senen","distance":1436,"i_lat":-6.174784,"i_long":106.84368,"time":4,"is_transit":false,"line":11,"transit":false,"station_id":"PSE"},{"transit":false,"i_lat":-6.185975,"station_name":"Gang Sentiong","time":8,"distance":1567,"i_long":106.850107,"is_transit":false,"line":11,"station_id":"GST"},{"station_name":"Kramat","time":1,"station_id":"KMT","line":11,"i_lat":-6.193792,"i_long":106.855437,"distance":973,"transit":false,"is_transit":false},{"transit":false,"i_lat":-6.209188,"line":11,"station_name":"Pondok Jati","time":2,"is_transit":false,"station_id":"POK","distance":1829,"i_long":106.861737},{"i_long":106.86807400000001,"distance":1236,"i_lat":-6.215091,"transit":true,"station_name":"Jatinegara","line":1,"is_transit":true,"time":9,"station_id":"JNG"},{"distance":1377,"i_lat":-6.212485,"station_name":"Matraman","i_long":106.858896,"line":1,"transit":false,"is_transit":false,"station_id":"MTR","time":2},{"transit":true,"is_transit":true,"time":2,"distance":1275,"station_name":"Manggarai","station_id":"MRI","i_long":106.84912,"line":2,"i_lat":-6.209883},{"is_transit":false,"transit":false,"time":4,"station_name":"Tebet","distance":2610,"station_id":"TEB","i_lat":-6.226659,"line":2,"i_long":106.857948},{"station_name":"Cawang","distance":1230,"transit":false,"is_transit":false,"i_lat":-6.242512,"time":2,"station_id":"CW","i_long":106.856607,"line":2},{"time":3,"transit":false,"distance":1546,"i_lat":-6.255332,"station_name":"Duren Kalibata","i_long":106.85449,"line":2,"is_transit":false,"station_id":"DRN"},{"station_name":"Pasar Minggu Baru","i_long":106.851577,"line":2,"station_id":"PSMB","i_lat":-6.263214,"is_transit":false,"time":2,"transit":false,"distance":824},{"distance":2380,"line":2,"i_lat":-6.2842400000000005,"is_transit":false,"time":2,"transit":false,"i_long":106.843999,"station_name":"Pasar Minggu","station_id":"PSM"},{"is_transit":false,"transit":false,"distance":2820,"station_id":"TNT","station_name":"Tanjung Barat","time":4,"i_lat":-6.3080680000000005,"line":2,"i_long":106.838896},{"time":3,"transit":false,"station_id":"LNA","line":2,"i_long":106.832616,"i_lat":-6.330363,"station_name":"Lenteng Agung","distance":2671,"is_transit":false},{"station_id":"UP","is_transit":false,"time":2,"distance":1029,"i_lat":-6.339291,"transit":false,"station_name":"Univ. Pancasila","i_long":106.834175,"line":2},{"is_transit":false,"station_name":"Univ. Indonesia","distance":2264,"i_lat":-6.360749,"i_long":106.831474,"transit":false,"station_id":"UI","line":2,"time":3},{"station_name":"Pondok Cina","time":2,"transit":false,"i_lat":-6.369073,"i_long":106.831114,"line":2,"is_transit":false,"station_id":"POC","distance":1109},{"station_id":"DPB","i_long":106.819451,"i_lat":-6.391065,"distance":2727,"time":4,"is_transit":false,"transit":false,"station_name":"Depokbaru","line":2},{"is_transit":false,"station_id":"DP","distance":1584,"transit":false,"station_name":"Depok","i_lat":-6.405256,"i_long":106.816926,"line":2,"time":3},{"station_id":"CTA","is_transit":false,"i_lat":-6.448811,"transit":false,"i_long":106.800298,"line":2,"time":6,"distance":5084,"station_name":"Citayam"},{"transit":false,"is_transit":false,"i_long":106.792719,"time":5,"station_name":"Bojonggede","distance":5197,"line":2,"station_id":"BJD","i_lat":-6.493243},{"line":2,"time":5,"transit":false,"i_long":106.800016,"distance":4331,"station_name":"Cilebut","station_id":"CLT","is_transit":false,"i_lat":-6.530544}]]}