{"data":[[{"station_name":"Sudirman Baru","i_long":106.819881,"i_lat":-6.201433,"line":1,"time":0,"distance":0,"is_transit":false,"transit":false,"station_id":"SUDB"},{"is_transit":false,"transit":false,"line":1,"time":1,"station_name":"Sudirman","i_lat":-6.202263,"station_id":"SUD","distance":280,"i_long":106.822649},{"transit":true,"station_name":"Manggarai","i_lat":-6.209883,"line":2,"station_id":"MRI","time":4,"distance":3186,"is_transit":true,"i_long":106.84912},{"station_id":"TEB","transit":false,"station_name":"Tebet","time":4,"distance":2610,"line":2,"i_lat":-6.226659,"i_long":106.857948,"is_transit":false},{"time":2,"i_lat":-6.242512,"is_transit":false,"i_long":106.856607,"line":2,"station_id":"CW","distance":1230,"station_name":"Cawang","transit":false},{"distance":1546,"transit":false,"line":2,"is_transit":false,"i_lat":-6.255332,"station_name":"Duren Kalibata","station_id":"DRN","time":3,"i_long":106.85449},{"station_name":"Pasar Minggu Baru","station_id":"PSMB","distance":824,"line":2,"i_lat":-6.263214,"time":2,"transit":false,"is_transit":false,"i_long":106.851577},{"time":2,"i_long":106.843999,"station_name":"Pasar Minggu","i_lat":-6.2842400000000005,"line":2,"transit":false,"station_id":"PSM","distance":2380,"is_transit":false},{"station_name":"Tanjung Barat","station_id":"TNT","transit":false,"line":2,"is_transit":false,"distance":2820,"i_lat":-6.3080680000000005,"i_long":106.838896,"time":4},{"distance":2671,"transit":false,"time":3,"i_long":106.832616,"station_id":"LNA","is_transit":false,"line":2,"station_name":"Lenteng Agung","i_lat":-6.330363},{"transit":false,"i_long":106.834175,"station_id":"UP","i_lat":-6.339291,"distance":1029,"line":2,"station_name":"Univ. Pancasila","is_transit":false,"time":2},{"is_transit":false,"i_long":106.831474,"station_name":"Univ. Indonesia","line":2,"i_lat":-6.360749,"transit":false,"time":3,"distance":2264,"station_id":"UI"},{"time":2,"distance":1109,"station_name":"Pondok Cina","is_transit":false,"i_lat":-6.369073,"i_long":106.831114,"transit":false,"line":2,"station_id":"POC"},{"i_lat":-6.391065,"station_name":"Depokbaru","transit":false,"station_id":"DPB","i_long":106.819451,"line":2,"distance":2727,"time":4,"is_transit":false}],[{"station_id":"SUDB","i_long":106.819881,"transit":false,"i_lat":-6.201433,"distance":0,"is_transit":false,"time":0,"station_name":"Sudirman Baru","line":1},{"station_id":"KAT","i_long":106.816351,"i_lat":-6.20132,"time":1,"transit":false,"is_transit":false,"distance":471,"station_name":"Karet","line":1},{"transit":false,"line":1,"i_long":106.811091,"distance":2029,"station_name":"Tanah Abang","time":5,"i_lat":-6.185545,"station_id":"THB","is_transit":false},{"time":8,"distance":3632,"station_name":"Duri","is_transit":false,"i_lat":-6.155215,"i_long":106.800832,"line":1,"station_id":"DU","transit":false},{"line":1,"time":4,"station_id":"AK","station_name":"Angke","distance":1230,"transit":false,"i_lat":-6.144674,"is_transit":false,"i_long":106.79867},{"is_transit":true,"i_lat":-6.132549,"line":4,"transit":true,"station_id":"KPB","distance":4102,"i_long":106.826365,"station_name":"Kampung Bandan","time":9},{"station_name":"Jakarta Kota","line":2,"time":3,"is_transit":true,"i_long":106.812439,"distance":1364,"transit":true,"i_lat":-6.137569,"station_id":"JAKK"},{"i_long":106.820901,"transit":false,"station_name":"Jayakarta","is_transit":false,"distance":1264,"line":2,"time":4,"i_lat":-6.141205,"station_id":"JAY"},{"is_transit":false,"i_lat":-6.149769,"station_id":"MGB","station_name":"Manggabesar","line":2,"time":2,"distance":1080,"i_long":106.82482,"transit":false},{"i_long":106.827103,"transit":false,"line":2,"time":2,"distance":906,"station_id":"SW","is_transit":false,"station_name":"Sawah Besar","i_lat":-6.160725},{"station_id":"JUA","station_name":"Juanda","is_transit":false,"line":2,"i_long":106.828284,"i_lat":-6.166716,"time":2,"distance":1149,"transit":false},{"is_transit":false,"transit":false,"line":2,"station_id":"GDD","distance":2015,"station_name":"Gondangdia","time":4,"i_long":106.832183,"i_lat":-6.186295},{"i_lat":-6.198556,"distance":1750,"station_id":"CKI","station_name":"Cikini","line":2,"time":3,"i_long":106.840169,"transit":false,"is_transit":false},{"i_long":106.84912,"station_name":"Manggarai","transit":false,"is_transit":false,"time":4,"line":2,"i_lat":-6.209883,"distance":1590,"station_id":"MRI"},{"i_lat":-6.226659,"station_id":"TEB","transit":false,"line":2,"distance":2610,"time":4,"station_name":"Tebet","i_long":106.857948,"is_transit":false},{"i_lat":-6.242512,"is_transit":false,"i_long":106.856607,"time":2,"distance":1230,"transit":false,"station_id":"CW","station_name":"Cawang","line":2},{"station_id":"DRN","distance":1546,"is_transit":false,"i_long":106.85449,"i_lat":-6.255332,"time":3,"line":2,"station_name":"Duren Kalibata","transit":false},{"distance":824,"station_id":"PSMB","i_long":106.851577,"line":2,"station_name":"Pasar Minggu Baru","is_transit":false,"time":2,"transit":false,"i_lat":-6.263214},{"i_lat":-6.2842400000000005,"i_long":106.843999,"line":2,"is_transit":false,"transit":false,"time":2,"distance":2380,"station_name":"Pasar Minggu","station_id":"PSM"},{"i_lat":-6.3080680000000005,"transit":false,"line":2,"time":4,"station_name":"Tanjung Barat","is_transit":false,"station_id":"TNT","distance":2820,"i_long":106.838896},{"station_id":"LNA","line":2,"distance":2671,"is_transit":false,"transit":false,"time":3,"i_lat":-6.330363,"station_name":"Lenteng Agung","i_long":106.832616},{"i_long":106.834175,"line":2,"time":2,"transit":false,"i_lat":-6.339291,"distance":1029,"is_transit":false,"station_id":"UP","station_name":"Univ. Pancasila"},{"station_id":"UI","i_long":106.831474,"line":2,"is_transit":false,"time":3,"transit":false,"distance":2264,"i_lat":-6.360749,"station_name":"Univ. Indonesia"},{"i_lat":-6.369073,"time":2,"is_transit":false,"transit":false,"station_id":"POC","distance":1109,"i_long":106.831114,"station_name":"Pondok Cina","line":2},{"distance":2727,"is_transit":false,"i_long":106.819451,"transit":false,"station_name":"Depokbaru","i_lat":-6.391065,"line":2,"time":4,"station_id":"DPB"}],[{"i_lat":-6.201433,"station_name":"Sudirman Baru","time":0,"i_long":106.819881,"is_transit":false,"distance":0,"transit":false,"line":1,"station_id":"SUDB"},{"station_id":"KAT","i_long":106.816351,"distance":471,"is_transit":false,"transit":false,"time":1,"station_name":"Karet","i_lat":-6.20132,"line":1},{"i_lat":-6.185545,"time":5,"distance":2029,"transit":false,"station_id":"THB","line":1,"is_transit":false,"station_name":"Tanah Abang","i_long":106.811091},{"is_transit":false,"distance":3632,"transit":false,"station_id":"DU","i_lat":-6.155215,"i_long":106.800832,"line":1,"station_name":"Duri","time":8},{"i_lat":-6.144674,"distance":1230,"i_long":106.79867,"line":1,"time":4,"station_id":"AK","station_name":"Angke","is_transit":false,"transit":false},{"line":4,"i_lat":-6.132549,"station_name":"Kampung Bandan","station_id":"KPB","time":9,"i_long":106.826365,"distance":4102,"transit":true,"is_transit":true},{"station_id":"RJW","transit":false,"distance":1444,"station_name":"Rajawali","is_transit":false,"i_lat":-6.14505,"i_long":106.836569,"line":11,"time":3},{"station_name":"Kemayoran","time":5,"distance":1901,"i_long":106.839204,"station_id":"KMO","i_lat":-6.161728,"line":11,"transit":false,"is_transit":false},{"i_long":106.84368,"transit":false,"is_transit":false,"station_name":"Pasar Senen","time":4,"distance":1436,"line":11,"i_lat":-6.174784,"station_id":"PSE"},{"time":8,"station_id":"GST","line":11,"station_name":"Gang Sentiong","distance":1567,"is_transit":false,"transit":false,"i_lat":-6.185975,"i_long":106.850107},{"i_long":106.855437,"is_transit":false,"line":11,"time":1,"transit":false,"i_lat":-6.193792,"distance":973,"station_name":"Kramat","station_id":"KMT"},{"station_name":"Pondok Jati","time":2,"distance":1829,"i_lat":-6.209188,"station_id":"POK","i_long":106.861737,"line":11,"transit":false,"is_transit":false},{"station_id":"JNG","transit":true,"i_lat":-6.215091,"distance":1236,"i_long":106.86807400000001,"station_name":"Jatinegara","line":1,"is_transit":true,"time":9},{"station_id":"MTR","distance":1377,"transit":false,"is_transit":false,"line":1,"i_long":106.858896,"station_name":"Matraman","i_lat":-6.212485,"time":2},{"is_transit":true,"station_name":"Manggarai","transit":true,"i_long":106.84912,"i_lat":-6.209883,"line":2,"time":2,"station_id":"MRI","distance":1275},{"line":2,"distance":2610,"time":4,"station_name":"Tebet","i_long":106.857948,"is_transit":false,"i_lat":-6.226659,"transit":false,"station_id":"TEB"},{"transit":false,"time":2,"distance":1230,"is_transit":false,"i_lat":-6.242512,"station_id":"CW","i_long":106.856607,"line":2,"station_name":"Cawang"},{"station_name":"Duren Kalibata","station_id":"DRN","is_transit":false,"line":2,"i_lat":-6.255332,"time":3,"distance":1546,"transit":false,"i_long":106.85449},{"i_lat":-6.263214,"transit":false,"station_id":"PSMB","station_name":"Pasar Minggu Baru","i_long":106.851577,"line":2,"time":2,"is_transit":false,"distance":824},{"time":2,"i_lat":-6.2842400000000005,"line":2,"station_name":"Pasar Minggu","is_transit":false,"i_long":106.843999,"transit":false,"distance":2380,"station_id":"PSM"},{"distance":2820,"time":4,"is_transit":false,"station_name":"Tanjung Barat","i_lat":-6.3080680000000005,"line":2,"station_id":"TNT","i_long":106.838896,"transit":false},{"time":3,"line":2,"transit":false,"station_id":"LNA","is_transit":false,"station_name":"Lenteng Agung","i_long":106.832616,"i_lat":-6.330363,"distance":2671},{"time":2,"is_transit":false,"station_name":"Univ. Pancasila","station_id":"UP","distance":1029,"transit":false,"i_lat":-6.339291,"line":2,"i_long":106.834175},{"station_id":"UI","line":2,"station_name":"Univ. Indonesia","transit":false,"time":3,"is_transit":false,"distance":2264,"i_lat":-6.360749,"i_long":106.831474},{"transit":false,"line":2,"station_name":"Pondok Cina","distance":1109,"is_transit":false,"i_long":106.831114,"time":2,"i_lat":-6.369073,"station_id":"POC"},{"transit":false,"line":2,"station_name":"Depokbaru","i_long":106.819451,"distance":2727,"i_lat":-6.391065,"station_id":"DPB","time":4,"is_transit":false}]]}