{"data":[[{"station_name":"Sudirman Baru","i_lat":-6.201433,"distance":0,"i_long":106.819881,"time":0,"line":1,"is_transit":false,"station_id":"SUDB","transit":false},{"line":1,"time":1,"station_name":"Sudirman","i_long":106.822649,"transit":false,"is_transit":false,"station_id":"SUD","distance":280,"i_lat":-6.202263},{"time":4,"i_lat":-6.209883,"distance":3186,"station_id":"MRI","i_long":106.84912,"is_transit":false,"station_name":"Manggarai","transit":false,"line":2},{"line":1,"station_id":"MTR","time":2,"transit":false,"i_long":106.858896,"i_lat":-6.212485,"distance":1275,"is_transit":false,"station_name":"Matraman"},{"distance":1377,"time":8,"transit":false,"is_transit":false,"station_id":"JNG","i_lat":-6.215091,"i_long":106.86807400000001,"line":1,"station_name":"Jatinegara"},{"transit":false,"i_long":106.899548,"i_lat":-6.2135,"time":3,"is_transit":false,"distance":3395,"line":1,"station_id":"KLD","station_name":"Klender"}],[{"transit":false,"is_transit":false,"i_long":106.819881,"station_id":"SUDB","time":0,"distance":0,"line":1,"i_lat":-6.201433,"station_name":"Sudirman Baru"},{"transit":false,"station_name":"Karet","distance":471,"time":1,"station_id":"KAT","is_transit":false,"i_long":106.816351,"i_lat":-6.20132,"line":1},{"station_name":"Tanah Abang","line":1,"distance":2029,"station_id":"THB","i_lat":-6.185545,"transit":false,"is_transit":false,"time":5,"i_long":106.811091},{"i_long":106.800832,"transit":false,"i_lat":-6.155215,"line":1,"distance":3632,"is_transit":false,"station_id":"DU","time":8,"station_name":"Duri"},{"station_name":"Angke","station_id":"AK","i_lat":-6.144674,"is_transit":false,"transit":false,"i_long":106.79867,"line":1,"time":4,"distance":1230},{"line":4,"is_transit":true,"time":9,"i_long":106.826365,"station_name":"Kampung Bandan","distance":4102,"station_id":"KPB","transit":true,"i_lat":-6.132549},{"transit":false,"time":3,"station_id":"RJW","i_long":106.836569,"distance":1444,"line":11,"is_transit":false,"station_name":"Rajawali","i_lat":-6.14505},{"transit":false,"station_id":"KMO","is_transit":false,"station_name":"Kemayoran","time":5,"i_long":106.839204,"i_lat":-6.161728,"line":11,"distance":1901},{"station_id":"PSE","i_lat":-6.174784,"station_name":"Pasar Senen","distance":1436,"is_transit":false,"line":11,"time":4,"i_long":106.84368,"transit":false},{"distance":1567,"time":8,"station_name":"Gang Sentiong","station_id":"GST","transit":false,"is_transit":false,"line":11,"i_lat":-6.185975,"i_long":106.850107},{"station_id":"KMT","distance":973,"i_lat":-6.193792,"i_long":106.855437,"line":11,"station_name":"Kramat","time":1,"transit":false,"is_transit":false},{"is_transit":false,"i_lat":-6.209188,"i_long":106.861737,"distance":1829,"station_id":"POK","line":11,"time":2,"transit":false,"station_name":"Pondok Jati"},{"is_transit":true,"distance":1236,"time":9,"station_name":"Jatinegara","i_lat":-6.215091,"station_id":"JNG","line":1,"i_long":106.86807400000001,"transit":true},{"station_id":"KLD","time":3,"transit":false,"distance":3395,"station_name":"Klender","i_long":106.899548,"line":1,"i_lat":-6.2135,"is_transit":false}],[{"station_id":"SUDB","line":1,"station_name":"Sudirman Baru","time":0,"is_transit":false,"distance":0,"i_lat":-6.201433,"transit":false,"i_long":106.819881},{"station_id":"KAT","distance":471,"is_transit":false,"transit":false,"i_long":106.816351,"line":1,"time":1,"station_name":"Karet","i_lat":-6.20132},{"station_name":"Tanah Abang","distance":2029,"station_id":"THB","is_transit":false,"i_lat":-6.185545,"time":5,"i_long":106.811091,"line":1,"transit":false},{"i_lat":-6.155215,"distance":3632,"time":8,"i_long":106.800832,"station_name":"Duri","station_id":"DU","transit":false,"is_transit":false,"line":1},{"is_transit":false,"i_lat":-6.144674,"transit":false,"station_name":"Angke","station_id":"AK","i_long":106.79867,"time":4,"line":1,"distance":1230},{"i_lat":-6.132549,"station_name":"Kampung Bandan","distance":4102,"transit":true,"i_long":106.826365,"is_transit":true,"line":4,"time":9,"station_id":"KPB"},{"i_long":106.812439,"time":3,"line":2,"station_name":"Jakarta Kota","transit":true,"i_lat":-6.137569,"is_transit":true,"distance":1364,"station_id":"JAKK"},{"time":4,"distance":1264,"i_lat":-6.141205,"i_long":106.820901,"station_id":"JAY","line":2,"station_name":"Jayakarta","transit":false,"is_transit":false},{"distance":1080,"transit":false,"line":2,"time":2,"station_id":"MGB","i_long":106.82482,"i_lat":-6.149769,"is_transit":false,"station_name":"Manggabesar"},{"i_lat":-6.160725,"station_id":"SW","i_long":106.827103,"is_transit":false,"line":2,"transit":false,"distance":906,"station_name":"Sawah Besar","time":2},{"time":2,"line":2,"station_name":"Juanda","distance":1149,"transit":false,"station_id":"JUA","i_long":106.828284,"is_transit":false,"i_lat":-6.166716},{"time":4,"distance":2015,"station_id":"GDD","i_long":106.832183,"station_name":"Gondangdia","is_transit":false,"line":2,"transit":false,"i_lat":-6.186295},{"transit":false,"is_transit":false,"distance":1750,"i_lat":-6.198556,"station_name":"Cikini","time":3,"station_id":"CKI","line":2,"i_long":106.840169},{"line":2,"station_id":"MRI","station_name":"Manggarai","transit":true,"is_transit":true,"i_lat":-6.209883,"time":4,"i_long":106.84912,"distance":1590},{"line":1,"transit":false,"station_id":"MTR","station_name":"Matraman","is_transit":false,"i_lat":-6.212485,"i_long":106.858896,"distance":1275,"time":2},{"i_lat":-6.215091,"distance":1377,"time":8,"i_long":106.86807400000001,"line":1,"station_id":"JNG","is_transit":false,"station_name":"Jatinegara","transit":false},{"i_long":106.899548,"line":1,"transit":false,"station_id":"KLD","is_transit":false,"station_name":"Klender","time":3,"i_lat":-6.2135,"distance":3395}],[{"time":0,"i_lat":-6.201433,"distance":0,"transit":false,"i_long":106.819881,"line":1,"station_name":"Sudirman Baru","station_id":"SUDB","is_transit":false},{"time":1,"i_lat":-6.202263,"line":1,"is_transit":false,"i_long":106.822649,"station_id":"SUD","transit":false,"station_name":"Sudirman","distance":280},{"station_id":"MRI","i_long":106.84912,"distance":3186,"i_lat":-6.209883,"transit":true,"line":2,"is_transit":true,"time":4,"station_name":"Manggarai"},{"i_long":106.840169,"station_id":"CKI","transit":false,"station_name":"Cikini","time":4,"line":2,"distance":1590,"is_transit":false,"i_lat":-6.198556},{"transit":false,"time":3,"i_long":106.832183,"station_name":"Gondangdia","line":2,"distance":1750,"i_lat":-6.186295,"is_transit":false,"station_id":"GDD"},{"transit":false,"time":4,"station_name":"Juanda","station_id":"JUA","is_transit":false,"line":2,"i_lat":-6.166716,"i_long":106.828284,"distance":2015},{"station_name":"Sawah Besar","transit":false,"line":2,"time":2,"station_id":"SW","i_lat":-6.160725,"i_long":106.827103,"is_transit":false,"distance":1149},{"line":2,"station_id":"MGB","time":2,"distance":906,"station_name":"Manggabesar","i_long":106.82482,"transit":false,"is_transit":false,"i_lat":-6.149769},{"i_long":106.820901,"transit":false,"station_name":"Jayakarta","station_id":"JAY","is_transit":false,"time":2,"distance":1080,"i_lat":-6.141205,"line":2},{"distance":1264,"transit":true,"station_name":"Jakarta Kota","line":2,"i_lat":-6.137569,"time":4,"i_long":106.812439,"is_transit":true,"station_id":"JAKK"},{"i_long":106.826365,"transit":true,"station_id":"KPB","i_lat":-6.132549,"time":3,"distance":1364,"station_name":"Kampung Bandan","is_transit":true,"line":4},{"station_id":"RJW","i_long":106.836569,"line":11,"i_lat":-6.14505,"is_transit":false,"distance":1444,"station_name":"Rajawali","transit":false,"time":3},{"transit":false,"line":11,"station_name":"Kemayoran","station_id":"KMO","i_lat":-6.161728,"distance":1901,"time":5,"is_transit":false,"i_long":106.839204},{"transit":false,"line":11,"time":4,"distance":1436,"is_transit":false,"i_lat":-6.174784,"station_name":"Pasar Senen","station_id":"PSE","i_long":106.84368},{"line":11,"distance":1567,"station_name":"Gang Sentiong","transit":false,"station_id":"GST","time":8,"is_transit":false,"i_lat":-6.185975,"i_long":106.850107},{"station_name":"Kramat","distance":973,"transit":false,"line":11,"i_lat":-6.193792,"i_long":106.855437,"time":1,"station_id":"KMT","is_transit":false},{"station_id":"POK","i_lat":-6.209188,"distance":1829,"time":2,"i_long":106.861737,"transit":false,"is_transit":false,"line":11,"station_name":"Pondok Jati"},{"distance":1236,"station_id":"JNG","line":1,"i_lat":-6.215091,"is_transit":true,"i_long":106.86807400000001,"transit":true,"station_name":"Jatinegara","time":9},{"line":1,"transit":false,"station_id":"KLD","distance":3395,"station_name":"Klender","is_transit":false,"time":3,"i_long":106.899548,"i_lat":-6.2135}]]}