{"data":[[{"station_name":"Sudirman Baru","time":0,"line":1,"distance":0,"is_transit":false,"i_long":106.819881,"i_lat":-6.201433,"transit":false,"station_id":"SUDB"},{"i_long":106.816351,"transit":false,"station_name":"Karet","station_id":"KAT","distance":471,"is_transit":false,"time":1,"i_lat":-6.20132,"line":1},{"i_lat":-6.185545,"line":1,"distance":2029,"transit":true,"time":5,"i_long":106.811091,"station_name":"Tanah Abang","is_transit":true,"station_id":"THB"},{"distance":3191,"station_name":"Palmerah","transit":false,"station_id":"PLM","time":6,"is_transit":false,"i_long":106.79689,"i_lat":-6.207404,"line":6}],[{"station_name":"Sudirman Baru","distance":0,"line":1,"is_transit":false,"transit":false,"time":0,"station_id":"SUDB","i_lat":-6.201433,"i_long":106.819881},{"station_id":"SUD","i_long":106.822649,"distance":280,"i_lat":-6.202263,"time":1,"is_transit":false,"station_name":"Sudirman","transit":false,"line":1},{"time":4,"i_lat":-6.209883,"is_transit":true,"station_id":"MRI","line":0,"station_name":"Manggarai","i_long":106.84912,"distance":3186,"transit":true},{"distance":1590,"i_lat":-6.198556,"is_transit":false,"i_long":106.840169,"transit":false,"station_id":"CKI","line":0,"time":4,"station_name":"Cikini"},{"station_id":"GDD","transit":false,"station_name":"Gondangdia","time":3,"i_long":106.832183,"line":2,"i_lat":-6.186295,"distance":1750,"is_transit":false},{"transit":false,"is_transit":false,"i_long":106.828284,"distance":2015,"i_lat":-6.166716,"station_id":"JUA","time":4,"station_name":"Juanda","line":2},{"line":2,"station_id":"SW","is_transit":false,"time":2,"i_lat":-6.160725,"i_long":106.827103,"distance":1149,"station_name":"Sawah Besar","transit":false},{"distance":906,"time":2,"transit":false,"is_transit":false,"line":2,"i_lat":-6.149769,"station_name":"Manggabesar","station_id":"MGB","i_long":106.82482},{"distance":1080,"station_name":"Jayakarta","station_id":"JAY","transit":false,"time":2,"i_lat":-6.141205,"is_transit":false,"i_long":106.820901,"line":7},{"station_name":"Jakarta Kota","is_transit":true,"i_lat":-6.137569,"time":4,"distance":1264,"line":0,"station_id":"JAKK","transit":true,"i_long":106.812439},{"transit":false,"i_lat":-6.132549,"is_transit":true,"station_id":"KPB","time":3,"distance":1364,"line":0,"station_name":"Kampung Bandan","i_long":106.826365},{"distance":4102,"is_transit":false,"time":9,"i_lat":-6.144674,"line":0,"i_long":106.79867,"station_name":"Angke","station_id":"AK","transit":false},{"station_name":"Duri","i_lat":-6.155215,"i_long":106.800832,"is_transit":true,"transit":true,"line":1,"station_id":"DU","time":4,"distance":1230},{"time":8,"station_id":"THB","transit":true,"distance":3632,"is_transit":true,"i_long":106.811091,"i_lat":-6.185545,"station_name":"Tanah Abang","line":1},{"time":6,"i_long":106.79689,"distance":3191,"i_lat":-6.207404,"is_transit":false,"line":6,"station_id":"PLM","station_name":"Palmerah","transit":false}],[{"i_long":106.819881,"line":1,"station_id":"SUDB","transit":false,"is_transit":false,"station_name":"Sudirman Baru","i_lat":-6.201433,"time":0,"distance":0},{"distance":280,"is_transit":false,"transit":false,"i_lat":-6.202263,"station_name":"Sudirman","time":1,"i_long":106.822649,"line":1,"station_id":"SUD"},{"station_name":"Manggarai","distance":3186,"time":4,"line":0,"is_transit":true,"i_long":106.84912,"i_lat":-6.209883,"transit":false,"station_id":"MRI"},{"distance":1275,"station_name":"Matraman","i_long":106.858896,"station_id":"MTR","i_lat":-6.212485,"transit":false,"is_transit":false,"time":2,"line":1},{"i_lat":-6.215091,"transit":true,"distance":1377,"station_id":"JNG","time":8,"station_name":"Jatinegara","i_long":106.86807400000001,"line":0,"is_transit":true},{"is_transit":false,"station_name":"Pondok Jati","transit":false,"i_lat":-6.209188,"line":11,"station_id":"POK","time":2,"i_long":106.861737,"distance":1236},{"distance":1829,"i_long":106.855437,"is_transit":false,"station_name":"Kramat","i_lat":-6.193792,"station_id":"KMT","transit":false,"line":11,"time":2},{"line":11,"i_long":106.850107,"i_lat":-6.185975,"is_transit":false,"station_name":"Gang Sentiong","distance":973,"transit":false,"station_id":"GST","time":1},{"station_name":"Pasar Senen","transit":false,"time":8,"i_lat":-6.174784,"is_transit":false,"line":11,"station_id":"PSE","distance":1567,"i_long":106.84368},{"distance":1436,"i_lat":-6.161728,"is_transit":false,"station_name":"Kemayoran","i_long":106.839204,"transit":false,"line":11,"station_id":"KMO","time":4},{"transit":false,"i_long":106.836569,"station_name":"Rajawali","station_id":"RJW","time":5,"is_transit":false,"i_lat":-6.14505,"distance":1901,"line":11},{"station_name":"Kampung Bandan","time":3,"line":0,"station_id":"KPB","transit":true,"i_lat":-6.132549,"is_transit":true,"distance":1444,"i_long":106.826365},{"is_transit":false,"distance":4102,"time":9,"line":0,"transit":false,"station_id":"AK","i_long":106.79867,"station_name":"Angke","i_lat":-6.144674},{"transit":true,"is_transit":true,"time":4,"i_lat":-6.155215,"i_long":106.800832,"line":1,"station_id":"DU","distance":1230,"station_name":"Duri"},{"i_lat":-6.185545,"line":1,"station_name":"Tanah Abang","station_id":"THB","i_long":106.811091,"transit":true,"time":8,"is_transit":true,"distance":3632},{"time":6,"is_transit":false,"i_long":106.79689,"station_id":"PLM","i_lat":-6.207404,"line":6,"distance":3191,"transit":false,"station_name":"Palmerah"}]]}