{"data":[[{"is_transit":false,"station_name":"Sudirman Baru","line":1,"distance":0,"time":0,"i_long":106.819881,"i_lat":-6.201433,"station_id":"SUDB","transit":false},{"station_id":"KAT","is_transit":false,"station_name":"Karet","transit":false,"i_lat":-6.20132,"distance":471,"i_long":106.816351,"time":1,"line":1},{"is_transit":false,"time":5,"line":1,"distance":2029,"transit":false,"i_lat":-6.185545,"station_name":"Tanah Abang","station_id":"THB","i_long":106.811091},{"station_name":"Duri","i_lat":-6.155215,"line":1,"station_id":"DU","distance":3632,"transit":false,"i_long":106.800832,"is_transit":false,"time":8},{"i_lat":-6.144674,"time":4,"line":1,"is_transit":false,"i_long":106.79867,"station_name":"Angke","transit":false,"station_id":"AK","distance":1230},{"transit":false,"line":4,"is_transit":false,"i_lat":-6.132549,"distance":4102,"i_long":106.826365,"station_id":"KPB","station_name":"Kampung Bandan","time":9}],[{"is_transit":false,"line":1,"station_name":"Sudirman Baru","i_lat":-6.201433,"distance":0,"station_id":"SUDB","time":0,"transit":false,"i_long":106.819881},{"i_long":106.822649,"is_transit":false,"i_lat":-6.202263,"station_id":"SUD","transit":false,"line":1,"time":1,"station_name":"Sudirman","distance":280},{"line":2,"time":4,"distance":3186,"station_id":"MRI","station_name":"Manggarai","is_transit":true,"transit":true,"i_lat":-6.209883,"i_long":106.84912},{"line":2,"station_name":"Cikini","i_lat":-6.198556,"i_long":106.840169,"distance":1590,"time":4,"station_id":"CKI","transit":false,"is_transit":false},{"is_transit":false,"station_id":"GDD","i_lat":-6.186295,"time":3,"station_name":"Gondangdia","transit":false,"distance":1750,"line":2,"i_long":106.832183},{"transit":false,"i_lat":-6.166716,"time":4,"line":2,"is_transit":false,"distance":2015,"station_name":"Juanda","i_long":106.828284,"station_id":"JUA"},{"line":2,"time":2,"station_id":"SW","transit":false,"distance":1149,"station_name":"Sawah Besar","is_transit":false,"i_long":106.827103,"i_lat":-6.160725},{"i_lat":-6.149769,"station_name":"Manggabesar","i_long":106.82482,"line":2,"distance":906,"transit":false,"is_transit":false,"time":2,"station_id":"MGB"},{"station_name":"Jayakarta","i_long":106.820901,"distance":1080,"transit":false,"line":2,"station_id":"JAY","time":2,"i_lat":-6.141205,"is_transit":false},{"is_transit":true,"i_long":106.812439,"i_lat":-6.137569,"distance":1264,"line":2,"transit":true,"station_name":"Jakarta Kota","time":4,"station_id":"JAKK"},{"line":4,"distance":1364,"i_lat":-6.132549,"station_name":"Kampung Bandan","time":3,"station_id":"KPB","is_transit":false,"transit":false,"i_long":106.826365}],[{"line":1,"i_long":106.819881,"distance":0,"station_id":"SUDB","is_transit":false,"station_name":"Sudirman Baru","transit":false,"i_lat":-6.201433,"time":0},{"station_id":"SUD","is_transit":false,"i_long":106.822649,"time":1,"i_lat":-6.202263,"transit":false,"line":1,"distance":280,"station_name":"Sudirman"},{"distance":3186,"i_long":106.84912,"line":2,"is_transit":false,"i_lat":-6.209883,"time":4,"station_name":"Manggarai","transit":false,"station_id":"MRI"},{"station_name":"Matraman","line":1,"transit":false,"station_id":"MTR","time":2,"i_lat":-6.212485,"distance":1275,"i_long":106.858896,"is_transit":false},{"i_lat":-6.215091,"line":1,"is_transit":true,"station_id":"JNG","transit":true,"i_long":106.86807400000001,"time":8,"station_name":"Jatinegara","distance":1377},{"is_transit":false,"line":11,"time":2,"station_id":"POK","i_lat":-6.209188,"transit":false,"i_long":106.861737,"distance":1236,"station_name":"Pondok Jati"},{"station_id":"KMT","time":2,"station_name":"Kramat","line":11,"is_transit":false,"transit":false,"distance":1829,"i_lat":-6.193792,"i_long":106.855437},{"line":11,"station_name":"Gang Sentiong","is_transit":false,"transit":false,"i_long":106.850107,"i_lat":-6.185975,"distance":973,"time":1,"station_id":"GST"},{"i_long":106.84368,"station_id":"PSE","transit":false,"is_transit":false,"line":11,"time":8,"i_lat":-6.174784,"distance":1567,"station_name":"Pasar Senen"},{"i_long":106.839204,"station_name":"Kemayoran","time":4,"is_transit":false,"transit":false,"line":11,"distance":1436,"i_lat":-6.161728,"station_id":"KMO"},{"line":11,"station_id":"RJW","distance":1901,"time":5,"station_name":"Rajawali","transit":false,"i_long":106.836569,"is_transit":false,"i_lat":-6.14505},{"distance":1444,"time":3,"station_name":"Kampung Bandan","i_long":106.826365,"is_transit":false,"i_lat":-6.132549,"transit":false,"station_id":"KPB","line":4}]]}