{"data":[[{"transit":false,"station_id":"SUDB","time":0,"is_transit":false,"distance":0,"i_lat":-6.201433,"i_long":106.819881,"station_name":"Sudirman Baru","line":1},{"station_id":"KAT","distance":471,"time":1,"i_lat":-6.20132,"station_name":"Karet","is_transit":false,"i_long":106.816351,"line":1,"transit":false},{"station_name":"Tanah Abang","distance":2029,"time":5,"i_lat":-6.185545,"i_long":106.811091,"transit":false,"line":1,"station_id":"THB","is_transit":true},{"transit":true,"is_transit":true,"station_id":"DU","time":8,"i_lat":-6.155215,"distance":3632,"i_long":106.800832,"line":1,"station_name":"Duri"},{"is_transit":false,"station_name":"Angke","i_long":106.79867,"transit":false,"time":4,"line":0,"distance":1230,"station_id":"AK","i_lat":-6.144674},{"distance":4102,"station_id":"KPB","is_transit":true,"transit":false,"i_lat":-6.132549,"line":0,"time":9,"i_long":106.826365,"station_name":"Kampung Bandan"}],[{"distance":0,"is_transit":false,"station_name":"Sudirman Baru","i_long":106.819881,"transit":false,"i_lat":-6.201433,"line":1,"time":0,"station_id":"SUDB"},{"distance":280,"i_long":106.822649,"line":1,"station_id":"SUD","is_transit":false,"station_name":"Sudirman","time":1,"i_lat":-6.202263,"transit":false},{"i_long":106.84912,"line":0,"station_id":"MRI","station_name":"Manggarai","transit":true,"i_lat":-6.209883,"is_transit":true,"distance":3186,"time":4},{"line":0,"station_name":"Cikini","time":4,"i_lat":-6.198556,"is_transit":false,"distance":1590,"station_id":"CKI","transit":false,"i_long":106.840169},{"distance":1750,"i_lat":-6.186295,"i_long":106.832183,"station_id":"GDD","station_name":"Gondangdia","line":2,"time":3,"transit":false,"is_transit":false},{"transit":false,"i_lat":-6.166716,"i_long":106.828284,"distance":2015,"line":2,"station_id":"JUA","time":4,"is_transit":false,"station_name":"Juanda"},{"i_long":106.827103,"i_lat":-6.160725,"transit":false,"station_id":"SW","distance":1149,"is_transit":false,"station_name":"Sawah Besar","line":2,"time":2},{"transit":false,"time":2,"station_id":"MGB","is_transit":false,"distance":906,"i_lat":-6.149769,"i_long":106.82482,"line":2,"station_name":"Manggabesar"},{"is_transit":false,"station_name":"Jayakarta","transit":false,"station_id":"JAY","i_long":106.820901,"distance":1080,"time":2,"i_lat":-6.141205,"line":7},{"station_name":"Jakarta Kota","time":4,"line":0,"transit":true,"station_id":"JAKK","i_long":106.812439,"i_lat":-6.137569,"is_transit":true,"distance":1264},{"line":0,"transit":false,"time":3,"distance":1364,"station_id":"KPB","station_name":"Kampung Bandan","i_lat":-6.132549,"is_transit":true,"i_long":106.826365}],[{"i_lat":-6.201433,"transit":false,"i_long":106.819881,"distance":0,"is_transit":false,"station_name":"Sudirman Baru","station_id":"SUDB","time":0,"line":1},{"station_name":"Sudirman","time":1,"line":1,"is_transit":false,"i_lat":-6.202263,"distance":280,"station_id":"SUD","i_long":106.822649,"transit":false},{"transit":false,"station_name":"Manggarai","time":4,"line":0,"distance":3186,"station_id":"MRI","i_long":106.84912,"is_transit":true,"i_lat":-6.209883},{"station_name":"Matraman","transit":false,"line":1,"is_transit":false,"time":2,"distance":1275,"i_lat":-6.212485,"i_long":106.858896,"station_id":"MTR"},{"i_long":106.86807400000001,"i_lat":-6.215091,"distance":1377,"station_name":"Jatinegara","transit":true,"time":8,"is_transit":true,"line":0,"station_id":"JNG"},{"line":11,"is_transit":false,"station_id":"POK","distance":1236,"time":2,"i_long":106.861737,"transit":false,"i_lat":-6.209188,"station_name":"Pondok Jati"},{"distance":1829,"station_name":"Kramat","time":2,"line":11,"i_lat":-6.193792,"is_transit":false,"i_long":106.855437,"station_id":"KMT","transit":false},{"line":11,"station_id":"GST","is_transit":false,"time":1,"i_lat":-6.185975,"i_long":106.850107,"distance":973,"station_name":"Gang Sentiong","transit":false},{"distance":1567,"time":8,"transit":false,"is_transit":false,"line":11,"i_lat":-6.174784,"station_name":"Pasar Senen","station_id":"PSE","i_long":106.84368},{"distance":1436,"station_name":"Kemayoran","station_id":"KMO","transit":false,"time":4,"i_lat":-6.161728,"is_transit":false,"i_long":106.839204,"line":11},{"station_name":"Rajawali","is_transit":false,"i_lat":-6.14505,"time":5,"distance":1901,"line":11,"station_id":"RJW","transit":false,"i_long":106.836569},{"transit":false,"i_lat":-6.132549,"is_transit":true,"station_id":"KPB","time":3,"distance":1444,"line":0,"station_name":"Kampung Bandan","i_long":106.826365}]]}