{"data":[[{"station_id":"SUDB","line":1,"transit":false,"station_name":"Sudirman Baru","time":0,"distance":0,"i_lat":-6.201433,"is_transit":false,"i_long":106.819881},{"line":1,"distance":471,"is_transit":false,"transit":false,"i_lat":-6.20132,"station_id":"KAT","station_name":"Karet","i_long":106.816351,"time":1},{"station_name":"Tanah Abang","transit":false,"time":5,"station_id":"THB","distance":2029,"line":1,"i_long":106.811091,"i_lat":-6.185545,"is_transit":false},{"transit":false,"is_transit":false,"station_name":"Duri","station_id":"DU","distance":3632,"i_long":106.800832,"time":8,"i_lat":-6.155215,"line":1},{"is_transit":false,"transit":false,"distance":1230,"i_long":106.79867,"line":1,"station_name":"Angke","station_id":"AK","time":4,"i_lat":-6.144674},{"transit":false,"time":9,"station_id":"KPB","i_lat":-6.132549,"station_name":"Kampung Bandan","i_long":106.826365,"distance":4102,"line":4,"is_transit":false}],[{"station_name":"Sudirman Baru","station_id":"SUDB","transit":false,"time":0,"i_lat":-6.201433,"is_transit":false,"distance":0,"i_long":106.819881,"line":1},{"i_lat":-6.202263,"station_id":"SUD","i_long":106.822649,"is_transit":false,"line":1,"time":1,"station_name":"Sudirman","transit":false,"distance":280},{"i_long":106.84912,"station_name":"Manggarai","i_lat":-6.209883,"transit":true,"time":4,"distance":3186,"line":2,"is_transit":true,"station_id":"MRI"},{"distance":1590,"is_transit":false,"station_name":"Cikini","transit":false,"time":4,"i_lat":-6.198556,"station_id":"CKI","line":2,"i_long":106.840169},{"i_lat":-6.186295,"station_name":"Gondangdia","is_transit":false,"i_long":106.832183,"time":3,"distance":1750,"line":2,"station_id":"GDD","transit":false},{"is_transit":false,"time":4,"i_lat":-6.166716,"distance":2015,"station_id":"JUA","i_long":106.828284,"line":2,"station_name":"Juanda","transit":false},{"time":2,"distance":1149,"i_long":106.827103,"is_transit":false,"i_lat":-6.160725,"station_name":"Sawah Besar","line":2,"transit":false,"station_id":"SW"},{"i_lat":-6.149769,"time":2,"transit":false,"station_name":"Manggabesar","i_long":106.82482,"line":2,"distance":906,"station_id":"MGB","is_transit":false},{"station_name":"Jayakarta","time":2,"station_id":"JAY","i_lat":-6.141205,"is_transit":false,"distance":1080,"transit":false,"i_long":106.820901,"line":2},{"i_lat":-6.137569,"transit":true,"line":2,"is_transit":true,"station_id":"JAKK","station_name":"Jakarta Kota","time":4,"i_long":106.812439,"distance":1264},{"transit":false,"i_long":106.826365,"is_transit":false,"time":3,"distance":1364,"i_lat":-6.132549,"line":4,"station_name":"Kampung Bandan","station_id":"KPB"}],[{"is_transit":false,"line":1,"station_name":"Sudirman Baru","time":0,"distance":0,"i_long":106.819881,"transit":false,"station_id":"SUDB","i_lat":-6.201433},{"transit":false,"distance":280,"station_id":"SUD","i_lat":-6.202263,"i_long":106.822649,"line":1,"station_name":"Sudirman","time":1,"is_transit":false},{"is_transit":false,"station_name":"Manggarai","distance":3186,"i_long":106.84912,"transit":false,"i_lat":-6.209883,"station_id":"MRI","line":2,"time":4},{"i_lat":-6.212485,"transit":false,"station_name":"Matraman","i_long":106.858896,"station_id":"MTR","line":1,"distance":1275,"time":2,"is_transit":false},{"is_transit":true,"line":1,"time":8,"i_lat":-6.215091,"transit":true,"i_long":106.86807400000001,"station_id":"JNG","station_name":"Jatinegara","distance":1377},{"time":2,"station_id":"POK","transit":false,"is_transit":false,"line":11,"distance":1236,"i_lat":-6.209188,"i_long":106.861737,"station_name":"Pondok Jati"},{"i_lat":-6.193792,"station_id":"KMT","i_long":106.855437,"line":11,"distance":1829,"transit":false,"station_name":"Kramat","is_transit":false,"time":2},{"transit":false,"station_name":"Gang Sentiong","time":1,"is_transit":false,"station_id":"GST","distance":973,"i_lat":-6.185975,"i_long":106.850107,"line":11},{"time":8,"i_lat":-6.174784,"distance":1567,"i_long":106.84368,"station_id":"PSE","is_transit":false,"station_name":"Pasar Senen","transit":false,"line":11},{"transit":false,"distance":1436,"line":11,"i_lat":-6.161728,"is_transit":false,"i_long":106.839204,"station_name":"Kemayoran","station_id":"KMO","time":4},{"is_transit":false,"time":5,"station_id":"RJW","distance":1901,"i_lat":-6.14505,"station_name":"Rajawali","transit":false,"i_long":106.836569,"line":11},{"distance":1444,"i_lat":-6.132549,"transit":false,"station_id":"KPB","station_name":"Kampung Bandan","is_transit":false,"i_long":106.826365,"time":3,"line":4}]]}