{"data":[[{"is_transit":false,"i_long":106.819881,"distance":0,"station_id":"SUDB","line":1,"transit":false,"i_lat":-6.201433,"time":0,"station_name":"Sudirman Baru"},{"distance":280,"is_transit":false,"time":1,"i_lat":-6.202263,"station_id":"SUD","line":1,"transit":false,"i_long":106.822649,"station_name":"Sudirman"},{"station_name":"Manggarai","station_id":"MRI","time":4,"i_long":106.84912,"line":2,"is_transit":true,"transit":true,"i_lat":-6.209883,"distance":3186},{"distance":1590,"i_long":106.840169,"line":2,"transit":false,"i_lat":-6.198556,"is_transit":false,"station_name":"Cikini","time":4,"station_id":"CKI"},{"transit":false,"station_id":"GDD","is_transit":false,"i_lat":-6.186295,"station_name":"Gondangdia","line":2,"i_long":106.832183,"distance":1750,"time":3},{"time":4,"station_name":"Juanda","line":2,"is_transit":false,"station_id":"JUA","transit":false,"i_lat":-6.166716,"i_long":106.828284,"distance":2015},{"i_long":106.827103,"time":2,"transit":false,"line":2,"station_id":"SW","distance":1149,"i_lat":-6.160725,"station_name":"Sawah Besar","is_transit":false}],[{"i_lat":-6.201433,"time":0,"i_long":106.819881,"station_id":"SUDB","transit":false,"is_transit":false,"distance":0,"line":1,"station_name":"Sudirman Baru"},{"i_lat":-6.20132,"distance":471,"transit":false,"i_long":106.816351,"station_id":"KAT","station_name":"Karet","is_transit":false,"time":1,"line":1},{"time":5,"i_long":106.811091,"station_name":"Tanah Abang","line":1,"station_id":"THB","distance":2029,"is_transit":false,"transit":false,"i_lat":-6.185545},{"transit":false,"distance":3632,"line":1,"station_id":"DU","is_transit":false,"station_name":"Duri","time":8,"i_lat":-6.155215,"i_long":106.800832},{"time":4,"transit":false,"station_id":"AK","distance":1230,"i_long":106.79867,"is_transit":false,"line":1,"station_name":"Angke","i_lat":-6.144674},{"distance":4102,"i_long":106.826365,"station_name":"Kampung Bandan","time":9,"transit":true,"station_id":"KPB","i_lat":-6.132549,"is_transit":true,"line":4},{"time":3,"distance":1364,"i_lat":-6.137569,"is_transit":true,"station_name":"Jakarta Kota","line":2,"station_id":"JAKK","i_long":106.812439,"transit":true},{"is_transit":false,"transit":false,"station_name":"Jayakarta","i_lat":-6.141205,"station_id":"JAY","line":2,"time":4,"distance":1264,"i_long":106.820901},{"transit":false,"time":2,"distance":1080,"line":2,"is_transit":false,"station_name":"Manggabesar","station_id":"MGB","i_long":106.82482,"i_lat":-6.149769},{"station_id":"SW","is_transit":false,"time":2,"i_lat":-6.160725,"station_name":"Sawah Besar","i_long":106.827103,"distance":906,"line":2,"transit":false}],[{"transit":false,"distance":0,"line":1,"station_name":"Sudirman Baru","time":0,"station_id":"SUDB","is_transit":false,"i_lat":-6.201433,"i_long":106.819881},{"i_lat":-6.202263,"distance":280,"i_long":106.822649,"time":1,"transit":false,"station_name":"Sudirman","station_id":"SUD","line":1,"is_transit":false},{"distance":3186,"station_id":"MRI","time":4,"i_lat":-6.209883,"is_transit":false,"transit":false,"i_long":106.84912,"station_name":"Manggarai","line":2},{"distance":1275,"i_long":106.858896,"time":2,"transit":false,"line":1,"station_id":"MTR","is_transit":false,"station_name":"Matraman","i_lat":-6.212485},{"transit":true,"i_long":106.86807400000001,"distance":1377,"time":8,"station_id":"JNG","is_transit":true,"i_lat":-6.215091,"station_name":"Jatinegara","line":1},{"distance":1236,"line":11,"i_lat":-6.209188,"i_long":106.861737,"transit":false,"station_name":"Pondok Jati","station_id":"POK","is_transit":false,"time":2},{"distance":1829,"i_long":106.855437,"station_name":"Kramat","transit":false,"is_transit":false,"time":2,"station_id":"KMT","i_lat":-6.193792,"line":11},{"station_name":"Gang Sentiong","station_id":"GST","transit":false,"i_lat":-6.185975,"distance":973,"is_transit":false,"line":11,"time":1,"i_long":106.850107},{"line":11,"station_name":"Pasar Senen","station_id":"PSE","is_transit":false,"distance":1567,"i_long":106.84368,"i_lat":-6.174784,"time":8,"transit":false},{"station_name":"Kemayoran","line":11,"i_lat":-6.161728,"is_transit":false,"transit":false,"i_long":106.839204,"time":4,"station_id":"KMO","distance":1436},{"is_transit":false,"distance":1901,"i_long":106.836569,"time":5,"i_lat":-6.14505,"transit":false,"station_name":"Rajawali","station_id":"RJW","line":11},{"i_lat":-6.132549,"i_long":106.826365,"time":3,"distance":1444,"transit":true,"station_id":"KPB","is_transit":true,"line":4,"station_name":"Kampung Bandan"},{"is_transit":true,"transit":true,"station_name":"Jakarta Kota","time":3,"i_long":106.812439,"line":2,"distance":1364,"station_id":"JAKK","i_lat":-6.137569},{"station_id":"JAY","station_name":"Jayakarta","time":4,"distance":1264,"line":2,"transit":false,"is_transit":false,"i_lat":-6.141205,"i_long":106.820901},{"line":2,"station_id":"MGB","is_transit":false,"time":2,"transit":false,"distance":1080,"i_lat":-6.149769,"i_long":106.82482,"station_name":"Manggabesar"},{"i_long":106.827103,"transit":false,"is_transit":false,"i_lat":-6.160725,"line":2,"station_id":"SW","station_name":"Sawah Besar","time":2,"distance":906}],[{"time":0,"i_lat":-6.201433,"station_name":"Sudirman Baru","is_transit":false,"line":1,"station_id":"SUDB","i_long":106.819881,"transit":false,"distance":0},{"transit":false,"i_long":106.816351,"line":1,"station_name":"Karet","station_id":"KAT","i_lat":-6.20132,"distance":471,"is_transit":false,"time":1},{"is_transit":false,"line":1,"i_lat":-6.185545,"station_id":"THB","distance":2029,"station_name":"Tanah Abang","time":5,"i_long":106.811091,"transit":false},{"station_id":"DU","line":1,"time":8,"distance":3632,"i_long":106.800832,"is_transit":false,"i_lat":-6.155215,"transit":false,"station_name":"Duri"},{"time":4,"line":1,"station_name":"Angke","i_lat":-6.144674,"is_transit":false,"transit":false,"station_id":"AK","i_long":106.79867,"distance":1230},{"is_transit":true,"station_id":"KPB","station_name":"Kampung Bandan","time":9,"i_long":106.826365,"transit":true,"distance":4102,"line":4,"i_lat":-6.132549},{"time":3,"station_id":"RJW","is_transit":false,"i_lat":-6.14505,"station_name":"Rajawali","transit":false,"line":11,"i_long":106.836569,"distance":1444},{"time":5,"station_id":"KMO","line":11,"distance":1901,"is_transit":false,"i_long":106.839204,"i_lat":-6.161728,"transit":false,"station_name":"Kemayoran"},{"station_id":"PSE","is_transit":false,"station_name":"Pasar Senen","line":11,"distance":1436,"i_lat":-6.174784,"transit":false,"time":4,"i_long":106.84368},{"station_name":"Gang Sentiong","line":11,"i_long":106.850107,"is_transit":false,"time":8,"distance":1567,"transit":false,"i_lat":-6.185975,"station_id":"GST"},{"station_name":"Kramat","is_transit":false,"time":1,"distance":973,"transit":false,"i_long":106.855437,"line":11,"i_lat":-6.193792,"station_id":"KMT"},{"station_id":"POK","distance":1829,"i_long":106.861737,"is_transit":false,"time":2,"station_name":"Pondok Jati","i_lat":-6.209188,"line":11,"transit":false},{"station_name":"Jatinegara","distance":1236,"time":9,"is_transit":true,"station_id":"JNG","line":1,"transit":true,"i_long":106.86807400000001,"i_lat":-6.215091},{"distance":1377,"station_name":"Matraman","transit":false,"station_id":"MTR","i_lat":-6.212485,"is_transit":false,"line":1,"time":2,"i_long":106.858896},{"station_id":"MRI","i_long":106.84912,"distance":1275,"time":2,"station_name":"Manggarai","i_lat":-6.209883,"is_transit":true,"transit":true,"line":2},{"i_long":106.840169,"i_lat":-6.198556,"line":2,"distance":1590,"station_id":"CKI","is_transit":false,"time":4,"station_name":"Cikini","transit":false},{"distance":1750,"i_long":106.832183,"station_name":"Gondangdia","line":2,"station_id":"GDD","transit":false,"is_transit":false,"time":3,"i_lat":-6.186295},{"station_id":"JUA","time":4,"transit":false,"is_transit":false,"line":2,"i_long":106.828284,"station_name":"Juanda","distance":2015,"i_lat":-6.166716},{"distance":1149,"i_long":106.827103,"is_transit":false,"i_lat":-6.160725,"line":2,"station_name":"Sawah Besar","transit":false,"time":2,"station_id":"SW"}]]}