{"data":[[{"i_lat":-6.201433,"i_long":106.819881,"time":0,"is_transit":false,"station_name":"Sudirman Baru","station_id":"SUDB","line":1,"distance":0,"transit":false},{"transit":false,"is_transit":false,"i_long":106.816351,"time":1,"station_name":"Karet","station_id":"KAT","i_lat":-6.20132,"line":1,"distance":471},{"station_id":"THB","station_name":"Tanah Abang","i_long":106.811091,"time":5,"i_lat":-6.185545,"is_transit":true,"line":1,"transit":true,"distance":2029},{"station_name":"Palmerah","station_id":"PLM","is_transit":false,"transit":false,"i_long":106.79689,"time":6,"i_lat":-6.207404,"line":6,"distance":3191},{"station_id":"KBY","transit":false,"time":7,"distance":3737,"is_transit":false,"i_lat":-6.237242,"station_name":"Kebayoran","i_long":106.780334,"line":6},{"i_lat":-6.276362,"i_long":106.74273,"time":8,"is_transit":false,"line":6,"station_id":"PDJ","distance":6218,"transit":false,"station_name":"Pondokranji"},{"i_lat":-6.288927,"line":6,"i_long":106.728916,"time":3,"station_id":"JMU","distance":2179,"is_transit":false,"transit":false,"station_name":"Jurangmangu"},{"station_name":"Sudimara","time":4,"distance":1994,"is_transit":false,"i_lat":-6.296963,"line":6,"transit":false,"i_long":106.712277,"station_id":"SDM"}],[{"station_id":"SUDB","i_lat":-6.201433,"station_name":"Sudirman Baru","distance":0,"is_transit":false,"line":1,"i_long":106.819881,"time":0,"transit":false},{"station_id":"SUD","station_name":"Sudirman","line":1,"i_lat":-6.202263,"i_long":106.822649,"transit":false,"is_transit":false,"time":1,"distance":280},{"distance":3186,"time":4,"i_lat":-6.209883,"station_id":"MRI","line":2,"is_transit":true,"transit":true,"station_name":"Manggarai","i_long":106.84912},{"station_name":"Cikini","i_lat":-6.198556,"line":2,"distance":1590,"is_transit":false,"i_long":106.840169,"time":4,"station_id":"CKI","transit":false},{"station_id":"GDD","is_transit":false,"i_long":106.832183,"station_name":"Gondangdia","i_lat":-6.186295,"line":2,"time":3,"distance":1750,"transit":false},{"line":2,"i_lat":-6.166716,"is_transit":false,"distance":2015,"time":4,"station_id":"JUA","transit":false,"i_long":106.828284,"station_name":"Juanda"},{"line":2,"station_id":"SW","is_transit":false,"i_long":106.827103,"transit":false,"station_name":"Sawah Besar","distance":1149,"time":2,"i_lat":-6.160725},{"transit":false,"station_id":"MGB","is_transit":false,"distance":906,"time":2,"station_name":"Manggabesar","i_long":106.82482,"line":2,"i_lat":-6.149769},{"is_transit":false,"i_lat":-6.141205,"line":2,"station_name":"Jayakarta","i_long":106.820901,"time":2,"transit":false,"station_id":"JAY","distance":1080},{"line":2,"station_name":"Jakarta Kota","distance":1264,"transit":true,"time":4,"station_id":"JAKK","i_lat":-6.137569,"i_long":106.812439,"is_transit":true},{"line":4,"station_id":"KPB","is_transit":true,"i_lat":-6.132549,"transit":true,"distance":1364,"station_name":"Kampung Bandan","i_long":106.826365,"time":3},{"line":1,"is_transit":false,"station_id":"AK","distance":4102,"i_lat":-6.144674,"transit":false,"time":9,"station_name":"Angke","i_long":106.79867},{"line":1,"is_transit":false,"transit":false,"station_name":"Duri","time":4,"distance":1230,"i_lat":-6.155215,"station_id":"DU","i_long":106.800832},{"transit":true,"i_lat":-6.185545,"line":1,"time":8,"distance":3632,"station_name":"Tanah Abang","i_long":106.811091,"station_id":"THB","is_transit":true},{"transit":false,"is_transit":false,"station_id":"PLM","time":6,"i_lat":-6.207404,"i_long":106.79689,"station_name":"Palmerah","distance":3191,"line":6},{"station_id":"KBY","time":7,"i_lat":-6.237242,"i_long":106.780334,"transit":false,"distance":3737,"is_transit":false,"station_name":"Kebayoran","line":6},{"i_lat":-6.276362,"is_transit":false,"i_long":106.74273,"station_id":"PDJ","distance":6218,"time":8,"transit":false,"line":6,"station_name":"Pondokranji"},{"time":3,"transit":false,"station_name":"Jurangmangu","i_long":106.728916,"distance":2179,"i_lat":-6.288927,"line":6,"is_transit":false,"station_id":"JMU"},{"station_name":"Sudimara","time":4,"transit":false,"distance":1994,"is_transit":false,"i_lat":-6.296963,"line":6,"station_id":"SDM","i_long":106.712277}],[{"time":0,"i_lat":-6.201433,"station_name":"Sudirman Baru","transit":false,"is_transit":false,"i_long":106.819881,"station_id":"SUDB","distance":0,"line":1},{"distance":280,"i_lat":-6.202263,"time":1,"station_id":"SUD","line":1,"station_name":"Sudirman","i_long":106.822649,"is_transit":false,"transit":false},{"distance":3186,"is_transit":false,"i_lat":-6.209883,"time":4,"station_name":"Manggarai","line":2,"station_id":"MRI","transit":false,"i_long":106.84912},{"i_long":106.858896,"i_lat":-6.212485,"is_transit":false,"line":1,"distance":1275,"time":2,"station_id":"MTR","transit":false,"station_name":"Matraman"},{"is_transit":true,"i_long":106.86807400000001,"i_lat":-6.215091,"station_id":"JNG","line":1,"distance":1377,"station_name":"Jatinegara","transit":true,"time":8},{"is_transit":false,"time":2,"station_name":"Pondok Jati","i_lat":-6.209188,"i_long":106.861737,"line":11,"transit":false,"distance":1236,"station_id":"POK"},{"station_id":"KMT","transit":false,"i_lat":-6.193792,"line":11,"is_transit":false,"station_name":"Kramat","distance":1829,"time":2,"i_long":106.855437},{"transit":false,"is_transit":false,"station_id":"GST","i_lat":-6.185975,"i_long":106.850107,"line":11,"station_name":"Gang Sentiong","distance":973,"time":1},{"station_id":"PSE","transit":false,"distance":1567,"i_lat":-6.174784,"station_name":"Pasar Senen","i_long":106.84368,"is_transit":false,"time":8,"line":11},{"station_name":"Kemayoran","i_long":106.839204,"time":4,"station_id":"KMO","distance":1436,"i_lat":-6.161728,"line":11,"transit":false,"is_transit":false},{"i_lat":-6.14505,"station_name":"Rajawali","station_id":"RJW","is_transit":false,"line":11,"i_long":106.836569,"distance":1901,"transit":false,"time":5},{"i_long":106.826365,"line":4,"station_id":"KPB","i_lat":-6.132549,"time":3,"station_name":"Kampung Bandan","is_transit":true,"transit":true,"distance":1444},{"time":9,"is_transit":false,"i_long":106.79867,"distance":4102,"station_id":"AK","station_name":"Angke","i_lat":-6.144674,"line":1,"transit":false},{"station_name":"Duri","transit":false,"distance":1230,"station_id":"DU","time":4,"is_transit":false,"line":1,"i_long":106.800832,"i_lat":-6.155215},{"line":1,"time":8,"transit":true,"i_lat":-6.185545,"station_id":"THB","distance":3632,"is_transit":true,"station_name":"Tanah Abang","i_long":106.811091},{"station_name":"Palmerah","distance":3191,"i_lat":-6.207404,"time":6,"station_id":"PLM","is_transit":false,"i_long":106.79689,"transit":false,"line":6},{"transit":false,"time":7,"line":6,"i_lat":-6.237242,"station_name":"Kebayoran","station_id":"KBY","is_transit":false,"i_long":106.780334,"distance":3737},{"station_id":"PDJ","distance":6218,"is_transit":false,"i_lat":-6.276362,"i_long":106.74273,"transit":false,"line":6,"station_name":"Pondokranji","time":8},{"station_id":"JMU","i_lat":-6.288927,"distance":2179,"i_long":106.728916,"station_name":"Jurangmangu","is_transit":false,"time":3,"transit":false,"line":6},{"time":4,"line":6,"station_id":"SDM","i_long":106.712277,"i_lat":-6.296963,"station_name":"Sudimara","distance":1994,"is_transit":false,"transit":false}]]}