{"data":[[{"i_lat":-6.201433,"station_id":"SUDB","station_name":"Sudirman Baru","time":0,"distance":0,"line":1,"is_transit":false,"transit":false,"i_long":106.819881},{"station_name":"Sudirman","i_long":106.822649,"transit":false,"is_transit":false,"time":1,"distance":280,"line":1,"i_lat":-6.202263,"station_id":"SUD"},{"distance":3186,"station_name":"Manggarai","line":2,"i_long":106.84912,"i_lat":-6.209883,"station_id":"MRI","is_transit":false,"transit":false,"time":4},{"time":2,"transit":false,"distance":1275,"i_lat":-6.212485,"is_transit":false,"station_id":"MTR","station_name":"Matraman","i_long":106.858896,"line":1},{"is_transit":false,"transit":false,"station_name":"Jatinegara","distance":1377,"line":1,"i_long":106.86807400000001,"station_id":"JNG","time":8,"i_lat":-6.215091},{"i_long":106.899548,"transit":false,"station_id":"KLD","time":3,"distance":3395,"line":1,"station_name":"Klender","i_lat":-6.2135,"is_transit":false},{"station_name":"Buaran","is_transit":false,"distance":3100,"transit":false,"time":2,"station_id":"BUA","i_lat":-6.215568,"line":1,"i_long":106.922662},{"is_transit":false,"station_id":"KLDB","transit":false,"distance":1305,"station_name":"Klenderbaru","line":1,"time":1,"i_lat":-6.217455,"i_long":106.939679}],[{"station_name":"Sudirman Baru","transit":false,"distance":0,"i_long":106.819881,"is_transit":false,"station_id":"SUDB","line":1,"i_lat":-6.201433,"time":0},{"transit":false,"distance":471,"i_long":106.816351,"station_name":"Karet","time":1,"is_transit":false,"line":1,"station_id":"KAT","i_lat":-6.20132},{"transit":false,"distance":2029,"i_lat":-6.185545,"station_id":"THB","station_name":"Tanah Abang","time":5,"i_long":106.811091,"line":1,"is_transit":false},{"is_transit":false,"station_name":"Duri","time":8,"i_lat":-6.155215,"line":1,"distance":3632,"station_id":"DU","i_long":106.800832,"transit":false},{"station_name":"Angke","is_transit":false,"i_long":106.79867,"station_id":"AK","i_lat":-6.144674,"distance":1230,"transit":false,"time":4,"line":1},{"i_lat":-6.132549,"is_transit":true,"time":9,"distance":4102,"transit":true,"station_id":"KPB","station_name":"Kampung Bandan","i_long":106.826365,"line":4},{"i_long":106.836569,"transit":false,"line":11,"time":3,"station_name":"Rajawali","is_transit":false,"distance":1444,"i_lat":-6.14505,"station_id":"RJW"},{"line":11,"transit":false,"is_transit":false,"station_name":"Kemayoran","station_id":"KMO","i_lat":-6.161728,"time":5,"distance":1901,"i_long":106.839204},{"station_id":"PSE","distance":1436,"is_transit":false,"line":11,"i_lat":-6.174784,"i_long":106.84368,"transit":false,"station_name":"Pasar Senen","time":4},{"distance":1567,"time":8,"transit":false,"is_transit":false,"station_id":"GST","station_name":"Gang Sentiong","i_lat":-6.185975,"i_long":106.850107,"line":11},{"distance":973,"time":1,"transit":false,"i_lat":-6.193792,"station_id":"KMT","line":11,"is_transit":false,"station_name":"Kramat","i_long":106.855437},{"distance":1829,"is_transit":false,"i_long":106.861737,"line":11,"station_id":"POK","station_name":"Pondok Jati","time":2,"i_lat":-6.209188,"transit":false},{"distance":1236,"i_long":106.86807400000001,"transit":true,"is_transit":true,"station_id":"JNG","i_lat":-6.215091,"line":1,"station_name":"Jatinegara","time":9},{"i_lat":-6.2135,"transit":false,"station_name":"Klender","distance":3395,"time":3,"line":1,"station_id":"KLD","is_transit":false,"i_long":106.899548},{"time":2,"i_long":106.922662,"line":1,"is_transit":false,"transit":false,"station_name":"Buaran","station_id":"BUA","distance":3100,"i_lat":-6.215568},{"transit":false,"time":1,"station_id":"KLDB","line":1,"is_transit":false,"station_name":"Klenderbaru","distance":1305,"i_lat":-6.217455,"i_long":106.939679}],[{"distance":0,"time":0,"i_long":106.819881,"station_id":"SUDB","station_name":"Sudirman Baru","is_transit":false,"i_lat":-6.201433,"transit":false,"line":1},{"time":1,"distance":471,"is_transit":false,"i_lat":-6.20132,"line":1,"i_long":106.816351,"station_name":"Karet","transit":false,"station_id":"KAT"},{"distance":2029,"station_name":"Tanah Abang","station_id":"THB","i_lat":-6.185545,"line":1,"is_transit":false,"time":5,"i_long":106.811091,"transit":false},{"is_transit":false,"time":8,"line":1,"i_lat":-6.155215,"transit":false,"distance":3632,"station_name":"Duri","station_id":"DU","i_long":106.800832},{"i_lat":-6.144674,"time":4,"station_id":"AK","line":1,"transit":false,"station_name":"Angke","is_transit":false,"distance":1230,"i_long":106.79867},{"i_long":106.826365,"is_transit":true,"i_lat":-6.132549,"line":4,"transit":true,"time":9,"station_name":"Kampung Bandan","distance":4102,"station_id":"KPB"},{"line":2,"station_name":"Jakarta Kota","i_long":106.812439,"i_lat":-6.137569,"station_id":"JAKK","time":3,"distance":1364,"is_transit":true,"transit":true},{"i_long":106.820901,"time":4,"station_id":"JAY","line":2,"transit":false,"is_transit":false,"distance":1264,"station_name":"Jayakarta","i_lat":-6.141205},{"transit":false,"time":2,"i_lat":-6.149769,"distance":1080,"i_long":106.82482,"station_name":"Manggabesar","station_id":"MGB","is_transit":false,"line":2},{"station_id":"SW","i_lat":-6.160725,"i_long":106.827103,"station_name":"Sawah Besar","is_transit":false,"distance":906,"line":2,"time":2,"transit":false},{"station_name":"Juanda","is_transit":false,"station_id":"JUA","transit":false,"distance":1149,"line":2,"time":2,"i_lat":-6.166716,"i_long":106.828284},{"station_name":"Gondangdia","time":4,"station_id":"GDD","i_long":106.832183,"distance":2015,"is_transit":false,"i_lat":-6.186295,"transit":false,"line":2},{"distance":1750,"station_name":"Cikini","is_transit":false,"time":3,"i_lat":-6.198556,"line":2,"i_long":106.840169,"transit":false,"station_id":"CKI"},{"transit":true,"time":4,"distance":1590,"i_lat":-6.209883,"line":2,"station_name":"Manggarai","station_id":"MRI","is_transit":true,"i_long":106.84912},{"time":2,"is_transit":false,"line":1,"transit":false,"station_name":"Matraman","distance":1275,"i_lat":-6.212485,"i_long":106.858896,"station_id":"MTR"},{"station_id":"JNG","station_name":"Jatinegara","is_transit":false,"time":8,"i_long":106.86807400000001,"i_lat":-6.215091,"distance":1377,"line":1,"transit":false},{"station_name":"Klender","line":1,"distance":3395,"time":3,"i_lat":-6.2135,"station_id":"KLD","transit":false,"is_transit":false,"i_long":106.899548},{"station_name":"Buaran","distance":3100,"is_transit":false,"station_id":"BUA","line":1,"transit":false,"i_lat":-6.215568,"i_long":106.922662,"time":2},{"station_id":"KLDB","transit":false,"i_lat":-6.217455,"line":1,"is_transit":false,"station_name":"Klenderbaru","time":1,"i_long":106.939679,"distance":1305}],[{"line":1,"transit":false,"station_name":"Sudirman Baru","station_id":"SUDB","distance":0,"i_lat":-6.201433,"i_long":106.819881,"is_transit":false,"time":0},{"i_lat":-6.202263,"station_id":"SUD","is_transit":false,"transit":false,"station_name":"Sudirman","line":1,"time":1,"distance":280,"i_long":106.822649},{"station_name":"Manggarai","time":4,"transit":true,"distance":3186,"is_transit":true,"i_long":106.84912,"line":2,"station_id":"MRI","i_lat":-6.209883},{"i_lat":-6.198556,"station_id":"CKI","station_name":"Cikini","i_long":106.840169,"is_transit":false,"transit":false,"time":4,"distance":1590,"line":2},{"line":2,"transit":false,"is_transit":false,"i_lat":-6.186295,"time":3,"station_name":"Gondangdia","distance":1750,"i_long":106.832183,"station_id":"GDD"},{"time":4,"station_id":"JUA","station_name":"Juanda","i_lat":-6.166716,"line":2,"is_transit":false,"transit":false,"distance":2015,"i_long":106.828284},{"i_lat":-6.160725,"station_id":"SW","distance":1149,"transit":false,"time":2,"i_long":106.827103,"station_name":"Sawah Besar","is_transit":false,"line":2},{"station_id":"MGB","is_transit":false,"line":2,"station_name":"Manggabesar","time":2,"transit":false,"distance":906,"i_lat":-6.149769,"i_long":106.82482},{"transit":false,"is_transit":false,"distance":1080,"i_long":106.820901,"station_id":"JAY","station_name":"Jayakarta","time":2,"i_lat":-6.141205,"line":2},{"station_id":"JAKK","time":4,"line":2,"i_lat":-6.137569,"distance":1264,"transit":true,"i_long":106.812439,"station_name":"Jakarta Kota","is_transit":true},{"transit":true,"is_transit":true,"distance":1364,"station_id":"KPB","time":3,"line":4,"i_long":106.826365,"station_name":"Kampung Bandan","i_lat":-6.132549},{"transit":false,"station_name":"Rajawali","distance":1444,"station_id":"RJW","is_transit":false,"i_lat":-6.14505,"time":3,"line":11,"i_long":106.836569},{"transit":false,"time":5,"distance":1901,"station_name":"Kemayoran","i_long":106.839204,"i_lat":-6.161728,"station_id":"KMO","is_transit":false,"line":11},{"i_lat":-6.174784,"line":11,"time":4,"is_transit":false,"transit":false,"station_name":"Pasar Senen","distance":1436,"station_id":"PSE","i_long":106.84368},{"i_lat":-6.185975,"transit":false,"is_transit":false,"station_name":"Gang Sentiong","time":8,"station_id":"GST","distance":1567,"i_long":106.850107,"line":11},{"line":11,"distance":973,"time":1,"station_name":"Kramat","transit":false,"station_id":"KMT","i_lat":-6.193792,"is_transit":false,"i_long":106.855437},{"i_lat":-6.209188,"line":11,"transit":false,"is_transit":false,"station_name":"Pondok Jati","time":2,"distance":1829,"station_id":"POK","i_long":106.861737},{"transit":true,"i_long":106.86807400000001,"station_id":"JNG","i_lat":-6.215091,"station_name":"Jatinegara","line":1,"is_transit":true,"time":9,"distance":1236},{"distance":3395,"i_lat":-6.2135,"i_long":106.899548,"station_id":"KLD","time":3,"is_transit":false,"station_name":"Klender","transit":false,"line":1},{"distance":3100,"line":1,"station_name":"Buaran","station_id":"BUA","i_lat":-6.215568,"time":2,"transit":false,"i_long":106.922662,"is_transit":false},{"is_transit":false,"station_name":"Klenderbaru","station_id":"KLDB","time":1,"distance":1305,"i_long":106.939679,"i_lat":-6.217455,"transit":false,"line":1}]]}