{"data":[[{"station_name":"Sudirman Baru","i_lat":-6.201433,"station_id":"SUDB","is_transit":false,"i_long":106.819881,"line":1,"distance":0,"transit":false,"time":0},{"i_long":106.816351,"time":1,"transit":false,"line":1,"station_id":"KAT","station_name":"Karet","is_transit":false,"distance":471,"i_lat":-6.20132},{"station_id":"THB","distance":2029,"is_transit":false,"i_lat":-6.185545,"transit":false,"line":1,"station_name":"Tanah Abang","time":5,"i_long":106.811091},{"station_name":"Duri","is_transit":false,"station_id":"DU","i_long":106.800832,"line":1,"i_lat":-6.155215,"transit":false,"distance":3632,"time":8},{"station_name":"Angke","is_transit":false,"time":4,"station_id":"AK","i_lat":-6.144674,"i_long":106.79867,"line":1,"transit":false,"distance":1230},{"line":4,"station_id":"KPB","time":9,"station_name":"Kampung Bandan","i_lat":-6.132549,"distance":4102,"is_transit":false,"transit":false,"i_long":106.826365}],[{"is_transit":false,"line":1,"transit":false,"distance":0,"time":0,"i_long":106.819881,"station_id":"SUDB","station_name":"Sudirman Baru","i_lat":-6.201433},{"transit":false,"station_id":"SUD","is_transit":false,"station_name":"Sudirman","i_long":106.822649,"i_lat":-6.202263,"distance":280,"line":1,"time":1},{"line":2,"is_transit":true,"transit":true,"distance":3186,"time":4,"station_id":"MRI","i_lat":-6.209883,"station_name":"Manggarai","i_long":106.84912},{"distance":1590,"time":4,"station_id":"CKI","transit":false,"i_long":106.840169,"line":2,"i_lat":-6.198556,"is_transit":false,"station_name":"Cikini"},{"station_id":"GDD","is_transit":false,"time":3,"distance":1750,"station_name":"Gondangdia","i_long":106.832183,"i_lat":-6.186295,"line":2,"transit":false},{"station_id":"JUA","i_lat":-6.166716,"distance":2015,"station_name":"Juanda","time":4,"transit":false,"i_long":106.828284,"is_transit":false,"line":2},{"transit":false,"is_transit":false,"i_lat":-6.160725,"station_id":"SW","station_name":"Sawah Besar","line":2,"distance":1149,"time":2,"i_long":106.827103},{"transit":false,"is_transit":false,"station_id":"MGB","i_lat":-6.149769,"station_name":"Manggabesar","distance":906,"line":2,"time":2,"i_long":106.82482},{"i_long":106.820901,"i_lat":-6.141205,"distance":1080,"line":2,"time":2,"is_transit":false,"transit":false,"station_name":"Jayakarta","station_id":"JAY"},{"is_transit":true,"line":2,"i_long":106.812439,"time":4,"distance":1264,"transit":true,"i_lat":-6.137569,"station_name":"Jakarta Kota","station_id":"JAKK"},{"line":4,"i_lat":-6.132549,"is_transit":false,"station_name":"Kampung Bandan","distance":1364,"time":3,"i_long":106.826365,"transit":false,"station_id":"KPB"}],[{"station_name":"Sudirman Baru","i_lat":-6.201433,"is_transit":false,"time":0,"distance":0,"i_long":106.819881,"transit":false,"line":1,"station_id":"SUDB"},{"distance":280,"station_id":"SUD","station_name":"Sudirman","i_lat":-6.202263,"transit":false,"line":1,"time":1,"i_long":106.822649,"is_transit":false},{"station_id":"MRI","is_transit":false,"time":4,"station_name":"Manggarai","line":2,"distance":3186,"transit":false,"i_long":106.84912,"i_lat":-6.209883},{"i_long":106.858896,"station_name":"Matraman","is_transit":false,"transit":false,"i_lat":-6.212485,"distance":1275,"time":2,"line":1,"station_id":"MTR"},{"line":1,"distance":1377,"i_long":106.86807400000001,"i_lat":-6.215091,"station_name":"Jatinegara","time":8,"station_id":"JNG","is_transit":true,"transit":true},{"distance":1236,"station_id":"POK","station_name":"Pondok Jati","transit":false,"is_transit":false,"i_lat":-6.209188,"i_long":106.861737,"line":11,"time":2},{"station_id":"KMT","time":2,"transit":false,"station_name":"Kramat","is_transit":false,"i_lat":-6.193792,"i_long":106.855437,"line":11,"distance":1829},{"station_id":"GST","station_name":"Gang Sentiong","i_long":106.850107,"time":1,"distance":973,"i_lat":-6.185975,"line":11,"is_transit":false,"transit":false},{"line":11,"i_lat":-6.174784,"station_name":"Pasar Senen","time":8,"station_id":"PSE","transit":false,"is_transit":false,"distance":1567,"i_long":106.84368},{"station_name":"Kemayoran","time":4,"transit":false,"distance":1436,"i_lat":-6.161728,"i_long":106.839204,"line":11,"station_id":"KMO","is_transit":false},{"i_lat":-6.14505,"i_long":106.836569,"time":5,"transit":false,"distance":1901,"is_transit":false,"station_id":"RJW","station_name":"Rajawali","line":11},{"i_long":106.826365,"transit":false,"distance":1444,"line":4,"time":3,"station_name":"Kampung Bandan","station_id":"KPB","is_transit":false,"i_lat":-6.132549}]]}