{"data":[[{"transit":false,"is_transit":false,"time":0,"station_name":"Sudirman Baru","i_long":106.819881,"i_lat":-6.201433,"station_id":"SUDB","distance":0,"line":1},{"station_id":"KAT","distance":471,"transit":false,"station_name":"Karet","time":1,"line":1,"is_transit":false,"i_lat":-6.20132,"i_long":106.816351},{"station_name":"Tanah Abang","distance":2029,"transit":false,"is_transit":false,"line":1,"station_id":"THB","time":5,"i_lat":-6.185545,"i_long":106.811091},{"transit":true,"is_transit":true,"line":1,"time":8,"i_lat":-6.155215,"distance":3632,"i_long":106.800832,"station_name":"Duri","station_id":"DU"},{"is_transit":false,"time":3,"station_id":"GGL","i_long":106.788277,"distance":1700,"line":5,"transit":false,"i_lat":-6.162021,"station_name":"Grogol"},{"i_lat":-6.161433,"distance":2036,"station_id":"PSG","is_transit":false,"line":5,"transit":false,"time":2,"i_long":106.771379,"station_name":"Pesing"},{"i_lat":-6.1587309999999995,"line":5,"station_name":"Taman Kota","transit":false,"i_long":106.756522,"distance":1614,"is_transit":false,"time":2,"station_id":"TKO"},{"station_name":"Bojongindah","i_long":106.737035,"line":5,"transit":false,"i_lat":-6.159876,"station_id":"BOI","distance":2334,"is_transit":false,"time":2},{"station_id":"RW","time":4,"station_name":"Rawa Buaya","distance":1152,"transit":false,"i_long":106.723064,"i_lat":-6.162758,"line":5,"is_transit":false}],[{"i_long":106.819881,"station_id":"SUDB","time":0,"distance":0,"station_name":"Sudirman Baru","i_lat":-6.201433,"line":1,"transit":false,"is_transit":false},{"transit":false,"distance":280,"line":1,"i_long":106.822649,"station_name":"Sudirman","station_id":"SUD","is_transit":false,"i_lat":-6.202263,"time":1},{"i_lat":-6.209883,"distance":3186,"station_name":"Manggarai","transit":true,"is_transit":true,"time":4,"i_long":106.84912,"station_id":"MRI","line":2},{"i_lat":-6.198556,"distance":1590,"i_long":106.840169,"transit":false,"station_name":"Cikini","station_id":"CKI","line":2,"is_transit":false,"time":4},{"is_transit":false,"transit":false,"time":3,"distance":1750,"station_id":"GDD","i_lat":-6.186295,"i_long":106.832183,"line":2,"station_name":"Gondangdia"},{"station_name":"Juanda","station_id":"JUA","distance":2015,"time":4,"i_lat":-6.166716,"line":2,"transit":false,"is_transit":false,"i_long":106.828284},{"is_transit":false,"station_name":"Sawah Besar","time":2,"line":2,"i_lat":-6.160725,"i_long":106.827103,"distance":1149,"station_id":"SW","transit":false},{"is_transit":false,"distance":906,"station_name":"Manggabesar","line":2,"station_id":"MGB","i_long":106.82482,"time":2,"transit":false,"i_lat":-6.149769},{"station_name":"Jayakarta","i_lat":-6.141205,"i_long":106.820901,"line":2,"distance":1080,"station_id":"JAY","transit":false,"is_transit":false,"time":2},{"i_long":106.812439,"is_transit":true,"station_id":"JAKK","time":4,"i_lat":-6.137569,"line":2,"transit":true,"station_name":"Jakarta Kota","distance":1264},{"is_transit":true,"i_long":106.826365,"station_id":"KPB","transit":true,"i_lat":-6.132549,"line":4,"time":3,"station_name":"Kampung Bandan","distance":1364},{"distance":4102,"station_id":"AK","i_lat":-6.144674,"is_transit":false,"transit":false,"station_name":"Angke","time":9,"i_long":106.79867,"line":1},{"line":1,"time":4,"is_transit":true,"distance":1230,"transit":true,"station_name":"Duri","station_id":"DU","i_lat":-6.155215,"i_long":106.800832},{"line":5,"transit":false,"station_name":"Grogol","time":3,"is_transit":false,"i_lat":-6.162021,"station_id":"GGL","distance":1700,"i_long":106.788277},{"distance":2036,"is_transit":false,"i_long":106.771379,"i_lat":-6.161433,"station_name":"Pesing","transit":false,"station_id":"PSG","line":5,"time":2},{"transit":false,"i_long":106.756522,"station_id":"TKO","i_lat":-6.1587309999999995,"station_name":"Taman Kota","line":5,"is_transit":false,"time":2,"distance":1614},{"distance":2334,"i_lat":-6.159876,"i_long":106.737035,"station_id":"BOI","time":2,"is_transit":false,"station_name":"Bojongindah","transit":false,"line":5},{"i_lat":-6.162758,"i_long":106.723064,"station_name":"Rawa Buaya","line":5,"is_transit":false,"station_id":"RW","time":4,"transit":false,"distance":1152}],[{"transit":false,"time":0,"line":1,"is_transit":false,"station_id":"SUDB","i_long":106.819881,"distance":0,"i_lat":-6.201433,"station_name":"Sudirman Baru"},{"line":1,"station_id":"SUD","distance":280,"i_lat":-6.202263,"transit":false,"station_name":"Sudirman","is_transit":false,"time":1,"i_long":106.822649},{"line":2,"station_id":"MRI","distance":3186,"is_transit":false,"time":4,"station_name":"Manggarai","transit":false,"i_lat":-6.209883,"i_long":106.84912},{"i_lat":-6.212485,"i_long":106.858896,"time":2,"line":1,"is_transit":false,"station_name":"Matraman","transit":false,"station_id":"MTR","distance":1275},{"station_id":"JNG","i_lat":-6.215091,"is_transit":true,"i_long":106.86807400000001,"line":1,"transit":true,"distance":1377,"time":8,"station_name":"Jatinegara"},{"station_name":"Pondok Jati","distance":1236,"transit":false,"i_lat":-6.209188,"station_id":"POK","is_transit":false,"time":2,"line":11,"i_long":106.861737},{"i_lat":-6.193792,"is_transit":false,"time":2,"distance":1829,"station_id":"KMT","station_name":"Kramat","i_long":106.855437,"transit":false,"line":11},{"distance":973,"time":1,"is_transit":false,"i_long":106.850107,"transit":false,"station_id":"GST","i_lat":-6.185975,"station_name":"Gang Sentiong","line":11},{"station_id":"PSE","distance":1567,"station_name":"Pasar Senen","i_lat":-6.174784,"transit":false,"time":8,"is_transit":false,"line":11,"i_long":106.84368},{"i_long":106.839204,"time":4,"station_name":"Kemayoran","transit":false,"station_id":"KMO","is_transit":false,"distance":1436,"line":11,"i_lat":-6.161728},{"station_name":"Rajawali","transit":false,"time":5,"line":11,"i_lat":-6.14505,"station_id":"RJW","distance":1901,"i_long":106.836569,"is_transit":false},{"line":4,"time":3,"i_long":106.826365,"station_name":"Kampung Bandan","transit":true,"station_id":"KPB","distance":1444,"i_lat":-6.132549,"is_transit":true},{"i_lat":-6.144674,"time":9,"transit":false,"station_id":"AK","distance":4102,"is_transit":false,"i_long":106.79867,"station_name":"Angke","line":1},{"time":4,"i_lat":-6.155215,"station_name":"Duri","line":1,"is_transit":true,"transit":true,"i_long":106.800832,"station_id":"DU","distance":1230},{"transit":false,"is_transit":false,"station_id":"GGL","distance":1700,"i_long":106.788277,"time":3,"i_lat":-6.162021,"station_name":"Grogol","line":5},{"station_name":"Pesing","line":5,"station_id":"PSG","time":2,"distance":2036,"is_transit":false,"i_long":106.771379,"transit":false,"i_lat":-6.161433},{"station_name":"Taman Kota","time":2,"distance":1614,"i_long":106.756522,"transit":false,"i_lat":-6.1587309999999995,"is_transit":false,"line":5,"station_id":"TKO"},{"line":5,"station_name":"Bojongindah","is_transit":false,"station_id":"BOI","distance":2334,"i_long":106.737035,"transit":false,"time":2,"i_lat":-6.159876},{"i_lat":-6.162758,"line":5,"i_long":106.723064,"time":4,"distance":1152,"transit":false,"station_id":"RW","is_transit":false,"station_name":"Rawa Buaya"}]]}