{"data":[[{"line":1,"time":0,"distance":0,"i_lat":-6.201433,"i_long":106.819881,"station_name":"Sudirman Baru","station_id":"SUDB","is_transit":false,"transit":false},{"station_name":"Karet","i_lat":-6.20132,"is_transit":false,"distance":471,"i_long":106.816351,"transit":false,"line":1,"time":1,"station_id":"KAT"},{"is_transit":false,"station_name":"Tanah Abang","i_long":106.811091,"station_id":"THB","transit":false,"i_lat":-6.185545,"distance":2029,"time":5,"line":1},{"station_name":"Duri","i_lat":-6.155215,"station_id":"DU","line":1,"is_transit":true,"distance":3632,"time":8,"i_long":106.800832,"transit":true},{"i_lat":-6.162021,"station_name":"Grogol","distance":1700,"transit":false,"station_id":"GGL","time":3,"line":5,"is_transit":false,"i_long":106.788277},{"station_id":"PSG","i_lat":-6.161433,"is_transit":false,"time":2,"i_long":106.771379,"station_name":"Pesing","transit":false,"distance":2036,"line":5},{"transit":false,"time":2,"station_name":"Taman Kota","station_id":"TKO","i_lat":-6.1587309999999995,"line":5,"i_long":106.756522,"distance":1614,"is_transit":false},{"station_name":"Bojongindah","is_transit":false,"line":5,"station_id":"BOI","transit":false,"time":2,"i_lat":-6.159876,"i_long":106.737035,"distance":2334},{"transit":false,"line":5,"station_name":"Rawa Buaya","station_id":"RW","is_transit":false,"time":4,"distance":1152,"i_lat":-6.162758,"i_long":106.723064},{"is_transit":false,"i_lat":-6.166068,"distance":2504,"station_id":"KDS","i_long":106.701612,"line":5,"time":3,"transit":false,"station_name":"Kalideres"}],[{"is_transit":false,"i_long":106.819881,"i_lat":-6.201433,"distance":0,"station_name":"Sudirman Baru","station_id":"SUDB","transit":false,"line":1,"time":0},{"transit":false,"i_lat":-6.202263,"i_long":106.822649,"distance":280,"line":1,"time":1,"station_name":"Sudirman","is_transit":false,"station_id":"SUD"},{"time":4,"i_lat":-6.209883,"station_id":"MRI","transit":true,"is_transit":true,"station_name":"Manggarai","line":2,"distance":3186,"i_long":106.84912},{"distance":1590,"is_transit":false,"time":4,"i_long":106.840169,"i_lat":-6.198556,"station_id":"CKI","line":2,"transit":false,"station_name":"Cikini"},{"line":2,"station_name":"Gondangdia","distance":1750,"time":3,"transit":false,"is_transit":false,"i_lat":-6.186295,"station_id":"GDD","i_long":106.832183},{"line":2,"distance":2015,"is_transit":false,"i_long":106.828284,"i_lat":-6.166716,"time":4,"station_name":"Juanda","station_id":"JUA","transit":false},{"line":2,"distance":1149,"i_long":106.827103,"transit":false,"time":2,"station_name":"Sawah Besar","is_transit":false,"i_lat":-6.160725,"station_id":"SW"},{"line":2,"time":2,"station_name":"Manggabesar","i_lat":-6.149769,"distance":906,"i_long":106.82482,"station_id":"MGB","is_transit":false,"transit":false},{"transit":false,"i_lat":-6.141205,"line":2,"station_name":"Jayakarta","distance":1080,"is_transit":false,"station_id":"JAY","i_long":106.820901,"time":2},{"line":2,"i_long":106.812439,"is_transit":true,"transit":true,"time":4,"station_id":"JAKK","distance":1264,"i_lat":-6.137569,"station_name":"Jakarta Kota"},{"is_transit":true,"i_lat":-6.132549,"station_name":"Kampung Bandan","distance":1364,"line":4,"i_long":106.826365,"time":3,"station_id":"KPB","transit":true},{"time":9,"station_name":"Angke","i_lat":-6.144674,"transit":false,"line":1,"i_long":106.79867,"station_id":"AK","is_transit":false,"distance":4102},{"station_id":"DU","i_long":106.800832,"station_name":"Duri","distance":1230,"is_transit":true,"transit":true,"time":4,"i_lat":-6.155215,"line":1},{"i_lat":-6.162021,"time":3,"distance":1700,"station_id":"GGL","i_long":106.788277,"station_name":"Grogol","is_transit":false,"transit":false,"line":5},{"time":2,"station_name":"Pesing","station_id":"PSG","i_lat":-6.161433,"i_long":106.771379,"distance":2036,"transit":false,"is_transit":false,"line":5},{"i_lat":-6.1587309999999995,"line":5,"transit":false,"distance":1614,"is_transit":false,"time":2,"station_id":"TKO","station_name":"Taman Kota","i_long":106.756522},{"transit":false,"i_long":106.737035,"i_lat":-6.159876,"time":2,"line":5,"is_transit":false,"station_id":"BOI","distance":2334,"station_name":"Bojongindah"},{"station_name":"Rawa Buaya","distance":1152,"i_long":106.723064,"line":5,"transit":false,"i_lat":-6.162758,"is_transit":false,"time":4,"station_id":"RW"},{"transit":false,"station_name":"Kalideres","time":3,"distance":2504,"i_lat":-6.166068,"station_id":"KDS","i_long":106.701612,"is_transit":false,"line":5}],[{"station_name":"Sudirman Baru","i_long":106.819881,"i_lat":-6.201433,"is_transit":false,"distance":0,"station_id":"SUDB","time":0,"transit":false,"line":1},{"line":1,"time":1,"is_transit":false,"i_lat":-6.202263,"distance":280,"transit":false,"station_name":"Sudirman","i_long":106.822649,"station_id":"SUD"},{"time":4,"station_id":"MRI","distance":3186,"line":2,"is_transit":false,"i_lat":-6.209883,"transit":false,"station_name":"Manggarai","i_long":106.84912},{"is_transit":false,"distance":1275,"station_name":"Matraman","time":2,"i_lat":-6.212485,"station_id":"MTR","i_long":106.858896,"line":1,"transit":false},{"station_id":"JNG","i_long":106.86807400000001,"time":8,"distance":1377,"transit":true,"station_name":"Jatinegara","is_transit":true,"i_lat":-6.215091,"line":1},{"station_name":"Pondok Jati","transit":false,"time":2,"is_transit":false,"distance":1236,"station_id":"POK","i_long":106.861737,"line":11,"i_lat":-6.209188},{"station_name":"Kramat","line":11,"distance":1829,"time":2,"i_lat":-6.193792,"transit":false,"station_id":"KMT","is_transit":false,"i_long":106.855437},{"station_id":"GST","station_name":"Gang Sentiong","time":1,"i_lat":-6.185975,"transit":false,"distance":973,"line":11,"i_long":106.850107,"is_transit":false},{"line":11,"i_lat":-6.174784,"transit":false,"time":8,"is_transit":false,"distance":1567,"station_id":"PSE","i_long":106.84368,"station_name":"Pasar Senen"},{"transit":false,"distance":1436,"time":4,"is_transit":false,"i_lat":-6.161728,"station_name":"Kemayoran","i_long":106.839204,"line":11,"station_id":"KMO"},{"station_name":"Rajawali","distance":1901,"station_id":"RJW","line":11,"i_lat":-6.14505,"is_transit":false,"time":5,"transit":false,"i_long":106.836569},{"time":3,"line":4,"is_transit":true,"transit":true,"distance":1444,"station_name":"Kampung Bandan","station_id":"KPB","i_lat":-6.132549,"i_long":106.826365},{"i_long":106.79867,"distance":4102,"station_id":"AK","i_lat":-6.144674,"line":1,"is_transit":false,"transit":false,"time":9,"station_name":"Angke"},{"i_long":106.800832,"transit":true,"distance":1230,"time":4,"station_id":"DU","station_name":"Duri","line":1,"is_transit":true,"i_lat":-6.155215},{"distance":1700,"is_transit":false,"time":3,"i_lat":-6.162021,"station_name":"Grogol","transit":false,"station_id":"GGL","line":5,"i_long":106.788277},{"line":5,"station_name":"Pesing","is_transit":false,"i_long":106.771379,"distance":2036,"transit":false,"time":2,"station_id":"PSG","i_lat":-6.161433},{"transit":false,"station_id":"TKO","line":5,"is_transit":false,"station_name":"Taman Kota","i_lat":-6.1587309999999995,"distance":1614,"i_long":106.756522,"time":2},{"station_id":"BOI","transit":false,"time":2,"line":5,"i_lat":-6.159876,"distance":2334,"station_name":"Bojongindah","is_transit":false,"i_long":106.737035},{"is_transit":false,"station_name":"Rawa Buaya","station_id":"RW","i_long":106.723064,"line":5,"transit":false,"time":4,"distance":1152,"i_lat":-6.162758},{"transit":false,"line":5,"distance":2504,"time":3,"is_transit":false,"station_id":"KDS","station_name":"Kalideres","i_lat":-6.166068,"i_long":106.701612}]]}