{"data":[[{"time":0,"distance":0,"transit":false,"i_lat":-6.201433,"line":1,"is_transit":false,"station_id":"SUDB","station_name":"Sudirman Baru","i_long":106.819881},{"i_lat":-6.20132,"is_transit":false,"transit":false,"distance":471,"station_name":"Karet","time":1,"station_id":"KAT","i_long":106.816351,"line":1},{"i_long":106.811091,"is_transit":false,"i_lat":-6.185545,"transit":false,"line":1,"distance":2029,"station_id":"THB","time":5,"station_name":"Tanah Abang"}],[{"station_id":"SUDB","distance":0,"transit":false,"i_lat":-6.201433,"is_transit":false,"time":0,"line":1,"station_name":"Sudirman Baru","i_long":106.819881},{"station_name":"Sudirman","time":1,"i_lat":-6.202263,"station_id":"SUD","i_long":106.822649,"is_transit":false,"transit":false,"line":1,"distance":280},{"distance":3186,"i_long":106.84912,"line":2,"time":4,"is_transit":true,"station_name":"Manggarai","transit":true,"i_lat":-6.209883,"station_id":"MRI"},{"line":2,"time":4,"i_lat":-6.198556,"station_name":"Cikini","station_id":"CKI","is_transit":false,"distance":1590,"i_long":106.840169,"transit":false},{"time":3,"station_id":"GDD","transit":false,"station_name":"Gondangdia","distance":1750,"i_long":106.832183,"i_lat":-6.186295,"is_transit":false,"line":2},{"i_lat":-6.166716,"station_id":"JUA","transit":false,"is_transit":false,"station_name":"Juanda","line":2,"i_long":106.828284,"time":4,"distance":2015},{"transit":false,"distance":1149,"line":2,"time":2,"station_id":"SW","i_long":106.827103,"is_transit":false,"station_name":"Sawah Besar","i_lat":-6.160725},{"station_name":"Manggabesar","distance":906,"line":2,"is_transit":false,"i_lat":-6.149769,"transit":false,"i_long":106.82482,"station_id":"MGB","time":2},{"station_name":"Jayakarta","is_transit":false,"i_lat":-6.141205,"station_id":"JAY","i_long":106.820901,"line":2,"transit":false,"time":2,"distance":1080},{"time":4,"distance":1264,"line":2,"station_name":"Jakarta Kota","station_id":"JAKK","i_long":106.812439,"is_transit":true,"i_lat":-6.137569,"transit":true},{"time":3,"distance":1364,"i_lat":-6.132549,"station_name":"Kampung Bandan","transit":true,"is_transit":true,"i_long":106.826365,"line":4,"station_id":"KPB"},{"time":9,"station_name":"Angke","is_transit":false,"transit":false,"line":1,"distance":4102,"i_long":106.79867,"i_lat":-6.144674,"station_id":"AK"},{"station_id":"DU","station_name":"Duri","distance":1230,"transit":false,"time":4,"i_long":106.800832,"i_lat":-6.155215,"line":1,"is_transit":false},{"station_id":"THB","station_name":"Tanah Abang","i_lat":-6.185545,"time":8,"line":1,"is_transit":false,"i_long":106.811091,"distance":3632,"transit":false}],[{"station_id":"SUDB","station_name":"Sudirman Baru","i_long":106.819881,"time":0,"is_transit":false,"transit":false,"distance":0,"i_lat":-6.201433,"line":1},{"is_transit":false,"transit":false,"i_lat":-6.202263,"distance":280,"time":1,"i_long":106.822649,"line":1,"station_id":"SUD","station_name":"Sudirman"},{"i_long":106.84912,"distance":3186,"station_name":"Manggarai","is_transit":false,"time":4,"transit":false,"i_lat":-6.209883,"station_id":"MRI","line":2},{"i_long":106.858896,"station_id":"MTR","i_lat":-6.212485,"time":2,"station_name":"Matraman","transit":false,"line":1,"distance":1275,"is_transit":false},{"i_lat":-6.215091,"line":1,"transit":true,"station_name":"Jatinegara","station_id":"JNG","i_long":106.86807400000001,"is_transit":true,"time":8,"distance":1377},{"time":2,"line":11,"station_name":"Pondok Jati","i_lat":-6.209188,"distance":1236,"transit":false,"is_transit":false,"station_id":"POK","i_long":106.861737},{"distance":1829,"station_id":"KMT","station_name":"Kramat","i_lat":-6.193792,"i_long":106.855437,"line":11,"is_transit":false,"transit":false,"time":2},{"time":1,"station_name":"Gang Sentiong","i_long":106.850107,"station_id":"GST","is_transit":false,"line":11,"distance":973,"transit":false,"i_lat":-6.185975},{"transit":false,"is_transit":false,"station_name":"Pasar Senen","time":8,"distance":1567,"station_id":"PSE","i_lat":-6.174784,"i_long":106.84368,"line":11},{"time":4,"i_long":106.839204,"line":11,"is_transit":false,"i_lat":-6.161728,"distance":1436,"station_name":"Kemayoran","station_id":"KMO","transit":false},{"i_lat":-6.14505,"time":5,"station_name":"Rajawali","distance":1901,"i_long":106.836569,"station_id":"RJW","line":11,"transit":false,"is_transit":false},{"is_transit":true,"transit":true,"time":3,"station_id":"KPB","line":4,"distance":1444,"i_lat":-6.132549,"i_long":106.826365,"station_name":"Kampung Bandan"},{"time":9,"station_id":"AK","distance":4102,"line":1,"i_lat":-6.144674,"station_name":"Angke","is_transit":false,"transit":false,"i_long":106.79867},{"time":4,"i_long":106.800832,"is_transit":false,"transit":false,"line":1,"station_id":"DU","i_lat":-6.155215,"station_name":"Duri","distance":1230},{"station_name":"Tanah Abang","i_long":106.811091,"transit":false,"i_lat":-6.185545,"time":8,"distance":3632,"station_id":"THB","line":1,"is_transit":false}]]}