{"data":[[{"transit":false,"time":0,"is_transit":false,"distance":0,"i_lat":-6.201433,"station_id":"SUDB","i_long":106.819881,"station_name":"Sudirman Baru","line":1},{"distance":471,"station_id":"KAT","is_transit":false,"time":1,"i_long":106.816351,"line":1,"transit":false,"station_name":"Karet","i_lat":-6.20132},{"i_lat":-6.185545,"i_long":106.811091,"transit":true,"station_name":"Tanah Abang","distance":2029,"time":5,"station_id":"THB","is_transit":true,"line":1},{"time":6,"station_id":"PLM","i_long":106.79689,"transit":false,"distance":3191,"is_transit":false,"station_name":"Palmerah","line":6,"i_lat":-6.207404}],[{"time":0,"distance":0,"station_id":"SUDB","i_lat":-6.201433,"is_transit":false,"i_long":106.819881,"line":1,"transit":false,"station_name":"Sudirman Baru"},{"transit":false,"i_lat":-6.202263,"line":1,"time":1,"station_name":"Sudirman","station_id":"SUD","is_transit":false,"i_long":106.822649,"distance":280},{"station_name":"Manggarai","station_id":"MRI","transit":true,"distance":3186,"is_transit":true,"i_lat":-6.209883,"i_long":106.84912,"time":4,"line":2},{"station_name":"Cikini","distance":1590,"time":4,"is_transit":false,"i_long":106.840169,"i_lat":-6.198556,"station_id":"CKI","line":2,"transit":false},{"line":2,"station_name":"Gondangdia","transit":false,"distance":1750,"i_long":106.832183,"is_transit":false,"station_id":"GDD","i_lat":-6.186295,"time":3},{"station_id":"JUA","transit":false,"station_name":"Juanda","i_lat":-6.166716,"i_long":106.828284,"distance":2015,"time":4,"line":2,"is_transit":false},{"distance":1149,"i_long":106.827103,"i_lat":-6.160725,"station_id":"SW","line":2,"time":2,"transit":false,"station_name":"Sawah Besar","is_transit":false},{"transit":false,"distance":906,"station_name":"Manggabesar","i_long":106.82482,"station_id":"MGB","time":2,"is_transit":false,"i_lat":-6.149769,"line":2},{"station_name":"Jayakarta","i_long":106.820901,"transit":false,"i_lat":-6.141205,"station_id":"JAY","time":2,"is_transit":false,"line":2,"distance":1080},{"transit":true,"is_transit":true,"distance":1264,"station_name":"Jakarta Kota","i_lat":-6.137569,"station_id":"JAKK","time":4,"i_long":106.812439,"line":2},{"distance":1364,"i_lat":-6.132549,"time":3,"station_id":"KPB","line":4,"i_long":106.826365,"is_transit":true,"transit":true,"station_name":"Kampung Bandan"},{"station_name":"Angke","i_lat":-6.144674,"i_long":106.79867,"time":9,"station_id":"AK","distance":4102,"is_transit":false,"transit":false,"line":1},{"line":1,"station_name":"Duri","station_id":"DU","i_long":106.800832,"time":4,"is_transit":false,"transit":false,"i_lat":-6.155215,"distance":1230},{"time":8,"line":1,"is_transit":true,"transit":true,"distance":3632,"i_long":106.811091,"i_lat":-6.185545,"station_id":"THB","station_name":"Tanah Abang"},{"i_long":106.79689,"time":6,"is_transit":false,"line":6,"station_id":"PLM","transit":false,"i_lat":-6.207404,"station_name":"Palmerah","distance":3191}],[{"time":0,"i_lat":-6.201433,"line":1,"i_long":106.819881,"is_transit":false,"station_name":"Sudirman Baru","station_id":"SUDB","distance":0,"transit":false},{"i_lat":-6.202263,"time":1,"station_name":"Sudirman","i_long":106.822649,"is_transit":false,"distance":280,"line":1,"station_id":"SUD","transit":false},{"transit":false,"i_lat":-6.209883,"distance":3186,"station_name":"Manggarai","line":2,"time":4,"i_long":106.84912,"station_id":"MRI","is_transit":false},{"time":2,"is_transit":false,"station_id":"MTR","transit":false,"station_name":"Matraman","i_lat":-6.212485,"i_long":106.858896,"line":1,"distance":1275},{"i_lat":-6.215091,"station_id":"JNG","i_long":106.86807400000001,"distance":1377,"station_name":"Jatinegara","line":1,"transit":true,"is_transit":true,"time":8},{"station_id":"POK","time":2,"i_long":106.861737,"line":11,"station_name":"Pondok Jati","i_lat":-6.209188,"distance":1236,"is_transit":false,"transit":false},{"station_id":"KMT","line":11,"station_name":"Kramat","i_lat":-6.193792,"is_transit":false,"distance":1829,"transit":false,"i_long":106.855437,"time":2},{"time":1,"i_long":106.850107,"station_id":"GST","transit":false,"station_name":"Gang Sentiong","line":11,"i_lat":-6.185975,"distance":973,"is_transit":false},{"time":8,"line":11,"is_transit":false,"i_lat":-6.174784,"i_long":106.84368,"station_name":"Pasar Senen","distance":1567,"station_id":"PSE","transit":false},{"is_transit":false,"i_long":106.839204,"station_name":"Kemayoran","distance":1436,"station_id":"KMO","time":4,"transit":false,"i_lat":-6.161728,"line":11},{"station_name":"Rajawali","station_id":"RJW","line":11,"distance":1901,"transit":false,"i_long":106.836569,"i_lat":-6.14505,"time":5,"is_transit":false},{"distance":1444,"i_lat":-6.132549,"station_id":"KPB","transit":true,"i_long":106.826365,"time":3,"is_transit":true,"station_name":"Kampung Bandan","line":4},{"station_id":"AK","is_transit":false,"distance":4102,"i_long":106.79867,"time":9,"transit":false,"station_name":"Angke","i_lat":-6.144674,"line":1},{"is_transit":false,"station_name":"Duri","time":4,"station_id":"DU","transit":false,"i_lat":-6.155215,"i_long":106.800832,"line":1,"distance":1230},{"transit":true,"line":1,"time":8,"is_transit":true,"station_id":"THB","station_name":"Tanah Abang","distance":3632,"i_lat":-6.185545,"i_long":106.811091},{"station_name":"Palmerah","i_long":106.79689,"i_lat":-6.207404,"time":6,"station_id":"PLM","line":6,"distance":3191,"is_transit":false,"transit":false}]]}