{"data":[[{"i_lat":-6.201433,"distance":0,"transit":false,"station_name":"Sudirman Baru","time":0,"line":1,"i_long":106.819881,"is_transit":false,"station_id":"SUDB"},{"line":1,"transit":false,"distance":471,"station_id":"KAT","time":1,"i_lat":-6.20132,"i_long":106.816351,"station_name":"Karet","is_transit":false},{"station_name":"Tanah Abang","transit":true,"distance":2029,"time":5,"station_id":"THB","i_long":106.811091,"line":1,"i_lat":-6.185545,"is_transit":true},{"i_long":106.79689,"line":6,"i_lat":-6.207404,"is_transit":false,"distance":3191,"time":6,"station_id":"PLM","transit":false,"station_name":"Palmerah"},{"line":6,"time":7,"station_name":"Kebayoran","distance":3737,"i_long":106.780334,"station_id":"KBY","i_lat":-6.237242,"is_transit":false,"transit":false},{"station_id":"PDJ","i_long":106.74273,"is_transit":false,"distance":6218,"station_name":"Pondokranji","transit":false,"time":8,"i_lat":-6.276362,"line":6},{"station_id":"JMU","time":3,"line":6,"station_name":"Jurangmangu","is_transit":false,"i_lat":-6.288927,"transit":false,"distance":2179,"i_long":106.728916},{"time":4,"station_id":"SDM","i_long":106.712277,"distance":1994,"station_name":"Sudimara","i_lat":-6.296963,"is_transit":false,"line":6,"transit":false},{"station_name":"Rawa Buntu","time":6,"i_lat":-6.314823,"line":6,"i_long":106.675475,"distance":4566,"transit":false,"is_transit":false,"station_id":"RU"},{"i_lat":-6.319871,"is_transit":false,"i_long":106.66566,"time":4,"line":6,"distance":2413,"station_id":"SRP","station_name":"Serpong","transit":false},{"station_name":"Cisauk","station_id":"CSK","i_lat":-6.32484,"distance":1784,"time":4,"is_transit":false,"line":3,"i_long":106.640411,"transit":false},{"is_transit":false,"i_lat":-6.329547,"transit":false,"station_id":"CC","time":4,"station_name":"Cicayur","line":3,"i_long":106.617853,"distance":2519},{"line":6,"distance":5968,"transit":false,"i_long":106.568863,"station_name":"Parung Panjang","time":8,"station_id":"PRP","i_lat":-6.3441410000000005,"is_transit":false},{"i_long":106.508482,"distance":7025,"time":9,"station_id":"CJT","is_transit":false,"line":3,"transit":false,"station_name":"Cilejit","i_lat":-6.354349},{"i_long":106.491338,"is_transit":false,"time":6,"distance":2675,"i_lat":-6.338021,"line":0,"station_id":"DAR","station_name":"Daru","transit":false},{"line":6,"is_transit":false,"station_name":"Tenjo","distance":3902,"time":5,"station_id":"TEJ","i_lat":-6.327251,"i_long":106.460812,"transit":false},{"station_id":"TGS","station_name":"Tigaraksa","line":6,"is_transit":false,"distance":2974,"time":5,"transit":false,"i_lat":-6.328533,"i_long":106.425991},{"time":3,"station_id":"CKY","i_long":106.411216,"transit":false,"is_transit":false,"distance":2651,"station_name":"Cikoya","i_lat":-6.33561,"line":3}],[{"time":0,"i_lat":-6.201433,"transit":false,"is_transit":false,"distance":0,"i_long":106.819881,"station_name":"Sudirman Baru","station_id":"SUDB","line":1},{"station_name":"Sudirman","station_id":"SUD","transit":false,"line":1,"time":1,"is_transit":false,"i_long":106.822649,"distance":280,"i_lat":-6.202263},{"station_name":"Manggarai","transit":true,"time":4,"station_id":"MRI","distance":3186,"i_long":106.84912,"line":2,"is_transit":true,"i_lat":-6.209883},{"distance":1590,"time":4,"station_name":"Cikini","transit":false,"line":2,"i_lat":-6.198556,"is_transit":false,"i_long":106.840169,"station_id":"CKI"},{"time":3,"line":2,"distance":1750,"is_transit":false,"transit":false,"i_lat":-6.186295,"station_name":"Gondangdia","station_id":"GDD","i_long":106.832183},{"time":4,"line":2,"i_lat":-6.166716,"station_id":"JUA","is_transit":false,"station_name":"Juanda","distance":2015,"i_long":106.828284,"transit":false},{"i_long":106.827103,"line":2,"station_name":"Sawah Besar","transit":false,"station_id":"SW","is_transit":false,"distance":1149,"i_lat":-6.160725,"time":2},{"i_lat":-6.149769,"station_name":"Manggabesar","i_long":106.82482,"line":2,"station_id":"MGB","is_transit":false,"distance":906,"transit":false,"time":2},{"line":2,"station_id":"JAY","transit":false,"is_transit":false,"i_lat":-6.141205,"station_name":"Jayakarta","time":2,"i_long":106.820901,"distance":1080},{"line":2,"station_name":"Jakarta Kota","distance":1264,"i_lat":-6.137569,"station_id":"JAKK","is_transit":true,"i_long":106.812439,"transit":true,"time":4},{"time":3,"transit":true,"station_id":"KPB","line":4,"is_transit":true,"distance":1364,"station_name":"Kampung Bandan","i_lat":-6.132549,"i_long":106.826365},{"time":9,"i_lat":-6.144674,"station_id":"AK","is_transit":false,"i_long":106.79867,"line":1,"distance":4102,"transit":false,"station_name":"Angke"},{"i_long":106.800832,"transit":false,"time":4,"line":1,"station_id":"DU","station_name":"Duri","is_transit":false,"distance":1230,"i_lat":-6.155215},{"station_id":"THB","distance":3632,"is_transit":true,"i_lat":-6.185545,"transit":true,"line":1,"station_name":"Tanah Abang","time":8,"i_long":106.811091},{"station_name":"Palmerah","is_transit":false,"station_id":"PLM","i_long":106.79689,"line":6,"i_lat":-6.207404,"transit":false,"distance":3191,"time":6},{"distance":3737,"is_transit":false,"station_id":"KBY","time":7,"i_lat":-6.237242,"i_long":106.780334,"line":6,"station_name":"Kebayoran","transit":false},{"line":6,"station_id":"PDJ","time":8,"station_name":"Pondokranji","i_lat":-6.276362,"transit":false,"is_transit":false,"distance":6218,"i_long":106.74273},{"station_id":"JMU","i_lat":-6.288927,"station_name":"Jurangmangu","is_transit":false,"i_long":106.728916,"transit":false,"distance":2179,"time":3,"line":6},{"i_long":106.712277,"station_id":"SDM","transit":false,"distance":1994,"line":6,"i_lat":-6.296963,"station_name":"Sudimara","is_transit":false,"time":4},{"station_name":"Rawa Buntu","transit":false,"i_lat":-6.314823,"i_long":106.675475,"line":6,"distance":4566,"station_id":"RU","is_transit":false,"time":6},{"i_lat":-6.319871,"station_id":"SRP","is_transit":false,"distance":2413,"time":4,"i_long":106.66566,"station_name":"Serpong","transit":false,"line":6},{"i_long":106.640411,"line":3,"is_transit":false,"time":4,"station_id":"CSK","station_name":"Cisauk","transit":false,"distance":1784,"i_lat":-6.32484},{"line":3,"distance":2519,"i_long":106.617853,"i_lat":-6.329547,"is_transit":false,"time":4,"station_name":"Cicayur","station_id":"CC","transit":false},{"line":6,"distance":5968,"i_lat":-6.3441410000000005,"station_name":"Parung Panjang","transit":false,"is_transit":false,"time":8,"station_id":"PRP","i_long":106.568863},{"is_transit":false,"time":9,"station_id":"CJT","i_lat":-6.354349,"distance":7025,"i_long":106.508482,"station_name":"Cilejit","transit":false,"line":3},{"time":6,"transit":false,"distance":2675,"is_transit":false,"i_lat":-6.338021,"i_long":106.491338,"station_id":"DAR","line":0,"station_name":"Daru"},{"transit":false,"is_transit":false,"i_lat":-6.327251,"time":5,"line":6,"station_name":"Tenjo","distance":3902,"i_long":106.460812,"station_id":"TEJ"},{"is_transit":false,"i_lat":-6.328533,"distance":2974,"line":6,"station_id":"TGS","transit":false,"time":5,"i_long":106.425991,"station_name":"Tigaraksa"},{"line":3,"station_name":"Cikoya","transit":false,"is_transit":false,"station_id":"CKY","i_long":106.411216,"i_lat":-6.33561,"time":3,"distance":2651}],[{"line":1,"station_id":"SUDB","is_transit":false,"i_long":106.819881,"station_name":"Sudirman Baru","transit":false,"time":0,"distance":0,"i_lat":-6.201433},{"station_name":"Sudirman","time":1,"station_id":"SUD","distance":280,"i_lat":-6.202263,"is_transit":false,"transit":false,"line":1,"i_long":106.822649},{"i_lat":-6.209883,"transit":false,"distance":3186,"time":4,"i_long":106.84912,"line":2,"station_name":"Manggarai","is_transit":false,"station_id":"MRI"},{"station_name":"Matraman","transit":false,"is_transit":false,"time":2,"i_lat":-6.212485,"distance":1275,"station_id":"MTR","i_long":106.858896,"line":1},{"station_id":"JNG","station_name":"Jatinegara","transit":true,"distance":1377,"time":8,"i_lat":-6.215091,"line":1,"i_long":106.86807400000001,"is_transit":true},{"transit":false,"i_long":106.861737,"station_name":"Pondok Jati","station_id":"POK","is_transit":false,"distance":1236,"line":11,"time":2,"i_lat":-6.209188},{"station_name":"Kramat","transit":false,"distance":1829,"station_id":"KMT","i_lat":-6.193792,"line":11,"time":2,"i_long":106.855437,"is_transit":false},{"is_transit":false,"station_id":"GST","distance":973,"line":11,"station_name":"Gang Sentiong","transit":false,"i_lat":-6.185975,"i_long":106.850107,"time":1},{"time":8,"station_id":"PSE","transit":false,"is_transit":false,"distance":1567,"i_lat":-6.174784,"station_name":"Pasar Senen","i_long":106.84368,"line":11},{"i_long":106.839204,"is_transit":false,"i_lat":-6.161728,"station_id":"KMO","station_name":"Kemayoran","transit":false,"time":4,"distance":1436,"line":11},{"time":5,"station_name":"Rajawali","station_id":"RJW","transit":false,"i_lat":-6.14505,"i_long":106.836569,"line":11,"is_transit":false,"distance":1901},{"station_id":"KPB","is_transit":true,"time":3,"i_long":106.826365,"i_lat":-6.132549,"station_name":"Kampung Bandan","transit":true,"distance":1444,"line":4},{"time":9,"line":1,"distance":4102,"i_lat":-6.144674,"is_transit":false,"station_name":"Angke","station_id":"AK","i_long":106.79867,"transit":false},{"i_lat":-6.155215,"i_long":106.800832,"station_name":"Duri","distance":1230,"line":1,"transit":false,"is_transit":false,"time":4,"station_id":"DU"},{"i_long":106.811091,"line":1,"time":8,"distance":3632,"is_transit":true,"station_id":"THB","station_name":"Tanah Abang","i_lat":-6.185545,"transit":true},{"station_name":"Palmerah","transit":false,"station_id":"PLM","i_long":106.79689,"line":6,"is_transit":false,"time":6,"distance":3191,"i_lat":-6.207404},{"line":6,"station_name":"Kebayoran","is_transit":false,"time":7,"station_id":"KBY","distance":3737,"i_lat":-6.237242,"i_long":106.780334,"transit":false},{"time":8,"distance":6218,"i_lat":-6.276362,"line":6,"i_long":106.74273,"station_name":"Pondokranji","transit":false,"station_id":"PDJ","is_transit":false},{"distance":2179,"transit":false,"time":3,"is_transit":false,"i_lat":-6.288927,"station_id":"JMU","i_long":106.728916,"line":6,"station_name":"Jurangmangu"},{"station_id":"SDM","station_name":"Sudimara","time":4,"line":6,"i_lat":-6.296963,"transit":false,"is_transit":false,"distance":1994,"i_long":106.712277},{"station_name":"Rawa Buntu","transit":false,"is_transit":false,"i_lat":-6.314823,"station_id":"RU","line":6,"distance":4566,"time":6,"i_long":106.675475},{"i_long":106.66566,"station_name":"Serpong","station_id":"SRP","i_lat":-6.319871,"line":6,"distance":2413,"time":4,"transit":false,"is_transit":false},{"time":4,"line":3,"i_lat":-6.32484,"distance":1784,"station_id":"CSK","i_long":106.640411,"transit":false,"station_name":"Cisauk","is_transit":false},{"line":3,"i_long":106.617853,"station_id":"CC","station_name":"Cicayur","transit":false,"is_transit":false,"time":4,"distance":2519,"i_lat":-6.329547},{"i_lat":-6.3441410000000005,"line":6,"transit":false,"station_name":"Parung Panjang","distance":5968,"i_long":106.568863,"station_id":"PRP","is_transit":false,"time":8},{"distance":7025,"station_id":"CJT","i_long":106.508482,"station_name":"Cilejit","line":3,"time":9,"transit":false,"i_lat":-6.354349,"is_transit":false},{"distance":2675,"station_id":"DAR","i_lat":-6.338021,"i_long":106.491338,"line":0,"station_name":"Daru","transit":false,"is_transit":false,"time":6},{"distance":3902,"transit":false,"i_lat":-6.327251,"line":6,"is_transit":false,"station_name":"Tenjo","station_id":"TEJ","i_long":106.460812,"time":5},{"line":6,"distance":2974,"transit":false,"is_transit":false,"time":5,"station_name":"Tigaraksa","i_lat":-6.328533,"i_long":106.425991,"station_id":"TGS"},{"station_name":"Cikoya","time":3,"station_id":"CKY","i_lat":-6.33561,"line":3,"distance":2651,"i_long":106.411216,"is_transit":false,"transit":false}]]}