{"data":[[{"time":0,"station_name":"Sudirman Baru","distance":0,"i_lat":-6.201433,"i_long":106.819881,"is_transit":false,"station_id":"SUDB","line":1,"transit":false},{"transit":false,"is_transit":false,"line":1,"i_lat":-6.202263,"station_name":"Sudirman","i_long":106.822649,"station_id":"SUD","distance":280,"time":1},{"station_id":"MRI","station_name":"Manggarai","i_long":106.84912,"distance":3186,"time":4,"transit":false,"i_lat":-6.209883,"line":2,"is_transit":false},{"station_name":"Matraman","time":2,"is_transit":false,"distance":1275,"i_long":106.858896,"i_lat":-6.212485,"line":1,"transit":false,"station_id":"MTR"}],[{"line":1,"i_lat":-6.201433,"is_transit":false,"distance":0,"time":0,"station_id":"SUDB","i_long":106.819881,"station_name":"Sudirman Baru","transit":false},{"transit":false,"station_name":"Karet","distance":471,"i_long":106.816351,"i_lat":-6.20132,"is_transit":false,"station_id":"KAT","line":1,"time":1},{"time":5,"i_lat":-6.185545,"is_transit":false,"station_id":"THB","transit":false,"station_name":"Tanah Abang","line":1,"i_long":106.811091,"distance":2029},{"transit":false,"i_lat":-6.155215,"station_id":"DU","is_transit":false,"i_long":106.800832,"station_name":"Duri","line":1,"time":8,"distance":3632},{"time":4,"distance":1230,"station_id":"AK","station_name":"Angke","line":1,"i_long":106.79867,"is_transit":false,"i_lat":-6.144674,"transit":false},{"i_lat":-6.132549,"is_transit":true,"transit":true,"line":4,"station_id":"KPB","i_long":106.826365,"distance":4102,"station_name":"Kampung Bandan","time":9},{"distance":1444,"i_long":106.836569,"station_id":"RJW","line":11,"is_transit":false,"station_name":"Rajawali","i_lat":-6.14505,"time":3,"transit":false},{"line":11,"i_lat":-6.161728,"station_name":"Kemayoran","is_transit":false,"station_id":"KMO","time":5,"distance":1901,"transit":false,"i_long":106.839204},{"station_name":"Pasar Senen","is_transit":false,"distance":1436,"station_id":"PSE","i_lat":-6.174784,"transit":false,"i_long":106.84368,"line":11,"time":4},{"station_id":"GST","distance":1567,"is_transit":false,"i_long":106.850107,"station_name":"Gang Sentiong","transit":false,"i_lat":-6.185975,"time":8,"line":11},{"transit":false,"distance":973,"i_lat":-6.193792,"is_transit":false,"line":11,"i_long":106.855437,"station_id":"KMT","station_name":"Kramat","time":1},{"transit":false,"i_long":106.861737,"time":2,"station_id":"POK","distance":1829,"i_lat":-6.209188,"is_transit":false,"line":11,"station_name":"Pondok Jati"},{"distance":1236,"transit":true,"i_lat":-6.215091,"is_transit":true,"time":9,"i_long":106.86807400000001,"line":1,"station_name":"Jatinegara","station_id":"JNG"},{"line":1,"time":2,"transit":false,"is_transit":false,"i_lat":-6.212485,"distance":1377,"station_id":"MTR","i_long":106.858896,"station_name":"Matraman"}],[{"time":0,"i_long":106.819881,"i_lat":-6.201433,"distance":0,"station_id":"SUDB","line":1,"transit":false,"is_transit":false,"station_name":"Sudirman Baru"},{"distance":471,"i_long":106.816351,"transit":false,"line":1,"station_id":"KAT","i_lat":-6.20132,"is_transit":false,"station_name":"Karet","time":1},{"line":1,"station_id":"THB","is_transit":false,"time":5,"transit":false,"i_long":106.811091,"distance":2029,"station_name":"Tanah Abang","i_lat":-6.185545},{"is_transit":false,"line":1,"station_id":"DU","station_name":"Duri","i_long":106.800832,"transit":false,"time":8,"distance":3632,"i_lat":-6.155215},{"line":1,"i_long":106.79867,"transit":false,"station_id":"AK","time":4,"i_lat":-6.144674,"station_name":"Angke","is_transit":false,"distance":1230},{"line":4,"is_transit":true,"i_lat":-6.132549,"station_name":"Kampung Bandan","time":9,"station_id":"KPB","transit":true,"distance":4102,"i_long":106.826365},{"line":2,"station_id":"JAKK","i_lat":-6.137569,"transit":true,"distance":1364,"time":3,"station_name":"Jakarta Kota","is_transit":true,"i_long":106.812439},{"time":4,"i_lat":-6.141205,"distance":1264,"line":2,"i_long":106.820901,"station_name":"Jayakarta","is_transit":false,"station_id":"JAY","transit":false},{"station_id":"MGB","station_name":"Manggabesar","is_transit":false,"transit":false,"time":2,"i_lat":-6.149769,"distance":1080,"i_long":106.82482,"line":2},{"line":2,"is_transit":false,"time":2,"station_name":"Sawah Besar","distance":906,"i_long":106.827103,"station_id":"SW","transit":false,"i_lat":-6.160725},{"transit":false,"i_lat":-6.166716,"distance":1149,"station_id":"JUA","i_long":106.828284,"is_transit":false,"line":2,"station_name":"Juanda","time":2},{"time":4,"station_id":"GDD","transit":false,"station_name":"Gondangdia","i_lat":-6.186295,"line":2,"i_long":106.832183,"is_transit":false,"distance":2015},{"i_long":106.840169,"is_transit":false,"station_name":"Cikini","time":3,"i_lat":-6.198556,"station_id":"CKI","line":2,"distance":1750,"transit":false},{"is_transit":true,"transit":true,"distance":1590,"station_id":"MRI","station_name":"Manggarai","time":4,"i_long":106.84912,"i_lat":-6.209883,"line":2},{"station_id":"MTR","station_name":"Matraman","i_lat":-6.212485,"i_long":106.858896,"time":2,"line":1,"is_transit":false,"transit":false,"distance":1275}],[{"distance":0,"time":0,"station_name":"Sudirman Baru","i_lat":-6.201433,"i_long":106.819881,"line":1,"transit":false,"is_transit":false,"station_id":"SUDB"},{"is_transit":false,"distance":280,"time":1,"station_id":"SUD","i_lat":-6.202263,"i_long":106.822649,"station_name":"Sudirman","line":1,"transit":false},{"is_transit":true,"i_long":106.84912,"distance":3186,"transit":true,"line":2,"station_id":"MRI","time":4,"station_name":"Manggarai","i_lat":-6.209883},{"station_name":"Cikini","station_id":"CKI","line":2,"distance":1590,"i_lat":-6.198556,"i_long":106.840169,"transit":false,"time":4,"is_transit":false},{"station_id":"GDD","transit":false,"i_lat":-6.186295,"is_transit":false,"distance":1750,"line":2,"i_long":106.832183,"station_name":"Gondangdia","time":3},{"line":2,"station_name":"Juanda","transit":false,"distance":2015,"i_long":106.828284,"i_lat":-6.166716,"time":4,"is_transit":false,"station_id":"JUA"},{"station_id":"SW","transit":false,"i_long":106.827103,"i_lat":-6.160725,"line":2,"is_transit":false,"time":2,"station_name":"Sawah Besar","distance":1149},{"station_id":"MGB","distance":906,"i_lat":-6.149769,"transit":false,"is_transit":false,"station_name":"Manggabesar","line":2,"time":2,"i_long":106.82482},{"station_name":"Jayakarta","i_lat":-6.141205,"station_id":"JAY","time":2,"transit":false,"i_long":106.820901,"line":2,"distance":1080,"is_transit":false},{"i_long":106.812439,"line":2,"time":4,"station_id":"JAKK","distance":1264,"transit":true,"i_lat":-6.137569,"is_transit":true,"station_name":"Jakarta Kota"},{"distance":1364,"station_name":"Kampung Bandan","is_transit":true,"i_long":106.826365,"time":3,"station_id":"KPB","i_lat":-6.132549,"transit":true,"line":4},{"time":3,"station_id":"RJW","transit":false,"is_transit":false,"i_long":106.836569,"station_name":"Rajawali","i_lat":-6.14505,"line":11,"distance":1444},{"transit":false,"distance":1901,"station_name":"Kemayoran","i_long":106.839204,"line":11,"time":5,"i_lat":-6.161728,"is_transit":false,"station_id":"KMO"},{"station_id":"PSE","i_long":106.84368,"distance":1436,"is_transit":false,"transit":false,"station_name":"Pasar Senen","i_lat":-6.174784,"line":11,"time":4},{"is_transit":false,"station_id":"GST","station_name":"Gang Sentiong","time":8,"transit":false,"i_long":106.850107,"i_lat":-6.185975,"distance":1567,"line":11},{"distance":973,"time":1,"station_id":"KMT","is_transit":false,"transit":false,"line":11,"i_lat":-6.193792,"i_long":106.855437,"station_name":"Kramat"},{"i_long":106.861737,"time":2,"transit":false,"distance":1829,"is_transit":false,"line":11,"i_lat":-6.209188,"station_name":"Pondok Jati","station_id":"POK"},{"station_name":"Jatinegara","i_long":106.86807400000001,"time":9,"station_id":"JNG","transit":true,"i_lat":-6.215091,"is_transit":true,"distance":1236,"line":1},{"time":2,"station_name":"Matraman","transit":false,"station_id":"MTR","i_lat":-6.212485,"line":1,"is_transit":false,"i_long":106.858896,"distance":1377}]]}