{"data":[[{"station_id":"SUDB","i_lat":-6.201433,"transit":false,"distance":0,"i_long":106.819881,"station_name":"Sudirman Baru","time":0,"line":1,"is_transit":false},{"i_long":106.822649,"line":1,"i_lat":-6.202263,"time":1,"is_transit":false,"station_name":"Sudirman","station_id":"SUD","transit":false,"distance":280},{"time":4,"i_lat":-6.209883,"i_long":106.84912,"distance":3186,"station_name":"Manggarai","transit":true,"is_transit":true,"station_id":"MRI","line":2},{"line":2,"station_id":"TEB","is_transit":false,"station_name":"Tebet","transit":false,"time":4,"distance":2610,"i_lat":-6.226659,"i_long":106.857948},{"distance":1230,"station_id":"CW","i_lat":-6.242512,"time":2,"line":2,"station_name":"Cawang","i_long":106.856607,"is_transit":false,"transit":false},{"i_lat":-6.255332,"station_name":"Duren Kalibata","transit":false,"time":3,"i_long":106.85449,"line":2,"station_id":"DRN","is_transit":false,"distance":1546},{"line":2,"is_transit":false,"station_id":"PSMB","i_long":106.851577,"time":2,"distance":824,"station_name":"Pasar Minggu Baru","transit":false,"i_lat":-6.263214},{"transit":false,"station_id":"PSM","time":2,"i_lat":-6.2842400000000005,"i_long":106.843999,"station_name":"Pasar Minggu","line":2,"is_transit":false,"distance":2380},{"i_lat":-6.3080680000000005,"time":4,"station_name":"Tanjung Barat","station_id":"TNT","i_long":106.838896,"line":2,"transit":false,"is_transit":false,"distance":2820},{"time":3,"i_lat":-6.330363,"transit":false,"i_long":106.832616,"station_id":"LNA","distance":2671,"is_transit":false,"line":2,"station_name":"Lenteng Agung"},{"is_transit":false,"transit":false,"time":2,"distance":1029,"line":2,"station_name":"Univ. Pancasila","i_lat":-6.339291,"station_id":"UP","i_long":106.834175},{"time":3,"transit":false,"distance":2264,"i_long":106.831474,"line":2,"station_id":"UI","i_lat":-6.360749,"is_transit":false,"station_name":"Univ. Indonesia"},{"station_id":"POC","is_transit":false,"i_long":106.831114,"time":2,"station_name":"Pondok Cina","distance":1109,"transit":false,"line":2,"i_lat":-6.369073},{"i_long":106.819451,"is_transit":false,"station_name":"Depokbaru","station_id":"DPB","transit":false,"time":4,"distance":2727,"i_lat":-6.391065,"line":2}],[{"line":1,"i_long":106.819881,"time":0,"i_lat":-6.201433,"is_transit":false,"station_name":"Sudirman Baru","station_id":"SUDB","distance":0,"transit":false},{"station_id":"KAT","distance":471,"station_name":"Karet","transit":false,"is_transit":false,"time":1,"line":1,"i_long":106.816351,"i_lat":-6.20132},{"is_transit":false,"time":5,"station_id":"THB","i_long":106.811091,"station_name":"Tanah Abang","transit":false,"distance":2029,"i_lat":-6.185545,"line":1},{"is_transit":false,"station_id":"DU","i_long":106.800832,"line":1,"i_lat":-6.155215,"distance":3632,"transit":false,"time":8,"station_name":"Duri"},{"time":4,"i_lat":-6.144674,"line":1,"station_name":"Angke","transit":false,"station_id":"AK","distance":1230,"i_long":106.79867,"is_transit":false},{"i_lat":-6.132549,"i_long":106.826365,"line":4,"is_transit":true,"station_id":"KPB","station_name":"Kampung Bandan","time":9,"transit":true,"distance":4102},{"station_id":"JAKK","transit":true,"i_long":106.812439,"line":2,"time":3,"i_lat":-6.137569,"distance":1364,"is_transit":true,"station_name":"Jakarta Kota"},{"distance":1264,"i_lat":-6.141205,"time":4,"line":2,"is_transit":false,"station_name":"Jayakarta","transit":false,"station_id":"JAY","i_long":106.820901},{"time":2,"station_name":"Manggabesar","is_transit":false,"station_id":"MGB","line":2,"transit":false,"distance":1080,"i_long":106.82482,"i_lat":-6.149769},{"i_long":106.827103,"distance":906,"i_lat":-6.160725,"line":2,"time":2,"is_transit":false,"station_name":"Sawah Besar","station_id":"SW","transit":false},{"i_long":106.828284,"is_transit":false,"line":2,"distance":1149,"station_name":"Juanda","time":2,"i_lat":-6.166716,"station_id":"JUA","transit":false},{"i_long":106.832183,"is_transit":false,"station_id":"GDD","transit":false,"i_lat":-6.186295,"line":2,"distance":2015,"station_name":"Gondangdia","time":4},{"transit":false,"time":3,"station_id":"CKI","is_transit":false,"station_name":"Cikini","i_long":106.840169,"distance":1750,"i_lat":-6.198556,"line":2},{"station_id":"MRI","time":4,"i_long":106.84912,"line":2,"station_name":"Manggarai","transit":false,"i_lat":-6.209883,"is_transit":false,"distance":1590},{"time":4,"is_transit":false,"station_id":"TEB","distance":2610,"i_lat":-6.226659,"i_long":106.857948,"line":2,"transit":false,"station_name":"Tebet"},{"i_lat":-6.242512,"i_long":106.856607,"transit":false,"station_name":"Cawang","time":2,"line":2,"station_id":"CW","is_transit":false,"distance":1230},{"station_id":"DRN","line":2,"i_long":106.85449,"transit":false,"i_lat":-6.255332,"station_name":"Duren Kalibata","time":3,"is_transit":false,"distance":1546},{"i_long":106.851577,"station_id":"PSMB","transit":false,"time":2,"distance":824,"is_transit":false,"station_name":"Pasar Minggu Baru","line":2,"i_lat":-6.263214},{"time":2,"station_id":"PSM","distance":2380,"station_name":"Pasar Minggu","i_lat":-6.2842400000000005,"i_long":106.843999,"line":2,"transit":false,"is_transit":false},{"line":2,"i_lat":-6.3080680000000005,"is_transit":false,"station_name":"Tanjung Barat","time":4,"station_id":"TNT","distance":2820,"transit":false,"i_long":106.838896},{"time":3,"station_name":"Lenteng Agung","transit":false,"is_transit":false,"i_lat":-6.330363,"i_long":106.832616,"station_id":"LNA","line":2,"distance":2671},{"station_name":"Univ. Pancasila","station_id":"UP","time":2,"is_transit":false,"i_lat":-6.339291,"distance":1029,"transit":false,"i_long":106.834175,"line":2},{"is_transit":false,"distance":2264,"line":2,"station_name":"Univ. Indonesia","i_long":106.831474,"transit":false,"station_id":"UI","i_lat":-6.360749,"time":3},{"station_id":"POC","distance":1109,"is_transit":false,"i_lat":-6.369073,"line":2,"station_name":"Pondok Cina","time":2,"transit":false,"i_long":106.831114},{"station_name":"Depokbaru","time":4,"i_long":106.819451,"station_id":"DPB","line":2,"i_lat":-6.391065,"distance":2727,"is_transit":false,"transit":false}],[{"i_long":106.819881,"station_name":"Sudirman Baru","line":1,"i_lat":-6.201433,"transit":false,"time":0,"is_transit":false,"station_id":"SUDB","distance":0},{"i_lat":-6.20132,"i_long":106.816351,"is_transit":false,"station_id":"KAT","time":1,"line":1,"transit":false,"station_name":"Karet","distance":471},{"station_id":"THB","time":5,"transit":false,"line":1,"i_long":106.811091,"distance":2029,"i_lat":-6.185545,"station_name":"Tanah Abang","is_transit":false},{"i_long":106.800832,"transit":false,"station_id":"DU","time":8,"distance":3632,"is_transit":false,"line":1,"station_name":"Duri","i_lat":-6.155215},{"transit":false,"time":4,"line":1,"distance":1230,"i_lat":-6.144674,"i_long":106.79867,"is_transit":false,"station_name":"Angke","station_id":"AK"},{"transit":true,"i_long":106.826365,"line":4,"time":9,"station_id":"KPB","i_lat":-6.132549,"station_name":"Kampung Bandan","is_transit":true,"distance":4102},{"is_transit":false,"transit":false,"station_id":"RJW","distance":1444,"i_long":106.836569,"line":11,"station_name":"Rajawali","i_lat":-6.14505,"time":3},{"time":5,"line":11,"station_id":"KMO","distance":1901,"is_transit":false,"station_name":"Kemayoran","transit":false,"i_lat":-6.161728,"i_long":106.839204},{"i_lat":-6.174784,"transit":false,"is_transit":false,"station_name":"Pasar Senen","distance":1436,"i_long":106.84368,"time":4,"station_id":"PSE","line":11},{"is_transit":false,"station_name":"Gang Sentiong","time":8,"i_long":106.850107,"line":11,"i_lat":-6.185975,"distance":1567,"station_id":"GST","transit":false},{"i_long":106.855437,"is_transit":false,"time":1,"line":11,"station_name":"Kramat","station_id":"KMT","transit":false,"distance":973,"i_lat":-6.193792},{"time":2,"transit":false,"i_lat":-6.209188,"station_name":"Pondok Jati","line":11,"distance":1829,"is_transit":false,"i_long":106.861737,"station_id":"POK"},{"i_lat":-6.215091,"time":9,"station_id":"JNG","transit":true,"station_name":"Jatinegara","distance":1236,"line":1,"is_transit":true,"i_long":106.86807400000001},{"line":1,"station_id":"MTR","time":2,"transit":false,"i_lat":-6.212485,"i_long":106.858896,"is_transit":false,"station_name":"Matraman","distance":1377},{"i_long":106.84912,"time":2,"is_transit":true,"station_id":"MRI","transit":true,"distance":1275,"station_name":"Manggarai","i_lat":-6.209883,"line":2},{"i_long":106.857948,"line":2,"transit":false,"i_lat":-6.226659,"is_transit":false,"time":4,"distance":2610,"station_id":"TEB","station_name":"Tebet"},{"i_lat":-6.242512,"i_long":106.856607,"transit":false,"line":2,"is_transit":false,"station_name":"Cawang","station_id":"CW","time":2,"distance":1230},{"is_transit":false,"distance":1546,"station_id":"DRN","i_long":106.85449,"station_name":"Duren Kalibata","transit":false,"time":3,"line":2,"i_lat":-6.255332},{"i_long":106.851577,"distance":824,"station_id":"PSMB","line":2,"is_transit":false,"station_name":"Pasar Minggu Baru","transit":false,"i_lat":-6.263214,"time":2},{"transit":false,"distance":2380,"i_lat":-6.2842400000000005,"i_long":106.843999,"station_name":"Pasar Minggu","is_transit":false,"time":2,"line":2,"station_id":"PSM"},{"station_id":"TNT","distance":2820,"line":2,"time":4,"i_long":106.838896,"transit":false,"station_name":"Tanjung Barat","i_lat":-6.3080680000000005,"is_transit":false},{"time":3,"line":2,"transit":false,"i_lat":-6.330363,"is_transit":false,"station_id":"LNA","distance":2671,"i_long":106.832616,"station_name":"Lenteng Agung"},{"i_long":106.834175,"is_transit":false,"time":2,"station_name":"Univ. Pancasila","i_lat":-6.339291,"line":2,"station_id":"UP","transit":false,"distance":1029},{"distance":2264,"i_long":106.831474,"station_name":"Univ. Indonesia","transit":false,"i_lat":-6.360749,"is_transit":false,"time":3,"line":2,"station_id":"UI"},{"line":2,"distance":1109,"station_id":"POC","is_transit":false,"station_name":"Pondok Cina","transit":false,"time":2,"i_lat":-6.369073,"i_long":106.831114},{"is_transit":false,"i_lat":-6.391065,"line":2,"distance":2727,"time":4,"station_name":"Depokbaru","i_long":106.819451,"transit":false,"station_id":"DPB"}]]}