{"data":[[{"is_transit":false,"transit":false,"station_name":"Sudirman Baru","i_long":106.819881,"distance":0,"line":1,"time":0,"i_lat":-6.201433,"station_id":"SUDB"},{"transit":false,"station_id":"SUD","line":1,"i_lat":-6.202263,"station_name":"Sudirman","time":1,"distance":280,"i_long":106.822649,"is_transit":false},{"line":2,"distance":3186,"is_transit":true,"i_long":106.84912,"station_name":"Manggarai","station_id":"MRI","transit":true,"time":4,"i_lat":-6.209883},{"time":4,"distance":2610,"station_name":"Tebet","i_long":106.857948,"is_transit":false,"i_lat":-6.226659,"line":2,"transit":false,"station_id":"TEB"},{"line":2,"station_id":"CW","time":2,"transit":false,"i_lat":-6.242512,"is_transit":false,"i_long":106.856607,"distance":1230,"station_name":"Cawang"},{"time":3,"transit":false,"station_id":"DRN","station_name":"Duren Kalibata","is_transit":false,"i_long":106.85449,"line":2,"i_lat":-6.255332,"distance":1546},{"is_transit":false,"distance":824,"transit":false,"time":2,"station_id":"PSMB","i_long":106.851577,"station_name":"Pasar Minggu Baru","i_lat":-6.263214,"line":2},{"time":2,"is_transit":false,"distance":2380,"i_lat":-6.2842400000000005,"line":2,"i_long":106.843999,"transit":false,"station_id":"PSM","station_name":"Pasar Minggu"},{"time":4,"station_id":"TNT","line":2,"is_transit":false,"i_lat":-6.3080680000000005,"distance":2820,"transit":false,"station_name":"Tanjung Barat","i_long":106.838896},{"station_id":"LNA","transit":false,"station_name":"Lenteng Agung","i_lat":-6.330363,"is_transit":false,"distance":2671,"i_long":106.832616,"line":2,"time":3},{"is_transit":false,"station_name":"Univ. Pancasila","i_lat":-6.339291,"station_id":"UP","transit":false,"time":2,"line":2,"i_long":106.834175,"distance":1029},{"station_name":"Univ. Indonesia","is_transit":false,"transit":false,"i_lat":-6.360749,"i_long":106.831474,"line":2,"time":3,"station_id":"UI","distance":2264},{"station_name":"Pondok Cina","line":2,"transit":false,"time":2,"i_lat":-6.369073,"is_transit":false,"distance":1109,"station_id":"POC","i_long":106.831114},{"station_name":"Depokbaru","distance":2727,"station_id":"DPB","i_long":106.819451,"line":2,"is_transit":false,"time":4,"transit":false,"i_lat":-6.391065},{"station_id":"DP","line":2,"transit":false,"distance":1584,"i_lat":-6.405256,"time":3,"i_long":106.816926,"station_name":"Depok","is_transit":false}],[{"transit":false,"station_id":"SUDB","i_lat":-6.201433,"line":1,"is_transit":false,"i_long":106.819881,"station_name":"Sudirman Baru","distance":0,"time":0},{"time":1,"i_long":106.816351,"i_lat":-6.20132,"distance":471,"station_id":"KAT","transit":false,"is_transit":false,"station_name":"Karet","line":1},{"i_lat":-6.185545,"line":1,"i_long":106.811091,"time":5,"station_id":"THB","station_name":"Tanah Abang","distance":2029,"is_transit":false,"transit":false},{"station_name":"Duri","station_id":"DU","line":1,"distance":3632,"time":8,"i_lat":-6.155215,"transit":false,"i_long":106.800832,"is_transit":false},{"i_lat":-6.144674,"station_id":"AK","distance":1230,"transit":false,"station_name":"Angke","i_long":106.79867,"line":1,"time":4,"is_transit":false},{"i_long":106.826365,"station_id":"KPB","station_name":"Kampung Bandan","i_lat":-6.132549,"line":4,"is_transit":true,"distance":4102,"time":9,"transit":true},{"line":2,"station_id":"JAKK","transit":true,"i_lat":-6.137569,"distance":1364,"time":3,"is_transit":true,"i_long":106.812439,"station_name":"Jakarta Kota"},{"station_id":"JAY","i_long":106.820901,"is_transit":false,"station_name":"Jayakarta","time":4,"distance":1264,"transit":false,"i_lat":-6.141205,"line":2},{"i_long":106.82482,"is_transit":false,"station_id":"MGB","line":2,"distance":1080,"time":2,"station_name":"Manggabesar","i_lat":-6.149769,"transit":false},{"distance":906,"time":2,"is_transit":false,"station_id":"SW","transit":false,"station_name":"Sawah Besar","i_lat":-6.160725,"i_long":106.827103,"line":2},{"station_id":"JUA","time":2,"i_lat":-6.166716,"transit":false,"line":2,"station_name":"Juanda","distance":1149,"i_long":106.828284,"is_transit":false},{"station_name":"Gondangdia","i_long":106.832183,"distance":2015,"line":2,"station_id":"GDD","is_transit":false,"transit":false,"time":4,"i_lat":-6.186295},{"i_long":106.840169,"station_id":"CKI","station_name":"Cikini","transit":false,"is_transit":false,"distance":1750,"line":2,"i_lat":-6.198556,"time":3},{"time":4,"station_name":"Manggarai","i_long":106.84912,"station_id":"MRI","i_lat":-6.209883,"is_transit":false,"line":2,"distance":1590,"transit":false},{"station_name":"Tebet","time":4,"station_id":"TEB","is_transit":false,"transit":false,"i_long":106.857948,"i_lat":-6.226659,"line":2,"distance":2610},{"is_transit":false,"transit":false,"i_lat":-6.242512,"i_long":106.856607,"station_name":"Cawang","distance":1230,"line":2,"time":2,"station_id":"CW"},{"i_long":106.85449,"transit":false,"i_lat":-6.255332,"distance":1546,"station_id":"DRN","station_name":"Duren Kalibata","is_transit":false,"time":3,"line":2},{"time":2,"i_lat":-6.263214,"i_long":106.851577,"distance":824,"is_transit":false,"line":2,"transit":false,"station_name":"Pasar Minggu Baru","station_id":"PSMB"},{"station_id":"PSM","time":2,"is_transit":false,"line":2,"i_long":106.843999,"transit":false,"i_lat":-6.2842400000000005,"station_name":"Pasar Minggu","distance":2380},{"i_long":106.838896,"station_name":"Tanjung Barat","transit":false,"is_transit":false,"time":4,"line":2,"i_lat":-6.3080680000000005,"station_id":"TNT","distance":2820},{"transit":false,"i_long":106.832616,"distance":2671,"line":2,"station_name":"Lenteng Agung","time":3,"i_lat":-6.330363,"is_transit":false,"station_id":"LNA"},{"line":2,"transit":false,"distance":1029,"time":2,"station_id":"UP","station_name":"Univ. Pancasila","is_transit":false,"i_long":106.834175,"i_lat":-6.339291},{"line":2,"i_lat":-6.360749,"distance":2264,"time":3,"station_id":"UI","is_transit":false,"i_long":106.831474,"transit":false,"station_name":"Univ. Indonesia"},{"transit":false,"distance":1109,"time":2,"i_lat":-6.369073,"is_transit":false,"station_name":"Pondok Cina","station_id":"POC","line":2,"i_long":106.831114},{"line":2,"is_transit":false,"time":4,"station_id":"DPB","transit":false,"distance":2727,"station_name":"Depokbaru","i_lat":-6.391065,"i_long":106.819451},{"i_long":106.816926,"station_id":"DP","time":3,"transit":false,"distance":1584,"station_name":"Depok","i_lat":-6.405256,"line":2,"is_transit":false}],[{"station_name":"Sudirman Baru","station_id":"SUDB","time":0,"is_transit":false,"line":1,"i_long":106.819881,"transit":false,"distance":0,"i_lat":-6.201433},{"i_lat":-6.20132,"is_transit":false,"station_name":"Karet","distance":471,"station_id":"KAT","line":1,"transit":false,"i_long":106.816351,"time":1},{"transit":false,"station_id":"THB","station_name":"Tanah Abang","is_transit":false,"i_long":106.811091,"distance":2029,"line":1,"time":5,"i_lat":-6.185545},{"line":1,"i_lat":-6.155215,"is_transit":false,"time":8,"i_long":106.800832,"station_id":"DU","station_name":"Duri","distance":3632,"transit":false},{"i_long":106.79867,"time":4,"line":1,"distance":1230,"i_lat":-6.144674,"station_name":"Angke","station_id":"AK","transit":false,"is_transit":false},{"is_transit":true,"line":4,"i_lat":-6.132549,"distance":4102,"i_long":106.826365,"station_id":"KPB","time":9,"transit":true,"station_name":"Kampung Bandan"},{"i_lat":-6.14505,"line":11,"station_name":"Rajawali","station_id":"RJW","transit":false,"distance":1444,"time":3,"i_long":106.836569,"is_transit":false},{"distance":1901,"station_id":"KMO","i_lat":-6.161728,"is_transit":false,"line":11,"transit":false,"time":5,"i_long":106.839204,"station_name":"Kemayoran"},{"is_transit":false,"distance":1436,"station_id":"PSE","time":4,"i_long":106.84368,"transit":false,"i_lat":-6.174784,"line":11,"station_name":"Pasar Senen"},{"time":8,"is_transit":false,"distance":1567,"i_long":106.850107,"i_lat":-6.185975,"line":11,"transit":false,"station_id":"GST","station_name":"Gang Sentiong"},{"i_long":106.855437,"station_id":"KMT","distance":973,"station_name":"Kramat","transit":false,"line":11,"is_transit":false,"i_lat":-6.193792,"time":1},{"station_id":"POK","is_transit":false,"transit":false,"time":2,"line":11,"i_long":106.861737,"station_name":"Pondok Jati","distance":1829,"i_lat":-6.209188},{"station_id":"JNG","line":1,"is_transit":true,"transit":true,"station_name":"Jatinegara","i_lat":-6.215091,"i_long":106.86807400000001,"time":9,"distance":1236},{"i_long":106.858896,"station_name":"Matraman","station_id":"MTR","transit":false,"is_transit":false,"distance":1377,"i_lat":-6.212485,"line":1,"time":2},{"station_name":"Manggarai","is_transit":true,"time":2,"line":2,"transit":true,"station_id":"MRI","distance":1275,"i_lat":-6.209883,"i_long":106.84912},{"i_lat":-6.226659,"station_name":"Tebet","line":2,"i_long":106.857948,"station_id":"TEB","transit":false,"time":4,"is_transit":false,"distance":2610},{"is_transit":false,"distance":1230,"time":2,"i_lat":-6.242512,"line":2,"station_name":"Cawang","station_id":"CW","transit":false,"i_long":106.856607},{"station_id":"DRN","i_long":106.85449,"station_name":"Duren Kalibata","transit":false,"time":3,"is_transit":false,"distance":1546,"i_lat":-6.255332,"line":2},{"transit":false,"i_lat":-6.263214,"line":2,"time":2,"is_transit":false,"station_name":"Pasar Minggu Baru","i_long":106.851577,"distance":824,"station_id":"PSMB"},{"time":2,"i_long":106.843999,"line":2,"distance":2380,"station_name":"Pasar Minggu","transit":false,"station_id":"PSM","is_transit":false,"i_lat":-6.2842400000000005},{"line":2,"distance":2820,"transit":false,"station_name":"Tanjung Barat","station_id":"TNT","i_lat":-6.3080680000000005,"i_long":106.838896,"is_transit":false,"time":4},{"is_transit":false,"transit":false,"station_name":"Lenteng Agung","time":3,"i_long":106.832616,"distance":2671,"station_id":"LNA","i_lat":-6.330363,"line":2},{"transit":false,"i_long":106.834175,"station_id":"UP","station_name":"Univ. Pancasila","time":2,"i_lat":-6.339291,"distance":1029,"is_transit":false,"line":2},{"transit":false,"time":3,"distance":2264,"i_long":106.831474,"station_name":"Univ. Indonesia","i_lat":-6.360749,"is_transit":false,"station_id":"UI","line":2},{"i_long":106.831114,"line":2,"station_name":"Pondok Cina","is_transit":false,"station_id":"POC","time":2,"transit":false,"distance":1109,"i_lat":-6.369073},{"is_transit":false,"distance":2727,"line":2,"station_id":"DPB","station_name":"Depokbaru","time":4,"i_lat":-6.391065,"i_long":106.819451,"transit":false},{"distance":1584,"time":3,"i_long":106.816926,"station_id":"DP","line":2,"i_lat":-6.405256,"is_transit":false,"station_name":"Depok","transit":false}]]}