{"data":[[{"is_transit":false,"i_lat":-6.201433,"station_name":"Sudirman Baru","i_long":106.819881,"transit":false,"station_id":"SUDB","line":1,"distance":0,"time":0},{"transit":false,"i_lat":-6.202263,"i_long":106.822649,"station_id":"SUD","distance":280,"line":1,"is_transit":false,"station_name":"Sudirman","time":1},{"station_name":"Manggarai","i_lat":-6.209883,"line":2,"transit":true,"i_long":106.84912,"distance":3186,"station_id":"MRI","is_transit":true,"time":4},{"line":2,"time":4,"is_transit":false,"station_name":"Tebet","transit":false,"i_long":106.857948,"station_id":"TEB","i_lat":-6.226659,"distance":2610},{"time":2,"line":2,"station_name":"Cawang","distance":1230,"station_id":"CW","is_transit":false,"i_lat":-6.242512,"transit":false,"i_long":106.856607},{"time":3,"station_id":"DRN","distance":1546,"i_long":106.85449,"station_name":"Duren Kalibata","i_lat":-6.255332,"line":2,"transit":false,"is_transit":false},{"station_id":"PSMB","time":2,"distance":824,"is_transit":false,"transit":false,"station_name":"Pasar Minggu Baru","i_lat":-6.263214,"i_long":106.851577,"line":2},{"station_name":"Pasar Minggu","station_id":"PSM","line":2,"time":2,"i_long":106.843999,"i_lat":-6.2842400000000005,"distance":2380,"is_transit":false,"transit":false},{"distance":2820,"line":2,"is_transit":false,"transit":false,"i_long":106.838896,"station_id":"TNT","station_name":"Tanjung Barat","i_lat":-6.3080680000000005,"time":4},{"station_id":"LNA","transit":false,"distance":2671,"station_name":"Lenteng Agung","time":3,"i_long":106.832616,"i_lat":-6.330363,"is_transit":false,"line":2},{"transit":false,"i_long":106.834175,"is_transit":false,"station_name":"Univ. Pancasila","i_lat":-6.339291,"station_id":"UP","line":2,"distance":1029,"time":2},{"station_id":"UI","transit":false,"time":3,"line":2,"i_lat":-6.360749,"i_long":106.831474,"is_transit":false,"distance":2264,"station_name":"Univ. Indonesia"},{"i_long":106.831114,"station_name":"Pondok Cina","line":2,"is_transit":false,"distance":1109,"time":2,"station_id":"POC","transit":false,"i_lat":-6.369073},{"line":2,"station_id":"DPB","station_name":"Depokbaru","i_long":106.819451,"time":4,"distance":2727,"is_transit":false,"transit":false,"i_lat":-6.391065},{"station_id":"DP","i_lat":-6.405256,"i_long":106.816926,"time":3,"station_name":"Depok","transit":false,"is_transit":false,"line":2,"distance":1584},{"time":6,"station_name":"Citayam","line":2,"distance":5084,"i_long":106.800298,"transit":false,"station_id":"CTA","is_transit":false,"i_lat":-6.448811},{"station_name":"Bojonggede","time":5,"distance":5197,"is_transit":false,"station_id":"BJD","transit":false,"line":2,"i_long":106.792719,"i_lat":-6.493243},{"i_long":106.800016,"is_transit":false,"transit":false,"line":2,"time":5,"i_lat":-6.530544,"station_name":"Cilebut","station_id":"CLT","distance":4331}],[{"i_lat":-6.201433,"station_name":"Sudirman Baru","distance":0,"time":0,"i_long":106.819881,"station_id":"SUDB","is_transit":false,"transit":false,"line":1},{"distance":471,"station_id":"KAT","i_long":106.816351,"line":1,"transit":false,"station_name":"Karet","is_transit":false,"time":1,"i_lat":-6.20132},{"time":5,"i_lat":-6.185545,"station_id":"THB","i_long":106.811091,"transit":false,"distance":2029,"station_name":"Tanah Abang","line":1,"is_transit":false},{"transit":false,"station_name":"Duri","distance":3632,"i_lat":-6.155215,"line":1,"station_id":"DU","is_transit":false,"time":8,"i_long":106.800832},{"station_name":"Angke","i_long":106.79867,"is_transit":false,"distance":1230,"time":4,"line":1,"i_lat":-6.144674,"transit":false,"station_id":"AK"},{"station_id":"KPB","is_transit":true,"station_name":"Kampung Bandan","time":9,"i_long":106.826365,"line":4,"i_lat":-6.132549,"distance":4102,"transit":true},{"i_long":106.812439,"station_id":"JAKK","i_lat":-6.137569,"station_name":"Jakarta Kota","time":3,"transit":true,"is_transit":true,"line":2,"distance":1364},{"transit":false,"station_id":"JAY","distance":1264,"i_lat":-6.141205,"line":2,"time":4,"is_transit":false,"i_long":106.820901,"station_name":"Jayakarta"},{"transit":false,"is_transit":false,"station_name":"Manggabesar","distance":1080,"i_lat":-6.149769,"i_long":106.82482,"station_id":"MGB","time":2,"line":2},{"line":2,"is_transit":false,"transit":false,"i_lat":-6.160725,"station_name":"Sawah Besar","distance":906,"time":2,"i_long":106.827103,"station_id":"SW"},{"distance":1149,"i_long":106.828284,"i_lat":-6.166716,"line":2,"transit":false,"station_name":"Juanda","is_transit":false,"station_id":"JUA","time":2},{"transit":false,"is_transit":false,"distance":2015,"i_lat":-6.186295,"station_name":"Gondangdia","i_long":106.832183,"time":4,"line":2,"station_id":"GDD"},{"time":3,"is_transit":false,"distance":1750,"station_name":"Cikini","line":2,"i_lat":-6.198556,"i_long":106.840169,"station_id":"CKI","transit":false},{"i_lat":-6.209883,"station_name":"Manggarai","transit":false,"distance":1590,"i_long":106.84912,"station_id":"MRI","time":4,"is_transit":false,"line":2},{"time":4,"transit":false,"distance":2610,"i_lat":-6.226659,"i_long":106.857948,"line":2,"station_id":"TEB","is_transit":false,"station_name":"Tebet"},{"station_name":"Cawang","transit":false,"time":2,"line":2,"distance":1230,"i_long":106.856607,"is_transit":false,"i_lat":-6.242512,"station_id":"CW"},{"station_name":"Duren Kalibata","i_lat":-6.255332,"time":3,"line":2,"is_transit":false,"transit":false,"distance":1546,"i_long":106.85449,"station_id":"DRN"},{"i_long":106.851577,"station_id":"PSMB","transit":false,"distance":824,"i_lat":-6.263214,"time":2,"line":2,"station_name":"Pasar Minggu Baru","is_transit":false},{"is_transit":false,"transit":false,"distance":2380,"i_lat":-6.2842400000000005,"time":2,"station_id":"PSM","i_long":106.843999,"line":2,"station_name":"Pasar Minggu"},{"line":2,"i_lat":-6.3080680000000005,"distance":2820,"time":4,"is_transit":false,"station_id":"TNT","station_name":"Tanjung Barat","transit":false,"i_long":106.838896},{"i_long":106.832616,"line":2,"time":3,"station_id":"LNA","distance":2671,"transit":false,"station_name":"Lenteng Agung","i_lat":-6.330363,"is_transit":false},{"i_lat":-6.339291,"station_id":"UP","time":2,"transit":false,"station_name":"Univ. Pancasila","distance":1029,"is_transit":false,"line":2,"i_long":106.834175},{"is_transit":false,"i_long":106.831474,"transit":false,"station_id":"UI","station_name":"Univ. Indonesia","time":3,"line":2,"distance":2264,"i_lat":-6.360749},{"distance":1109,"time":2,"transit":false,"station_name":"Pondok Cina","i_lat":-6.369073,"i_long":106.831114,"line":2,"station_id":"POC","is_transit":false},{"station_name":"Depokbaru","is_transit":false,"transit":false,"station_id":"DPB","distance":2727,"i_lat":-6.391065,"time":4,"i_long":106.819451,"line":2},{"transit":false,"line":2,"distance":1584,"station_name":"Depok","i_lat":-6.405256,"station_id":"DP","time":3,"is_transit":false,"i_long":106.816926},{"transit":false,"is_transit":false,"i_long":106.800298,"line":2,"i_lat":-6.448811,"distance":5084,"station_id":"CTA","time":6,"station_name":"Citayam"},{"i_long":106.792719,"i_lat":-6.493243,"station_name":"Bojonggede","transit":false,"time":5,"line":2,"station_id":"BJD","distance":5197,"is_transit":false},{"time":5,"distance":4331,"is_transit":false,"i_long":106.800016,"station_id":"CLT","i_lat":-6.530544,"line":2,"station_name":"Cilebut","transit":false}],[{"station_name":"Sudirman Baru","transit":false,"is_transit":false,"distance":0,"station_id":"SUDB","time":0,"i_lat":-6.201433,"i_long":106.819881,"line":1},{"i_lat":-6.20132,"station_id":"KAT","is_transit":false,"i_long":106.816351,"transit":false,"time":1,"line":1,"station_name":"Karet","distance":471},{"transit":false,"station_id":"THB","station_name":"Tanah Abang","time":5,"i_long":106.811091,"i_lat":-6.185545,"line":1,"distance":2029,"is_transit":false},{"transit":false,"distance":3632,"i_lat":-6.155215,"is_transit":false,"station_id":"DU","i_long":106.800832,"line":1,"station_name":"Duri","time":8},{"transit":false,"station_id":"AK","distance":1230,"station_name":"Angke","i_lat":-6.144674,"is_transit":false,"i_long":106.79867,"line":1,"time":4},{"time":9,"i_lat":-6.132549,"station_id":"KPB","transit":true,"i_long":106.826365,"station_name":"Kampung Bandan","distance":4102,"is_transit":true,"line":4},{"station_id":"RJW","distance":1444,"time":3,"i_lat":-6.14505,"is_transit":false,"i_long":106.836569,"transit":false,"station_name":"Rajawali","line":11},{"distance":1901,"transit":false,"i_lat":-6.161728,"station_id":"KMO","is_transit":false,"i_long":106.839204,"line":11,"time":5,"station_name":"Kemayoran"},{"i_lat":-6.174784,"time":4,"transit":false,"i_long":106.84368,"is_transit":false,"distance":1436,"station_name":"Pasar Senen","line":11,"station_id":"PSE"},{"time":8,"line":11,"distance":1567,"station_name":"Gang Sentiong","station_id":"GST","i_long":106.850107,"is_transit":false,"i_lat":-6.185975,"transit":false},{"is_transit":false,"distance":973,"station_id":"KMT","line":11,"transit":false,"time":1,"i_lat":-6.193792,"station_name":"Kramat","i_long":106.855437},{"station_name":"Pondok Jati","i_lat":-6.209188,"line":11,"transit":false,"distance":1829,"station_id":"POK","i_long":106.861737,"is_transit":false,"time":2},{"transit":true,"station_id":"JNG","distance":1236,"i_lat":-6.215091,"line":1,"station_name":"Jatinegara","time":9,"is_transit":true,"i_long":106.86807400000001},{"station_id":"MTR","i_long":106.858896,"station_name":"Matraman","time":2,"is_transit":false,"line":1,"i_lat":-6.212485,"transit":false,"distance":1377},{"distance":1275,"is_transit":true,"transit":true,"station_id":"MRI","station_name":"Manggarai","time":2,"line":2,"i_long":106.84912,"i_lat":-6.209883},{"is_transit":false,"distance":2610,"i_lat":-6.226659,"line":2,"station_name":"Tebet","time":4,"station_id":"TEB","i_long":106.857948,"transit":false},{"is_transit":false,"time":2,"line":2,"distance":1230,"i_lat":-6.242512,"transit":false,"station_name":"Cawang","i_long":106.856607,"station_id":"CW"},{"is_transit":false,"transit":false,"station_id":"DRN","station_name":"Duren Kalibata","distance":1546,"time":3,"i_lat":-6.255332,"i_long":106.85449,"line":2},{"i_lat":-6.263214,"station_id":"PSMB","time":2,"i_long":106.851577,"is_transit":false,"line":2,"distance":824,"transit":false,"station_name":"Pasar Minggu Baru"},{"station_id":"PSM","is_transit":false,"distance":2380,"time":2,"i_lat":-6.2842400000000005,"transit":false,"line":2,"i_long":106.843999,"station_name":"Pasar Minggu"},{"i_lat":-6.3080680000000005,"is_transit":false,"distance":2820,"transit":false,"i_long":106.838896,"line":2,"time":4,"station_id":"TNT","station_name":"Tanjung Barat"},{"i_lat":-6.330363,"i_long":106.832616,"line":2,"station_name":"Lenteng Agung","is_transit":false,"time":3,"transit":false,"station_id":"LNA","distance":2671},{"i_long":106.834175,"distance":1029,"time":2,"line":2,"station_id":"UP","transit":false,"is_transit":false,"station_name":"Univ. Pancasila","i_lat":-6.339291},{"transit":false,"distance":2264,"is_transit":false,"station_id":"UI","line":2,"i_lat":-6.360749,"station_name":"Univ. Indonesia","i_long":106.831474,"time":3},{"line":2,"station_id":"POC","time":2,"is_transit":false,"transit":false,"distance":1109,"station_name":"Pondok Cina","i_long":106.831114,"i_lat":-6.369073},{"is_transit":false,"station_id":"DPB","time":4,"station_name":"Depokbaru","transit":false,"i_lat":-6.391065,"i_long":106.819451,"distance":2727,"line":2},{"i_long":106.816926,"transit":false,"i_lat":-6.405256,"distance":1584,"time":3,"line":2,"station_id":"DP","station_name":"Depok","is_transit":false},{"transit":false,"time":6,"line":2,"is_transit":false,"i_long":106.800298,"station_name":"Citayam","i_lat":-6.448811,"distance":5084,"station_id":"CTA"},{"time":5,"station_id":"BJD","i_lat":-6.493243,"line":2,"distance":5197,"is_transit":false,"transit":false,"station_name":"Bojonggede","i_long":106.792719},{"is_transit":false,"station_id":"CLT","time":5,"i_long":106.800016,"distance":4331,"transit":false,"i_lat":-6.530544,"station_name":"Cilebut","line":2}]]}