{"data":[[{"is_transit":false,"transit":false,"station_name":"Sudirman Baru","i_long":106.819881,"line":1,"time":0,"distance":0,"station_id":"SUDB","i_lat":-6.201433},{"time":1,"transit":false,"i_long":106.816351,"distance":471,"line":1,"station_name":"Karet","station_id":"KAT","i_lat":-6.20132,"is_transit":false},{"time":5,"distance":2029,"station_id":"THB","transit":true,"station_name":"Tanah Abang","is_transit":true,"line":1,"i_lat":-6.185545,"i_long":106.811091},{"line":6,"time":6,"station_name":"Palmerah","station_id":"PLM","distance":3191,"transit":false,"i_lat":-6.207404,"i_long":106.79689,"is_transit":false},{"distance":3737,"transit":false,"time":7,"is_transit":false,"line":6,"station_name":"Kebayoran","i_long":106.780334,"station_id":"KBY","i_lat":-6.237242},{"time":8,"station_name":"Pondokranji","is_transit":false,"i_long":106.74273,"line":6,"transit":false,"i_lat":-6.276362,"distance":6218,"station_id":"PDJ"},{"is_transit":false,"distance":2179,"station_id":"JMU","station_name":"Jurangmangu","transit":false,"time":3,"line":6,"i_long":106.728916,"i_lat":-6.288927},{"station_name":"Sudimara","transit":false,"time":4,"station_id":"SDM","line":6,"i_lat":-6.296963,"is_transit":false,"i_long":106.712277,"distance":1994}],[{"station_name":"Sudirman Baru","station_id":"SUDB","i_lat":-6.201433,"transit":false,"is_transit":false,"time":0,"line":1,"i_long":106.819881,"distance":0},{"transit":false,"i_long":106.822649,"is_transit":false,"i_lat":-6.202263,"distance":280,"time":1,"line":1,"station_name":"Sudirman","station_id":"SUD"},{"time":4,"station_id":"MRI","is_transit":true,"i_lat":-6.209883,"transit":true,"line":2,"distance":3186,"i_long":106.84912,"station_name":"Manggarai"},{"time":4,"distance":1590,"line":2,"i_long":106.840169,"station_id":"CKI","transit":false,"station_name":"Cikini","is_transit":false,"i_lat":-6.198556},{"i_long":106.832183,"station_name":"Gondangdia","is_transit":false,"time":3,"i_lat":-6.186295,"line":2,"station_id":"GDD","distance":1750,"transit":false},{"distance":2015,"is_transit":false,"i_long":106.828284,"station_id":"JUA","line":2,"time":4,"i_lat":-6.166716,"transit":false,"station_name":"Juanda"},{"transit":false,"station_name":"Sawah Besar","time":2,"is_transit":false,"line":2,"i_long":106.827103,"distance":1149,"station_id":"SW","i_lat":-6.160725},{"line":2,"station_name":"Manggabesar","is_transit":false,"i_long":106.82482,"distance":906,"time":2,"i_lat":-6.149769,"transit":false,"station_id":"MGB"},{"line":2,"i_lat":-6.141205,"transit":false,"i_long":106.820901,"station_name":"Jayakarta","station_id":"JAY","distance":1080,"time":2,"is_transit":false},{"station_name":"Jakarta Kota","i_lat":-6.137569,"time":4,"line":2,"station_id":"JAKK","transit":true,"is_transit":true,"distance":1264,"i_long":106.812439},{"distance":1364,"i_lat":-6.132549,"line":4,"is_transit":true,"station_name":"Kampung Bandan","time":3,"station_id":"KPB","i_long":106.826365,"transit":true},{"station_id":"AK","transit":false,"i_lat":-6.144674,"line":1,"is_transit":false,"station_name":"Angke","distance":4102,"time":9,"i_long":106.79867},{"station_id":"DU","distance":1230,"time":4,"station_name":"Duri","i_lat":-6.155215,"i_long":106.800832,"is_transit":false,"transit":false,"line":1},{"time":8,"i_long":106.811091,"transit":true,"i_lat":-6.185545,"distance":3632,"is_transit":true,"station_name":"Tanah Abang","line":1,"station_id":"THB"},{"line":6,"time":6,"station_name":"Palmerah","is_transit":false,"station_id":"PLM","distance":3191,"i_long":106.79689,"transit":false,"i_lat":-6.207404},{"time":7,"distance":3737,"station_name":"Kebayoran","line":6,"station_id":"KBY","i_long":106.780334,"is_transit":false,"i_lat":-6.237242,"transit":false},{"station_name":"Pondokranji","transit":false,"i_long":106.74273,"line":6,"is_transit":false,"distance":6218,"i_lat":-6.276362,"time":8,"station_id":"PDJ"},{"station_name":"Jurangmangu","distance":2179,"line":6,"i_lat":-6.288927,"station_id":"JMU","is_transit":false,"transit":false,"i_long":106.728916,"time":3},{"line":6,"station_name":"Sudimara","transit":false,"i_long":106.712277,"station_id":"SDM","time":4,"distance":1994,"i_lat":-6.296963,"is_transit":false}],[{"transit":false,"is_transit":false,"station_name":"Sudirman Baru","i_long":106.819881,"line":1,"time":0,"distance":0,"station_id":"SUDB","i_lat":-6.201433},{"time":1,"station_id":"SUD","line":1,"distance":280,"is_transit":false,"station_name":"Sudirman","transit":false,"i_long":106.822649,"i_lat":-6.202263},{"station_name":"Manggarai","time":4,"transit":false,"is_transit":false,"distance":3186,"i_lat":-6.209883,"station_id":"MRI","i_long":106.84912,"line":2},{"i_lat":-6.212485,"line":1,"i_long":106.858896,"time":2,"station_name":"Matraman","distance":1275,"is_transit":false,"station_id":"MTR","transit":false},{"is_transit":true,"station_name":"Jatinegara","time":8,"station_id":"JNG","i_long":106.86807400000001,"line":1,"i_lat":-6.215091,"distance":1377,"transit":true},{"i_long":106.861737,"line":11,"i_lat":-6.209188,"distance":1236,"station_name":"Pondok Jati","time":2,"is_transit":false,"transit":false,"station_id":"POK"},{"line":11,"is_transit":false,"distance":1829,"time":2,"station_id":"KMT","i_long":106.855437,"station_name":"Kramat","transit":false,"i_lat":-6.193792},{"i_lat":-6.185975,"station_id":"GST","station_name":"Gang Sentiong","line":11,"distance":973,"is_transit":false,"time":1,"transit":false,"i_long":106.850107},{"line":11,"time":8,"is_transit":false,"transit":false,"station_name":"Pasar Senen","station_id":"PSE","i_long":106.84368,"i_lat":-6.174784,"distance":1567},{"station_name":"Kemayoran","distance":1436,"is_transit":false,"station_id":"KMO","i_lat":-6.161728,"line":11,"time":4,"transit":false,"i_long":106.839204},{"line":11,"distance":1901,"station_id":"RJW","i_lat":-6.14505,"transit":false,"time":5,"is_transit":false,"i_long":106.836569,"station_name":"Rajawali"},{"i_long":106.826365,"time":3,"transit":true,"is_transit":true,"i_lat":-6.132549,"distance":1444,"line":4,"station_name":"Kampung Bandan","station_id":"KPB"},{"station_id":"AK","distance":4102,"i_lat":-6.144674,"line":1,"station_name":"Angke","i_long":106.79867,"transit":false,"time":9,"is_transit":false},{"station_id":"DU","is_transit":false,"station_name":"Duri","i_lat":-6.155215,"i_long":106.800832,"transit":false,"time":4,"distance":1230,"line":1},{"time":8,"station_id":"THB","transit":true,"i_lat":-6.185545,"i_long":106.811091,"distance":3632,"station_name":"Tanah Abang","line":1,"is_transit":true},{"line":6,"is_transit":false,"i_long":106.79689,"distance":3191,"station_name":"Palmerah","station_id":"PLM","time":6,"transit":false,"i_lat":-6.207404},{"distance":3737,"i_lat":-6.237242,"i_long":106.780334,"line":6,"station_name":"Kebayoran","is_transit":false,"transit":false,"station_id":"KBY","time":7},{"station_name":"Pondokranji","time":8,"distance":6218,"line":6,"i_long":106.74273,"i_lat":-6.276362,"transit":false,"station_id":"PDJ","is_transit":false},{"transit":false,"i_lat":-6.288927,"station_id":"JMU","i_long":106.728916,"station_name":"Jurangmangu","is_transit":false,"time":3,"line":6,"distance":2179},{"i_long":106.712277,"line":6,"station_id":"SDM","time":4,"is_transit":false,"distance":1994,"transit":false,"station_name":"Sudimara","i_lat":-6.296963}]]}