{"data":[[{"transit":false,"is_transit":false,"station_id":"SUDB","i_long":106.819881,"distance":0,"station_name":"Sudirman Baru","time":0,"i_lat":-6.201433,"line":1},{"i_lat":-6.20132,"station_id":"KAT","time":1,"i_long":106.816351,"transit":false,"station_name":"Karet","distance":471,"line":1,"is_transit":false},{"station_id":"THB","transit":false,"line":1,"time":5,"i_lat":-6.185545,"i_long":106.811091,"distance":2029,"is_transit":true,"station_name":"Tanah Abang"},{"i_long":106.800832,"line":1,"distance":3632,"station_name":"Duri","station_id":"DU","i_lat":-6.155215,"transit":true,"is_transit":true,"time":8},{"line":5,"station_name":"Grogol","distance":1700,"station_id":"GGL","time":3,"is_transit":false,"transit":false,"i_lat":-6.162021,"i_long":106.788277},{"i_lat":-6.161433,"distance":2036,"station_id":"PSG","station_name":"Pesing","i_long":106.771379,"transit":false,"time":2,"line":5,"is_transit":false},{"station_id":"TKO","transit":false,"station_name":"Taman Kota","i_long":106.756522,"line":5,"is_transit":false,"time":2,"distance":1614,"i_lat":-6.1587309999999995},{"is_transit":false,"distance":2334,"station_name":"Bojongindah","line":0,"station_id":"BOI","transit":false,"time":2,"i_long":106.737035,"i_lat":-6.159876},{"station_name":"Rawa Buaya","distance":1152,"line":5,"time":4,"i_lat":-6.162758,"i_long":106.723064,"transit":false,"is_transit":false,"station_id":"RW"},{"line":5,"station_name":"Kalideres","station_id":"KDS","i_lat":-6.166068,"transit":false,"distance":2504,"i_long":106.701612,"is_transit":false,"time":3}],[{"station_id":"SUDB","time":0,"distance":0,"i_long":106.819881,"line":1,"is_transit":false,"station_name":"Sudirman Baru","transit":false,"i_lat":-6.201433},{"transit":false,"i_lat":-6.202263,"time":1,"station_id":"SUD","is_transit":false,"station_name":"Sudirman","i_long":106.822649,"line":1,"distance":280},{"transit":true,"line":0,"station_id":"MRI","distance":3186,"is_transit":true,"station_name":"Manggarai","time":4,"i_long":106.84912,"i_lat":-6.209883},{"i_lat":-6.198556,"distance":1590,"is_transit":false,"station_id":"CKI","i_long":106.840169,"line":0,"station_name":"Cikini","transit":false,"time":4},{"station_name":"Gondangdia","i_lat":-6.186295,"time":3,"i_long":106.832183,"line":2,"is_transit":false,"transit":false,"station_id":"GDD","distance":1750},{"is_transit":false,"time":4,"station_name":"Juanda","i_lat":-6.166716,"i_long":106.828284,"distance":2015,"station_id":"JUA","line":2,"transit":false},{"time":2,"line":2,"is_transit":false,"distance":1149,"station_id":"SW","transit":false,"station_name":"Sawah Besar","i_lat":-6.160725,"i_long":106.827103},{"is_transit":false,"line":2,"station_id":"MGB","time":2,"distance":906,"i_long":106.82482,"station_name":"Manggabesar","transit":false,"i_lat":-6.149769},{"is_transit":false,"line":7,"i_long":106.820901,"distance":1080,"station_id":"JAY","time":2,"i_lat":-6.141205,"station_name":"Jayakarta","transit":false},{"line":0,"station_name":"Jakarta Kota","transit":true,"station_id":"JAKK","distance":1264,"i_lat":-6.137569,"is_transit":true,"i_long":106.812439,"time":4},{"i_lat":-6.132549,"time":3,"station_id":"KPB","distance":1364,"i_long":106.826365,"line":0,"is_transit":true,"station_name":"Kampung Bandan","transit":false},{"station_name":"Angke","transit":false,"is_transit":false,"line":0,"i_long":106.79867,"station_id":"AK","time":9,"i_lat":-6.144674,"distance":4102},{"i_lat":-6.155215,"time":4,"is_transit":true,"station_id":"DU","i_long":106.800832,"transit":true,"line":1,"distance":1230,"station_name":"Duri"},{"is_transit":false,"transit":false,"station_name":"Grogol","distance":1700,"time":3,"station_id":"GGL","i_lat":-6.162021,"i_long":106.788277,"line":5},{"line":5,"i_long":106.771379,"station_id":"PSG","time":2,"station_name":"Pesing","transit":false,"distance":2036,"i_lat":-6.161433,"is_transit":false},{"station_id":"TKO","distance":1614,"i_long":106.756522,"transit":false,"time":2,"i_lat":-6.1587309999999995,"station_name":"Taman Kota","line":5,"is_transit":false},{"i_long":106.737035,"time":2,"station_id":"BOI","line":0,"i_lat":-6.159876,"transit":false,"distance":2334,"station_name":"Bojongindah","is_transit":false},{"transit":false,"station_name":"Rawa Buaya","is_transit":false,"line":5,"distance":1152,"i_lat":-6.162758,"i_long":106.723064,"time":4,"station_id":"RW"},{"line":5,"station_id":"KDS","is_transit":false,"time":3,"i_lat":-6.166068,"i_long":106.701612,"distance":2504,"station_name":"Kalideres","transit":false}],[{"distance":0,"time":0,"transit":false,"is_transit":false,"line":1,"i_lat":-6.201433,"station_name":"Sudirman Baru","station_id":"SUDB","i_long":106.819881},{"distance":280,"station_name":"Sudirman","station_id":"SUD","transit":false,"time":1,"i_lat":-6.202263,"is_transit":false,"i_long":106.822649,"line":1},{"station_name":"Manggarai","is_transit":true,"i_lat":-6.209883,"time":4,"distance":3186,"line":0,"station_id":"MRI","transit":false,"i_long":106.84912},{"transit":false,"i_lat":-6.212485,"is_transit":false,"station_id":"MTR","time":2,"distance":1275,"line":1,"station_name":"Matraman","i_long":106.858896},{"distance":1377,"is_transit":true,"time":8,"i_lat":-6.215091,"line":0,"i_long":106.86807400000001,"station_name":"Jatinegara","station_id":"JNG","transit":true},{"station_name":"Pondok Jati","i_lat":-6.209188,"i_long":106.861737,"is_transit":false,"transit":false,"line":11,"station_id":"POK","time":2,"distance":1236},{"time":2,"station_id":"KMT","transit":false,"distance":1829,"is_transit":false,"i_long":106.855437,"i_lat":-6.193792,"station_name":"Kramat","line":11},{"time":1,"i_long":106.850107,"distance":973,"i_lat":-6.185975,"is_transit":false,"line":11,"station_id":"GST","station_name":"Gang Sentiong","transit":false},{"i_long":106.84368,"line":11,"station_id":"PSE","transit":false,"is_transit":false,"station_name":"Pasar Senen","i_lat":-6.174784,"time":8,"distance":1567},{"distance":1436,"is_transit":false,"transit":false,"i_lat":-6.161728,"station_name":"Kemayoran","time":4,"i_long":106.839204,"line":11,"station_id":"KMO"},{"station_name":"Rajawali","distance":1901,"time":5,"line":11,"is_transit":false,"i_long":106.836569,"i_lat":-6.14505,"transit":false,"station_id":"RJW"},{"distance":1444,"station_name":"Kampung Bandan","i_long":106.826365,"station_id":"KPB","i_lat":-6.132549,"transit":true,"is_transit":true,"time":3,"line":0},{"i_lat":-6.144674,"transit":false,"distance":4102,"station_id":"AK","time":9,"station_name":"Angke","i_long":106.79867,"line":0,"is_transit":false},{"is_transit":true,"station_name":"Duri","transit":true,"i_lat":-6.155215,"line":1,"station_id":"DU","time":4,"i_long":106.800832,"distance":1230},{"distance":1700,"i_long":106.788277,"is_transit":false,"station_name":"Grogol","i_lat":-6.162021,"station_id":"GGL","transit":false,"line":5,"time":3},{"line":5,"i_long":106.771379,"i_lat":-6.161433,"is_transit":false,"station_name":"Pesing","distance":2036,"transit":false,"station_id":"PSG","time":2},{"station_name":"Taman Kota","transit":false,"time":2,"i_lat":-6.1587309999999995,"is_transit":false,"line":5,"station_id":"TKO","distance":1614,"i_long":106.756522},{"distance":2334,"i_lat":-6.159876,"is_transit":false,"station_name":"Bojongindah","i_long":106.737035,"transit":false,"line":0,"station_id":"BOI","time":2},{"transit":false,"i_long":106.723064,"station_name":"Rawa Buaya","station_id":"RW","time":4,"is_transit":false,"i_lat":-6.162758,"distance":1152,"line":5},{"station_name":"Kalideres","time":3,"line":5,"station_id":"KDS","transit":false,"i_lat":-6.166068,"is_transit":false,"distance":2504,"i_long":106.701612}]]}