{"data":[[{"transit":false,"station_name":"Sudirman Baru","i_lat":-6.201433,"time":0,"station_id":"SUDB","is_transit":false,"distance":0,"line":1,"i_long":106.819881},{"i_lat":-6.202263,"line":1,"station_id":"SUD","i_long":106.822649,"time":1,"station_name":"Sudirman","is_transit":false,"distance":280,"transit":false},{"station_id":"MRI","transit":true,"i_lat":-6.209883,"distance":3186,"line":2,"station_name":"Manggarai","time":4,"is_transit":true,"i_long":106.84912},{"i_long":106.840169,"line":2,"station_name":"Cikini","i_lat":-6.198556,"time":4,"station_id":"CKI","distance":1590,"is_transit":false,"transit":false},{"is_transit":false,"i_lat":-6.186295,"station_id":"GDD","time":3,"distance":1750,"line":2,"station_name":"Gondangdia","i_long":106.832183,"transit":false},{"i_long":106.828284,"i_lat":-6.166716,"is_transit":false,"line":2,"transit":false,"station_id":"JUA","time":4,"station_name":"Juanda","distance":2015},{"station_id":"SW","is_transit":false,"distance":1149,"transit":false,"i_long":106.827103,"line":2,"time":2,"i_lat":-6.160725,"station_name":"Sawah Besar"}],[{"is_transit":false,"i_long":106.819881,"transit":false,"line":1,"time":0,"distance":0,"station_id":"SUDB","station_name":"Sudirman Baru","i_lat":-6.201433},{"distance":471,"line":1,"i_lat":-6.20132,"is_transit":false,"i_long":106.816351,"transit":false,"station_name":"Karet","station_id":"KAT","time":1},{"i_long":106.811091,"distance":2029,"station_id":"THB","transit":false,"i_lat":-6.185545,"line":1,"time":5,"station_name":"Tanah Abang","is_transit":false},{"station_name":"Duri","is_transit":false,"transit":false,"i_lat":-6.155215,"line":1,"time":8,"i_long":106.800832,"distance":3632,"station_id":"DU"},{"i_lat":-6.144674,"station_id":"AK","is_transit":false,"distance":1230,"i_long":106.79867,"time":4,"station_name":"Angke","transit":false,"line":1},{"time":9,"is_transit":true,"station_id":"KPB","i_lat":-6.132549,"transit":true,"line":4,"distance":4102,"station_name":"Kampung Bandan","i_long":106.826365},{"line":2,"station_id":"JAKK","time":3,"transit":true,"station_name":"Jakarta Kota","i_long":106.812439,"is_transit":true,"distance":1364,"i_lat":-6.137569},{"distance":1264,"station_name":"Jayakarta","transit":false,"time":4,"line":2,"i_lat":-6.141205,"is_transit":false,"i_long":106.820901,"station_id":"JAY"},{"time":2,"transit":false,"i_long":106.82482,"distance":1080,"station_name":"Manggabesar","is_transit":false,"line":2,"i_lat":-6.149769,"station_id":"MGB"},{"time":2,"line":2,"is_transit":false,"station_name":"Sawah Besar","distance":906,"station_id":"SW","i_long":106.827103,"i_lat":-6.160725,"transit":false}],[{"transit":false,"line":1,"distance":0,"station_id":"SUDB","is_transit":false,"time":0,"i_long":106.819881,"station_name":"Sudirman Baru","i_lat":-6.201433},{"i_long":106.822649,"i_lat":-6.202263,"station_name":"Sudirman","is_transit":false,"distance":280,"time":1,"line":1,"station_id":"SUD","transit":false},{"time":4,"station_id":"MRI","distance":3186,"transit":false,"i_lat":-6.209883,"i_long":106.84912,"line":2,"is_transit":false,"station_name":"Manggarai"},{"is_transit":false,"time":2,"station_name":"Matraman","line":1,"distance":1275,"transit":false,"station_id":"MTR","i_lat":-6.212485,"i_long":106.858896},{"transit":true,"i_long":106.86807400000001,"i_lat":-6.215091,"line":1,"distance":1377,"time":8,"is_transit":true,"station_id":"JNG","station_name":"Jatinegara"},{"station_name":"Pondok Jati","station_id":"POK","time":2,"i_long":106.861737,"transit":false,"is_transit":false,"i_lat":-6.209188,"line":11,"distance":1236},{"i_lat":-6.193792,"time":2,"station_name":"Kramat","distance":1829,"transit":false,"station_id":"KMT","i_long":106.855437,"line":11,"is_transit":false},{"is_transit":false,"transit":false,"station_name":"Gang Sentiong","i_long":106.850107,"line":11,"distance":973,"station_id":"GST","i_lat":-6.185975,"time":1},{"is_transit":false,"i_long":106.84368,"time":8,"transit":false,"i_lat":-6.174784,"line":11,"station_id":"PSE","station_name":"Pasar Senen","distance":1567},{"line":11,"is_transit":false,"time":4,"distance":1436,"station_id":"KMO","station_name":"Kemayoran","i_long":106.839204,"transit":false,"i_lat":-6.161728},{"is_transit":false,"transit":false,"distance":1901,"time":5,"station_id":"RJW","i_lat":-6.14505,"i_long":106.836569,"station_name":"Rajawali","line":11},{"distance":1444,"time":3,"station_name":"Kampung Bandan","is_transit":true,"transit":true,"i_long":106.826365,"line":4,"station_id":"KPB","i_lat":-6.132549},{"station_name":"Jakarta Kota","i_lat":-6.137569,"is_transit":true,"time":3,"distance":1364,"line":2,"i_long":106.812439,"transit":true,"station_id":"JAKK"},{"is_transit":false,"station_id":"JAY","station_name":"Jayakarta","distance":1264,"i_long":106.820901,"time":4,"transit":false,"i_lat":-6.141205,"line":2},{"transit":false,"is_transit":false,"line":2,"time":2,"distance":1080,"i_long":106.82482,"station_id":"MGB","station_name":"Manggabesar","i_lat":-6.149769},{"transit":false,"i_long":106.827103,"station_name":"Sawah Besar","i_lat":-6.160725,"time":2,"distance":906,"station_id":"SW","line":2,"is_transit":false}],[{"line":1,"time":0,"station_id":"SUDB","i_long":106.819881,"station_name":"Sudirman Baru","distance":0,"transit":false,"is_transit":false,"i_lat":-6.201433},{"line":1,"distance":471,"station_name":"Karet","i_lat":-6.20132,"transit":false,"i_long":106.816351,"is_transit":false,"station_id":"KAT","time":1},{"time":5,"distance":2029,"is_transit":false,"i_long":106.811091,"station_name":"Tanah Abang","station_id":"THB","transit":false,"i_lat":-6.185545,"line":1},{"i_lat":-6.155215,"station_id":"DU","time":8,"station_name":"Duri","transit":false,"i_long":106.800832,"line":1,"is_transit":false,"distance":3632},{"i_long":106.79867,"line":1,"time":4,"is_transit":false,"i_lat":-6.144674,"station_id":"AK","distance":1230,"station_name":"Angke","transit":false},{"distance":4102,"station_name":"Kampung Bandan","is_transit":true,"transit":true,"line":4,"i_long":106.826365,"station_id":"KPB","time":9,"i_lat":-6.132549},{"i_long":106.836569,"transit":false,"station_name":"Rajawali","station_id":"RJW","line":11,"is_transit":false,"i_lat":-6.14505,"distance":1444,"time":3},{"station_name":"Kemayoran","is_transit":false,"time":5,"station_id":"KMO","transit":false,"i_long":106.839204,"distance":1901,"line":11,"i_lat":-6.161728},{"i_lat":-6.174784,"i_long":106.84368,"is_transit":false,"distance":1436,"station_id":"PSE","time":4,"station_name":"Pasar Senen","transit":false,"line":11},{"i_lat":-6.185975,"line":11,"distance":1567,"time":8,"station_id":"GST","i_long":106.850107,"is_transit":false,"transit":false,"station_name":"Gang Sentiong"},{"i_long":106.855437,"transit":false,"distance":973,"time":1,"station_id":"KMT","station_name":"Kramat","is_transit":false,"line":11,"i_lat":-6.193792},{"transit":false,"distance":1829,"station_id":"POK","is_transit":false,"station_name":"Pondok Jati","i_lat":-6.209188,"line":11,"i_long":106.861737,"time":2},{"distance":1236,"transit":true,"station_id":"JNG","station_name":"Jatinegara","i_long":106.86807400000001,"is_transit":true,"i_lat":-6.215091,"time":9,"line":1},{"station_id":"MTR","station_name":"Matraman","is_transit":false,"i_long":106.858896,"i_lat":-6.212485,"time":2,"line":1,"distance":1377,"transit":false},{"line":2,"distance":1275,"station_id":"MRI","time":2,"transit":true,"station_name":"Manggarai","is_transit":true,"i_long":106.84912,"i_lat":-6.209883},{"station_name":"Cikini","i_lat":-6.198556,"is_transit":false,"transit":false,"i_long":106.840169,"station_id":"CKI","time":4,"distance":1590,"line":2},{"time":3,"distance":1750,"station_id":"GDD","station_name":"Gondangdia","line":2,"i_lat":-6.186295,"transit":false,"is_transit":false,"i_long":106.832183},{"transit":false,"station_id":"JUA","i_lat":-6.166716,"time":4,"i_long":106.828284,"line":2,"is_transit":false,"station_name":"Juanda","distance":2015},{"station_name":"Sawah Besar","station_id":"SW","i_long":106.827103,"transit":false,"i_lat":-6.160725,"line":2,"is_transit":false,"distance":1149,"time":2}]]}