{"data":[[{"time":0,"i_lat":-6.201433,"i_long":106.819881,"is_transit":false,"line":1,"station_name":"Sudirman Baru","station_id":"SUDB","distance":0,"transit":false},{"time":1,"station_id":"SUD","transit":false,"distance":280,"line":1,"i_lat":-6.202263,"station_name":"Sudirman","is_transit":false,"i_long":106.822649},{"line":2,"is_transit":true,"station_id":"MRI","i_long":106.84912,"distance":3186,"transit":true,"i_lat":-6.209883,"station_name":"Manggarai","time":4},{"distance":2610,"station_name":"Tebet","i_lat":-6.226659,"station_id":"TEB","is_transit":false,"transit":false,"time":4,"i_long":106.857948,"line":2},{"time":2,"transit":false,"station_name":"Cawang","i_long":106.856607,"i_lat":-6.242512,"distance":1230,"station_id":"CW","line":2,"is_transit":false},{"line":2,"i_long":106.85449,"i_lat":-6.255332,"station_id":"DRN","time":3,"distance":1546,"is_transit":false,"transit":false,"station_name":"Duren Kalibata"},{"station_name":"Pasar Minggu Baru","distance":824,"i_lat":-6.263214,"station_id":"PSMB","i_long":106.851577,"transit":false,"line":2,"time":2,"is_transit":false},{"is_transit":false,"time":2,"transit":false,"station_name":"Pasar Minggu","station_id":"PSM","i_lat":-6.2842400000000005,"i_long":106.843999,"line":2,"distance":2380},{"i_long":106.838896,"distance":2820,"is_transit":false,"line":2,"time":4,"station_id":"TNT","i_lat":-6.3080680000000005,"transit":false,"station_name":"Tanjung Barat"},{"i_long":106.832616,"is_transit":false,"station_name":"Lenteng Agung","line":2,"time":3,"distance":2671,"transit":false,"station_id":"LNA","i_lat":-6.330363},{"i_lat":-6.339291,"distance":1029,"is_transit":false,"i_long":106.834175,"time":2,"line":2,"transit":false,"station_id":"UP","station_name":"Univ. Pancasila"},{"is_transit":false,"i_lat":-6.360749,"i_long":106.831474,"time":3,"station_id":"UI","station_name":"Univ. Indonesia","line":2,"transit":false,"distance":2264},{"i_long":106.831114,"is_transit":false,"time":2,"distance":1109,"station_id":"POC","transit":false,"station_name":"Pondok Cina","i_lat":-6.369073,"line":2},{"transit":false,"line":2,"is_transit":false,"distance":2727,"i_lat":-6.391065,"time":4,"station_id":"DPB","station_name":"Depokbaru","i_long":106.819451}],[{"transit":false,"i_long":106.819881,"line":1,"is_transit":false,"distance":0,"station_name":"Sudirman Baru","i_lat":-6.201433,"time":0,"station_id":"SUDB"},{"is_transit":false,"station_id":"KAT","transit":false,"time":1,"station_name":"Karet","i_lat":-6.20132,"i_long":106.816351,"line":1,"distance":471},{"is_transit":false,"transit":false,"i_long":106.811091,"station_name":"Tanah Abang","distance":2029,"time":5,"i_lat":-6.185545,"line":1,"station_id":"THB"},{"station_name":"Duri","station_id":"DU","i_long":106.800832,"i_lat":-6.155215,"line":1,"transit":false,"distance":3632,"is_transit":false,"time":8},{"distance":1230,"transit":false,"line":1,"station_id":"AK","i_lat":-6.144674,"time":4,"station_name":"Angke","is_transit":false,"i_long":106.79867},{"transit":true,"station_name":"Kampung Bandan","station_id":"KPB","distance":4102,"line":4,"i_long":106.826365,"time":9,"is_transit":true,"i_lat":-6.132549},{"line":2,"station_id":"JAKK","time":3,"i_lat":-6.137569,"i_long":106.812439,"transit":true,"distance":1364,"station_name":"Jakarta Kota","is_transit":true},{"station_id":"JAY","is_transit":false,"time":4,"transit":false,"station_name":"Jayakarta","i_long":106.820901,"i_lat":-6.141205,"distance":1264,"line":2},{"transit":false,"distance":1080,"station_id":"MGB","is_transit":false,"station_name":"Manggabesar","i_long":106.82482,"line":2,"time":2,"i_lat":-6.149769},{"i_long":106.827103,"time":2,"transit":false,"station_id":"SW","distance":906,"line":2,"station_name":"Sawah Besar","is_transit":false,"i_lat":-6.160725},{"transit":false,"i_long":106.828284,"line":2,"is_transit":false,"station_id":"JUA","distance":1149,"station_name":"Juanda","time":2,"i_lat":-6.166716},{"time":4,"line":2,"i_lat":-6.186295,"i_long":106.832183,"distance":2015,"is_transit":false,"station_name":"Gondangdia","station_id":"GDD","transit":false},{"is_transit":false,"i_lat":-6.198556,"time":3,"station_id":"CKI","transit":false,"i_long":106.840169,"distance":1750,"station_name":"Cikini","line":2},{"station_id":"MRI","transit":false,"time":4,"distance":1590,"is_transit":false,"station_name":"Manggarai","i_lat":-6.209883,"i_long":106.84912,"line":2},{"is_transit":false,"line":2,"i_lat":-6.226659,"time":4,"station_id":"TEB","i_long":106.857948,"transit":false,"distance":2610,"station_name":"Tebet"},{"time":2,"station_name":"Cawang","line":2,"distance":1230,"i_long":106.856607,"is_transit":false,"station_id":"CW","transit":false,"i_lat":-6.242512},{"transit":false,"distance":1546,"i_lat":-6.255332,"i_long":106.85449,"time":3,"station_id":"DRN","is_transit":false,"line":2,"station_name":"Duren Kalibata"},{"time":2,"is_transit":false,"i_long":106.851577,"station_id":"PSMB","i_lat":-6.263214,"transit":false,"station_name":"Pasar Minggu Baru","distance":824,"line":2},{"is_transit":false,"time":2,"distance":2380,"station_id":"PSM","station_name":"Pasar Minggu","transit":false,"i_lat":-6.2842400000000005,"i_long":106.843999,"line":2},{"distance":2820,"station_name":"Tanjung Barat","i_lat":-6.3080680000000005,"i_long":106.838896,"time":4,"is_transit":false,"line":2,"transit":false,"station_id":"TNT"},{"station_id":"LNA","i_long":106.832616,"transit":false,"line":2,"time":3,"i_lat":-6.330363,"is_transit":false,"distance":2671,"station_name":"Lenteng Agung"},{"time":2,"station_name":"Univ. Pancasila","is_transit":false,"transit":false,"distance":1029,"station_id":"UP","i_lat":-6.339291,"line":2,"i_long":106.834175},{"is_transit":false,"station_name":"Univ. Indonesia","station_id":"UI","i_long":106.831474,"line":2,"distance":2264,"transit":false,"time":3,"i_lat":-6.360749},{"transit":false,"line":2,"time":2,"station_id":"POC","i_long":106.831114,"i_lat":-6.369073,"distance":1109,"is_transit":false,"station_name":"Pondok Cina"},{"time":4,"i_long":106.819451,"distance":2727,"is_transit":false,"i_lat":-6.391065,"transit":false,"line":2,"station_name":"Depokbaru","station_id":"DPB"}],[{"station_id":"SUDB","station_name":"Sudirman Baru","distance":0,"line":1,"i_lat":-6.201433,"is_transit":false,"transit":false,"i_long":106.819881,"time":0},{"is_transit":false,"distance":471,"time":1,"station_id":"KAT","station_name":"Karet","transit":false,"line":1,"i_lat":-6.20132,"i_long":106.816351},{"line":1,"station_name":"Tanah Abang","i_long":106.811091,"station_id":"THB","transit":false,"time":5,"distance":2029,"is_transit":false,"i_lat":-6.185545},{"station_name":"Duri","line":1,"distance":3632,"i_lat":-6.155215,"time":8,"transit":false,"i_long":106.800832,"is_transit":false,"station_id":"DU"},{"time":4,"distance":1230,"station_name":"Angke","i_long":106.79867,"station_id":"AK","line":1,"transit":false,"is_transit":false,"i_lat":-6.144674},{"is_transit":true,"i_long":106.826365,"station_name":"Kampung Bandan","station_id":"KPB","line":4,"distance":4102,"transit":true,"time":9,"i_lat":-6.132549},{"distance":1444,"i_long":106.836569,"line":11,"i_lat":-6.14505,"is_transit":false,"station_name":"Rajawali","time":3,"transit":false,"station_id":"RJW"},{"i_long":106.839204,"distance":1901,"line":11,"transit":false,"station_name":"Kemayoran","is_transit":false,"time":5,"station_id":"KMO","i_lat":-6.161728},{"station_name":"Pasar Senen","i_long":106.84368,"is_transit":false,"i_lat":-6.174784,"line":11,"transit":false,"time":4,"station_id":"PSE","distance":1436},{"i_lat":-6.185975,"line":11,"station_name":"Gang Sentiong","station_id":"GST","transit":false,"is_transit":false,"i_long":106.850107,"distance":1567,"time":8},{"is_transit":false,"transit":false,"time":1,"station_id":"KMT","line":11,"station_name":"Kramat","i_lat":-6.193792,"distance":973,"i_long":106.855437},{"i_lat":-6.209188,"distance":1829,"time":2,"station_name":"Pondok Jati","is_transit":false,"line":11,"i_long":106.861737,"station_id":"POK","transit":false},{"i_long":106.86807400000001,"station_id":"JNG","transit":true,"i_lat":-6.215091,"time":9,"is_transit":true,"station_name":"Jatinegara","distance":1236,"line":1},{"transit":false,"i_long":106.858896,"line":1,"station_id":"MTR","is_transit":false,"time":2,"station_name":"Matraman","distance":1377,"i_lat":-6.212485},{"i_lat":-6.209883,"is_transit":true,"transit":true,"time":2,"line":2,"i_long":106.84912,"station_name":"Manggarai","station_id":"MRI","distance":1275},{"time":4,"station_name":"Tebet","i_lat":-6.226659,"line":2,"is_transit":false,"station_id":"TEB","distance":2610,"transit":false,"i_long":106.857948},{"i_long":106.856607,"time":2,"transit":false,"line":2,"distance":1230,"station_id":"CW","i_lat":-6.242512,"is_transit":false,"station_name":"Cawang"},{"station_id":"DRN","i_lat":-6.255332,"distance":1546,"is_transit":false,"time":3,"i_long":106.85449,"line":2,"transit":false,"station_name":"Duren Kalibata"},{"station_name":"Pasar Minggu Baru","i_long":106.851577,"i_lat":-6.263214,"transit":false,"distance":824,"is_transit":false,"time":2,"line":2,"station_id":"PSMB"},{"time":2,"distance":2380,"station_name":"Pasar Minggu","station_id":"PSM","line":2,"is_transit":false,"i_lat":-6.2842400000000005,"i_long":106.843999,"transit":false},{"distance":2820,"i_long":106.838896,"transit":false,"station_id":"TNT","is_transit":false,"time":4,"station_name":"Tanjung Barat","line":2,"i_lat":-6.3080680000000005},{"line":2,"station_name":"Lenteng Agung","station_id":"LNA","is_transit":false,"transit":false,"i_long":106.832616,"time":3,"distance":2671,"i_lat":-6.330363},{"transit":false,"is_transit":false,"line":2,"time":2,"station_name":"Univ. Pancasila","station_id":"UP","i_lat":-6.339291,"distance":1029,"i_long":106.834175},{"line":2,"i_long":106.831474,"station_id":"UI","station_name":"Univ. Indonesia","is_transit":false,"time":3,"transit":false,"i_lat":-6.360749,"distance":2264},{"station_name":"Pondok Cina","line":2,"station_id":"POC","is_transit":false,"distance":1109,"i_long":106.831114,"time":2,"i_lat":-6.369073,"transit":false},{"is_transit":false,"transit":false,"station_name":"Depokbaru","time":4,"line":2,"i_long":106.819451,"distance":2727,"station_id":"DPB","i_lat":-6.391065}]]}