{"data":[[{"station_id":"SW","i_long":106.827103,"is_transit":false,"line":2,"transit":false,"station_name":"Sawah Besar","i_lat":-6.160725,"distance":0,"time":0},{"i_lat":-6.149769,"station_id":"MGB","distance":906,"line":2,"is_transit":false,"time":2,"transit":false,"station_name":"Manggabesar","i_long":106.82482},{"i_long":106.820901,"station_name":"Jayakarta","is_transit":false,"distance":1080,"line":2,"station_id":"JAY","i_lat":-6.141205,"time":2,"transit":false},{"station_id":"JAKK","line":2,"i_long":106.812439,"transit":true,"station_name":"Jakarta Kota","is_transit":true,"time":4,"distance":1264,"i_lat":-6.137569},{"transit":true,"line":4,"is_transit":true,"time":3,"station_id":"KPB","station_name":"Kampung Bandan","distance":1364,"i_lat":-6.132549,"i_long":106.826365},{"transit":false,"distance":4102,"station_id":"AK","i_lat":-6.144674,"time":9,"station_name":"Angke","i_long":106.79867,"is_transit":false,"line":1},{"distance":1230,"i_long":106.800832,"line":1,"is_transit":true,"i_lat":-6.155215,"station_id":"DU","station_name":"Duri","transit":true,"time":4},{"line":5,"i_long":106.788277,"transit":false,"i_lat":-6.162021,"station_id":"GGL","station_name":"Grogol","time":3,"distance":1700,"is_transit":false},{"station_id":"PSG","station_name":"Pesing","distance":2036,"i_lat":-6.161433,"line":5,"i_long":106.771379,"transit":false,"time":2,"is_transit":false},{"time":2,"i_lat":-6.1587309999999995,"line":5,"station_id":"TKO","i_long":106.756522,"transit":false,"station_name":"Taman Kota","is_transit":false,"distance":1614},{"transit":false,"is_transit":false,"time":2,"line":5,"distance":2334,"i_lat":-6.159876,"i_long":106.737035,"station_name":"Bojongindah","station_id":"BOI"},{"time":4,"i_long":106.723064,"i_lat":-6.162758,"line":5,"distance":1152,"station_name":"Rawa Buaya","is_transit":false,"station_id":"RW","transit":false},{"is_transit":false,"transit":false,"line":5,"time":3,"distance":2504,"i_lat":-6.166068,"station_id":"KDS","station_name":"Kalideres","i_long":106.701612},{"transit":false,"distance":2548,"i_long":106.679458,"station_name":"Poris","is_transit":false,"station_id":"PI","line":5,"i_lat":-6.169933,"time":3},{"distance":1834,"i_lat":-6.171811,"is_transit":false,"station_id":"BPR","line":5,"station_name":"Batuceper","time":3,"i_long":106.665036,"transit":false}],[{"line":2,"station_id":"SW","i_long":106.827103,"is_transit":false,"distance":0,"station_name":"Sawah Besar","transit":false,"i_lat":-6.160725,"time":0},{"line":2,"is_transit":false,"i_long":106.828284,"station_id":"JUA","station_name":"Juanda","transit":false,"time":2,"i_lat":-6.166716,"distance":1149},{"time":4,"transit":false,"i_long":106.832183,"is_transit":false,"line":2,"station_name":"Gondangdia","station_id":"GDD","distance":2015,"i_lat":-6.186295},{"i_long":106.840169,"station_id":"CKI","i_lat":-6.198556,"is_transit":false,"distance":1750,"station_name":"Cikini","time":3,"transit":false,"line":2},{"time":4,"distance":1590,"station_name":"Manggarai","i_lat":-6.209883,"line":2,"i_long":106.84912,"station_id":"MRI","transit":true,"is_transit":true},{"transit":false,"station_name":"Sudirman","station_id":"SUD","is_transit":false,"time":4,"distance":3186,"i_lat":-6.202263,"line":1,"i_long":106.822649},{"transit":false,"station_name":"Sudirman Baru","is_transit":false,"time":1,"i_lat":-6.201433,"distance":280,"line":1,"i_long":106.819881,"station_id":"SUDB"},{"station_name":"Karet","is_transit":false,"transit":false,"distance":471,"i_long":106.816351,"station_id":"KAT","time":1,"line":1,"i_lat":-6.20132},{"station_id":"THB","is_transit":false,"time":5,"i_lat":-6.185545,"i_long":106.811091,"line":1,"distance":2029,"station_name":"Tanah Abang","transit":false},{"i_lat":-6.155215,"distance":3632,"station_name":"Duri","time":8,"is_transit":true,"line":1,"transit":true,"station_id":"DU","i_long":106.800832},{"is_transit":false,"transit":false,"station_id":"GGL","station_name":"Grogol","distance":1700,"line":5,"i_lat":-6.162021,"time":3,"i_long":106.788277},{"transit":false,"station_id":"PSG","distance":2036,"station_name":"Pesing","i_lat":-6.161433,"i_long":106.771379,"line":5,"is_transit":false,"time":2},{"transit":false,"i_long":106.756522,"line":5,"is_transit":false,"i_lat":-6.1587309999999995,"station_name":"Taman Kota","distance":1614,"time":2,"station_id":"TKO"},{"is_transit":false,"time":2,"i_long":106.737035,"station_name":"Bojongindah","transit":false,"station_id":"BOI","distance":2334,"line":5,"i_lat":-6.159876},{"station_id":"RW","i_long":106.723064,"is_transit":false,"time":4,"distance":1152,"transit":false,"station_name":"Rawa Buaya","line":5,"i_lat":-6.162758},{"transit":false,"distance":2504,"line":5,"time":3,"i_lat":-6.166068,"station_id":"KDS","station_name":"Kalideres","is_transit":false,"i_long":106.701612},{"time":3,"transit":false,"line":5,"i_lat":-6.169933,"distance":2548,"i_long":106.679458,"station_id":"PI","is_transit":false,"station_name":"Poris"},{"i_lat":-6.171811,"transit":false,"time":3,"station_name":"Batuceper","station_id":"BPR","is_transit":false,"i_long":106.665036,"line":5,"distance":1834}],[{"station_name":"Sawah Besar","time":0,"station_id":"SW","i_long":106.827103,"line":2,"i_lat":-6.160725,"distance":0,"transit":false,"is_transit":false},{"station_name":"Juanda","station_id":"JUA","transit":false,"i_lat":-6.166716,"line":2,"i_long":106.828284,"time":2,"distance":1149,"is_transit":false},{"i_lat":-6.186295,"station_name":"Gondangdia","distance":2015,"transit":false,"station_id":"GDD","is_transit":false,"time":4,"line":2,"i_long":106.832183},{"i_lat":-6.198556,"is_transit":false,"station_id":"CKI","time":3,"station_name":"Cikini","transit":false,"i_long":106.840169,"line":2,"distance":1750},{"distance":1590,"station_name":"Manggarai","i_long":106.84912,"line":2,"transit":true,"time":4,"i_lat":-6.209883,"is_transit":true,"station_id":"MRI"},{"transit":false,"line":1,"is_transit":false,"distance":1275,"station_name":"Matraman","time":2,"station_id":"MTR","i_long":106.858896,"i_lat":-6.212485},{"i_long":106.86807400000001,"is_transit":true,"station_name":"Jatinegara","distance":1377,"transit":true,"i_lat":-6.215091,"time":8,"station_id":"JNG","line":1},{"i_long":106.861737,"station_name":"Pondok Jati","distance":1236,"station_id":"POK","is_transit":false,"transit":false,"line":11,"time":2,"i_lat":-6.209188},{"transit":false,"is_transit":false,"i_long":106.855437,"line":11,"station_name":"Kramat","i_lat":-6.193792,"distance":1829,"station_id":"KMT","time":2},{"time":1,"is_transit":false,"i_long":106.850107,"distance":973,"station_id":"GST","transit":false,"i_lat":-6.185975,"line":11,"station_name":"Gang Sentiong"},{"station_id":"PSE","station_name":"Pasar Senen","time":8,"is_transit":false,"i_long":106.84368,"line":11,"i_lat":-6.174784,"distance":1567,"transit":false},{"distance":1436,"line":11,"station_name":"Kemayoran","station_id":"KMO","time":4,"i_lat":-6.161728,"i_long":106.839204,"transit":false,"is_transit":false},{"line":11,"station_id":"RJW","distance":1901,"station_name":"Rajawali","i_lat":-6.14505,"is_transit":false,"time":5,"transit":false,"i_long":106.836569},{"i_long":106.826365,"station_id":"KPB","distance":1444,"transit":true,"time":3,"is_transit":true,"i_lat":-6.132549,"station_name":"Kampung Bandan","line":4},{"line":1,"is_transit":false,"time":9,"i_lat":-6.144674,"i_long":106.79867,"station_name":"Angke","distance":4102,"station_id":"AK","transit":false},{"transit":true,"time":4,"station_name":"Duri","distance":1230,"i_lat":-6.155215,"i_long":106.800832,"line":1,"station_id":"DU","is_transit":true},{"time":3,"i_lat":-6.162021,"i_long":106.788277,"is_transit":false,"station_name":"Grogol","distance":1700,"line":5,"transit":false,"station_id":"GGL"},{"distance":2036,"line":5,"station_name":"Pesing","station_id":"PSG","transit":false,"i_long":106.771379,"is_transit":false,"time":2,"i_lat":-6.161433},{"i_long":106.756522,"time":2,"transit":false,"station_name":"Taman Kota","i_lat":-6.1587309999999995,"line":5,"distance":1614,"is_transit":false,"station_id":"TKO"},{"i_long":106.737035,"i_lat":-6.159876,"station_name":"Bojongindah","is_transit":false,"station_id":"BOI","distance":2334,"line":5,"transit":false,"time":2},{"i_lat":-6.162758,"station_id":"RW","time":4,"distance":1152,"is_transit":false,"transit":false,"i_long":106.723064,"station_name":"Rawa Buaya","line":5},{"distance":2504,"i_lat":-6.166068,"time":3,"station_id":"KDS","transit":false,"line":5,"station_name":"Kalideres","is_transit":false,"i_long":106.701612},{"station_id":"PI","i_long":106.679458,"transit":false,"is_transit":false,"time":3,"station_name":"Poris","distance":2548,"line":5,"i_lat":-6.169933},{"line":5,"is_transit":false,"station_name":"Batuceper","transit":false,"station_id":"BPR","distance":1834,"i_lat":-6.171811,"time":3,"i_long":106.665036}],[{"i_long":106.827103,"distance":0,"station_name":"Sawah Besar","time":0,"i_lat":-6.160725,"station_id":"SW","transit":false,"line":2,"is_transit":false},{"line":2,"station_id":"MGB","i_lat":-6.149769,"station_name":"Manggabesar","time":2,"distance":906,"transit":false,"is_transit":false,"i_long":106.82482},{"line":2,"station_id":"JAY","transit":false,"time":2,"station_name":"Jayakarta","i_lat":-6.141205,"distance":1080,"i_long":106.820901,"is_transit":false},{"transit":true,"i_lat":-6.137569,"i_long":106.812439,"line":2,"distance":1264,"station_name":"Jakarta Kota","time":4,"station_id":"JAKK","is_transit":true},{"station_name":"Kampung Bandan","time":3,"i_lat":-6.132549,"transit":true,"station_id":"KPB","line":4,"is_transit":true,"distance":1364,"i_long":106.826365},{"time":3,"transit":false,"i_lat":-6.14505,"distance":1444,"i_long":106.836569,"station_id":"RJW","is_transit":false,"line":11,"station_name":"Rajawali"},{"station_name":"Kemayoran","line":11,"is_transit":false,"transit":false,"distance":1901,"time":5,"i_long":106.839204,"station_id":"KMO","i_lat":-6.161728},{"time":4,"station_id":"PSE","transit":false,"is_transit":false,"distance":1436,"station_name":"Pasar Senen","i_lat":-6.174784,"i_long":106.84368,"line":11},{"station_id":"GST","transit":false,"line":11,"i_lat":-6.185975,"distance":1567,"time":8,"station_name":"Gang Sentiong","i_long":106.850107,"is_transit":false},{"time":1,"distance":973,"station_name":"Kramat","i_lat":-6.193792,"i_long":106.855437,"transit":false,"is_transit":false,"station_id":"KMT","line":11},{"transit":false,"station_id":"POK","i_long":106.861737,"is_transit":false,"time":2,"distance":1829,"station_name":"Pondok Jati","i_lat":-6.209188,"line":11},{"distance":1236,"time":9,"transit":true,"station_id":"JNG","station_name":"Jatinegara","i_long":106.86807400000001,"line":1,"i_lat":-6.215091,"is_transit":true},{"i_lat":-6.212485,"i_long":106.858896,"station_id":"MTR","station_name":"Matraman","is_transit":false,"line":1,"distance":1377,"transit":false,"time":2},{"distance":1275,"transit":false,"is_transit":false,"i_long":106.84912,"time":2,"i_lat":-6.209883,"station_id":"MRI","line":2,"station_name":"Manggarai"},{"station_name":"Sudirman","time":4,"is_transit":false,"i_lat":-6.202263,"line":1,"i_long":106.822649,"transit":false,"distance":3186,"station_id":"SUD"},{"line":1,"time":1,"i_lat":-6.201433,"distance":280,"transit":false,"station_id":"SUDB","is_transit":false,"i_long":106.819881,"station_name":"Sudirman Baru"},{"is_transit":false,"distance":471,"i_long":106.816351,"transit":false,"line":1,"station_id":"KAT","time":1,"station_name":"Karet","i_lat":-6.20132},{"is_transit":false,"station_name":"Tanah Abang","transit":false,"time":5,"distance":2029,"i_long":106.811091,"station_id":"THB","i_lat":-6.185545,"line":1},{"distance":3632,"line":1,"is_transit":true,"time":8,"station_name":"Duri","transit":true,"i_lat":-6.155215,"station_id":"DU","i_long":106.800832},{"i_lat":-6.162021,"station_id":"GGL","i_long":106.788277,"line":5,"station_name":"Grogol","is_transit":false,"transit":false,"distance":1700,"time":3},{"station_id":"PSG","transit":false,"distance":2036,"is_transit":false,"station_name":"Pesing","i_long":106.771379,"line":5,"time":2,"i_lat":-6.161433},{"distance":1614,"i_long":106.756522,"time":2,"station_id":"TKO","is_transit":false,"i_lat":-6.1587309999999995,"line":5,"station_name":"Taman Kota","transit":false},{"i_long":106.737035,"station_name":"Bojongindah","time":2,"distance":2334,"station_id":"BOI","i_lat":-6.159876,"is_transit":false,"transit":false,"line":5},{"is_transit":false,"time":4,"transit":false,"i_long":106.723064,"station_name":"Rawa Buaya","station_id":"RW","i_lat":-6.162758,"distance":1152,"line":5},{"is_transit":false,"i_lat":-6.166068,"line":5,"station_id":"KDS","i_long":106.701612,"time":3,"station_name":"Kalideres","distance":2504,"transit":false},{"is_transit":false,"time":3,"i_lat":-6.169933,"line":5,"transit":false,"station_name":"Poris","station_id":"PI","i_long":106.679458,"distance":2548},{"time":3,"distance":1834,"station_name":"Batuceper","station_id":"BPR","i_long":106.665036,"line":5,"transit":false,"i_lat":-6.171811,"is_transit":false}]]}