{"data":[[{"distance":0,"transit":false,"station_name":"Sawah Besar","station_id":"SW","time":0,"is_transit":false,"i_lat":-6.160725,"i_long":106.827103,"line":2},{"time":2,"station_id":"MGB","is_transit":false,"transit":false,"i_lat":-6.149769,"line":2,"i_long":106.82482,"distance":906,"station_name":"Manggabesar"},{"i_long":106.820901,"station_name":"Jayakarta","station_id":"JAY","transit":false,"distance":1080,"is_transit":false,"time":2,"i_lat":-6.141205,"line":7},{"time":4,"station_name":"Jakarta Kota","i_lat":-6.137569,"transit":true,"i_long":106.812439,"distance":1264,"station_id":"JAKK","line":0,"is_transit":true},{"i_lat":-6.132549,"transit":false,"station_name":"Kampung Bandan","i_long":106.826365,"distance":1364,"station_id":"KPB","time":3,"is_transit":true,"line":0},{"transit":false,"station_id":"AK","distance":4102,"time":9,"i_long":106.79867,"line":0,"is_transit":false,"station_name":"Angke","i_lat":-6.144674},{"time":4,"line":1,"is_transit":true,"station_id":"DU","i_lat":-6.155215,"i_long":106.800832,"transit":true,"distance":1230,"station_name":"Duri"},{"i_lat":-6.162021,"is_transit":false,"time":3,"i_long":106.788277,"distance":1700,"station_id":"GGL","station_name":"Grogol","transit":false,"line":5},{"station_id":"PSG","i_lat":-6.161433,"time":2,"line":5,"is_transit":false,"station_name":"Pesing","transit":false,"i_long":106.771379,"distance":2036},{"station_name":"Taman Kota","is_transit":false,"line":5,"i_lat":-6.1587309999999995,"time":2,"distance":1614,"transit":false,"i_long":106.756522,"station_id":"TKO"},{"distance":2334,"station_name":"Bojongindah","time":2,"line":0,"transit":false,"i_lat":-6.159876,"is_transit":false,"station_id":"BOI","i_long":106.737035},{"distance":1152,"line":5,"is_transit":false,"time":4,"station_id":"RW","i_lat":-6.162758,"transit":false,"i_long":106.723064,"station_name":"Rawa Buaya"},{"line":5,"time":3,"transit":false,"distance":2504,"is_transit":false,"i_long":106.701612,"station_id":"KDS","station_name":"Kalideres","i_lat":-6.166068},{"distance":2548,"line":5,"is_transit":false,"station_name":"Poris","transit":false,"time":3,"i_lat":-6.169933,"station_id":"PI","i_long":106.679458},{"station_name":"Batuceper","i_lat":-6.171811,"transit":false,"time":3,"i_long":106.665036,"distance":1834,"line":0,"is_transit":false,"station_id":"BPR"}],[{"is_transit":false,"station_id":"SW","time":0,"station_name":"Sawah Besar","transit":false,"i_lat":-6.160725,"line":2,"i_long":106.827103,"distance":0},{"transit":false,"i_long":106.828284,"time":2,"is_transit":false,"i_lat":-6.166716,"distance":1149,"line":2,"station_id":"JUA","station_name":"Juanda"},{"i_lat":-6.186295,"time":4,"transit":false,"is_transit":false,"i_long":106.832183,"distance":2015,"line":2,"station_name":"Gondangdia","station_id":"GDD"},{"station_name":"Cikini","is_transit":false,"i_long":106.840169,"line":0,"transit":false,"station_id":"CKI","i_lat":-6.198556,"distance":1750,"time":3},{"distance":1590,"transit":true,"station_name":"Manggarai","i_long":106.84912,"i_lat":-6.209883,"time":4,"station_id":"MRI","is_transit":true,"line":0},{"i_long":106.822649,"line":1,"time":4,"station_id":"SUD","i_lat":-6.202263,"is_transit":false,"station_name":"Sudirman","transit":false,"distance":3186},{"time":1,"i_long":106.819881,"station_name":"Sudirman Baru","station_id":"SUDB","is_transit":false,"line":1,"distance":280,"transit":false,"i_lat":-6.201433},{"station_name":"Karet","i_lat":-6.20132,"line":1,"distance":471,"is_transit":false,"station_id":"KAT","i_long":106.816351,"transit":false,"time":1},{"distance":2029,"i_lat":-6.185545,"station_name":"Tanah Abang","line":1,"is_transit":true,"station_id":"THB","transit":false,"i_long":106.811091,"time":5},{"station_id":"DU","station_name":"Duri","is_transit":true,"line":1,"distance":3632,"time":8,"transit":true,"i_lat":-6.155215,"i_long":106.800832},{"i_lat":-6.162021,"distance":1700,"station_name":"Grogol","station_id":"GGL","is_transit":false,"i_long":106.788277,"time":3,"line":5,"transit":false},{"line":5,"transit":false,"i_lat":-6.161433,"distance":2036,"is_transit":false,"i_long":106.771379,"station_name":"Pesing","time":2,"station_id":"PSG"},{"is_transit":false,"distance":1614,"i_long":106.756522,"i_lat":-6.1587309999999995,"line":5,"station_id":"TKO","time":2,"station_name":"Taman Kota","transit":false},{"station_name":"Bojongindah","time":2,"transit":false,"line":0,"is_transit":false,"i_lat":-6.159876,"station_id":"BOI","distance":2334,"i_long":106.737035},{"station_name":"Rawa Buaya","i_long":106.723064,"station_id":"RW","time":4,"i_lat":-6.162758,"line":5,"distance":1152,"transit":false,"is_transit":false},{"i_lat":-6.166068,"station_name":"Kalideres","distance":2504,"time":3,"station_id":"KDS","is_transit":false,"line":5,"i_long":106.701612,"transit":false},{"distance":2548,"transit":false,"is_transit":false,"i_lat":-6.169933,"station_id":"PI","time":3,"i_long":106.679458,"station_name":"Poris","line":5},{"i_long":106.665036,"i_lat":-6.171811,"distance":1834,"line":0,"is_transit":false,"time":3,"station_name":"Batuceper","station_id":"BPR","transit":false}],[{"transit":false,"i_lat":-6.160725,"is_transit":false,"station_id":"SW","station_name":"Sawah Besar","time":0,"line":2,"i_long":106.827103,"distance":0},{"i_long":106.828284,"station_name":"Juanda","is_transit":false,"time":2,"distance":1149,"station_id":"JUA","i_lat":-6.166716,"line":2,"transit":false},{"is_transit":false,"time":4,"line":2,"distance":2015,"transit":false,"i_lat":-6.186295,"station_id":"GDD","i_long":106.832183,"station_name":"Gondangdia"},{"i_long":106.840169,"distance":1750,"transit":false,"time":3,"station_name":"Cikini","i_lat":-6.198556,"is_transit":false,"line":0,"station_id":"CKI"},{"i_lat":-6.209883,"i_long":106.84912,"is_transit":true,"station_id":"MRI","time":4,"distance":1590,"station_name":"Manggarai","transit":true,"line":0},{"time":2,"station_id":"MTR","line":1,"i_lat":-6.212485,"transit":false,"distance":1275,"is_transit":false,"i_long":106.858896,"station_name":"Matraman"},{"i_long":106.86807400000001,"i_lat":-6.215091,"distance":1377,"station_id":"JNG","line":0,"station_name":"Jatinegara","time":8,"is_transit":true,"transit":true},{"is_transit":false,"distance":1236,"transit":false,"i_lat":-6.209188,"station_name":"Pondok Jati","station_id":"POK","time":2,"i_long":106.861737,"line":11},{"time":2,"transit":false,"distance":1829,"station_id":"KMT","station_name":"Kramat","is_transit":false,"i_lat":-6.193792,"i_long":106.855437,"line":11},{"station_id":"GST","i_lat":-6.185975,"distance":973,"transit":false,"i_long":106.850107,"time":1,"station_name":"Gang Sentiong","line":11,"is_transit":false},{"line":11,"is_transit":false,"time":8,"station_id":"PSE","station_name":"Pasar Senen","i_lat":-6.174784,"i_long":106.84368,"transit":false,"distance":1567},{"station_name":"Kemayoran","i_long":106.839204,"transit":false,"i_lat":-6.161728,"distance":1436,"time":4,"line":11,"station_id":"KMO","is_transit":false},{"distance":1901,"station_id":"RJW","transit":false,"i_lat":-6.14505,"is_transit":false,"i_long":106.836569,"time":5,"station_name":"Rajawali","line":11},{"station_id":"KPB","station_name":"Kampung Bandan","i_lat":-6.132549,"transit":true,"line":0,"i_long":106.826365,"distance":1444,"time":3,"is_transit":true},{"i_lat":-6.144674,"station_name":"Angke","distance":4102,"is_transit":false,"station_id":"AK","i_long":106.79867,"line":0,"time":9,"transit":false},{"time":4,"i_long":106.800832,"line":1,"distance":1230,"is_transit":true,"transit":true,"station_id":"DU","station_name":"Duri","i_lat":-6.155215},{"i_lat":-6.162021,"is_transit":false,"distance":1700,"station_id":"GGL","i_long":106.788277,"line":5,"station_name":"Grogol","transit":false,"time":3},{"station_id":"PSG","transit":false,"station_name":"Pesing","line":5,"time":2,"is_transit":false,"i_lat":-6.161433,"distance":2036,"i_long":106.771379},{"is_transit":false,"line":5,"station_name":"Taman Kota","transit":false,"distance":1614,"time":2,"station_id":"TKO","i_lat":-6.1587309999999995,"i_long":106.756522},{"station_id":"BOI","i_long":106.737035,"distance":2334,"line":0,"station_name":"Bojongindah","is_transit":false,"transit":false,"time":2,"i_lat":-6.159876},{"distance":1152,"station_id":"RW","station_name":"Rawa Buaya","line":5,"is_transit":false,"time":4,"i_lat":-6.162758,"i_long":106.723064,"transit":false},{"i_lat":-6.166068,"i_long":106.701612,"station_id":"KDS","line":5,"is_transit":false,"time":3,"station_name":"Kalideres","distance":2504,"transit":false},{"i_lat":-6.169933,"line":5,"is_transit":false,"distance":2548,"station_name":"Poris","transit":false,"station_id":"PI","time":3,"i_long":106.679458},{"line":0,"i_lat":-6.171811,"is_transit":false,"i_long":106.665036,"station_id":"BPR","time":3,"station_name":"Batuceper","distance":1834,"transit":false}],[{"time":0,"line":2,"distance":0,"is_transit":false,"station_id":"SW","station_name":"Sawah Besar","i_lat":-6.160725,"transit":false,"i_long":106.827103},{"transit":false,"station_id":"MGB","i_lat":-6.149769,"line":2,"station_name":"Manggabesar","time":2,"is_transit":false,"distance":906,"i_long":106.82482},{"i_lat":-6.141205,"station_id":"JAY","is_transit":false,"station_name":"Jayakarta","transit":false,"time":2,"i_long":106.820901,"line":7,"distance":1080},{"station_id":"JAKK","i_lat":-6.137569,"station_name":"Jakarta Kota","time":4,"i_long":106.812439,"is_transit":true,"distance":1264,"transit":true,"line":0},{"distance":1364,"i_long":106.826365,"station_name":"Kampung Bandan","line":0,"time":3,"transit":true,"is_transit":true,"station_id":"KPB","i_lat":-6.132549},{"distance":1444,"station_id":"RJW","transit":false,"line":11,"time":3,"is_transit":false,"i_lat":-6.14505,"i_long":106.836569,"station_name":"Rajawali"},{"is_transit":false,"station_id":"KMO","line":11,"transit":false,"i_lat":-6.161728,"time":5,"station_name":"Kemayoran","i_long":106.839204,"distance":1901},{"distance":1436,"transit":false,"i_lat":-6.174784,"time":4,"line":11,"is_transit":false,"station_id":"PSE","station_name":"Pasar Senen","i_long":106.84368},{"station_id":"GST","distance":1567,"line":11,"i_long":106.850107,"station_name":"Gang Sentiong","time":8,"i_lat":-6.185975,"is_transit":false,"transit":false},{"is_transit":false,"distance":973,"i_lat":-6.193792,"station_id":"KMT","station_name":"Kramat","line":11,"time":1,"transit":false,"i_long":106.855437},{"line":11,"i_long":106.861737,"distance":1829,"is_transit":false,"transit":false,"i_lat":-6.209188,"station_name":"Pondok Jati","station_id":"POK","time":2},{"i_lat":-6.215091,"station_name":"Jatinegara","transit":true,"i_long":106.86807400000001,"distance":1236,"line":0,"station_id":"JNG","is_transit":true,"time":9},{"transit":false,"line":1,"time":2,"i_lat":-6.212485,"station_name":"Matraman","i_long":106.858896,"station_id":"MTR","distance":1377,"is_transit":false},{"i_lat":-6.209883,"time":2,"i_long":106.84912,"distance":1275,"transit":false,"station_name":"Manggarai","line":0,"is_transit":true,"station_id":"MRI"},{"i_long":106.822649,"time":4,"i_lat":-6.202263,"distance":3186,"is_transit":false,"station_id":"SUD","station_name":"Sudirman","line":1,"transit":false},{"distance":280,"station_id":"SUDB","time":1,"i_long":106.819881,"line":1,"is_transit":false,"transit":false,"station_name":"Sudirman Baru","i_lat":-6.201433},{"line":1,"time":1,"station_name":"Karet","is_transit":false,"transit":false,"distance":471,"station_id":"KAT","i_lat":-6.20132,"i_long":106.816351},{"distance":2029,"transit":false,"line":1,"station_name":"Tanah Abang","time":5,"i_lat":-6.185545,"station_id":"THB","is_transit":true,"i_long":106.811091},{"i_lat":-6.155215,"i_long":106.800832,"distance":3632,"station_name":"Duri","station_id":"DU","time":8,"line":1,"is_transit":true,"transit":true},{"station_id":"GGL","line":5,"i_long":106.788277,"distance":1700,"station_name":"Grogol","time":3,"i_lat":-6.162021,"transit":false,"is_transit":false},{"time":2,"distance":2036,"i_lat":-6.161433,"line":5,"i_long":106.771379,"transit":false,"is_transit":false,"station_id":"PSG","station_name":"Pesing"},{"time":2,"transit":false,"station_id":"TKO","i_long":106.756522,"station_name":"Taman Kota","line":5,"is_transit":false,"i_lat":-6.1587309999999995,"distance":1614},{"i_lat":-6.159876,"is_transit":false,"transit":false,"station_id":"BOI","time":2,"i_long":106.737035,"station_name":"Bojongindah","line":0,"distance":2334},{"is_transit":false,"station_name":"Rawa Buaya","line":5,"station_id":"RW","transit":false,"time":4,"i_long":106.723064,"i_lat":-6.162758,"distance":1152},{"time":3,"station_id":"KDS","transit":false,"line":5,"is_transit":false,"i_lat":-6.166068,"station_name":"Kalideres","i_long":106.701612,"distance":2504},{"station_id":"PI","transit":false,"distance":2548,"is_transit":false,"station_name":"Poris","time":3,"i_lat":-6.169933,"i_long":106.679458,"line":5},{"station_name":"Batuceper","distance":1834,"time":3,"line":0,"i_long":106.665036,"is_transit":false,"transit":false,"i_lat":-6.171811,"station_id":"BPR"}]]}