{"data":[[{"time":0,"distance":0,"i_lat":-6.160725,"station_id":"SW","transit":false,"station_name":"Sawah Besar","is_transit":false,"i_long":106.827103,"line":2},{"line":2,"distance":906,"transit":false,"is_transit":false,"i_lat":-6.149769,"station_name":"Manggabesar","time":2,"i_long":106.82482,"station_id":"MGB"},{"line":2,"distance":1080,"station_id":"JAY","time":2,"i_lat":-6.141205,"is_transit":false,"transit":false,"i_long":106.820901,"station_name":"Jayakarta"},{"i_long":106.812439,"station_id":"JAKK","line":2,"time":4,"is_transit":true,"station_name":"Jakarta Kota","distance":1264,"transit":true,"i_lat":-6.137569},{"time":3,"station_id":"KPB","i_long":106.826365,"station_name":"Kampung Bandan","is_transit":true,"distance":1364,"i_lat":-6.132549,"line":4,"transit":true},{"i_lat":-6.144674,"transit":false,"is_transit":false,"line":1,"i_long":106.79867,"station_id":"AK","distance":4102,"time":9,"station_name":"Angke"},{"transit":true,"station_name":"Duri","i_long":106.800832,"is_transit":true,"line":1,"time":4,"distance":1230,"station_id":"DU","i_lat":-6.155215},{"i_lat":-6.162021,"station_id":"GGL","line":5,"time":3,"i_long":106.788277,"distance":1700,"is_transit":false,"transit":false,"station_name":"Grogol"},{"station_id":"PSG","transit":false,"distance":2036,"is_transit":false,"time":2,"i_long":106.771379,"station_name":"Pesing","i_lat":-6.161433,"line":5},{"distance":1614,"station_id":"TKO","transit":false,"time":2,"i_lat":-6.1587309999999995,"i_long":106.756522,"line":5,"station_name":"Taman Kota","is_transit":false},{"is_transit":false,"transit":false,"distance":2334,"station_name":"Bojongindah","i_long":106.737035,"time":2,"line":5,"i_lat":-6.159876,"station_id":"BOI"},{"is_transit":false,"line":5,"time":4,"station_id":"RW","i_long":106.723064,"transit":false,"station_name":"Rawa Buaya","distance":1152,"i_lat":-6.162758},{"is_transit":false,"station_id":"KDS","line":5,"i_lat":-6.166068,"transit":false,"time":3,"distance":2504,"station_name":"Kalideres","i_long":106.701612},{"i_lat":-6.169933,"station_id":"PI","distance":2548,"station_name":"Poris","time":3,"is_transit":false,"i_long":106.679458,"line":5,"transit":false},{"is_transit":false,"station_name":"Batuceper","transit":false,"time":3,"i_lat":-6.171811,"station_id":"BPR","i_long":106.665036,"distance":1834,"line":5}],[{"transit":false,"line":2,"i_lat":-6.160725,"time":0,"i_long":106.827103,"station_id":"SW","distance":0,"is_transit":false,"station_name":"Sawah Besar"},{"transit":false,"i_lat":-6.166716,"station_name":"Juanda","distance":1149,"is_transit":false,"station_id":"JUA","line":2,"time":2,"i_long":106.828284},{"station_name":"Gondangdia","transit":false,"distance":2015,"line":2,"time":4,"i_long":106.832183,"station_id":"GDD","i_lat":-6.186295,"is_transit":false},{"station_id":"CKI","i_lat":-6.198556,"i_long":106.840169,"distance":1750,"is_transit":false,"line":2,"transit":false,"station_name":"Cikini","time":3},{"i_long":106.84912,"time":4,"transit":true,"distance":1590,"line":2,"station_name":"Manggarai","is_transit":true,"i_lat":-6.209883,"station_id":"MRI"},{"i_long":106.822649,"transit":false,"time":4,"station_id":"SUD","station_name":"Sudirman","is_transit":false,"i_lat":-6.202263,"line":1,"distance":3186},{"distance":280,"station_name":"Sudirman Baru","i_long":106.819881,"line":1,"transit":false,"is_transit":false,"i_lat":-6.201433,"station_id":"SUDB","time":1},{"line":1,"station_name":"Karet","is_transit":false,"transit":false,"i_lat":-6.20132,"distance":471,"station_id":"KAT","i_long":106.816351,"time":1},{"is_transit":false,"distance":2029,"line":1,"time":5,"transit":false,"i_lat":-6.185545,"i_long":106.811091,"station_id":"THB","station_name":"Tanah Abang"},{"station_name":"Duri","i_lat":-6.155215,"line":1,"time":8,"i_long":106.800832,"transit":true,"distance":3632,"is_transit":true,"station_id":"DU"},{"line":5,"i_lat":-6.162021,"distance":1700,"time":3,"station_name":"Grogol","transit":false,"is_transit":false,"station_id":"GGL","i_long":106.788277},{"line":5,"station_name":"Pesing","is_transit":false,"i_lat":-6.161433,"transit":false,"distance":2036,"time":2,"station_id":"PSG","i_long":106.771379},{"transit":false,"is_transit":false,"i_lat":-6.1587309999999995,"line":5,"distance":1614,"time":2,"station_name":"Taman Kota","i_long":106.756522,"station_id":"TKO"},{"transit":false,"i_long":106.737035,"line":5,"is_transit":false,"distance":2334,"time":2,"station_id":"BOI","i_lat":-6.159876,"station_name":"Bojongindah"},{"line":5,"i_lat":-6.162758,"time":4,"is_transit":false,"i_long":106.723064,"transit":false,"distance":1152,"station_name":"Rawa Buaya","station_id":"RW"},{"i_long":106.701612,"is_transit":false,"line":5,"distance":2504,"station_name":"Kalideres","time":3,"transit":false,"station_id":"KDS","i_lat":-6.166068},{"time":3,"station_name":"Poris","transit":false,"i_long":106.679458,"line":5,"i_lat":-6.169933,"distance":2548,"station_id":"PI","is_transit":false},{"i_lat":-6.171811,"is_transit":false,"distance":1834,"station_name":"Batuceper","i_long":106.665036,"station_id":"BPR","transit":false,"line":5,"time":3}],[{"transit":false,"i_long":106.827103,"i_lat":-6.160725,"line":2,"distance":0,"station_id":"SW","station_name":"Sawah Besar","time":0,"is_transit":false},{"i_lat":-6.166716,"time":2,"i_long":106.828284,"transit":false,"distance":1149,"station_id":"JUA","station_name":"Juanda","line":2,"is_transit":false},{"station_name":"Gondangdia","i_lat":-6.186295,"line":2,"i_long":106.832183,"station_id":"GDD","distance":2015,"is_transit":false,"time":4,"transit":false},{"transit":false,"is_transit":false,"time":3,"station_name":"Cikini","distance":1750,"station_id":"CKI","i_lat":-6.198556,"i_long":106.840169,"line":2},{"distance":1590,"is_transit":true,"time":4,"station_id":"MRI","line":2,"i_lat":-6.209883,"i_long":106.84912,"transit":true,"station_name":"Manggarai"},{"distance":1275,"station_id":"MTR","station_name":"Matraman","time":2,"transit":false,"is_transit":false,"i_lat":-6.212485,"i_long":106.858896,"line":1},{"i_lat":-6.215091,"distance":1377,"transit":true,"time":8,"is_transit":true,"station_id":"JNG","i_long":106.86807400000001,"line":1,"station_name":"Jatinegara"},{"station_name":"Pondok Jati","transit":false,"time":2,"i_lat":-6.209188,"is_transit":false,"line":11,"distance":1236,"i_long":106.861737,"station_id":"POK"},{"station_name":"Kramat","is_transit":false,"line":11,"station_id":"KMT","distance":1829,"i_lat":-6.193792,"i_long":106.855437,"transit":false,"time":2},{"i_long":106.850107,"distance":973,"station_name":"Gang Sentiong","i_lat":-6.185975,"time":1,"is_transit":false,"line":11,"transit":false,"station_id":"GST"},{"is_transit":false,"i_long":106.84368,"transit":false,"distance":1567,"station_id":"PSE","station_name":"Pasar Senen","line":11,"i_lat":-6.174784,"time":8},{"transit":false,"i_lat":-6.161728,"is_transit":false,"station_id":"KMO","i_long":106.839204,"time":4,"distance":1436,"line":11,"station_name":"Kemayoran"},{"station_id":"RJW","time":5,"line":11,"distance":1901,"station_name":"Rajawali","i_long":106.836569,"transit":false,"i_lat":-6.14505,"is_transit":false},{"station_id":"KPB","time":3,"i_lat":-6.132549,"line":4,"i_long":106.826365,"is_transit":true,"transit":true,"distance":1444,"station_name":"Kampung Bandan"},{"station_id":"AK","i_lat":-6.144674,"transit":false,"line":1,"i_long":106.79867,"is_transit":false,"distance":4102,"time":9,"station_name":"Angke"},{"transit":true,"distance":1230,"is_transit":true,"station_id":"DU","i_lat":-6.155215,"i_long":106.800832,"time":4,"station_name":"Duri","line":1},{"station_id":"GGL","time":3,"transit":false,"is_transit":false,"i_long":106.788277,"line":5,"i_lat":-6.162021,"station_name":"Grogol","distance":1700},{"transit":false,"i_lat":-6.161433,"is_transit":false,"line":5,"time":2,"distance":2036,"i_long":106.771379,"station_id":"PSG","station_name":"Pesing"},{"is_transit":false,"i_long":106.756522,"i_lat":-6.1587309999999995,"station_id":"TKO","transit":false,"time":2,"distance":1614,"station_name":"Taman Kota","line":5},{"line":5,"transit":false,"distance":2334,"is_transit":false,"station_id":"BOI","time":2,"i_long":106.737035,"station_name":"Bojongindah","i_lat":-6.159876},{"station_name":"Rawa Buaya","distance":1152,"time":4,"i_lat":-6.162758,"transit":false,"line":5,"i_long":106.723064,"station_id":"RW","is_transit":false},{"time":3,"i_long":106.701612,"is_transit":false,"distance":2504,"transit":false,"station_id":"KDS","i_lat":-6.166068,"line":5,"station_name":"Kalideres"},{"is_transit":false,"station_id":"PI","distance":2548,"station_name":"Poris","line":5,"i_lat":-6.169933,"i_long":106.679458,"time":3,"transit":false},{"is_transit":false,"time":3,"station_id":"BPR","line":5,"i_lat":-6.171811,"distance":1834,"transit":false,"station_name":"Batuceper","i_long":106.665036}],[{"i_lat":-6.160725,"time":0,"distance":0,"i_long":106.827103,"line":2,"station_id":"SW","transit":false,"is_transit":false,"station_name":"Sawah Besar"},{"station_name":"Manggabesar","i_long":106.82482,"line":2,"distance":906,"is_transit":false,"transit":false,"i_lat":-6.149769,"station_id":"MGB","time":2},{"line":2,"i_long":106.820901,"transit":false,"station_id":"JAY","is_transit":false,"time":2,"distance":1080,"i_lat":-6.141205,"station_name":"Jayakarta"},{"transit":true,"is_transit":true,"line":2,"station_id":"JAKK","i_lat":-6.137569,"i_long":106.812439,"time":4,"distance":1264,"station_name":"Jakarta Kota"},{"i_lat":-6.132549,"distance":1364,"line":4,"transit":true,"station_id":"KPB","i_long":106.826365,"time":3,"is_transit":true,"station_name":"Kampung Bandan"},{"i_lat":-6.14505,"time":3,"distance":1444,"line":11,"station_name":"Rajawali","i_long":106.836569,"station_id":"RJW","transit":false,"is_transit":false},{"time":5,"station_name":"Kemayoran","i_long":106.839204,"distance":1901,"i_lat":-6.161728,"line":11,"is_transit":false,"station_id":"KMO","transit":false},{"line":11,"distance":1436,"station_id":"PSE","station_name":"Pasar Senen","i_lat":-6.174784,"transit":false,"is_transit":false,"i_long":106.84368,"time":4},{"line":11,"i_long":106.850107,"distance":1567,"time":8,"i_lat":-6.185975,"is_transit":false,"transit":false,"station_id":"GST","station_name":"Gang Sentiong"},{"is_transit":false,"station_name":"Kramat","i_lat":-6.193792,"transit":false,"distance":973,"station_id":"KMT","i_long":106.855437,"time":1,"line":11},{"is_transit":false,"station_name":"Pondok Jati","i_long":106.861737,"station_id":"POK","i_lat":-6.209188,"line":11,"transit":false,"time":2,"distance":1829},{"is_transit":true,"station_name":"Jatinegara","line":1,"time":9,"i_lat":-6.215091,"i_long":106.86807400000001,"station_id":"JNG","transit":true,"distance":1236},{"time":2,"transit":false,"i_lat":-6.212485,"line":1,"is_transit":false,"station_id":"MTR","distance":1377,"station_name":"Matraman","i_long":106.858896},{"line":2,"distance":1275,"time":2,"station_name":"Manggarai","i_lat":-6.209883,"i_long":106.84912,"station_id":"MRI","transit":false,"is_transit":false},{"time":4,"transit":false,"is_transit":false,"station_id":"SUD","i_lat":-6.202263,"distance":3186,"i_long":106.822649,"line":1,"station_name":"Sudirman"},{"is_transit":false,"i_lat":-6.201433,"station_id":"SUDB","distance":280,"line":1,"time":1,"station_name":"Sudirman Baru","transit":false,"i_long":106.819881},{"station_name":"Karet","i_long":106.816351,"is_transit":false,"line":1,"i_lat":-6.20132,"time":1,"distance":471,"station_id":"KAT","transit":false},{"line":1,"transit":false,"distance":2029,"is_transit":false,"i_long":106.811091,"station_id":"THB","time":5,"station_name":"Tanah Abang","i_lat":-6.185545},{"station_name":"Duri","time":8,"station_id":"DU","i_lat":-6.155215,"is_transit":true,"distance":3632,"line":1,"transit":true,"i_long":106.800832},{"station_id":"GGL","time":3,"i_lat":-6.162021,"line":5,"transit":false,"i_long":106.788277,"distance":1700,"is_transit":false,"station_name":"Grogol"},{"is_transit":false,"distance":2036,"time":2,"station_id":"PSG","station_name":"Pesing","line":5,"i_lat":-6.161433,"i_long":106.771379,"transit":false},{"transit":false,"i_long":106.756522,"station_name":"Taman Kota","i_lat":-6.1587309999999995,"is_transit":false,"time":2,"station_id":"TKO","distance":1614,"line":5},{"distance":2334,"station_id":"BOI","transit":false,"i_long":106.737035,"i_lat":-6.159876,"time":2,"station_name":"Bojongindah","line":5,"is_transit":false},{"line":5,"is_transit":false,"transit":false,"station_name":"Rawa Buaya","time":4,"distance":1152,"i_lat":-6.162758,"i_long":106.723064,"station_id":"RW"},{"time":3,"line":5,"station_id":"KDS","i_lat":-6.166068,"distance":2504,"is_transit":false,"transit":false,"i_long":106.701612,"station_name":"Kalideres"},{"i_long":106.679458,"station_id":"PI","distance":2548,"transit":false,"line":5,"station_name":"Poris","is_transit":false,"time":3,"i_lat":-6.169933},{"line":5,"is_transit":false,"time":3,"station_name":"Batuceper","transit":false,"distance":1834,"station_id":"BPR","i_lat":-6.171811,"i_long":106.665036}]]}