{"data":[[{"i_lat":-6.160725,"line":2,"distance":0,"time":0,"is_transit":false,"i_long":106.827103,"station_name":"Sawah Besar","transit":false,"station_id":"SW"},{"station_id":"MGB","is_transit":false,"distance":906,"transit":false,"i_lat":-6.149769,"station_name":"Manggabesar","i_long":106.82482,"line":2,"time":2},{"station_name":"Jayakarta","distance":1080,"transit":false,"time":2,"i_lat":-6.141205,"station_id":"JAY","line":2,"i_long":106.820901,"is_transit":false},{"transit":true,"i_long":106.812439,"is_transit":true,"distance":1264,"line":2,"station_id":"JAKK","time":4,"station_name":"Jakarta Kota","i_lat":-6.137569},{"i_long":106.826365,"transit":true,"time":3,"station_name":"Kampung Bandan","is_transit":true,"distance":1364,"line":4,"i_lat":-6.132549,"station_id":"KPB"},{"distance":4102,"station_id":"AK","is_transit":false,"time":9,"i_lat":-6.144674,"i_long":106.79867,"station_name":"Angke","transit":false,"line":1},{"station_name":"Duri","line":1,"transit":true,"is_transit":true,"station_id":"DU","distance":1230,"time":4,"i_lat":-6.155215,"i_long":106.800832},{"station_id":"GGL","line":5,"i_lat":-6.162021,"i_long":106.788277,"distance":1700,"time":3,"is_transit":false,"transit":false,"station_name":"Grogol"},{"i_long":106.771379,"station_id":"PSG","transit":false,"line":5,"is_transit":false,"time":2,"station_name":"Pesing","distance":2036,"i_lat":-6.161433},{"is_transit":false,"line":5,"station_id":"TKO","station_name":"Taman Kota","distance":1614,"i_lat":-6.1587309999999995,"transit":false,"time":2,"i_long":106.756522},{"time":2,"distance":2334,"line":5,"station_name":"Bojongindah","i_lat":-6.159876,"transit":false,"is_transit":false,"station_id":"BOI","i_long":106.737035},{"distance":1152,"transit":false,"is_transit":false,"time":4,"station_id":"RW","i_long":106.723064,"i_lat":-6.162758,"line":5,"station_name":"Rawa Buaya"},{"i_lat":-6.166068,"distance":2504,"line":5,"transit":false,"station_name":"Kalideres","is_transit":false,"time":3,"station_id":"KDS","i_long":106.701612},{"is_transit":false,"i_lat":-6.169933,"station_id":"PI","time":3,"line":5,"station_name":"Poris","transit":false,"distance":2548,"i_long":106.679458},{"i_long":106.665036,"distance":1834,"time":3,"is_transit":false,"station_id":"BPR","station_name":"Batuceper","line":5,"transit":false,"i_lat":-6.171811}],[{"station_name":"Sawah Besar","transit":false,"is_transit":false,"time":0,"distance":0,"line":2,"i_long":106.827103,"i_lat":-6.160725,"station_id":"SW"},{"station_id":"JUA","i_long":106.828284,"transit":false,"time":2,"is_transit":false,"distance":1149,"line":2,"station_name":"Juanda","i_lat":-6.166716},{"transit":false,"is_transit":false,"i_lat":-6.186295,"station_name":"Gondangdia","i_long":106.832183,"line":2,"distance":2015,"time":4,"station_id":"GDD"},{"station_name":"Cikini","transit":false,"time":3,"i_long":106.840169,"is_transit":false,"station_id":"CKI","i_lat":-6.198556,"distance":1750,"line":2},{"line":2,"station_name":"Manggarai","i_lat":-6.209883,"distance":1590,"is_transit":true,"transit":true,"time":4,"i_long":106.84912,"station_id":"MRI"},{"i_lat":-6.202263,"station_name":"Sudirman","station_id":"SUD","transit":false,"distance":3186,"time":4,"i_long":106.822649,"is_transit":false,"line":1},{"i_long":106.819881,"i_lat":-6.201433,"distance":280,"station_id":"SUDB","station_name":"Sudirman Baru","line":1,"is_transit":false,"time":1,"transit":false},{"is_transit":false,"time":1,"distance":471,"station_name":"Karet","i_long":106.816351,"i_lat":-6.20132,"station_id":"KAT","line":1,"transit":false},{"i_long":106.811091,"station_name":"Tanah Abang","time":5,"is_transit":false,"distance":2029,"line":1,"station_id":"THB","transit":false,"i_lat":-6.185545},{"time":8,"station_id":"DU","i_long":106.800832,"distance":3632,"transit":true,"line":1,"station_name":"Duri","i_lat":-6.155215,"is_transit":true},{"transit":false,"i_lat":-6.162021,"i_long":106.788277,"station_id":"GGL","time":3,"station_name":"Grogol","is_transit":false,"distance":1700,"line":5},{"distance":2036,"transit":false,"time":2,"i_lat":-6.161433,"station_name":"Pesing","station_id":"PSG","is_transit":false,"i_long":106.771379,"line":5},{"station_name":"Taman Kota","distance":1614,"i_lat":-6.1587309999999995,"transit":false,"is_transit":false,"time":2,"station_id":"TKO","i_long":106.756522,"line":5},{"i_lat":-6.159876,"station_name":"Bojongindah","time":2,"transit":false,"line":5,"i_long":106.737035,"distance":2334,"station_id":"BOI","is_transit":false},{"line":5,"station_name":"Rawa Buaya","i_long":106.723064,"is_transit":false,"station_id":"RW","transit":false,"distance":1152,"time":4,"i_lat":-6.162758},{"i_lat":-6.166068,"transit":false,"station_name":"Kalideres","is_transit":false,"distance":2504,"time":3,"i_long":106.701612,"line":5,"station_id":"KDS"},{"station_name":"Poris","i_long":106.679458,"station_id":"PI","i_lat":-6.169933,"time":3,"transit":false,"line":5,"is_transit":false,"distance":2548},{"i_long":106.665036,"distance":1834,"line":5,"i_lat":-6.171811,"is_transit":false,"station_name":"Batuceper","transit":false,"station_id":"BPR","time":3}],[{"line":2,"station_name":"Sawah Besar","time":0,"is_transit":false,"i_lat":-6.160725,"transit":false,"i_long":106.827103,"distance":0,"station_id":"SW"},{"station_id":"JUA","is_transit":false,"line":2,"station_name":"Juanda","distance":1149,"i_lat":-6.166716,"time":2,"i_long":106.828284,"transit":false},{"distance":2015,"is_transit":false,"station_id":"GDD","transit":false,"i_lat":-6.186295,"station_name":"Gondangdia","i_long":106.832183,"time":4,"line":2},{"station_name":"Cikini","time":3,"transit":false,"is_transit":false,"i_lat":-6.198556,"station_id":"CKI","i_long":106.840169,"line":2,"distance":1750},{"distance":1590,"i_lat":-6.209883,"station_name":"Manggarai","transit":true,"i_long":106.84912,"is_transit":true,"time":4,"line":2,"station_id":"MRI"},{"i_long":106.858896,"i_lat":-6.212485,"line":1,"is_transit":false,"station_id":"MTR","time":2,"distance":1275,"station_name":"Matraman","transit":false},{"time":8,"line":1,"station_name":"Jatinegara","is_transit":true,"i_long":106.86807400000001,"station_id":"JNG","i_lat":-6.215091,"transit":true,"distance":1377},{"transit":false,"i_long":106.861737,"is_transit":false,"station_id":"POK","i_lat":-6.209188,"distance":1236,"time":2,"station_name":"Pondok Jati","line":11},{"station_id":"KMT","i_lat":-6.193792,"line":11,"distance":1829,"is_transit":false,"transit":false,"station_name":"Kramat","i_long":106.855437,"time":2},{"station_name":"Gang Sentiong","line":11,"i_lat":-6.185975,"station_id":"GST","time":1,"transit":false,"is_transit":false,"distance":973,"i_long":106.850107},{"time":8,"is_transit":false,"station_name":"Pasar Senen","i_lat":-6.174784,"line":11,"station_id":"PSE","distance":1567,"i_long":106.84368,"transit":false},{"is_transit":false,"i_lat":-6.161728,"station_name":"Kemayoran","transit":false,"time":4,"distance":1436,"line":11,"station_id":"KMO","i_long":106.839204},{"distance":1901,"transit":false,"is_transit":false,"station_id":"RJW","i_long":106.836569,"station_name":"Rajawali","line":11,"i_lat":-6.14505,"time":5},{"i_long":106.826365,"station_id":"KPB","station_name":"Kampung Bandan","transit":true,"distance":1444,"line":4,"time":3,"is_transit":true,"i_lat":-6.132549},{"distance":4102,"time":9,"station_id":"AK","i_lat":-6.144674,"transit":false,"i_long":106.79867,"line":1,"station_name":"Angke","is_transit":false},{"transit":true,"i_lat":-6.155215,"station_id":"DU","station_name":"Duri","time":4,"i_long":106.800832,"is_transit":true,"line":1,"distance":1230},{"station_id":"GGL","is_transit":false,"time":3,"line":5,"i_long":106.788277,"distance":1700,"transit":false,"i_lat":-6.162021,"station_name":"Grogol"},{"i_long":106.771379,"distance":2036,"transit":false,"is_transit":false,"i_lat":-6.161433,"line":5,"station_name":"Pesing","station_id":"PSG","time":2},{"transit":false,"distance":1614,"station_name":"Taman Kota","i_long":106.756522,"line":5,"station_id":"TKO","is_transit":false,"i_lat":-6.1587309999999995,"time":2},{"time":2,"distance":2334,"station_id":"BOI","i_lat":-6.159876,"line":5,"is_transit":false,"station_name":"Bojongindah","transit":false,"i_long":106.737035},{"distance":1152,"transit":false,"i_long":106.723064,"line":5,"time":4,"station_name":"Rawa Buaya","station_id":"RW","i_lat":-6.162758,"is_transit":false},{"time":3,"transit":false,"distance":2504,"station_name":"Kalideres","station_id":"KDS","is_transit":false,"i_lat":-6.166068,"line":5,"i_long":106.701612},{"time":3,"station_id":"PI","distance":2548,"i_long":106.679458,"station_name":"Poris","transit":false,"line":5,"is_transit":false,"i_lat":-6.169933},{"station_id":"BPR","time":3,"i_lat":-6.171811,"is_transit":false,"transit":false,"i_long":106.665036,"station_name":"Batuceper","line":5,"distance":1834}],[{"time":0,"i_lat":-6.160725,"station_id":"SW","station_name":"Sawah Besar","is_transit":false,"distance":0,"transit":false,"i_long":106.827103,"line":2},{"transit":false,"time":2,"distance":906,"line":2,"i_lat":-6.149769,"station_name":"Manggabesar","i_long":106.82482,"is_transit":false,"station_id":"MGB"},{"station_id":"JAY","distance":1080,"i_long":106.820901,"i_lat":-6.141205,"transit":false,"is_transit":false,"time":2,"station_name":"Jayakarta","line":2},{"transit":true,"station_id":"JAKK","is_transit":true,"time":4,"distance":1264,"station_name":"Jakarta Kota","i_long":106.812439,"line":2,"i_lat":-6.137569},{"i_lat":-6.132549,"line":4,"station_id":"KPB","distance":1364,"is_transit":true,"station_name":"Kampung Bandan","time":3,"i_long":106.826365,"transit":true},{"time":3,"i_lat":-6.14505,"line":11,"station_id":"RJW","is_transit":false,"i_long":106.836569,"transit":false,"station_name":"Rajawali","distance":1444},{"distance":1901,"i_lat":-6.161728,"line":11,"time":5,"i_long":106.839204,"station_name":"Kemayoran","transit":false,"station_id":"KMO","is_transit":false},{"i_long":106.84368,"station_id":"PSE","distance":1436,"station_name":"Pasar Senen","i_lat":-6.174784,"transit":false,"is_transit":false,"line":11,"time":4},{"transit":false,"i_long":106.850107,"line":11,"time":8,"distance":1567,"i_lat":-6.185975,"is_transit":false,"station_name":"Gang Sentiong","station_id":"GST"},{"is_transit":false,"i_lat":-6.193792,"distance":973,"station_name":"Kramat","transit":false,"i_long":106.855437,"station_id":"KMT","time":1,"line":11},{"distance":1829,"station_name":"Pondok Jati","is_transit":false,"i_long":106.861737,"transit":false,"station_id":"POK","i_lat":-6.209188,"line":11,"time":2},{"i_lat":-6.215091,"is_transit":true,"station_name":"Jatinegara","distance":1236,"i_long":106.86807400000001,"station_id":"JNG","line":1,"time":9,"transit":true},{"station_name":"Matraman","i_long":106.858896,"line":1,"i_lat":-6.212485,"is_transit":false,"time":2,"distance":1377,"transit":false,"station_id":"MTR"},{"time":2,"transit":false,"i_lat":-6.209883,"distance":1275,"station_name":"Manggarai","is_transit":false,"station_id":"MRI","i_long":106.84912,"line":2},{"i_long":106.822649,"station_name":"Sudirman","line":1,"transit":false,"is_transit":false,"distance":3186,"time":4,"station_id":"SUD","i_lat":-6.202263},{"time":1,"i_long":106.819881,"transit":false,"station_name":"Sudirman Baru","station_id":"SUDB","is_transit":false,"distance":280,"i_lat":-6.201433,"line":1},{"i_lat":-6.20132,"transit":false,"time":1,"distance":471,"station_id":"KAT","is_transit":false,"station_name":"Karet","i_long":106.816351,"line":1},{"station_name":"Tanah Abang","line":1,"distance":2029,"i_lat":-6.185545,"i_long":106.811091,"time":5,"transit":false,"station_id":"THB","is_transit":false},{"is_transit":true,"station_name":"Duri","i_lat":-6.155215,"distance":3632,"i_long":106.800832,"transit":true,"line":1,"time":8,"station_id":"DU"},{"distance":1700,"line":5,"i_lat":-6.162021,"transit":false,"station_name":"Grogol","time":3,"is_transit":false,"station_id":"GGL","i_long":106.788277},{"i_lat":-6.161433,"is_transit":false,"transit":false,"distance":2036,"station_name":"Pesing","time":2,"line":5,"station_id":"PSG","i_long":106.771379},{"station_name":"Taman Kota","is_transit":false,"i_lat":-6.1587309999999995,"time":2,"distance":1614,"transit":false,"line":5,"station_id":"TKO","i_long":106.756522},{"station_name":"Bojongindah","is_transit":false,"station_id":"BOI","i_long":106.737035,"time":2,"distance":2334,"transit":false,"line":5,"i_lat":-6.159876},{"station_id":"RW","station_name":"Rawa Buaya","time":4,"i_lat":-6.162758,"is_transit":false,"line":5,"transit":false,"distance":1152,"i_long":106.723064},{"is_transit":false,"station_name":"Kalideres","transit":false,"time":3,"distance":2504,"station_id":"KDS","i_long":106.701612,"i_lat":-6.166068,"line":5},{"time":3,"i_long":106.679458,"transit":false,"line":5,"station_id":"PI","is_transit":false,"station_name":"Poris","distance":2548,"i_lat":-6.169933},{"time":3,"is_transit":false,"distance":1834,"i_long":106.665036,"station_id":"BPR","transit":false,"station_name":"Batuceper","line":5,"i_lat":-6.171811}]]}