{"data":[[{"transit":false,"is_transit":false,"distance":0,"station_name":"Sawah Besar","time":0,"station_id":"SW","i_lat":-6.160725,"line":2,"i_long":106.827103},{"station_id":"JUA","distance":1149,"is_transit":false,"i_long":106.828284,"station_name":"Juanda","time":2,"line":2,"transit":false,"i_lat":-6.166716},{"station_name":"Gondangdia","i_lat":-6.186295,"is_transit":false,"line":2,"station_id":"GDD","i_long":106.832183,"time":4,"distance":2015,"transit":false},{"distance":1750,"line":2,"station_name":"Cikini","time":3,"station_id":"CKI","is_transit":false,"transit":false,"i_lat":-6.198556,"i_long":106.840169},{"transit":false,"i_lat":-6.209883,"distance":1590,"time":4,"station_name":"Manggarai","station_id":"MRI","i_long":106.84912,"line":2,"is_transit":false},{"station_name":"Tebet","transit":false,"station_id":"TEB","i_long":106.857948,"is_transit":false,"line":2,"time":4,"distance":2610,"i_lat":-6.226659},{"time":2,"is_transit":false,"distance":1230,"i_lat":-6.242512,"transit":false,"station_name":"Cawang","station_id":"CW","i_long":106.856607,"line":2},{"is_transit":false,"distance":1546,"i_lat":-6.255332,"transit":false,"station_name":"Duren Kalibata","line":2,"station_id":"DRN","i_long":106.85449,"time":3},{"i_lat":-6.263214,"line":2,"is_transit":false,"i_long":106.851577,"transit":false,"time":2,"station_name":"Pasar Minggu Baru","distance":824,"station_id":"PSMB"},{"transit":false,"i_long":106.843999,"time":2,"station_name":"Pasar Minggu","is_transit":false,"line":2,"station_id":"PSM","i_lat":-6.2842400000000005,"distance":2380},{"transit":false,"station_id":"TNT","distance":2820,"time":4,"i_lat":-6.3080680000000005,"is_transit":false,"station_name":"Tanjung Barat","i_long":106.838896,"line":2},{"is_transit":false,"line":2,"transit":false,"station_name":"Lenteng Agung","time":3,"distance":2671,"i_lat":-6.330363,"station_id":"LNA","i_long":106.832616},{"station_name":"Univ. Pancasila","i_long":106.834175,"is_transit":false,"transit":false,"time":2,"station_id":"UP","distance":1029,"line":2,"i_lat":-6.339291},{"station_name":"Univ. Indonesia","station_id":"UI","time":3,"i_lat":-6.360749,"i_long":106.831474,"line":2,"is_transit":false,"transit":false,"distance":2264},{"time":2,"i_lat":-6.369073,"station_id":"POC","line":2,"station_name":"Pondok Cina","distance":1109,"transit":false,"is_transit":false,"i_long":106.831114},{"time":4,"transit":false,"i_long":106.819451,"i_lat":-6.391065,"station_id":"DPB","station_name":"Depokbaru","line":2,"distance":2727,"is_transit":false},{"time":3,"is_transit":false,"station_name":"Depok","station_id":"DP","distance":1584,"i_lat":-6.405256,"line":2,"transit":false,"i_long":106.816926},{"distance":5084,"i_lat":-6.448811,"station_name":"Citayam","station_id":"CTA","line":2,"transit":true,"i_long":106.800298,"is_transit":true,"time":6},{"transit":false,"time":0,"i_lat":-6.460735,"is_transit":false,"line":21,"station_name":"Pondok Rajeg","station_id":"PDRG","distance":0,"i_long":106.824374},{"line":21,"is_transit":false,"distance":0,"i_lat":-6.46424,"i_long":106.851978,"station_name":"Cibinong","station_id":"CBN","time":0,"transit":false}],[{"distance":0,"station_name":"Sawah Besar","transit":false,"i_long":106.827103,"time":0,"line":2,"station_id":"SW","is_transit":false,"i_lat":-6.160725},{"station_id":"MGB","transit":false,"station_name":"Manggabesar","distance":906,"time":2,"i_long":106.82482,"is_transit":false,"i_lat":-6.149769,"line":2},{"distance":1080,"line":2,"station_name":"Jayakarta","station_id":"JAY","is_transit":false,"i_lat":-6.141205,"time":2,"transit":false,"i_long":106.820901},{"distance":1264,"i_lat":-6.137569,"transit":true,"time":4,"line":2,"i_long":106.812439,"station_name":"Jakarta Kota","station_id":"JAKK","is_transit":true},{"distance":1364,"station_name":"Kampung Bandan","station_id":"KPB","is_transit":true,"time":3,"i_lat":-6.132549,"transit":true,"line":4,"i_long":106.826365},{"station_id":"AK","is_transit":false,"line":1,"transit":false,"distance":4102,"time":9,"i_lat":-6.144674,"i_long":106.79867,"station_name":"Angke"},{"transit":false,"station_id":"DU","is_transit":false,"distance":1230,"i_long":106.800832,"station_name":"Duri","time":4,"line":1,"i_lat":-6.155215},{"station_name":"Tanah Abang","transit":false,"time":8,"distance":3632,"station_id":"THB","i_lat":-6.185545,"line":1,"i_long":106.811091,"is_transit":false},{"is_transit":false,"transit":false,"i_long":106.816351,"time":5,"distance":2029,"station_id":"KAT","station_name":"Karet","line":1,"i_lat":-6.20132},{"i_lat":-6.201433,"i_long":106.819881,"time":1,"distance":471,"station_name":"Sudirman Baru","station_id":"SUDB","is_transit":false,"line":1,"transit":false},{"station_id":"SUD","distance":280,"station_name":"Sudirman","is_transit":false,"i_lat":-6.202263,"i_long":106.822649,"time":1,"transit":false,"line":1},{"distance":3186,"transit":true,"station_name":"Manggarai","i_long":106.84912,"time":4,"i_lat":-6.209883,"line":2,"station_id":"MRI","is_transit":true},{"station_name":"Tebet","is_transit":false,"i_long":106.857948,"i_lat":-6.226659,"line":2,"distance":2610,"station_id":"TEB","transit":false,"time":4},{"i_long":106.856607,"i_lat":-6.242512,"time":2,"line":2,"transit":false,"station_name":"Cawang","is_transit":false,"distance":1230,"station_id":"CW"},{"distance":1546,"line":2,"transit":false,"station_id":"DRN","station_name":"Duren Kalibata","time":3,"i_lat":-6.255332,"is_transit":false,"i_long":106.85449},{"i_long":106.851577,"line":2,"time":2,"distance":824,"station_name":"Pasar Minggu Baru","i_lat":-6.263214,"is_transit":false,"transit":false,"station_id":"PSMB"},{"line":2,"i_lat":-6.2842400000000005,"i_long":106.843999,"distance":2380,"time":2,"transit":false,"station_name":"Pasar Minggu","is_transit":false,"station_id":"PSM"},{"station_id":"TNT","is_transit":false,"i_long":106.838896,"line":2,"time":4,"distance":2820,"station_name":"Tanjung Barat","i_lat":-6.3080680000000005,"transit":false},{"line":2,"transit":false,"time":3,"i_lat":-6.330363,"i_long":106.832616,"station_id":"LNA","distance":2671,"station_name":"Lenteng Agung","is_transit":false},{"time":2,"is_transit":false,"line":2,"transit":false,"station_id":"UP","distance":1029,"i_lat":-6.339291,"i_long":106.834175,"station_name":"Univ. Pancasila"},{"time":3,"station_id":"UI","distance":2264,"line":2,"station_name":"Univ. Indonesia","transit":false,"i_long":106.831474,"i_lat":-6.360749,"is_transit":false},{"distance":1109,"station_id":"POC","time":2,"station_name":"Pondok Cina","i_long":106.831114,"transit":false,"i_lat":-6.369073,"is_transit":false,"line":2},{"transit":false,"station_name":"Depokbaru","station_id":"DPB","i_lat":-6.391065,"line":2,"time":4,"is_transit":false,"distance":2727,"i_long":106.819451},{"transit":false,"is_transit":false,"time":3,"i_long":106.816926,"distance":1584,"line":2,"station_name":"Depok","station_id":"DP","i_lat":-6.405256},{"is_transit":true,"i_lat":-6.448811,"station_id":"CTA","i_long":106.800298,"transit":true,"distance":5084,"time":6,"line":2,"station_name":"Citayam"},{"i_lat":-6.460735,"time":0,"is_transit":false,"station_id":"PDRG","station_name":"Pondok Rajeg","line":21,"distance":0,"i_long":106.824374,"transit":false},{"is_transit":false,"distance":0,"i_lat":-6.46424,"line":21,"time":0,"station_id":"CBN","transit":false,"i_long":106.851978,"station_name":"Cibinong"}],[{"i_long":106.827103,"distance":0,"transit":false,"station_name":"Sawah Besar","is_transit":false,"line":2,"time":0,"station_id":"SW","i_lat":-6.160725},{"distance":906,"time":2,"i_lat":-6.149769,"i_long":106.82482,"is_transit":false,"transit":false,"line":2,"station_id":"MGB","station_name":"Manggabesar"},{"i_lat":-6.141205,"line":2,"transit":false,"distance":1080,"time":2,"i_long":106.820901,"station_name":"Jayakarta","station_id":"JAY","is_transit":false},{"line":2,"station_id":"JAKK","i_lat":-6.137569,"distance":1264,"time":4,"is_transit":true,"station_name":"Jakarta Kota","transit":true,"i_long":106.812439},{"i_lat":-6.132549,"station_id":"KPB","i_long":106.826365,"line":4,"station_name":"Kampung Bandan","distance":1364,"time":3,"transit":true,"is_transit":true},{"station_name":"Rajawali","station_id":"RJW","transit":false,"i_long":106.836569,"time":3,"is_transit":false,"distance":1444,"i_lat":-6.14505,"line":11},{"distance":1901,"is_transit":false,"line":11,"time":5,"i_lat":-6.161728,"i_long":106.839204,"station_id":"KMO","station_name":"Kemayoran","transit":false},{"i_lat":-6.174784,"is_transit":false,"transit":false,"station_id":"PSE","time":4,"distance":1436,"i_long":106.84368,"station_name":"Pasar Senen","line":11},{"station_name":"Gang Sentiong","is_transit":false,"time":8,"i_lat":-6.185975,"station_id":"GST","distance":1567,"i_long":106.850107,"line":11,"transit":false},{"distance":973,"i_lat":-6.193792,"i_long":106.855437,"is_transit":false,"line":11,"transit":false,"time":1,"station_name":"Kramat","station_id":"KMT"},{"transit":false,"station_name":"Pondok Jati","is_transit":false,"i_lat":-6.209188,"line":11,"time":2,"i_long":106.861737,"station_id":"POK","distance":1829},{"is_transit":true,"transit":true,"station_name":"Jatinegara","station_id":"JNG","i_long":106.86807400000001,"line":1,"distance":1236,"time":9,"i_lat":-6.215091},{"is_transit":false,"i_long":106.858896,"i_lat":-6.212485,"distance":1377,"station_id":"MTR","transit":false,"station_name":"Matraman","time":2,"line":1},{"transit":true,"station_id":"MRI","is_transit":true,"i_lat":-6.209883,"distance":1275,"i_long":106.84912,"line":2,"station_name":"Manggarai","time":2},{"transit":false,"distance":2610,"station_name":"Tebet","time":4,"i_lat":-6.226659,"i_long":106.857948,"line":2,"station_id":"TEB","is_transit":false},{"is_transit":false,"time":2,"i_lat":-6.242512,"transit":false,"i_long":106.856607,"station_id":"CW","distance":1230,"station_name":"Cawang","line":2},{"station_name":"Duren Kalibata","station_id":"DRN","i_lat":-6.255332,"line":2,"time":3,"i_long":106.85449,"distance":1546,"transit":false,"is_transit":false},{"is_transit":false,"i_long":106.851577,"distance":824,"station_name":"Pasar Minggu Baru","i_lat":-6.263214,"transit":false,"time":2,"station_id":"PSMB","line":2},{"distance":2380,"i_long":106.843999,"station_id":"PSM","line":2,"transit":false,"is_transit":false,"station_name":"Pasar Minggu","time":2,"i_lat":-6.2842400000000005},{"i_long":106.838896,"transit":false,"station_id":"TNT","i_lat":-6.3080680000000005,"station_name":"Tanjung Barat","is_transit":false,"time":4,"line":2,"distance":2820},{"i_long":106.832616,"line":2,"transit":false,"is_transit":false,"station_name":"Lenteng Agung","distance":2671,"i_lat":-6.330363,"station_id":"LNA","time":3},{"distance":1029,"i_long":106.834175,"line":2,"time":2,"transit":false,"station_id":"UP","station_name":"Univ. Pancasila","i_lat":-6.339291,"is_transit":false},{"is_transit":false,"time":3,"i_lat":-6.360749,"transit":false,"station_id":"UI","distance":2264,"i_long":106.831474,"line":2,"station_name":"Univ. Indonesia"},{"station_id":"POC","transit":false,"time":2,"i_long":106.831114,"line":2,"distance":1109,"station_name":"Pondok Cina","i_lat":-6.369073,"is_transit":false},{"i_lat":-6.391065,"distance":2727,"is_transit":false,"time":4,"i_long":106.819451,"station_name":"Depokbaru","transit":false,"station_id":"DPB","line":2},{"station_id":"DP","transit":false,"line":2,"distance":1584,"station_name":"Depok","i_lat":-6.405256,"is_transit":false,"i_long":106.816926,"time":3},{"distance":5084,"line":2,"transit":true,"i_long":106.800298,"is_transit":true,"time":6,"i_lat":-6.448811,"station_name":"Citayam","station_id":"CTA"},{"i_long":106.824374,"is_transit":false,"station_id":"PDRG","time":0,"i_lat":-6.460735,"transit":false,"station_name":"Pondok Rajeg","distance":0,"line":21},{"line":21,"is_transit":false,"time":0,"station_id":"CBN","i_lat":-6.46424,"station_name":"Cibinong","distance":0,"transit":false,"i_long":106.851978}]]}