{"data":[[{"station_name":"Sawah Besar","station_id":"SW","time":0,"is_transit":false,"i_lat":-6.160725,"distance":0,"line":2,"transit":false,"i_long":106.827103},{"transit":false,"line":2,"i_long":106.828284,"station_id":"JUA","i_lat":-6.166716,"is_transit":false,"station_name":"Juanda","time":2,"distance":1149},{"i_lat":-6.186295,"i_long":106.832183,"is_transit":false,"distance":2015,"line":2,"station_name":"Gondangdia","station_id":"GDD","transit":false,"time":4},{"time":3,"station_id":"CKI","transit":false,"i_lat":-6.198556,"line":2,"i_long":106.840169,"is_transit":false,"distance":1750,"station_name":"Cikini"},{"distance":1590,"line":2,"transit":false,"is_transit":false,"station_id":"MRI","station_name":"Manggarai","i_long":106.84912,"i_lat":-6.209883,"time":4},{"i_lat":-6.226659,"station_name":"Tebet","is_transit":false,"transit":false,"line":2,"i_long":106.857948,"time":4,"distance":2610,"station_id":"TEB"},{"station_id":"CW","station_name":"Cawang","distance":1230,"i_lat":-6.242512,"i_long":106.856607,"time":2,"line":2,"is_transit":false,"transit":false},{"time":3,"is_transit":false,"line":2,"station_id":"DRN","station_name":"Duren Kalibata","i_lat":-6.255332,"i_long":106.85449,"transit":false,"distance":1546},{"i_long":106.851577,"line":2,"distance":824,"station_name":"Pasar Minggu Baru","is_transit":false,"i_lat":-6.263214,"station_id":"PSMB","transit":false,"time":2},{"station_id":"PSM","i_lat":-6.2842400000000005,"distance":2380,"transit":false,"station_name":"Pasar Minggu","i_long":106.843999,"is_transit":false,"time":2,"line":2},{"station_name":"Tanjung Barat","station_id":"TNT","time":4,"i_lat":-6.3080680000000005,"is_transit":false,"transit":false,"i_long":106.838896,"line":2,"distance":2820},{"station_id":"LNA","is_transit":false,"station_name":"Lenteng Agung","line":2,"transit":false,"time":3,"i_lat":-6.330363,"distance":2671,"i_long":106.832616},{"station_id":"UP","time":2,"distance":1029,"i_long":106.834175,"transit":false,"station_name":"Univ. Pancasila","is_transit":false,"line":2,"i_lat":-6.339291},{"station_id":"UI","is_transit":false,"transit":false,"line":2,"time":3,"i_long":106.831474,"distance":2264,"station_name":"Univ. Indonesia","i_lat":-6.360749},{"time":2,"is_transit":false,"station_id":"POC","transit":false,"distance":1109,"i_long":106.831114,"line":2,"i_lat":-6.369073,"station_name":"Pondok Cina"},{"transit":false,"time":4,"station_name":"Depokbaru","distance":2727,"is_transit":false,"station_id":"DPB","i_lat":-6.391065,"i_long":106.819451,"line":2},{"time":3,"is_transit":false,"line":2,"station_name":"Depok","distance":1584,"i_lat":-6.405256,"i_long":106.816926,"transit":false,"station_id":"DP"},{"distance":5084,"i_lat":-6.448811,"line":2,"is_transit":true,"i_long":106.800298,"station_id":"CTA","transit":true,"station_name":"Citayam","time":6},{"station_name":"Pondok Rajeg","transit":false,"i_lat":-6.460735,"i_long":106.824374,"line":21,"station_id":"PDRG","time":0,"is_transit":false,"distance":0},{"is_transit":false,"line":21,"transit":false,"station_id":"CBN","time":0,"station_name":"Cibinong","i_lat":-6.46424,"distance":0,"i_long":106.851978}],[{"i_lat":-6.160725,"station_id":"SW","i_long":106.827103,"transit":false,"time":0,"is_transit":false,"line":2,"station_name":"Sawah Besar","distance":0},{"station_id":"MGB","line":2,"i_lat":-6.149769,"distance":906,"station_name":"Manggabesar","i_long":106.82482,"time":2,"is_transit":false,"transit":false},{"time":2,"i_lat":-6.141205,"transit":false,"distance":1080,"station_id":"JAY","station_name":"Jayakarta","i_long":106.820901,"line":2,"is_transit":false},{"i_lat":-6.137569,"transit":true,"station_id":"JAKK","station_name":"Jakarta Kota","distance":1264,"time":4,"i_long":106.812439,"is_transit":true,"line":2},{"i_long":106.826365,"station_id":"KPB","distance":1364,"i_lat":-6.132549,"line":4,"time":3,"station_name":"Kampung Bandan","is_transit":true,"transit":true},{"transit":false,"is_transit":false,"line":1,"time":9,"distance":4102,"i_long":106.79867,"i_lat":-6.144674,"station_id":"AK","station_name":"Angke"},{"line":1,"distance":1230,"i_long":106.800832,"station_id":"DU","i_lat":-6.155215,"station_name":"Duri","time":4,"transit":false,"is_transit":false},{"station_id":"THB","is_transit":false,"time":8,"i_long":106.811091,"distance":3632,"i_lat":-6.185545,"transit":false,"station_name":"Tanah Abang","line":1},{"station_id":"KAT","time":5,"distance":2029,"i_lat":-6.20132,"line":1,"station_name":"Karet","transit":false,"i_long":106.816351,"is_transit":false},{"i_long":106.819881,"distance":471,"i_lat":-6.201433,"station_id":"SUDB","time":1,"line":1,"transit":false,"station_name":"Sudirman Baru","is_transit":false},{"line":1,"time":1,"i_lat":-6.202263,"i_long":106.822649,"station_name":"Sudirman","station_id":"SUD","transit":false,"is_transit":false,"distance":280},{"station_id":"MRI","station_name":"Manggarai","is_transit":true,"transit":true,"time":4,"line":2,"distance":3186,"i_lat":-6.209883,"i_long":106.84912},{"i_long":106.857948,"line":2,"i_lat":-6.226659,"station_name":"Tebet","transit":false,"distance":2610,"time":4,"station_id":"TEB","is_transit":false},{"station_id":"CW","transit":false,"distance":1230,"is_transit":false,"i_long":106.856607,"time":2,"i_lat":-6.242512,"line":2,"station_name":"Cawang"},{"is_transit":false,"station_id":"DRN","station_name":"Duren Kalibata","i_lat":-6.255332,"line":2,"i_long":106.85449,"transit":false,"time":3,"distance":1546},{"station_name":"Pasar Minggu Baru","transit":false,"distance":824,"is_transit":false,"i_lat":-6.263214,"i_long":106.851577,"station_id":"PSMB","time":2,"line":2},{"station_id":"PSM","i_long":106.843999,"line":2,"i_lat":-6.2842400000000005,"time":2,"distance":2380,"transit":false,"is_transit":false,"station_name":"Pasar Minggu"},{"station_id":"TNT","transit":false,"i_lat":-6.3080680000000005,"line":2,"distance":2820,"station_name":"Tanjung Barat","time":4,"is_transit":false,"i_long":106.838896},{"i_lat":-6.330363,"is_transit":false,"line":2,"transit":false,"i_long":106.832616,"distance":2671,"time":3,"station_id":"LNA","station_name":"Lenteng Agung"},{"i_long":106.834175,"line":2,"distance":1029,"is_transit":false,"transit":false,"i_lat":-6.339291,"station_name":"Univ. Pancasila","time":2,"station_id":"UP"},{"transit":false,"time":3,"i_lat":-6.360749,"station_name":"Univ. Indonesia","i_long":106.831474,"is_transit":false,"line":2,"distance":2264,"station_id":"UI"},{"i_long":106.831114,"distance":1109,"is_transit":false,"station_id":"POC","time":2,"transit":false,"station_name":"Pondok Cina","i_lat":-6.369073,"line":2},{"distance":2727,"i_lat":-6.391065,"transit":false,"i_long":106.819451,"station_id":"DPB","is_transit":false,"line":2,"station_name":"Depokbaru","time":4},{"station_name":"Depok","distance":1584,"i_long":106.816926,"i_lat":-6.405256,"time":3,"station_id":"DP","transit":false,"is_transit":false,"line":2},{"distance":5084,"line":2,"station_name":"Citayam","i_long":106.800298,"i_lat":-6.448811,"station_id":"CTA","is_transit":true,"transit":true,"time":6},{"transit":false,"station_name":"Pondok Rajeg","i_long":106.824374,"i_lat":-6.460735,"distance":0,"is_transit":false,"station_id":"PDRG","time":0,"line":21},{"distance":0,"i_lat":-6.46424,"time":0,"transit":false,"i_long":106.851978,"station_name":"Cibinong","line":21,"is_transit":false,"station_id":"CBN"}],[{"transit":false,"is_transit":false,"time":0,"i_long":106.827103,"station_id":"SW","station_name":"Sawah Besar","distance":0,"i_lat":-6.160725,"line":2},{"distance":906,"is_transit":false,"i_lat":-6.149769,"line":2,"transit":false,"time":2,"station_id":"MGB","station_name":"Manggabesar","i_long":106.82482},{"time":2,"line":2,"transit":false,"i_lat":-6.141205,"station_id":"JAY","station_name":"Jayakarta","distance":1080,"is_transit":false,"i_long":106.820901},{"station_id":"JAKK","is_transit":true,"transit":true,"time":4,"i_long":106.812439,"station_name":"Jakarta Kota","line":2,"distance":1264,"i_lat":-6.137569},{"i_long":106.826365,"station_name":"Kampung Bandan","time":3,"station_id":"KPB","line":4,"transit":true,"distance":1364,"is_transit":true,"i_lat":-6.132549},{"i_long":106.836569,"line":11,"station_name":"Rajawali","i_lat":-6.14505,"time":3,"distance":1444,"is_transit":false,"station_id":"RJW","transit":false},{"station_name":"Kemayoran","time":5,"distance":1901,"transit":false,"i_long":106.839204,"station_id":"KMO","line":11,"i_lat":-6.161728,"is_transit":false},{"station_id":"PSE","transit":false,"line":11,"i_long":106.84368,"is_transit":false,"i_lat":-6.174784,"distance":1436,"station_name":"Pasar Senen","time":4},{"i_long":106.850107,"station_id":"GST","transit":false,"is_transit":false,"i_lat":-6.185975,"distance":1567,"station_name":"Gang Sentiong","line":11,"time":8},{"line":11,"station_id":"KMT","i_long":106.855437,"is_transit":false,"station_name":"Kramat","transit":false,"distance":973,"time":1,"i_lat":-6.193792},{"station_id":"POK","is_transit":false,"i_long":106.861737,"time":2,"i_lat":-6.209188,"station_name":"Pondok Jati","transit":false,"distance":1829,"line":11},{"transit":true,"i_long":106.86807400000001,"distance":1236,"line":1,"is_transit":true,"station_id":"JNG","station_name":"Jatinegara","i_lat":-6.215091,"time":9},{"station_name":"Matraman","time":2,"is_transit":false,"line":1,"station_id":"MTR","transit":false,"distance":1377,"i_lat":-6.212485,"i_long":106.858896},{"station_name":"Manggarai","time":2,"distance":1275,"station_id":"MRI","is_transit":true,"i_lat":-6.209883,"i_long":106.84912,"transit":true,"line":2},{"transit":false,"i_lat":-6.226659,"distance":2610,"station_name":"Tebet","is_transit":false,"station_id":"TEB","i_long":106.857948,"time":4,"line":2},{"transit":false,"i_long":106.856607,"station_name":"Cawang","station_id":"CW","i_lat":-6.242512,"is_transit":false,"distance":1230,"time":2,"line":2},{"line":2,"station_id":"DRN","transit":false,"station_name":"Duren Kalibata","i_lat":-6.255332,"distance":1546,"is_transit":false,"i_long":106.85449,"time":3},{"line":2,"station_id":"PSMB","distance":824,"time":2,"station_name":"Pasar Minggu Baru","i_lat":-6.263214,"transit":false,"i_long":106.851577,"is_transit":false},{"transit":false,"station_name":"Pasar Minggu","line":2,"i_long":106.843999,"is_transit":false,"distance":2380,"station_id":"PSM","time":2,"i_lat":-6.2842400000000005},{"time":4,"distance":2820,"is_transit":false,"station_name":"Tanjung Barat","i_lat":-6.3080680000000005,"i_long":106.838896,"line":2,"station_id":"TNT","transit":false},{"i_long":106.832616,"i_lat":-6.330363,"station_id":"LNA","time":3,"transit":false,"is_transit":false,"station_name":"Lenteng Agung","distance":2671,"line":2},{"line":2,"station_id":"UP","is_transit":false,"transit":false,"station_name":"Univ. Pancasila","time":2,"distance":1029,"i_lat":-6.339291,"i_long":106.834175},{"station_name":"Univ. Indonesia","time":3,"distance":2264,"i_long":106.831474,"line":2,"is_transit":false,"transit":false,"station_id":"UI","i_lat":-6.360749},{"i_lat":-6.369073,"is_transit":false,"station_name":"Pondok Cina","i_long":106.831114,"time":2,"transit":false,"distance":1109,"line":2,"station_id":"POC"},{"transit":false,"is_transit":false,"line":2,"station_name":"Depokbaru","time":4,"distance":2727,"i_long":106.819451,"station_id":"DPB","i_lat":-6.391065},{"line":2,"station_name":"Depok","distance":1584,"time":3,"is_transit":false,"station_id":"DP","i_lat":-6.405256,"i_long":106.816926,"transit":false},{"i_long":106.800298,"is_transit":true,"i_lat":-6.448811,"station_id":"CTA","line":2,"time":6,"transit":true,"station_name":"Citayam","distance":5084},{"i_lat":-6.460735,"distance":0,"is_transit":false,"transit":false,"station_id":"PDRG","time":0,"i_long":106.824374,"line":21,"station_name":"Pondok Rajeg"},{"transit":false,"line":21,"i_long":106.851978,"is_transit":false,"time":0,"station_id":"CBN","station_name":"Cibinong","distance":0,"i_lat":-6.46424}]]}