{"data":[[{"station_id":"SW","is_transit":false,"line":2,"time":0,"i_lat":-6.160725,"transit":false,"station_name":"Sawah Besar","i_long":106.827103,"distance":0},{"distance":1149,"time":2,"i_long":106.828284,"station_name":"Juanda","line":2,"station_id":"JUA","transit":false,"i_lat":-6.166716,"is_transit":false},{"transit":false,"station_id":"GDD","is_transit":false,"station_name":"Gondangdia","i_lat":-6.186295,"time":4,"i_long":106.832183,"distance":2015,"line":2},{"i_long":106.840169,"line":2,"transit":false,"distance":1750,"station_name":"Cikini","is_transit":false,"station_id":"CKI","time":3,"i_lat":-6.198556},{"line":2,"station_name":"Manggarai","is_transit":true,"i_long":106.84912,"station_id":"MRI","distance":1590,"transit":true,"time":4,"i_lat":-6.209883},{"time":2,"distance":1275,"transit":false,"i_lat":-6.212485,"is_transit":false,"station_id":"MTR","i_long":106.858896,"line":1,"station_name":"Matraman"},{"distance":1377,"line":1,"i_long":106.86807400000001,"is_transit":false,"transit":false,"time":8,"station_name":"Jatinegara","station_id":"JNG","i_lat":-6.215091},{"i_lat":-6.2135,"line":1,"station_name":"Klender","is_transit":false,"station_id":"KLD","transit":false,"distance":3395,"i_long":106.899548,"time":3},{"i_lat":-6.215568,"station_name":"Buaran","time":2,"distance":3100,"i_long":106.922662,"station_id":"BUA","is_transit":false,"line":1,"transit":false},{"is_transit":false,"distance":1305,"line":1,"i_long":106.939679,"transit":false,"time":1,"i_lat":-6.217455,"station_id":"KLDB","station_name":"Klenderbaru"},{"time":8,"station_id":"CUK","distance":1385,"is_transit":false,"line":1,"transit":false,"i_long":106.951283,"i_lat":-6.219053,"station_name":"Cakung"},{"time":3,"i_lat":-6.224515,"line":1,"station_id":"KRI","is_transit":false,"station_name":"Kranji","distance":3097,"i_long":106.977657,"transit":false},{"i_long":106.997013,"transit":false,"i_lat":-6.236616,"distance":2520,"station_id":"BKS","is_transit":false,"time":4,"line":1,"station_name":"Bekasi"},{"time":2,"is_transit":false,"line":1,"station_id":"BKST","distance":2368,"i_lat":-6.248029,"i_long":107.016735,"transit":false,"station_name":"Bekasi Timur"},{"time":7,"station_name":"Tambun","transit":false,"i_lat":-6.258864,"i_long":107.055722,"line":1,"station_id":"TB","distance":4460,"is_transit":false},{"station_name":"Cibitung","time":3,"i_lat":-6.261877,"transit":false,"line":1,"i_long":107.083084,"station_id":"CIT","is_transit":false,"distance":3420},{"time":2,"station_name":"Metland Telaga Murni","transit":false,"line":1,"station_id":"TLM","is_transit":false,"i_lat":-6.262938,"distance":2800,"i_long":107.093313},{"i_long":107.144613,"is_transit":false,"distance":3689,"line":1,"transit":false,"station_name":"Cikarang","time":4,"i_lat":-6.2553149999999995,"station_id":"CKR"}],[{"time":0,"station_id":"SW","i_lat":-6.160725,"line":2,"distance":0,"transit":false,"is_transit":false,"i_long":106.827103,"station_name":"Sawah Besar"},{"transit":false,"time":2,"distance":906,"station_id":"MGB","i_lat":-6.149769,"i_long":106.82482,"station_name":"Manggabesar","is_transit":false,"line":2},{"i_lat":-6.141205,"station_id":"JAY","time":2,"i_long":106.820901,"distance":1080,"line":2,"transit":false,"is_transit":false,"station_name":"Jayakarta"},{"station_id":"JAKK","transit":true,"line":2,"i_long":106.812439,"is_transit":true,"time":4,"station_name":"Jakarta Kota","distance":1264,"i_lat":-6.137569},{"transit":true,"is_transit":true,"station_id":"KPB","i_long":106.826365,"station_name":"Kampung Bandan","distance":1364,"line":4,"i_lat":-6.132549,"time":3},{"i_long":106.836569,"station_id":"RJW","i_lat":-6.14505,"transit":false,"time":3,"distance":1444,"station_name":"Rajawali","is_transit":false,"line":11},{"is_transit":false,"station_id":"KMO","transit":false,"i_long":106.839204,"time":5,"line":11,"distance":1901,"i_lat":-6.161728,"station_name":"Kemayoran"},{"is_transit":false,"i_lat":-6.174784,"time":4,"station_id":"PSE","distance":1436,"transit":false,"station_name":"Pasar Senen","i_long":106.84368,"line":11},{"i_lat":-6.185975,"is_transit":false,"transit":false,"i_long":106.850107,"distance":1567,"station_id":"GST","time":8,"line":11,"station_name":"Gang Sentiong"},{"station_id":"KMT","i_lat":-6.193792,"i_long":106.855437,"is_transit":false,"line":11,"distance":973,"time":1,"station_name":"Kramat","transit":false},{"is_transit":false,"i_long":106.861737,"line":11,"station_id":"POK","i_lat":-6.209188,"transit":false,"station_name":"Pondok Jati","distance":1829,"time":2},{"station_id":"JNG","distance":1236,"is_transit":true,"transit":true,"station_name":"Jatinegara","i_lat":-6.215091,"i_long":106.86807400000001,"time":9,"line":1},{"i_lat":-6.2135,"station_name":"Klender","is_transit":false,"line":1,"station_id":"KLD","transit":false,"i_long":106.899548,"time":3,"distance":3395},{"station_name":"Buaran","transit":false,"station_id":"BUA","is_transit":false,"time":2,"line":1,"i_long":106.922662,"distance":3100,"i_lat":-6.215568},{"i_long":106.939679,"distance":1305,"line":1,"transit":false,"station_name":"Klenderbaru","station_id":"KLDB","time":1,"i_lat":-6.217455,"is_transit":false},{"is_transit":false,"station_name":"Cakung","station_id":"CUK","i_long":106.951283,"transit":false,"time":8,"i_lat":-6.219053,"distance":1385,"line":1},{"is_transit":false,"time":3,"distance":3097,"station_name":"Kranji","station_id":"KRI","transit":false,"i_lat":-6.224515,"line":1,"i_long":106.977657},{"distance":2520,"station_name":"Bekasi","i_long":106.997013,"line":1,"transit":false,"station_id":"BKS","i_lat":-6.236616,"time":4,"is_transit":false},{"i_long":107.016735,"transit":false,"is_transit":false,"station_name":"Bekasi Timur","line":1,"station_id":"BKST","time":2,"distance":2368,"i_lat":-6.248029},{"i_long":107.055722,"is_transit":false,"station_name":"Tambun","time":7,"distance":4460,"line":1,"station_id":"TB","transit":false,"i_lat":-6.258864},{"is_transit":false,"station_name":"Cibitung","station_id":"CIT","time":3,"distance":3420,"i_long":107.083084,"transit":false,"line":1,"i_lat":-6.261877},{"i_lat":-6.262938,"time":2,"station_id":"TLM","distance":2800,"transit":false,"line":1,"i_long":107.093313,"station_name":"Metland Telaga Murni","is_transit":false},{"is_transit":false,"station_id":"CKR","distance":3689,"transit":false,"i_long":107.144613,"line":1,"i_lat":-6.2553149999999995,"station_name":"Cikarang","time":4}],[{"i_long":106.827103,"distance":0,"line":2,"station_id":"SW","transit":false,"is_transit":false,"time":0,"station_name":"Sawah Besar","i_lat":-6.160725},{"i_lat":-6.149769,"distance":906,"time":2,"is_transit":false,"transit":false,"station_name":"Manggabesar","line":2,"station_id":"MGB","i_long":106.82482},{"distance":1080,"is_transit":false,"i_lat":-6.141205,"time":2,"station_name":"Jayakarta","station_id":"JAY","i_long":106.820901,"transit":false,"line":2},{"is_transit":true,"transit":true,"i_lat":-6.137569,"station_name":"Jakarta Kota","line":2,"station_id":"JAKK","distance":1264,"i_long":106.812439,"time":4},{"distance":1364,"line":4,"transit":true,"i_lat":-6.132549,"i_long":106.826365,"station_name":"Kampung Bandan","station_id":"KPB","time":3,"is_transit":true},{"transit":false,"distance":4102,"station_id":"AK","line":1,"time":9,"i_long":106.79867,"is_transit":false,"station_name":"Angke","i_lat":-6.144674},{"transit":false,"station_id":"DU","is_transit":false,"line":1,"time":4,"i_lat":-6.155215,"i_long":106.800832,"distance":1230,"station_name":"Duri"},{"line":1,"transit":false,"station_name":"Tanah Abang","i_long":106.811091,"distance":3632,"i_lat":-6.185545,"is_transit":false,"time":8,"station_id":"THB"},{"transit":false,"distance":2029,"line":1,"time":5,"station_name":"Karet","i_lat":-6.20132,"station_id":"KAT","is_transit":false,"i_long":106.816351},{"station_id":"SUDB","distance":471,"time":1,"transit":false,"i_long":106.819881,"i_lat":-6.201433,"line":1,"station_name":"Sudirman Baru","is_transit":false},{"transit":false,"station_name":"Sudirman","station_id":"SUD","is_transit":false,"time":1,"distance":280,"i_lat":-6.202263,"i_long":106.822649,"line":1},{"time":4,"transit":false,"i_long":106.84912,"station_id":"MRI","station_name":"Manggarai","is_transit":false,"i_lat":-6.209883,"distance":3186,"line":2},{"i_lat":-6.212485,"is_transit":false,"station_name":"Matraman","transit":false,"station_id":"MTR","i_long":106.858896,"distance":1275,"line":1,"time":2},{"i_lat":-6.215091,"line":1,"station_name":"Jatinegara","distance":1377,"transit":false,"time":8,"i_long":106.86807400000001,"station_id":"JNG","is_transit":false},{"distance":3395,"transit":false,"station_id":"KLD","is_transit":false,"i_lat":-6.2135,"station_name":"Klender","i_long":106.899548,"time":3,"line":1},{"distance":3100,"station_id":"BUA","is_transit":false,"time":2,"line":1,"i_lat":-6.215568,"station_name":"Buaran","transit":false,"i_long":106.922662},{"i_lat":-6.217455,"transit":false,"station_id":"KLDB","station_name":"Klenderbaru","time":1,"line":1,"is_transit":false,"i_long":106.939679,"distance":1305},{"station_name":"Cakung","time":8,"is_transit":false,"distance":1385,"i_lat":-6.219053,"station_id":"CUK","i_long":106.951283,"line":1,"transit":false},{"time":3,"distance":3097,"i_long":106.977657,"transit":false,"i_lat":-6.224515,"station_name":"Kranji","station_id":"KRI","line":1,"is_transit":false},{"transit":false,"station_name":"Bekasi","station_id":"BKS","distance":2520,"line":1,"is_transit":false,"i_long":106.997013,"i_lat":-6.236616,"time":4},{"time":2,"transit":false,"distance":2368,"line":1,"i_lat":-6.248029,"station_id":"BKST","station_name":"Bekasi Timur","is_transit":false,"i_long":107.016735},{"distance":4460,"i_lat":-6.258864,"transit":false,"line":1,"time":7,"station_id":"TB","i_long":107.055722,"station_name":"Tambun","is_transit":false},{"station_name":"Cibitung","station_id":"CIT","transit":false,"i_lat":-6.261877,"i_long":107.083084,"time":3,"is_transit":false,"distance":3420,"line":1},{"transit":false,"time":2,"station_name":"Metland Telaga Murni","station_id":"TLM","line":1,"distance":2800,"i_long":107.093313,"i_lat":-6.262938,"is_transit":false},{"is_transit":false,"time":4,"distance":3689,"i_long":107.144613,"station_name":"Cikarang","station_id":"CKR","line":1,"i_lat":-6.2553149999999995,"transit":false}],[{"line":2,"transit":false,"station_name":"Sawah Besar","station_id":"SW","is_transit":false,"distance":0,"time":0,"i_lat":-6.160725,"i_long":106.827103},{"station_id":"JUA","station_name":"Juanda","time":2,"i_long":106.828284,"distance":1149,"line":2,"i_lat":-6.166716,"transit":false,"is_transit":false},{"distance":2015,"transit":false,"time":4,"is_transit":false,"i_lat":-6.186295,"station_name":"Gondangdia","station_id":"GDD","i_long":106.832183,"line":2},{"station_id":"CKI","is_transit":false,"transit":false,"time":3,"line":2,"i_lat":-6.198556,"i_long":106.840169,"station_name":"Cikini","distance":1750},{"i_lat":-6.209883,"distance":1590,"time":4,"station_name":"Manggarai","station_id":"MRI","line":2,"i_long":106.84912,"transit":true,"is_transit":true},{"station_name":"Sudirman","i_lat":-6.202263,"is_transit":false,"distance":3186,"transit":false,"station_id":"SUD","time":4,"i_long":106.822649,"line":1},{"time":1,"station_name":"Sudirman Baru","transit":false,"distance":280,"i_lat":-6.201433,"is_transit":false,"i_long":106.819881,"line":1,"station_id":"SUDB"},{"line":1,"is_transit":false,"distance":471,"i_long":106.816351,"time":1,"transit":false,"station_name":"Karet","station_id":"KAT","i_lat":-6.20132},{"station_name":"Tanah Abang","transit":false,"station_id":"THB","i_long":106.811091,"time":5,"distance":2029,"line":1,"i_lat":-6.185545,"is_transit":false},{"station_id":"DU","is_transit":false,"distance":3632,"station_name":"Duri","time":8,"line":1,"i_lat":-6.155215,"transit":false,"i_long":106.800832},{"distance":1230,"station_name":"Angke","is_transit":false,"i_long":106.79867,"transit":false,"station_id":"AK","time":4,"line":1,"i_lat":-6.144674},{"time":9,"line":4,"transit":true,"station_id":"KPB","station_name":"Kampung Bandan","i_lat":-6.132549,"distance":4102,"i_long":106.826365,"is_transit":true},{"distance":1444,"station_id":"RJW","is_transit":false,"i_long":106.836569,"i_lat":-6.14505,"line":11,"station_name":"Rajawali","time":3,"transit":false},{"i_lat":-6.161728,"is_transit":false,"i_long":106.839204,"line":11,"station_id":"KMO","station_name":"Kemayoran","transit":false,"distance":1901,"time":5},{"i_lat":-6.174784,"i_long":106.84368,"line":11,"distance":1436,"station_id":"PSE","station_name":"Pasar Senen","time":4,"is_transit":false,"transit":false},{"i_lat":-6.185975,"station_id":"GST","distance":1567,"line":11,"station_name":"Gang Sentiong","is_transit":false,"transit":false,"time":8,"i_long":106.850107},{"line":11,"transit":false,"time":1,"i_lat":-6.193792,"i_long":106.855437,"distance":973,"station_name":"Kramat","station_id":"KMT","is_transit":false},{"station_name":"Pondok Jati","is_transit":false,"time":2,"i_long":106.861737,"transit":false,"station_id":"POK","i_lat":-6.209188,"line":11,"distance":1829},{"station_name":"Jatinegara","station_id":"JNG","transit":true,"distance":1236,"i_long":106.86807400000001,"is_transit":true,"line":1,"i_lat":-6.215091,"time":9},{"i_long":106.899548,"transit":false,"station_id":"KLD","station_name":"Klender","line":1,"is_transit":false,"distance":3395,"time":3,"i_lat":-6.2135},{"is_transit":false,"transit":false,"time":2,"station_id":"BUA","station_name":"Buaran","distance":3100,"i_long":106.922662,"line":1,"i_lat":-6.215568},{"time":1,"distance":1305,"station_name":"Klenderbaru","station_id":"KLDB","transit":false,"is_transit":false,"line":1,"i_lat":-6.217455,"i_long":106.939679},{"station_name":"Cakung","transit":false,"i_lat":-6.219053,"is_transit":false,"station_id":"CUK","time":8,"distance":1385,"line":1,"i_long":106.951283},{"distance":3097,"is_transit":false,"i_lat":-6.224515,"station_id":"KRI","i_long":106.977657,"line":1,"station_name":"Kranji","transit":false,"time":3},{"transit":false,"station_name":"Bekasi","is_transit":false,"i_long":106.997013,"i_lat":-6.236616,"station_id":"BKS","distance":2520,"time":4,"line":1},{"transit":false,"line":1,"station_id":"BKST","station_name":"Bekasi Timur","distance":2368,"i_long":107.016735,"time":2,"is_transit":false,"i_lat":-6.248029},{"station_name":"Tambun","is_transit":false,"i_long":107.055722,"line":1,"time":7,"transit":false,"station_id":"TB","distance":4460,"i_lat":-6.258864},{"station_name":"Cibitung","i_long":107.083084,"line":1,"station_id":"CIT","distance":3420,"transit":false,"time":3,"is_transit":false,"i_lat":-6.261877},{"station_id":"TLM","station_name":"Metland Telaga Murni","time":2,"distance":2800,"i_lat":-6.262938,"transit":false,"i_long":107.093313,"is_transit":false,"line":1},{"time":4,"i_lat":-6.2553149999999995,"transit":false,"station_name":"Cikarang","station_id":"CKR","i_long":107.144613,"distance":3689,"is_transit":false,"line":1}]]}