{"data":[[{"time":0,"i_lat":-6.160725,"station_name":"Sawah Besar","is_transit":false,"transit":false,"i_long":106.827103,"distance":0,"station_id":"SW","line":2},{"i_long":106.828284,"line":2,"i_lat":-6.166716,"distance":1149,"transit":false,"time":2,"station_id":"JUA","is_transit":false,"station_name":"Juanda"},{"time":4,"distance":2015,"i_long":106.832183,"line":2,"station_name":"Gondangdia","i_lat":-6.186295,"transit":false,"station_id":"GDD","is_transit":false},{"station_id":"CKI","transit":false,"time":3,"is_transit":false,"distance":1750,"station_name":"Cikini","i_lat":-6.198556,"i_long":106.840169,"line":2},{"is_transit":true,"station_name":"Manggarai","i_long":106.84912,"line":2,"transit":true,"station_id":"MRI","distance":1590,"i_lat":-6.209883,"time":4},{"i_lat":-6.212485,"station_name":"Matraman","station_id":"MTR","line":1,"i_long":106.858896,"is_transit":false,"time":2,"distance":1275,"transit":false},{"time":8,"transit":false,"is_transit":false,"distance":1377,"i_lat":-6.215091,"i_long":106.86807400000001,"line":1,"station_id":"JNG","station_name":"Jatinegara"},{"transit":false,"time":3,"i_long":106.899548,"line":1,"distance":3395,"i_lat":-6.2135,"is_transit":false,"station_id":"KLD","station_name":"Klender"},{"is_transit":false,"station_name":"Buaran","station_id":"BUA","distance":3100,"i_lat":-6.215568,"i_long":106.922662,"line":1,"time":2,"transit":false},{"station_name":"Klenderbaru","distance":1305,"transit":false,"is_transit":false,"time":1,"i_lat":-6.217455,"station_id":"KLDB","i_long":106.939679,"line":1},{"is_transit":false,"line":1,"station_name":"Cakung","station_id":"CUK","time":8,"i_lat":-6.219053,"distance":1385,"transit":false,"i_long":106.951283},{"distance":3097,"i_lat":-6.224515,"i_long":106.977657,"station_id":"KRI","is_transit":false,"transit":false,"station_name":"Kranji","line":1,"time":3},{"i_long":106.997013,"station_id":"BKS","line":1,"distance":2520,"is_transit":false,"transit":false,"time":4,"station_name":"Bekasi","i_lat":-6.236616},{"i_lat":-6.248029,"transit":false,"station_id":"BKST","station_name":"Bekasi Timur","is_transit":false,"distance":2368,"time":2,"i_long":107.016735,"line":1},{"station_id":"TB","line":1,"time":7,"distance":4460,"i_lat":-6.258864,"station_name":"Tambun","i_long":107.055722,"transit":false,"is_transit":false},{"i_lat":-6.261877,"line":1,"transit":false,"station_id":"CIT","station_name":"Cibitung","time":3,"i_long":107.083084,"distance":3420,"is_transit":false},{"is_transit":false,"i_long":107.093313,"line":1,"transit":false,"time":2,"station_name":"Metland Telaga Murni","distance":2800,"i_lat":-6.262938,"station_id":"TLM"},{"station_id":"CKR","time":4,"i_lat":-6.2553149999999995,"i_long":107.144613,"is_transit":false,"transit":false,"station_name":"Cikarang","distance":3689,"line":1}],[{"distance":0,"station_id":"SW","transit":false,"station_name":"Sawah Besar","time":0,"line":2,"is_transit":false,"i_long":106.827103,"i_lat":-6.160725},{"transit":false,"station_name":"Manggabesar","station_id":"MGB","distance":906,"line":2,"time":2,"is_transit":false,"i_long":106.82482,"i_lat":-6.149769},{"station_name":"Jayakarta","i_long":106.820901,"is_transit":false,"transit":false,"time":2,"station_id":"JAY","distance":1080,"i_lat":-6.141205,"line":2},{"i_long":106.812439,"station_id":"JAKK","i_lat":-6.137569,"line":2,"is_transit":true,"distance":1264,"transit":true,"station_name":"Jakarta Kota","time":4},{"i_lat":-6.132549,"time":3,"station_name":"Kampung Bandan","line":4,"transit":true,"is_transit":true,"station_id":"KPB","distance":1364,"i_long":106.826365},{"i_lat":-6.14505,"time":3,"is_transit":false,"i_long":106.836569,"transit":false,"station_name":"Rajawali","distance":1444,"line":11,"station_id":"RJW"},{"is_transit":false,"station_name":"Kemayoran","transit":false,"distance":1901,"time":5,"i_lat":-6.161728,"station_id":"KMO","line":11,"i_long":106.839204},{"distance":1436,"i_long":106.84368,"time":4,"transit":false,"station_id":"PSE","i_lat":-6.174784,"is_transit":false,"station_name":"Pasar Senen","line":11},{"station_name":"Gang Sentiong","time":8,"station_id":"GST","is_transit":false,"distance":1567,"i_lat":-6.185975,"i_long":106.850107,"line":11,"transit":false},{"distance":973,"i_lat":-6.193792,"station_name":"Kramat","line":11,"time":1,"i_long":106.855437,"transit":false,"is_transit":false,"station_id":"KMT"},{"station_name":"Pondok Jati","time":2,"line":11,"i_long":106.861737,"is_transit":false,"transit":false,"station_id":"POK","i_lat":-6.209188,"distance":1829},{"station_id":"JNG","distance":1236,"is_transit":true,"transit":true,"time":9,"i_lat":-6.215091,"line":1,"i_long":106.86807400000001,"station_name":"Jatinegara"},{"station_name":"Klender","line":1,"distance":3395,"station_id":"KLD","i_long":106.899548,"time":3,"transit":false,"i_lat":-6.2135,"is_transit":false},{"i_lat":-6.215568,"is_transit":false,"i_long":106.922662,"line":1,"time":2,"transit":false,"station_name":"Buaran","distance":3100,"station_id":"BUA"},{"station_id":"KLDB","line":1,"time":1,"distance":1305,"i_long":106.939679,"i_lat":-6.217455,"station_name":"Klenderbaru","is_transit":false,"transit":false},{"line":1,"transit":false,"station_name":"Cakung","time":8,"is_transit":false,"station_id":"CUK","distance":1385,"i_lat":-6.219053,"i_long":106.951283},{"distance":3097,"station_id":"KRI","i_lat":-6.224515,"i_long":106.977657,"line":1,"transit":false,"time":3,"is_transit":false,"station_name":"Kranji"},{"is_transit":false,"i_long":106.997013,"distance":2520,"i_lat":-6.236616,"station_id":"BKS","station_name":"Bekasi","time":4,"line":1,"transit":false},{"line":1,"time":2,"distance":2368,"i_long":107.016735,"is_transit":false,"station_name":"Bekasi Timur","transit":false,"station_id":"BKST","i_lat":-6.248029},{"is_transit":false,"i_long":107.055722,"distance":4460,"line":1,"station_name":"Tambun","station_id":"TB","time":7,"transit":false,"i_lat":-6.258864},{"line":1,"is_transit":false,"i_lat":-6.261877,"station_id":"CIT","time":3,"i_long":107.083084,"station_name":"Cibitung","distance":3420,"transit":false},{"time":2,"i_lat":-6.262938,"i_long":107.093313,"line":1,"distance":2800,"transit":false,"is_transit":false,"station_id":"TLM","station_name":"Metland Telaga Murni"},{"station_name":"Cikarang","i_lat":-6.2553149999999995,"is_transit":false,"transit":false,"time":4,"distance":3689,"i_long":107.144613,"line":1,"station_id":"CKR"}],[{"station_id":"SW","line":2,"i_lat":-6.160725,"station_name":"Sawah Besar","transit":false,"is_transit":false,"i_long":106.827103,"distance":0,"time":0},{"line":2,"is_transit":false,"i_lat":-6.149769,"transit":false,"i_long":106.82482,"station_name":"Manggabesar","station_id":"MGB","time":2,"distance":906},{"transit":false,"time":2,"station_id":"JAY","i_long":106.820901,"line":2,"station_name":"Jayakarta","distance":1080,"i_lat":-6.141205,"is_transit":false},{"time":4,"station_id":"JAKK","i_lat":-6.137569,"i_long":106.812439,"station_name":"Jakarta Kota","is_transit":true,"distance":1264,"line":2,"transit":true},{"i_long":106.826365,"distance":1364,"i_lat":-6.132549,"station_name":"Kampung Bandan","line":4,"transit":true,"is_transit":true,"station_id":"KPB","time":3},{"distance":4102,"time":9,"station_name":"Angke","station_id":"AK","line":1,"is_transit":false,"transit":false,"i_long":106.79867,"i_lat":-6.144674},{"line":1,"station_id":"DU","is_transit":false,"transit":false,"station_name":"Duri","time":4,"distance":1230,"i_lat":-6.155215,"i_long":106.800832},{"distance":3632,"i_lat":-6.185545,"line":1,"station_name":"Tanah Abang","i_long":106.811091,"station_id":"THB","is_transit":false,"transit":false,"time":8},{"station_id":"KAT","line":1,"distance":2029,"i_long":106.816351,"is_transit":false,"time":5,"i_lat":-6.20132,"transit":false,"station_name":"Karet"},{"transit":false,"line":1,"time":1,"distance":471,"station_name":"Sudirman Baru","station_id":"SUDB","i_lat":-6.201433,"is_transit":false,"i_long":106.819881},{"station_name":"Sudirman","is_transit":false,"i_lat":-6.202263,"i_long":106.822649,"time":1,"line":1,"transit":false,"station_id":"SUD","distance":280},{"time":4,"station_name":"Manggarai","is_transit":false,"transit":false,"i_long":106.84912,"distance":3186,"line":2,"station_id":"MRI","i_lat":-6.209883},{"station_id":"MTR","line":1,"i_long":106.858896,"i_lat":-6.212485,"distance":1275,"time":2,"transit":false,"station_name":"Matraman","is_transit":false},{"i_long":106.86807400000001,"station_id":"JNG","distance":1377,"station_name":"Jatinegara","is_transit":false,"time":8,"i_lat":-6.215091,"line":1,"transit":false},{"time":3,"station_name":"Klender","i_long":106.899548,"transit":false,"i_lat":-6.2135,"distance":3395,"line":1,"is_transit":false,"station_id":"KLD"},{"i_lat":-6.215568,"transit":false,"is_transit":false,"line":1,"time":2,"station_id":"BUA","distance":3100,"station_name":"Buaran","i_long":106.922662},{"i_lat":-6.217455,"transit":false,"station_name":"Klenderbaru","line":1,"station_id":"KLDB","time":1,"distance":1305,"i_long":106.939679,"is_transit":false},{"station_id":"CUK","time":8,"distance":1385,"is_transit":false,"transit":false,"station_name":"Cakung","i_long":106.951283,"line":1,"i_lat":-6.219053},{"is_transit":false,"transit":false,"station_name":"Kranji","time":3,"station_id":"KRI","i_long":106.977657,"line":1,"distance":3097,"i_lat":-6.224515},{"line":1,"is_transit":false,"station_name":"Bekasi","time":4,"transit":false,"distance":2520,"station_id":"BKS","i_long":106.997013,"i_lat":-6.236616},{"is_transit":false,"time":2,"station_id":"BKST","distance":2368,"i_long":107.016735,"i_lat":-6.248029,"transit":false,"station_name":"Bekasi Timur","line":1},{"time":7,"line":1,"i_long":107.055722,"i_lat":-6.258864,"station_name":"Tambun","station_id":"TB","distance":4460,"is_transit":false,"transit":false},{"line":1,"station_id":"CIT","distance":3420,"is_transit":false,"i_long":107.083084,"transit":false,"time":3,"i_lat":-6.261877,"station_name":"Cibitung"},{"line":1,"i_long":107.093313,"station_id":"TLM","i_lat":-6.262938,"station_name":"Metland Telaga Murni","is_transit":false,"transit":false,"time":2,"distance":2800},{"line":1,"distance":3689,"i_lat":-6.2553149999999995,"station_name":"Cikarang","time":4,"station_id":"CKR","transit":false,"i_long":107.144613,"is_transit":false}],[{"distance":0,"station_name":"Sawah Besar","station_id":"SW","i_long":106.827103,"line":2,"transit":false,"time":0,"is_transit":false,"i_lat":-6.160725},{"distance":1149,"line":2,"i_long":106.828284,"is_transit":false,"i_lat":-6.166716,"time":2,"station_name":"Juanda","station_id":"JUA","transit":false},{"transit":false,"is_transit":false,"station_name":"Gondangdia","time":4,"distance":2015,"i_lat":-6.186295,"station_id":"GDD","i_long":106.832183,"line":2},{"transit":false,"i_lat":-6.198556,"station_name":"Cikini","line":2,"station_id":"CKI","i_long":106.840169,"time":3,"is_transit":false,"distance":1750},{"transit":true,"line":2,"i_long":106.84912,"i_lat":-6.209883,"is_transit":true,"distance":1590,"station_name":"Manggarai","time":4,"station_id":"MRI"},{"station_name":"Sudirman","transit":false,"i_lat":-6.202263,"station_id":"SUD","is_transit":false,"time":4,"i_long":106.822649,"line":1,"distance":3186},{"distance":280,"is_transit":false,"i_lat":-6.201433,"transit":false,"station_id":"SUDB","i_long":106.819881,"line":1,"station_name":"Sudirman Baru","time":1},{"transit":false,"is_transit":false,"distance":471,"i_long":106.816351,"i_lat":-6.20132,"time":1,"station_id":"KAT","line":1,"station_name":"Karet"},{"station_id":"THB","i_lat":-6.185545,"station_name":"Tanah Abang","i_long":106.811091,"distance":2029,"is_transit":false,"time":5,"transit":false,"line":1},{"is_transit":false,"station_id":"DU","distance":3632,"transit":false,"station_name":"Duri","time":8,"i_lat":-6.155215,"i_long":106.800832,"line":1},{"transit":false,"i_long":106.79867,"station_id":"AK","i_lat":-6.144674,"distance":1230,"time":4,"line":1,"is_transit":false,"station_name":"Angke"},{"i_long":106.826365,"station_id":"KPB","transit":true,"time":9,"distance":4102,"line":4,"station_name":"Kampung Bandan","is_transit":true,"i_lat":-6.132549},{"line":11,"is_transit":false,"station_name":"Rajawali","time":3,"station_id":"RJW","transit":false,"distance":1444,"i_lat":-6.14505,"i_long":106.836569},{"transit":false,"station_id":"KMO","is_transit":false,"time":5,"distance":1901,"i_lat":-6.161728,"i_long":106.839204,"line":11,"station_name":"Kemayoran"},{"distance":1436,"i_lat":-6.174784,"is_transit":false,"station_id":"PSE","transit":false,"i_long":106.84368,"line":11,"time":4,"station_name":"Pasar Senen"},{"i_lat":-6.185975,"distance":1567,"transit":false,"station_id":"GST","i_long":106.850107,"is_transit":false,"station_name":"Gang Sentiong","time":8,"line":11},{"station_name":"Kramat","station_id":"KMT","distance":973,"line":11,"i_lat":-6.193792,"i_long":106.855437,"transit":false,"is_transit":false,"time":1},{"i_long":106.861737,"station_id":"POK","transit":false,"time":2,"i_lat":-6.209188,"line":11,"station_name":"Pondok Jati","distance":1829,"is_transit":false},{"distance":1236,"station_name":"Jatinegara","i_lat":-6.215091,"is_transit":true,"transit":true,"station_id":"JNG","i_long":106.86807400000001,"time":9,"line":1},{"is_transit":false,"i_lat":-6.2135,"i_long":106.899548,"station_name":"Klender","distance":3395,"transit":false,"station_id":"KLD","line":1,"time":3},{"i_lat":-6.215568,"transit":false,"distance":3100,"i_long":106.922662,"station_name":"Buaran","time":2,"station_id":"BUA","is_transit":false,"line":1},{"i_lat":-6.217455,"station_id":"KLDB","line":1,"i_long":106.939679,"station_name":"Klenderbaru","time":1,"transit":false,"is_transit":false,"distance":1305},{"i_lat":-6.219053,"station_name":"Cakung","i_long":106.951283,"distance":1385,"time":8,"transit":false,"line":1,"is_transit":false,"station_id":"CUK"},{"time":3,"transit":false,"distance":3097,"i_lat":-6.224515,"i_long":106.977657,"line":1,"is_transit":false,"station_id":"KRI","station_name":"Kranji"},{"i_long":106.997013,"transit":false,"station_id":"BKS","i_lat":-6.236616,"is_transit":false,"distance":2520,"line":1,"station_name":"Bekasi","time":4},{"is_transit":false,"i_lat":-6.248029,"station_name":"Bekasi Timur","i_long":107.016735,"time":2,"transit":false,"station_id":"BKST","line":1,"distance":2368},{"distance":4460,"station_name":"Tambun","time":7,"i_long":107.055722,"station_id":"TB","line":1,"transit":false,"i_lat":-6.258864,"is_transit":false},{"station_id":"CIT","line":1,"time":3,"i_lat":-6.261877,"i_long":107.083084,"distance":3420,"transit":false,"is_transit":false,"station_name":"Cibitung"},{"transit":false,"station_name":"Metland Telaga Murni","line":1,"is_transit":false,"time":2,"i_lat":-6.262938,"station_id":"TLM","distance":2800,"i_long":107.093313},{"transit":false,"i_lat":-6.2553149999999995,"station_id":"CKR","line":1,"i_long":107.144613,"distance":3689,"is_transit":false,"station_name":"Cikarang","time":4}]]}