{"data":[[{"transit":false,"station_id":"SW","time":0,"station_name":"Sawah Besar","line":2,"i_long":106.827103,"i_lat":-6.160725,"distance":0,"is_transit":false},{"transit":false,"time":2,"line":2,"station_name":"Juanda","i_long":106.828284,"is_transit":false,"distance":1149,"i_lat":-6.166716,"station_id":"JUA"},{"i_long":106.832183,"time":4,"transit":false,"distance":2015,"is_transit":false,"station_id":"GDD","station_name":"Gondangdia","i_lat":-6.186295,"line":2},{"station_name":"Cikini","i_long":106.840169,"transit":false,"is_transit":false,"station_id":"CKI","time":3,"i_lat":-6.198556,"line":0,"distance":1750},{"station_name":"Manggarai","time":4,"i_long":106.84912,"transit":true,"i_lat":-6.209883,"is_transit":true,"distance":1590,"station_id":"MRI","line":0},{"line":2,"is_transit":false,"station_name":"Tebet","time":4,"distance":2610,"transit":false,"i_lat":-6.226659,"station_id":"TEB","i_long":106.857948},{"time":2,"i_lat":-6.242512,"i_long":106.856607,"line":0,"distance":1230,"station_name":"Cawang","is_transit":false,"station_id":"CW","transit":false},{"distance":1546,"line":0,"is_transit":false,"i_long":106.85449,"station_id":"DRN","station_name":"Duren Kalibata","transit":false,"time":3,"i_lat":-6.255332},{"distance":824,"is_transit":false,"station_name":"Pasar Minggu Baru","transit":false,"i_long":106.851577,"i_lat":-6.263214,"line":2,"time":2,"station_id":"PSMB"},{"i_lat":-6.2842400000000005,"distance":2380,"transit":false,"station_id":"PSM","time":2,"i_long":106.843999,"is_transit":false,"line":2,"station_name":"Pasar Minggu"},{"time":4,"is_transit":false,"distance":2820,"station_id":"TNT","station_name":"Tanjung Barat","transit":false,"i_lat":-6.3080680000000005,"i_long":106.838896,"line":2},{"station_name":"Lenteng Agung","station_id":"LNA","transit":false,"is_transit":false,"distance":2671,"i_long":106.832616,"time":3,"line":2,"i_lat":-6.330363},{"transit":false,"distance":1029,"station_id":"UP","time":2,"i_long":106.834175,"i_lat":-6.339291,"station_name":"Univ. Pancasila","line":2,"is_transit":false},{"station_id":"UI","time":3,"line":2,"i_long":106.831474,"transit":false,"is_transit":false,"distance":2264,"station_name":"Univ. Indonesia","i_lat":-6.360749},{"station_id":"POC","i_long":106.831114,"distance":1109,"i_lat":-6.369073,"is_transit":false,"line":2,"station_name":"Pondok Cina","transit":false,"time":2},{"time":4,"is_transit":false,"transit":false,"i_lat":-6.391065,"i_long":106.819451,"distance":2727,"station_id":"DPB","station_name":"Depokbaru","line":0},{"station_id":"DP","distance":1584,"i_long":106.816926,"station_name":"Depok","i_lat":-6.405256,"transit":false,"time":3,"line":0,"is_transit":false},{"i_lat":-6.448811,"distance":5084,"is_transit":true,"line":1,"station_name":"Citayam","station_id":"CTA","i_long":106.800298,"time":6,"transit":false},{"station_name":"Cibinong","is_transit":false,"i_long":106.851978,"station_id":"CBN","time":10,"i_lat":-6.46424,"transit":false,"distance":6740,"line":0}],[{"transit":false,"distance":0,"i_long":106.827103,"station_name":"Sawah Besar","time":0,"is_transit":false,"line":2,"station_id":"SW","i_lat":-6.160725},{"transit":false,"i_long":106.82482,"station_id":"MGB","i_lat":-6.149769,"line":2,"is_transit":false,"time":2,"station_name":"Manggabesar","distance":906},{"transit":false,"i_long":106.820901,"line":7,"station_id":"JAY","station_name":"Jayakarta","is_transit":false,"distance":1080,"time":2,"i_lat":-6.141205},{"time":4,"i_lat":-6.137569,"i_long":106.812439,"line":0,"station_name":"Jakarta Kota","distance":1264,"is_transit":true,"station_id":"JAKK","transit":true},{"station_id":"KPB","i_long":106.826365,"is_transit":true,"i_lat":-6.132549,"distance":1364,"transit":false,"time":3,"station_name":"Kampung Bandan","line":0},{"is_transit":false,"i_lat":-6.144674,"time":9,"distance":4102,"i_long":106.79867,"station_name":"Angke","station_id":"AK","transit":false,"line":0},{"line":1,"time":4,"i_long":106.800832,"station_name":"Duri","station_id":"DU","distance":1230,"is_transit":true,"transit":true,"i_lat":-6.155215},{"station_id":"THB","transit":false,"time":8,"is_transit":true,"i_lat":-6.185545,"i_long":106.811091,"distance":3632,"station_name":"Tanah Abang","line":1},{"transit":false,"station_name":"Karet","is_transit":false,"line":1,"distance":2029,"station_id":"KAT","i_long":106.816351,"i_lat":-6.20132,"time":5},{"distance":471,"time":1,"station_id":"SUDB","i_lat":-6.201433,"line":1,"station_name":"Sudirman Baru","transit":false,"is_transit":false,"i_long":106.819881},{"time":1,"i_long":106.822649,"is_transit":false,"distance":280,"station_id":"SUD","station_name":"Sudirman","transit":false,"line":1,"i_lat":-6.202263},{"time":4,"station_id":"MRI","transit":true,"i_lat":-6.209883,"distance":3186,"station_name":"Manggarai","line":0,"is_transit":true,"i_long":106.84912},{"line":2,"distance":2610,"transit":false,"i_long":106.857948,"i_lat":-6.226659,"is_transit":false,"time":4,"station_id":"TEB","station_name":"Tebet"},{"time":2,"transit":false,"station_name":"Cawang","is_transit":false,"i_long":106.856607,"distance":1230,"station_id":"CW","i_lat":-6.242512,"line":0},{"is_transit":false,"line":0,"i_lat":-6.255332,"time":3,"station_id":"DRN","transit":false,"i_long":106.85449,"station_name":"Duren Kalibata","distance":1546},{"line":2,"station_id":"PSMB","i_lat":-6.263214,"station_name":"Pasar Minggu Baru","distance":824,"time":2,"i_long":106.851577,"is_transit":false,"transit":false},{"time":2,"station_name":"Pasar Minggu","station_id":"PSM","distance":2380,"transit":false,"i_long":106.843999,"line":2,"is_transit":false,"i_lat":-6.2842400000000005},{"i_lat":-6.3080680000000005,"line":2,"station_name":"Tanjung Barat","station_id":"TNT","is_transit":false,"distance":2820,"transit":false,"time":4,"i_long":106.838896},{"i_lat":-6.330363,"is_transit":false,"station_id":"LNA","distance":2671,"station_name":"Lenteng Agung","line":2,"i_long":106.832616,"transit":false,"time":3},{"is_transit":false,"transit":false,"time":2,"i_lat":-6.339291,"station_name":"Univ. Pancasila","distance":1029,"station_id":"UP","i_long":106.834175,"line":2},{"time":3,"distance":2264,"i_long":106.831474,"transit":false,"line":2,"i_lat":-6.360749,"is_transit":false,"station_id":"UI","station_name":"Univ. Indonesia"},{"line":2,"transit":false,"station_id":"POC","time":2,"is_transit":false,"i_lat":-6.369073,"distance":1109,"station_name":"Pondok Cina","i_long":106.831114},{"line":0,"is_transit":false,"station_name":"Depokbaru","i_lat":-6.391065,"i_long":106.819451,"time":4,"distance":2727,"station_id":"DPB","transit":false},{"time":3,"station_id":"DP","transit":false,"line":0,"distance":1584,"i_long":106.816926,"station_name":"Depok","is_transit":false,"i_lat":-6.405256},{"line":1,"station_id":"CTA","station_name":"Citayam","i_long":106.800298,"distance":5084,"i_lat":-6.448811,"transit":false,"time":6,"is_transit":true},{"is_transit":false,"station_name":"Cibinong","i_lat":-6.46424,"station_id":"CBN","time":10,"line":0,"i_long":106.851978,"distance":6740,"transit":false}],[{"line":2,"station_id":"SW","i_lat":-6.160725,"distance":0,"station_name":"Sawah Besar","is_transit":false,"transit":false,"i_long":106.827103,"time":0},{"line":2,"station_id":"MGB","transit":false,"i_long":106.82482,"is_transit":false,"i_lat":-6.149769,"distance":906,"station_name":"Manggabesar","time":2},{"i_long":106.820901,"line":7,"station_id":"JAY","distance":1080,"station_name":"Jayakarta","transit":false,"i_lat":-6.141205,"is_transit":false,"time":2},{"i_long":106.812439,"time":4,"i_lat":-6.137569,"transit":true,"line":0,"is_transit":true,"distance":1264,"station_id":"JAKK","station_name":"Jakarta Kota"},{"line":0,"station_id":"KPB","i_long":106.826365,"is_transit":true,"transit":true,"distance":1364,"station_name":"Kampung Bandan","time":3,"i_lat":-6.132549},{"station_id":"RJW","transit":false,"i_lat":-6.14505,"line":11,"time":3,"is_transit":false,"station_name":"Rajawali","distance":1444,"i_long":106.836569},{"is_transit":false,"station_id":"KMO","i_long":106.839204,"line":11,"i_lat":-6.161728,"distance":1901,"transit":false,"time":5,"station_name":"Kemayoran"},{"is_transit":false,"distance":1436,"transit":false,"time":4,"station_id":"PSE","line":11,"i_long":106.84368,"station_name":"Pasar Senen","i_lat":-6.174784},{"time":8,"station_id":"GST","line":11,"i_long":106.850107,"is_transit":false,"distance":1567,"station_name":"Gang Sentiong","i_lat":-6.185975,"transit":false},{"is_transit":false,"station_name":"Kramat","i_lat":-6.193792,"i_long":106.855437,"transit":false,"time":1,"distance":973,"station_id":"KMT","line":11},{"i_lat":-6.209188,"is_transit":false,"transit":false,"line":11,"station_id":"POK","i_long":106.861737,"station_name":"Pondok Jati","distance":1829,"time":2},{"transit":true,"line":0,"time":9,"station_name":"Jatinegara","i_lat":-6.215091,"i_long":106.86807400000001,"distance":1236,"is_transit":true,"station_id":"JNG"},{"i_lat":-6.212485,"station_id":"MTR","time":2,"i_long":106.858896,"distance":1377,"is_transit":false,"station_name":"Matraman","transit":false,"line":1},{"station_name":"Manggarai","station_id":"MRI","i_long":106.84912,"line":0,"time":2,"is_transit":true,"i_lat":-6.209883,"distance":1275,"transit":true},{"time":4,"i_lat":-6.226659,"i_long":106.857948,"station_name":"Tebet","distance":2610,"is_transit":false,"transit":false,"line":2,"station_id":"TEB"},{"i_long":106.856607,"distance":1230,"is_transit":false,"station_id":"CW","i_lat":-6.242512,"station_name":"Cawang","line":0,"transit":false,"time":2},{"is_transit":false,"time":3,"station_id":"DRN","transit":false,"i_lat":-6.255332,"distance":1546,"station_name":"Duren Kalibata","i_long":106.85449,"line":0},{"i_long":106.851577,"station_name":"Pasar Minggu Baru","time":2,"transit":false,"line":2,"distance":824,"station_id":"PSMB","is_transit":false,"i_lat":-6.263214},{"i_long":106.843999,"time":2,"transit":false,"station_name":"Pasar Minggu","i_lat":-6.2842400000000005,"line":2,"distance":2380,"station_id":"PSM","is_transit":false},{"transit":false,"i_long":106.838896,"line":2,"is_transit":false,"station_id":"TNT","time":4,"i_lat":-6.3080680000000005,"station_name":"Tanjung Barat","distance":2820},{"i_long":106.832616,"time":3,"transit":false,"is_transit":false,"line":2,"distance":2671,"station_id":"LNA","station_name":"Lenteng Agung","i_lat":-6.330363},{"time":2,"i_lat":-6.339291,"i_long":106.834175,"distance":1029,"is_transit":false,"transit":false,"line":2,"station_id":"UP","station_name":"Univ. Pancasila"},{"station_name":"Univ. Indonesia","i_long":106.831474,"station_id":"UI","i_lat":-6.360749,"line":2,"distance":2264,"is_transit":false,"time":3,"transit":false},{"station_id":"POC","station_name":"Pondok Cina","transit":false,"i_long":106.831114,"distance":1109,"i_lat":-6.369073,"time":2,"line":2,"is_transit":false},{"distance":2727,"is_transit":false,"transit":false,"time":4,"station_name":"Depokbaru","i_lat":-6.391065,"line":0,"station_id":"DPB","i_long":106.819451},{"i_long":106.816926,"line":0,"distance":1584,"is_transit":false,"station_name":"Depok","time":3,"i_lat":-6.405256,"transit":false,"station_id":"DP"},{"transit":false,"i_lat":-6.448811,"station_id":"CTA","i_long":106.800298,"station_name":"Citayam","line":1,"is_transit":true,"time":6,"distance":5084},{"station_name":"Cibinong","transit":false,"i_lat":-6.46424,"i_long":106.851978,"time":10,"station_id":"CBN","line":0,"is_transit":false,"distance":6740}]]}