{"data":[[{"is_transit":false,"i_lat":-6.160725,"i_long":106.827103,"station_name":"Sawah Besar","transit":false,"distance":0,"line":2,"time":0,"station_id":"SW"},{"station_name":"Manggabesar","time":2,"is_transit":false,"distance":906,"line":2,"transit":false,"station_id":"MGB","i_lat":-6.149769,"i_long":106.82482},{"i_long":106.820901,"is_transit":false,"time":2,"station_id":"JAY","distance":1080,"station_name":"Jayakarta","line":2,"i_lat":-6.141205,"transit":false},{"transit":true,"distance":1264,"time":4,"station_id":"JAKK","line":2,"i_long":106.812439,"i_lat":-6.137569,"station_name":"Jakarta Kota","is_transit":true},{"line":4,"i_long":106.826365,"station_id":"KPB","time":3,"station_name":"Kampung Bandan","transit":true,"i_lat":-6.132549,"is_transit":true,"distance":1364},{"i_long":106.79867,"is_transit":false,"i_lat":-6.144674,"line":1,"station_name":"Angke","transit":false,"time":9,"station_id":"AK","distance":4102},{"line":1,"station_name":"Duri","is_transit":false,"station_id":"DU","i_lat":-6.155215,"i_long":106.800832,"transit":false,"time":4,"distance":1230},{"transit":true,"station_name":"Tanah Abang","i_long":106.811091,"line":1,"is_transit":true,"distance":3632,"time":8,"station_id":"THB","i_lat":-6.185545},{"station_name":"Palmerah","transit":false,"line":6,"station_id":"PLM","distance":3191,"is_transit":false,"i_lat":-6.207404,"i_long":106.79689,"time":6},{"station_name":"Kebayoran","is_transit":false,"station_id":"KBY","line":6,"i_long":106.780334,"distance":3737,"i_lat":-6.237242,"time":7,"transit":false},{"time":8,"distance":6218,"transit":false,"station_name":"Pondokranji","i_lat":-6.276362,"station_id":"PDJ","line":6,"i_long":106.74273,"is_transit":false},{"station_name":"Jurangmangu","distance":2179,"i_long":106.728916,"time":3,"station_id":"JMU","is_transit":false,"i_lat":-6.288927,"line":6,"transit":false},{"transit":false,"time":4,"station_name":"Sudimara","is_transit":false,"distance":1994,"i_long":106.712277,"station_id":"SDM","line":6,"i_lat":-6.296963},{"is_transit":false,"time":6,"i_long":106.675475,"i_lat":-6.314823,"line":6,"station_id":"RU","station_name":"Rawa Buntu","transit":false,"distance":4566},{"i_lat":-6.319871,"i_long":106.66566,"time":4,"transit":false,"line":6,"is_transit":false,"distance":2413,"station_name":"Serpong","station_id":"SRP"},{"station_name":"Cisauk","station_id":"CSK","is_transit":false,"time":4,"i_long":106.640411,"line":3,"distance":1784,"i_lat":-6.32484,"transit":false},{"transit":false,"is_transit":false,"time":4,"line":3,"i_lat":-6.329547,"distance":2519,"station_name":"Cicayur","station_id":"CC","i_long":106.617853},{"transit":false,"time":8,"station_id":"PRP","station_name":"Parung Panjang","line":6,"distance":5968,"i_lat":-6.3441410000000005,"i_long":106.568863,"is_transit":false},{"i_long":106.508482,"station_name":"Cilejit","is_transit":false,"i_lat":-6.354349,"line":3,"station_id":"CJT","time":9,"distance":7025,"transit":false},{"station_id":"DAR","station_name":"Daru","is_transit":false,"i_lat":-6.338021,"time":6,"i_long":106.491338,"transit":false,"distance":2675,"line":0},{"station_id":"TEJ","transit":false,"station_name":"Tenjo","distance":3902,"line":6,"is_transit":false,"time":5,"i_long":106.460812,"i_lat":-6.327251},{"time":5,"i_lat":-6.328533,"distance":2974,"station_id":"TGS","transit":false,"station_name":"Tigaraksa","i_long":106.425991,"line":6,"is_transit":false},{"station_id":"CKY","distance":2651,"station_name":"Cikoya","time":3,"i_long":106.411216,"transit":false,"line":3,"is_transit":false,"i_lat":-6.33561}],[{"time":0,"distance":0,"station_name":"Sawah Besar","i_long":106.827103,"line":2,"i_lat":-6.160725,"transit":false,"is_transit":false,"station_id":"SW"},{"i_long":106.828284,"line":2,"station_id":"JUA","time":2,"distance":1149,"transit":false,"station_name":"Juanda","is_transit":false,"i_lat":-6.166716},{"transit":false,"i_long":106.832183,"station_name":"Gondangdia","time":4,"station_id":"GDD","is_transit":false,"line":2,"i_lat":-6.186295,"distance":2015},{"time":3,"i_long":106.840169,"transit":false,"station_id":"CKI","distance":1750,"station_name":"Cikini","i_lat":-6.198556,"is_transit":false,"line":2},{"is_transit":true,"i_lat":-6.209883,"line":2,"station_id":"MRI","i_long":106.84912,"transit":true,"time":4,"distance":1590,"station_name":"Manggarai"},{"time":4,"station_name":"Sudirman","distance":3186,"transit":false,"i_lat":-6.202263,"i_long":106.822649,"station_id":"SUD","line":1,"is_transit":false},{"line":1,"i_lat":-6.201433,"time":1,"station_name":"Sudirman Baru","distance":280,"transit":false,"station_id":"SUDB","i_long":106.819881,"is_transit":false},{"station_id":"KAT","is_transit":false,"distance":471,"i_long":106.816351,"line":1,"station_name":"Karet","time":1,"i_lat":-6.20132,"transit":false},{"distance":2029,"line":1,"transit":true,"i_lat":-6.185545,"is_transit":true,"i_long":106.811091,"station_id":"THB","station_name":"Tanah Abang","time":5},{"line":6,"time":6,"station_name":"Palmerah","distance":3191,"i_long":106.79689,"transit":false,"station_id":"PLM","is_transit":false,"i_lat":-6.207404},{"is_transit":false,"line":6,"transit":false,"station_name":"Kebayoran","station_id":"KBY","i_lat":-6.237242,"distance":3737,"time":7,"i_long":106.780334},{"transit":false,"i_lat":-6.276362,"station_id":"PDJ","station_name":"Pondokranji","line":6,"distance":6218,"is_transit":false,"i_long":106.74273,"time":8},{"is_transit":false,"time":3,"i_lat":-6.288927,"line":6,"distance":2179,"station_id":"JMU","i_long":106.728916,"transit":false,"station_name":"Jurangmangu"},{"station_id":"SDM","station_name":"Sudimara","is_transit":false,"transit":false,"i_lat":-6.296963,"line":6,"time":4,"i_long":106.712277,"distance":1994},{"time":6,"line":6,"station_name":"Rawa Buntu","station_id":"RU","i_long":106.675475,"i_lat":-6.314823,"distance":4566,"transit":false,"is_transit":false},{"station_id":"SRP","time":4,"i_lat":-6.319871,"line":6,"i_long":106.66566,"is_transit":false,"distance":2413,"transit":false,"station_name":"Serpong"},{"transit":false,"station_name":"Cisauk","time":4,"station_id":"CSK","is_transit":false,"distance":1784,"i_lat":-6.32484,"i_long":106.640411,"line":3},{"i_long":106.617853,"i_lat":-6.329547,"is_transit":false,"time":4,"distance":2519,"station_id":"CC","line":3,"transit":false,"station_name":"Cicayur"},{"station_name":"Parung Panjang","i_long":106.568863,"transit":false,"station_id":"PRP","is_transit":false,"time":8,"distance":5968,"i_lat":-6.3441410000000005,"line":6},{"time":9,"station_id":"CJT","distance":7025,"is_transit":false,"line":3,"transit":false,"i_long":106.508482,"station_name":"Cilejit","i_lat":-6.354349},{"transit":false,"i_long":106.491338,"is_transit":false,"time":6,"station_name":"Daru","distance":2675,"i_lat":-6.338021,"line":0,"station_id":"DAR"},{"i_long":106.460812,"transit":false,"is_transit":false,"station_id":"TEJ","distance":3902,"line":6,"station_name":"Tenjo","i_lat":-6.327251,"time":5},{"time":5,"i_lat":-6.328533,"station_id":"TGS","station_name":"Tigaraksa","distance":2974,"transit":false,"is_transit":false,"i_long":106.425991,"line":6},{"line":3,"is_transit":false,"transit":false,"distance":2651,"station_name":"Cikoya","station_id":"CKY","i_long":106.411216,"i_lat":-6.33561,"time":3}],[{"station_id":"SW","line":2,"distance":0,"i_lat":-6.160725,"time":0,"is_transit":false,"transit":false,"i_long":106.827103,"station_name":"Sawah Besar"},{"line":2,"distance":1149,"transit":false,"is_transit":false,"i_lat":-6.166716,"time":2,"i_long":106.828284,"station_id":"JUA","station_name":"Juanda"},{"i_long":106.832183,"line":2,"is_transit":false,"station_id":"GDD","time":4,"distance":2015,"i_lat":-6.186295,"transit":false,"station_name":"Gondangdia"},{"line":2,"time":3,"distance":1750,"transit":false,"i_lat":-6.198556,"station_name":"Cikini","i_long":106.840169,"station_id":"CKI","is_transit":false},{"line":2,"time":4,"transit":true,"station_id":"MRI","station_name":"Manggarai","i_long":106.84912,"distance":1590,"is_transit":true,"i_lat":-6.209883},{"line":1,"time":2,"i_lat":-6.212485,"station_id":"MTR","station_name":"Matraman","is_transit":false,"distance":1275,"transit":false,"i_long":106.858896},{"is_transit":true,"i_long":106.86807400000001,"line":1,"time":8,"i_lat":-6.215091,"distance":1377,"station_id":"JNG","transit":true,"station_name":"Jatinegara"},{"transit":false,"station_id":"POK","time":2,"station_name":"Pondok Jati","i_lat":-6.209188,"line":11,"is_transit":false,"i_long":106.861737,"distance":1236},{"line":11,"distance":1829,"time":2,"i_long":106.855437,"station_id":"KMT","is_transit":false,"i_lat":-6.193792,"transit":false,"station_name":"Kramat"},{"station_name":"Gang Sentiong","i_long":106.850107,"is_transit":false,"transit":false,"time":1,"i_lat":-6.185975,"station_id":"GST","distance":973,"line":11},{"i_lat":-6.174784,"transit":false,"time":8,"i_long":106.84368,"station_id":"PSE","is_transit":false,"distance":1567,"line":11,"station_name":"Pasar Senen"},{"i_lat":-6.161728,"station_name":"Kemayoran","i_long":106.839204,"time":4,"is_transit":false,"station_id":"KMO","distance":1436,"line":11,"transit":false},{"i_lat":-6.14505,"station_name":"Rajawali","time":5,"line":11,"station_id":"RJW","distance":1901,"transit":false,"i_long":106.836569,"is_transit":false},{"time":3,"station_name":"Kampung Bandan","i_long":106.826365,"line":4,"is_transit":true,"i_lat":-6.132549,"station_id":"KPB","distance":1444,"transit":true},{"time":9,"i_lat":-6.144674,"transit":false,"station_name":"Angke","i_long":106.79867,"station_id":"AK","is_transit":false,"distance":4102,"line":1},{"station_id":"DU","is_transit":false,"line":1,"i_long":106.800832,"distance":1230,"station_name":"Duri","time":4,"i_lat":-6.155215,"transit":false},{"line":1,"station_id":"THB","time":8,"distance":3632,"transit":true,"i_long":106.811091,"is_transit":true,"station_name":"Tanah Abang","i_lat":-6.185545},{"line":6,"transit":false,"distance":3191,"time":6,"is_transit":false,"station_id":"PLM","station_name":"Palmerah","i_lat":-6.207404,"i_long":106.79689},{"i_lat":-6.237242,"line":6,"i_long":106.780334,"distance":3737,"station_name":"Kebayoran","transit":false,"station_id":"KBY","is_transit":false,"time":7},{"station_id":"PDJ","line":6,"station_name":"Pondokranji","time":8,"is_transit":false,"i_long":106.74273,"distance":6218,"transit":false,"i_lat":-6.276362},{"transit":false,"i_lat":-6.288927,"station_id":"JMU","distance":2179,"i_long":106.728916,"station_name":"Jurangmangu","is_transit":false,"time":3,"line":6},{"i_lat":-6.296963,"station_id":"SDM","time":4,"transit":false,"is_transit":false,"i_long":106.712277,"line":6,"station_name":"Sudimara","distance":1994},{"i_long":106.675475,"station_name":"Rawa Buntu","transit":false,"time":6,"distance":4566,"station_id":"RU","is_transit":false,"i_lat":-6.314823,"line":6},{"time":4,"i_long":106.66566,"i_lat":-6.319871,"distance":2413,"line":6,"station_id":"SRP","transit":false,"station_name":"Serpong","is_transit":false},{"time":4,"i_long":106.640411,"transit":false,"i_lat":-6.32484,"distance":1784,"is_transit":false,"station_name":"Cisauk","station_id":"CSK","line":3},{"distance":2519,"line":3,"station_name":"Cicayur","i_lat":-6.329547,"station_id":"CC","i_long":106.617853,"transit":false,"is_transit":false,"time":4},{"i_lat":-6.3441410000000005,"time":8,"i_long":106.568863,"transit":false,"line":6,"distance":5968,"station_name":"Parung Panjang","is_transit":false,"station_id":"PRP"},{"station_name":"Cilejit","line":3,"i_long":106.508482,"station_id":"CJT","is_transit":false,"time":9,"transit":false,"i_lat":-6.354349,"distance":7025},{"i_long":106.491338,"distance":2675,"is_transit":false,"line":0,"transit":false,"station_name":"Daru","i_lat":-6.338021,"station_id":"DAR","time":6},{"i_lat":-6.327251,"station_id":"TEJ","i_long":106.460812,"line":6,"transit":false,"station_name":"Tenjo","distance":3902,"time":5,"is_transit":false},{"station_name":"Tigaraksa","station_id":"TGS","i_lat":-6.328533,"i_long":106.425991,"is_transit":false,"line":6,"distance":2974,"time":5,"transit":false},{"station_id":"CKY","i_lat":-6.33561,"i_long":106.411216,"line":3,"time":3,"is_transit":false,"transit":false,"station_name":"Cikoya","distance":2651}],[{"transit":false,"i_long":106.827103,"distance":0,"line":2,"station_id":"SW","station_name":"Sawah Besar","is_transit":false,"time":0,"i_lat":-6.160725},{"transit":false,"station_name":"Manggabesar","i_long":106.82482,"station_id":"MGB","i_lat":-6.149769,"is_transit":false,"line":2,"distance":906,"time":2},{"i_long":106.820901,"station_id":"JAY","transit":false,"station_name":"Jayakarta","i_lat":-6.141205,"distance":1080,"time":2,"is_transit":false,"line":2},{"is_transit":true,"time":4,"station_name":"Jakarta Kota","transit":true,"station_id":"JAKK","i_lat":-6.137569,"line":2,"i_long":106.812439,"distance":1264},{"i_long":106.826365,"transit":true,"station_name":"Kampung Bandan","distance":1364,"time":3,"i_lat":-6.132549,"is_transit":true,"station_id":"KPB","line":4},{"line":11,"station_name":"Rajawali","transit":false,"station_id":"RJW","distance":1444,"is_transit":false,"time":3,"i_lat":-6.14505,"i_long":106.836569},{"i_long":106.839204,"transit":false,"distance":1901,"station_id":"KMO","i_lat":-6.161728,"is_transit":false,"time":5,"line":11,"station_name":"Kemayoran"},{"distance":1436,"time":4,"transit":false,"i_lat":-6.174784,"i_long":106.84368,"station_name":"Pasar Senen","line":11,"station_id":"PSE","is_transit":false},{"i_long":106.850107,"station_id":"GST","station_name":"Gang Sentiong","is_transit":false,"i_lat":-6.185975,"transit":false,"line":11,"time":8,"distance":1567},{"i_lat":-6.193792,"i_long":106.855437,"time":1,"line":11,"station_name":"Kramat","distance":973,"station_id":"KMT","is_transit":false,"transit":false},{"line":11,"transit":false,"station_name":"Pondok Jati","station_id":"POK","is_transit":false,"i_long":106.861737,"time":2,"distance":1829,"i_lat":-6.209188},{"station_id":"JNG","is_transit":true,"time":9,"i_lat":-6.215091,"station_name":"Jatinegara","transit":true,"i_long":106.86807400000001,"distance":1236,"line":1},{"distance":1377,"i_lat":-6.212485,"i_long":106.858896,"time":2,"station_id":"MTR","line":1,"station_name":"Matraman","transit":false,"is_transit":false},{"is_transit":false,"time":2,"i_lat":-6.209883,"transit":false,"i_long":106.84912,"station_id":"MRI","distance":1275,"line":2,"station_name":"Manggarai"},{"transit":false,"time":4,"line":1,"station_name":"Sudirman","is_transit":false,"distance":3186,"i_lat":-6.202263,"station_id":"SUD","i_long":106.822649},{"i_lat":-6.201433,"station_id":"SUDB","time":1,"line":1,"is_transit":false,"distance":280,"station_name":"Sudirman Baru","transit":false,"i_long":106.819881},{"time":1,"station_name":"Karet","i_long":106.816351,"line":1,"is_transit":false,"transit":false,"station_id":"KAT","distance":471,"i_lat":-6.20132},{"is_transit":true,"time":5,"distance":2029,"station_name":"Tanah Abang","station_id":"THB","i_long":106.811091,"line":1,"i_lat":-6.185545,"transit":true},{"station_id":"PLM","transit":false,"station_name":"Palmerah","is_transit":false,"i_long":106.79689,"i_lat":-6.207404,"time":6,"line":6,"distance":3191},{"line":6,"i_long":106.780334,"is_transit":false,"i_lat":-6.237242,"station_id":"KBY","distance":3737,"time":7,"transit":false,"station_name":"Kebayoran"},{"distance":6218,"time":8,"transit":false,"i_long":106.74273,"line":6,"station_name":"Pondokranji","station_id":"PDJ","is_transit":false,"i_lat":-6.276362},{"station_name":"Jurangmangu","time":3,"line":6,"i_long":106.728916,"transit":false,"is_transit":false,"distance":2179,"station_id":"JMU","i_lat":-6.288927},{"transit":false,"time":4,"line":6,"station_id":"SDM","is_transit":false,"i_long":106.712277,"distance":1994,"station_name":"Sudimara","i_lat":-6.296963},{"station_name":"Rawa Buntu","line":6,"transit":false,"i_lat":-6.314823,"distance":4566,"time":6,"station_id":"RU","is_transit":false,"i_long":106.675475},{"station_name":"Serpong","is_transit":false,"time":4,"line":6,"transit":false,"station_id":"SRP","i_long":106.66566,"i_lat":-6.319871,"distance":2413},{"station_name":"Cisauk","station_id":"CSK","transit":false,"distance":1784,"line":3,"is_transit":false,"time":4,"i_lat":-6.32484,"i_long":106.640411},{"distance":2519,"i_lat":-6.329547,"station_name":"Cicayur","station_id":"CC","time":4,"i_long":106.617853,"is_transit":false,"line":3,"transit":false},{"time":8,"distance":5968,"i_lat":-6.3441410000000005,"station_id":"PRP","is_transit":false,"station_name":"Parung Panjang","transit":false,"i_long":106.568863,"line":6},{"transit":false,"distance":7025,"i_long":106.508482,"station_name":"Cilejit","station_id":"CJT","time":9,"i_lat":-6.354349,"line":3,"is_transit":false},{"transit":false,"time":6,"i_lat":-6.338021,"distance":2675,"line":0,"station_name":"Daru","is_transit":false,"station_id":"DAR","i_long":106.491338},{"time":5,"distance":3902,"i_lat":-6.327251,"line":6,"transit":false,"station_name":"Tenjo","i_long":106.460812,"station_id":"TEJ","is_transit":false},{"transit":false,"time":5,"i_long":106.425991,"station_name":"Tigaraksa","i_lat":-6.328533,"distance":2974,"station_id":"TGS","line":6,"is_transit":false},{"line":3,"i_lat":-6.33561,"time":3,"transit":false,"distance":2651,"is_transit":false,"station_id":"CKY","station_name":"Cikoya","i_long":106.411216}]]}