{"data":[[{"transit":false,"i_lat":-6.160725,"line":2,"time":0,"station_id":"SW","i_long":106.827103,"station_name":"Sawah Besar","distance":0,"is_transit":false},{"station_name":"Juanda","time":2,"line":2,"transit":false,"distance":1149,"i_lat":-6.166716,"i_long":106.828284,"is_transit":false,"station_id":"JUA"},{"transit":false,"time":4,"i_lat":-6.186295,"distance":2015,"line":2,"station_name":"Gondangdia","i_long":106.832183,"is_transit":false,"station_id":"GDD"},{"i_long":106.840169,"is_transit":false,"station_name":"Cikini","line":0,"station_id":"CKI","i_lat":-6.198556,"distance":1750,"time":3,"transit":false},{"time":4,"transit":true,"distance":1590,"station_id":"MRI","is_transit":true,"station_name":"Manggarai","line":0,"i_long":106.84912,"i_lat":-6.209883},{"station_id":"MTR","distance":1275,"time":2,"i_lat":-6.212485,"line":1,"station_name":"Matraman","is_transit":false,"transit":false,"i_long":106.858896},{"station_id":"JNG","i_long":106.86807400000001,"station_name":"Jatinegara","time":8,"line":0,"transit":false,"is_transit":true,"distance":1377,"i_lat":-6.215091},{"i_long":106.899548,"distance":3395,"transit":false,"station_name":"Klender","i_lat":-6.2135,"station_id":"KLD","time":3,"line":1,"is_transit":false},{"is_transit":false,"transit":false,"i_long":106.922662,"station_name":"Buaran","distance":3100,"time":2,"station_id":"BUA","line":0,"i_lat":-6.215568},{"line":1,"i_lat":-6.217455,"station_name":"Klenderbaru","i_long":106.939679,"time":1,"station_id":"KLDB","is_transit":false,"transit":false,"distance":1305},{"time":8,"i_long":106.951283,"distance":1385,"station_id":"CUK","transit":false,"i_lat":-6.219053,"station_name":"Cakung","line":0,"is_transit":false},{"distance":3097,"station_name":"Kranji","line":1,"station_id":"KRI","i_long":106.977657,"i_lat":-6.224515,"is_transit":false,"transit":false,"time":3},{"station_id":"BKS","i_long":106.997013,"is_transit":false,"station_name":"Bekasi","transit":false,"distance":2520,"i_lat":-6.236616,"time":4,"line":0},{"is_transit":false,"transit":false,"station_id":"BKST","time":2,"station_name":"Bekasi Timur","i_lat":-6.248029,"distance":2368,"i_long":107.016735,"line":0},{"time":7,"is_transit":false,"i_lat":-6.258864,"transit":false,"i_long":107.055722,"line":1,"station_id":"TB","distance":4460,"station_name":"Tambun"},{"transit":false,"distance":3420,"station_id":"CIT","station_name":"Cibitung","i_lat":-6.261877,"line":0,"is_transit":false,"i_long":107.083084,"time":3},{"transit":false,"time":2,"station_name":"Metland Telaga Murni","i_long":107.093313,"distance":2800,"is_transit":false,"line":1,"i_lat":-6.262938,"station_id":"TLM"},{"station_name":"Cikarang","i_long":107.144613,"station_id":"CKR","transit":false,"is_transit":false,"i_lat":-6.2553149999999995,"line":0,"time":4,"distance":3689}],[{"transit":false,"i_lat":-6.160725,"i_long":106.827103,"distance":0,"station_id":"SW","station_name":"Sawah Besar","is_transit":false,"time":0,"line":2},{"time":2,"line":2,"station_id":"MGB","i_long":106.82482,"i_lat":-6.149769,"is_transit":false,"distance":906,"station_name":"Manggabesar","transit":false},{"i_long":106.820901,"i_lat":-6.141205,"line":7,"station_name":"Jayakarta","transit":false,"is_transit":false,"distance":1080,"station_id":"JAY","time":2},{"station_name":"Jakarta Kota","station_id":"JAKK","i_lat":-6.137569,"time":4,"i_long":106.812439,"is_transit":true,"line":0,"transit":true,"distance":1264},{"i_long":106.826365,"is_transit":true,"station_name":"Kampung Bandan","transit":true,"time":3,"i_lat":-6.132549,"line":0,"distance":1364,"station_id":"KPB"},{"is_transit":false,"station_id":"RJW","time":3,"i_lat":-6.14505,"transit":false,"i_long":106.836569,"station_name":"Rajawali","line":11,"distance":1444},{"station_id":"KMO","transit":false,"station_name":"Kemayoran","line":11,"i_lat":-6.161728,"time":5,"distance":1901,"i_long":106.839204,"is_transit":false},{"transit":false,"time":4,"line":11,"distance":1436,"station_name":"Pasar Senen","is_transit":false,"station_id":"PSE","i_lat":-6.174784,"i_long":106.84368},{"station_id":"GST","time":8,"i_lat":-6.185975,"station_name":"Gang Sentiong","transit":false,"distance":1567,"i_long":106.850107,"is_transit":false,"line":11},{"line":11,"transit":false,"i_lat":-6.193792,"is_transit":false,"distance":973,"station_id":"KMT","station_name":"Kramat","i_long":106.855437,"time":1},{"time":2,"i_long":106.861737,"i_lat":-6.209188,"station_name":"Pondok Jati","line":11,"distance":1829,"is_transit":false,"station_id":"POK","transit":false},{"line":0,"station_id":"JNG","i_long":106.86807400000001,"distance":1236,"station_name":"Jatinegara","transit":true,"time":9,"i_lat":-6.215091,"is_transit":true},{"station_id":"KLD","station_name":"Klender","i_lat":-6.2135,"time":3,"transit":false,"distance":3395,"line":1,"is_transit":false,"i_long":106.899548},{"distance":3100,"station_name":"Buaran","transit":false,"is_transit":false,"line":0,"time":2,"i_lat":-6.215568,"i_long":106.922662,"station_id":"BUA"},{"station_id":"KLDB","i_long":106.939679,"distance":1305,"is_transit":false,"line":1,"time":1,"i_lat":-6.217455,"transit":false,"station_name":"Klenderbaru"},{"time":8,"i_long":106.951283,"line":0,"is_transit":false,"station_name":"Cakung","distance":1385,"station_id":"CUK","transit":false,"i_lat":-6.219053},{"station_id":"KRI","station_name":"Kranji","line":1,"is_transit":false,"transit":false,"i_lat":-6.224515,"distance":3097,"i_long":106.977657,"time":3},{"line":0,"distance":2520,"time":4,"station_name":"Bekasi","is_transit":false,"station_id":"BKS","transit":false,"i_lat":-6.236616,"i_long":106.997013},{"line":0,"station_name":"Bekasi Timur","i_lat":-6.248029,"transit":false,"time":2,"distance":2368,"is_transit":false,"station_id":"BKST","i_long":107.016735},{"transit":false,"line":1,"i_lat":-6.258864,"distance":4460,"is_transit":false,"time":7,"station_id":"TB","i_long":107.055722,"station_name":"Tambun"},{"transit":false,"distance":3420,"station_id":"CIT","time":3,"is_transit":false,"i_lat":-6.261877,"i_long":107.083084,"line":0,"station_name":"Cibitung"},{"distance":2800,"is_transit":false,"time":2,"transit":false,"i_lat":-6.262938,"line":1,"station_id":"TLM","i_long":107.093313,"station_name":"Metland Telaga Murni"},{"time":4,"distance":3689,"is_transit":false,"station_id":"CKR","i_long":107.144613,"i_lat":-6.2553149999999995,"station_name":"Cikarang","transit":false,"line":0}],[{"is_transit":false,"time":0,"line":2,"station_name":"Sawah Besar","distance":0,"i_lat":-6.160725,"i_long":106.827103,"station_id":"SW","transit":false},{"line":2,"distance":906,"transit":false,"i_long":106.82482,"station_name":"Manggabesar","time":2,"i_lat":-6.149769,"is_transit":false,"station_id":"MGB"},{"time":2,"i_long":106.820901,"i_lat":-6.141205,"is_transit":false,"distance":1080,"transit":false,"station_id":"JAY","station_name":"Jayakarta","line":7},{"line":0,"station_name":"Jakarta Kota","time":4,"i_long":106.812439,"transit":true,"is_transit":true,"distance":1264,"station_id":"JAKK","i_lat":-6.137569},{"is_transit":true,"i_lat":-6.132549,"station_name":"Kampung Bandan","distance":1364,"time":3,"line":0,"i_long":106.826365,"station_id":"KPB","transit":false},{"distance":4102,"station_id":"AK","i_long":106.79867,"i_lat":-6.144674,"transit":false,"is_transit":false,"time":9,"station_name":"Angke","line":0},{"line":1,"i_lat":-6.155215,"station_id":"DU","time":4,"distance":1230,"transit":true,"is_transit":true,"i_long":106.800832,"station_name":"Duri"},{"line":1,"distance":3632,"transit":false,"time":8,"is_transit":true,"i_long":106.811091,"station_id":"THB","station_name":"Tanah Abang","i_lat":-6.185545},{"transit":false,"station_name":"Karet","time":5,"station_id":"KAT","distance":2029,"is_transit":false,"i_lat":-6.20132,"i_long":106.816351,"line":1},{"distance":471,"is_transit":false,"i_long":106.819881,"transit":false,"line":1,"time":1,"station_id":"SUDB","i_lat":-6.201433,"station_name":"Sudirman Baru"},{"i_long":106.822649,"distance":280,"transit":false,"line":1,"is_transit":false,"time":1,"station_name":"Sudirman","station_id":"SUD","i_lat":-6.202263},{"distance":3186,"line":0,"time":4,"is_transit":true,"station_id":"MRI","station_name":"Manggarai","transit":false,"i_lat":-6.209883,"i_long":106.84912},{"transit":false,"station_id":"MTR","time":2,"station_name":"Matraman","line":1,"is_transit":false,"distance":1275,"i_long":106.858896,"i_lat":-6.212485},{"distance":1377,"transit":false,"line":0,"station_name":"Jatinegara","is_transit":true,"i_lat":-6.215091,"time":8,"station_id":"JNG","i_long":106.86807400000001},{"is_transit":false,"i_lat":-6.2135,"station_name":"Klender","station_id":"KLD","i_long":106.899548,"distance":3395,"line":1,"transit":false,"time":3},{"line":0,"station_name":"Buaran","time":2,"i_lat":-6.215568,"distance":3100,"station_id":"BUA","transit":false,"i_long":106.922662,"is_transit":false},{"distance":1305,"is_transit":false,"transit":false,"time":1,"station_name":"Klenderbaru","i_long":106.939679,"line":1,"i_lat":-6.217455,"station_id":"KLDB"},{"distance":1385,"station_id":"CUK","time":8,"transit":false,"is_transit":false,"i_long":106.951283,"i_lat":-6.219053,"line":0,"station_name":"Cakung"},{"time":3,"distance":3097,"is_transit":false,"transit":false,"i_lat":-6.224515,"i_long":106.977657,"station_name":"Kranji","line":1,"station_id":"KRI"},{"i_lat":-6.236616,"i_long":106.997013,"transit":false,"station_name":"Bekasi","time":4,"line":0,"is_transit":false,"distance":2520,"station_id":"BKS"},{"is_transit":false,"time":2,"line":0,"transit":false,"i_lat":-6.248029,"station_name":"Bekasi Timur","station_id":"BKST","i_long":107.016735,"distance":2368},{"time":7,"station_name":"Tambun","i_lat":-6.258864,"i_long":107.055722,"station_id":"TB","distance":4460,"is_transit":false,"transit":false,"line":1},{"station_id":"CIT","line":0,"i_lat":-6.261877,"time":3,"is_transit":false,"station_name":"Cibitung","distance":3420,"i_long":107.083084,"transit":false},{"station_name":"Metland Telaga Murni","i_long":107.093313,"transit":false,"is_transit":false,"line":1,"station_id":"TLM","distance":2800,"i_lat":-6.262938,"time":2},{"line":0,"station_name":"Cikarang","i_long":107.144613,"distance":3689,"station_id":"CKR","time":4,"is_transit":false,"i_lat":-6.2553149999999995,"transit":false}],[{"line":2,"station_name":"Sawah Besar","time":0,"station_id":"SW","i_lat":-6.160725,"is_transit":false,"distance":0,"transit":false,"i_long":106.827103},{"i_lat":-6.166716,"i_long":106.828284,"distance":1149,"time":2,"line":2,"station_name":"Juanda","is_transit":false,"transit":false,"station_id":"JUA"},{"is_transit":false,"station_id":"GDD","line":2,"station_name":"Gondangdia","distance":2015,"transit":false,"i_lat":-6.186295,"i_long":106.832183,"time":4},{"i_lat":-6.198556,"distance":1750,"station_id":"CKI","station_name":"Cikini","line":0,"transit":false,"time":3,"is_transit":false,"i_long":106.840169},{"transit":true,"station_name":"Manggarai","i_lat":-6.209883,"is_transit":true,"time":4,"line":0,"i_long":106.84912,"distance":1590,"station_id":"MRI"},{"time":4,"transit":false,"distance":3186,"i_lat":-6.202263,"is_transit":false,"i_long":106.822649,"station_name":"Sudirman","line":1,"station_id":"SUD"},{"time":1,"station_id":"SUDB","transit":false,"station_name":"Sudirman Baru","i_lat":-6.201433,"is_transit":false,"distance":280,"line":1,"i_long":106.819881},{"station_id":"KAT","distance":471,"station_name":"Karet","i_lat":-6.20132,"i_long":106.816351,"line":1,"transit":false,"is_transit":false,"time":1},{"station_name":"Tanah Abang","i_lat":-6.185545,"i_long":106.811091,"distance":2029,"is_transit":true,"transit":false,"line":1,"station_id":"THB","time":5},{"is_transit":true,"line":1,"i_long":106.800832,"i_lat":-6.155215,"station_id":"DU","transit":true,"distance":3632,"station_name":"Duri","time":8},{"is_transit":false,"distance":1230,"station_id":"AK","station_name":"Angke","i_long":106.79867,"line":0,"i_lat":-6.144674,"transit":false,"time":4},{"is_transit":true,"i_lat":-6.132549,"station_id":"KPB","i_long":106.826365,"distance":4102,"station_name":"Kampung Bandan","transit":true,"time":9,"line":0},{"distance":1444,"is_transit":false,"line":11,"station_id":"RJW","i_long":106.836569,"time":3,"i_lat":-6.14505,"transit":false,"station_name":"Rajawali"},{"is_transit":false,"station_id":"KMO","line":11,"i_long":106.839204,"station_name":"Kemayoran","time":5,"distance":1901,"i_lat":-6.161728,"transit":false},{"time":4,"station_name":"Pasar Senen","station_id":"PSE","i_lat":-6.174784,"transit":false,"distance":1436,"i_long":106.84368,"is_transit":false,"line":11},{"time":8,"transit":false,"distance":1567,"station_name":"Gang Sentiong","i_lat":-6.185975,"line":11,"station_id":"GST","i_long":106.850107,"is_transit":false},{"transit":false,"i_lat":-6.193792,"distance":973,"station_id":"KMT","i_long":106.855437,"line":11,"time":1,"station_name":"Kramat","is_transit":false},{"line":11,"is_transit":false,"time":2,"i_lat":-6.209188,"distance":1829,"station_id":"POK","station_name":"Pondok Jati","i_long":106.861737,"transit":false},{"time":9,"station_id":"JNG","transit":true,"distance":1236,"is_transit":true,"station_name":"Jatinegara","line":0,"i_lat":-6.215091,"i_long":106.86807400000001},{"transit":false,"is_transit":false,"time":3,"station_id":"KLD","i_lat":-6.2135,"i_long":106.899548,"station_name":"Klender","line":1,"distance":3395},{"is_transit":false,"distance":3100,"i_long":106.922662,"time":2,"transit":false,"i_lat":-6.215568,"station_id":"BUA","station_name":"Buaran","line":0},{"is_transit":false,"station_name":"Klenderbaru","distance":1305,"station_id":"KLDB","i_lat":-6.217455,"i_long":106.939679,"time":1,"line":1,"transit":false},{"station_name":"Cakung","time":8,"is_transit":false,"distance":1385,"i_long":106.951283,"line":0,"transit":false,"i_lat":-6.219053,"station_id":"CUK"},{"station_id":"KRI","transit":false,"time":3,"i_lat":-6.224515,"i_long":106.977657,"line":1,"station_name":"Kranji","distance":3097,"is_transit":false},{"time":4,"is_transit":false,"transit":false,"station_name":"Bekasi","distance":2520,"station_id":"BKS","i_lat":-6.236616,"i_long":106.997013,"line":0},{"distance":2368,"is_transit":false,"line":0,"station_id":"BKST","station_name":"Bekasi Timur","transit":false,"i_lat":-6.248029,"time":2,"i_long":107.016735},{"i_lat":-6.258864,"i_long":107.055722,"transit":false,"station_id":"TB","time":7,"station_name":"Tambun","line":1,"distance":4460,"is_transit":false},{"is_transit":false,"line":0,"i_lat":-6.261877,"distance":3420,"station_name":"Cibitung","i_long":107.083084,"transit":false,"station_id":"CIT","time":3},{"station_name":"Metland Telaga Murni","distance":2800,"time":2,"line":1,"transit":false,"i_lat":-6.262938,"station_id":"TLM","is_transit":false,"i_long":107.093313},{"is_transit":false,"time":4,"line":0,"station_id":"CKR","distance":3689,"station_name":"Cikarang","i_lat":-6.2553149999999995,"transit":false,"i_long":107.144613}]]}