{"data":[[{"i_long":106.827103,"line":2,"time":0,"is_transit":false,"distance":0,"station_name":"Sawah Besar","station_id":"SW","i_lat":-6.160725,"transit":false},{"i_lat":-6.166716,"distance":1149,"i_long":106.828284,"station_id":"JUA","transit":false,"line":2,"time":2,"is_transit":false,"station_name":"Juanda"},{"time":4,"station_name":"Gondangdia","i_long":106.832183,"line":2,"i_lat":-6.186295,"distance":2015,"station_id":"GDD","is_transit":false,"transit":false},{"line":2,"station_id":"CKI","transit":false,"station_name":"Cikini","distance":1750,"i_lat":-6.198556,"i_long":106.840169,"time":3,"is_transit":false},{"distance":1590,"station_name":"Manggarai","i_long":106.84912,"i_lat":-6.209883,"line":2,"is_transit":true,"transit":true,"station_id":"MRI","time":4},{"time":2,"station_name":"Matraman","line":1,"i_lat":-6.212485,"distance":1275,"station_id":"MTR","is_transit":false,"transit":false,"i_long":106.858896},{"transit":false,"time":8,"i_long":106.86807400000001,"is_transit":false,"station_id":"JNG","distance":1377,"station_name":"Jatinegara","line":1,"i_lat":-6.215091},{"distance":3395,"station_name":"Klender","i_long":106.899548,"i_lat":-6.2135,"station_id":"KLD","transit":false,"is_transit":false,"line":1,"time":3},{"is_transit":false,"i_long":106.922662,"line":1,"transit":false,"distance":3100,"time":2,"station_name":"Buaran","station_id":"BUA","i_lat":-6.215568},{"station_name":"Klenderbaru","station_id":"KLDB","time":1,"transit":false,"i_lat":-6.217455,"distance":1305,"i_long":106.939679,"line":1,"is_transit":false},{"transit":false,"distance":1385,"time":8,"station_id":"CUK","is_transit":false,"station_name":"Cakung","i_lat":-6.219053,"i_long":106.951283,"line":1},{"distance":3097,"time":3,"i_lat":-6.224515,"is_transit":false,"station_name":"Kranji","transit":false,"line":1,"station_id":"KRI","i_long":106.977657},{"i_long":106.997013,"distance":2520,"transit":false,"station_id":"BKS","is_transit":false,"i_lat":-6.236616,"line":1,"station_name":"Bekasi","time":4},{"i_lat":-6.248029,"station_id":"BKST","time":2,"station_name":"Bekasi Timur","transit":false,"is_transit":false,"i_long":107.016735,"distance":2368,"line":1},{"station_name":"Tambun","transit":false,"time":7,"station_id":"TB","i_lat":-6.258864,"distance":4460,"is_transit":false,"i_long":107.055722,"line":1},{"i_long":107.083084,"distance":3420,"time":3,"line":1,"i_lat":-6.261877,"transit":false,"station_id":"CIT","station_name":"Cibitung","is_transit":false},{"transit":false,"time":2,"station_id":"TLM","i_lat":-6.262938,"i_long":107.093313,"line":1,"station_name":"Metland Telaga Murni","distance":2800,"is_transit":false},{"time":4,"i_lat":-6.2553149999999995,"line":1,"is_transit":false,"station_id":"CKR","i_long":107.144613,"transit":false,"distance":3689,"station_name":"Cikarang"}],[{"i_long":106.827103,"station_name":"Sawah Besar","i_lat":-6.160725,"time":0,"distance":0,"is_transit":false,"line":2,"station_id":"SW","transit":false},{"station_id":"MGB","transit":false,"i_long":106.82482,"i_lat":-6.149769,"distance":906,"time":2,"line":2,"is_transit":false,"station_name":"Manggabesar"},{"i_lat":-6.141205,"i_long":106.820901,"line":2,"station_id":"JAY","transit":false,"station_name":"Jayakarta","distance":1080,"time":2,"is_transit":false},{"line":2,"distance":1264,"is_transit":true,"station_id":"JAKK","i_lat":-6.137569,"transit":true,"station_name":"Jakarta Kota","time":4,"i_long":106.812439},{"i_long":106.826365,"line":4,"transit":true,"station_name":"Kampung Bandan","time":3,"station_id":"KPB","is_transit":true,"i_lat":-6.132549,"distance":1364},{"i_lat":-6.14505,"time":3,"is_transit":false,"line":11,"station_name":"Rajawali","transit":false,"station_id":"RJW","i_long":106.836569,"distance":1444},{"station_name":"Kemayoran","i_long":106.839204,"time":5,"line":11,"is_transit":false,"transit":false,"i_lat":-6.161728,"distance":1901,"station_id":"KMO"},{"line":11,"i_long":106.84368,"i_lat":-6.174784,"is_transit":false,"distance":1436,"transit":false,"station_id":"PSE","station_name":"Pasar Senen","time":4},{"time":8,"i_lat":-6.185975,"i_long":106.850107,"is_transit":false,"distance":1567,"station_name":"Gang Sentiong","transit":false,"line":11,"station_id":"GST"},{"time":1,"distance":973,"i_long":106.855437,"transit":false,"line":11,"station_id":"KMT","i_lat":-6.193792,"is_transit":false,"station_name":"Kramat"},{"transit":false,"i_lat":-6.209188,"station_name":"Pondok Jati","time":2,"is_transit":false,"station_id":"POK","i_long":106.861737,"distance":1829,"line":11},{"i_lat":-6.215091,"i_long":106.86807400000001,"line":1,"station_name":"Jatinegara","transit":true,"station_id":"JNG","time":9,"is_transit":true,"distance":1236},{"station_name":"Klender","station_id":"KLD","transit":false,"i_lat":-6.2135,"i_long":106.899548,"distance":3395,"is_transit":false,"time":3,"line":1},{"distance":3100,"i_long":106.922662,"transit":false,"line":1,"time":2,"is_transit":false,"station_id":"BUA","i_lat":-6.215568,"station_name":"Buaran"},{"transit":false,"station_id":"KLDB","distance":1305,"line":1,"is_transit":false,"time":1,"i_lat":-6.217455,"i_long":106.939679,"station_name":"Klenderbaru"},{"transit":false,"i_lat":-6.219053,"i_long":106.951283,"station_id":"CUK","station_name":"Cakung","distance":1385,"time":8,"line":1,"is_transit":false},{"station_id":"KRI","transit":false,"i_lat":-6.224515,"i_long":106.977657,"is_transit":false,"line":1,"distance":3097,"time":3,"station_name":"Kranji"},{"transit":false,"distance":2520,"i_long":106.997013,"is_transit":false,"station_id":"BKS","i_lat":-6.236616,"line":1,"station_name":"Bekasi","time":4},{"time":2,"i_lat":-6.248029,"transit":false,"station_id":"BKST","line":1,"i_long":107.016735,"distance":2368,"station_name":"Bekasi Timur","is_transit":false},{"distance":4460,"is_transit":false,"station_id":"TB","i_lat":-6.258864,"i_long":107.055722,"transit":false,"time":7,"station_name":"Tambun","line":1},{"i_long":107.083084,"transit":false,"station_id":"CIT","line":1,"distance":3420,"time":3,"station_name":"Cibitung","i_lat":-6.261877,"is_transit":false},{"line":1,"distance":2800,"station_name":"Metland Telaga Murni","transit":false,"time":2,"i_lat":-6.262938,"i_long":107.093313,"is_transit":false,"station_id":"TLM"},{"station_id":"CKR","is_transit":false,"i_lat":-6.2553149999999995,"time":4,"station_name":"Cikarang","i_long":107.144613,"distance":3689,"line":1,"transit":false}],[{"is_transit":false,"time":0,"line":2,"transit":false,"i_long":106.827103,"i_lat":-6.160725,"station_name":"Sawah Besar","distance":0,"station_id":"SW"},{"transit":false,"i_lat":-6.149769,"i_long":106.82482,"is_transit":false,"station_id":"MGB","line":2,"distance":906,"station_name":"Manggabesar","time":2},{"time":2,"station_id":"JAY","i_lat":-6.141205,"distance":1080,"transit":false,"line":2,"i_long":106.820901,"station_name":"Jayakarta","is_transit":false},{"i_lat":-6.137569,"station_name":"Jakarta Kota","distance":1264,"is_transit":true,"line":2,"time":4,"station_id":"JAKK","i_long":106.812439,"transit":true},{"transit":true,"is_transit":true,"station_id":"KPB","i_lat":-6.132549,"line":4,"time":3,"distance":1364,"station_name":"Kampung Bandan","i_long":106.826365},{"distance":4102,"station_name":"Angke","i_lat":-6.144674,"transit":false,"is_transit":false,"station_id":"AK","i_long":106.79867,"line":1,"time":9},{"transit":false,"is_transit":false,"station_id":"DU","i_lat":-6.155215,"i_long":106.800832,"time":4,"distance":1230,"line":1,"station_name":"Duri"},{"is_transit":false,"distance":3632,"station_name":"Tanah Abang","station_id":"THB","i_long":106.811091,"line":1,"i_lat":-6.185545,"transit":false,"time":8},{"is_transit":false,"transit":false,"station_id":"KAT","distance":2029,"time":5,"i_lat":-6.20132,"station_name":"Karet","i_long":106.816351,"line":1},{"distance":471,"time":1,"station_name":"Sudirman Baru","station_id":"SUDB","i_lat":-6.201433,"i_long":106.819881,"line":1,"transit":false,"is_transit":false},{"time":1,"station_id":"SUD","transit":false,"is_transit":false,"line":1,"i_long":106.822649,"station_name":"Sudirman","i_lat":-6.202263,"distance":280},{"time":4,"line":2,"i_lat":-6.209883,"distance":3186,"station_id":"MRI","i_long":106.84912,"station_name":"Manggarai","transit":false,"is_transit":false},{"distance":1275,"line":1,"transit":false,"station_id":"MTR","station_name":"Matraman","i_lat":-6.212485,"time":2,"is_transit":false,"i_long":106.858896},{"line":1,"transit":false,"station_name":"Jatinegara","station_id":"JNG","distance":1377,"time":8,"i_lat":-6.215091,"is_transit":false,"i_long":106.86807400000001},{"transit":false,"station_name":"Klender","is_transit":false,"distance":3395,"station_id":"KLD","i_lat":-6.2135,"line":1,"i_long":106.899548,"time":3},{"time":2,"line":1,"i_lat":-6.215568,"i_long":106.922662,"distance":3100,"station_id":"BUA","is_transit":false,"transit":false,"station_name":"Buaran"},{"transit":false,"line":1,"is_transit":false,"i_lat":-6.217455,"i_long":106.939679,"time":1,"station_name":"Klenderbaru","station_id":"KLDB","distance":1305},{"station_name":"Cakung","i_lat":-6.219053,"station_id":"CUK","distance":1385,"transit":false,"i_long":106.951283,"line":1,"time":8,"is_transit":false},{"station_name":"Kranji","transit":false,"station_id":"KRI","i_long":106.977657,"line":1,"distance":3097,"i_lat":-6.224515,"time":3,"is_transit":false},{"i_long":106.997013,"distance":2520,"transit":false,"station_id":"BKS","i_lat":-6.236616,"is_transit":false,"station_name":"Bekasi","time":4,"line":1},{"station_name":"Bekasi Timur","time":2,"distance":2368,"i_lat":-6.248029,"station_id":"BKST","transit":false,"i_long":107.016735,"is_transit":false,"line":1},{"is_transit":false,"station_id":"TB","distance":4460,"i_lat":-6.258864,"time":7,"station_name":"Tambun","transit":false,"i_long":107.055722,"line":1},{"time":3,"station_name":"Cibitung","station_id":"CIT","line":1,"i_lat":-6.261877,"transit":false,"i_long":107.083084,"distance":3420,"is_transit":false},{"transit":false,"station_id":"TLM","distance":2800,"time":2,"i_lat":-6.262938,"i_long":107.093313,"line":1,"is_transit":false,"station_name":"Metland Telaga Murni"},{"distance":3689,"i_long":107.144613,"is_transit":false,"station_id":"CKR","i_lat":-6.2553149999999995,"line":1,"station_name":"Cikarang","transit":false,"time":4}],[{"transit":false,"station_id":"SW","distance":0,"station_name":"Sawah Besar","is_transit":false,"i_lat":-6.160725,"i_long":106.827103,"line":2,"time":0},{"transit":false,"station_id":"JUA","i_lat":-6.166716,"line":2,"station_name":"Juanda","is_transit":false,"i_long":106.828284,"time":2,"distance":1149},{"line":2,"time":4,"is_transit":false,"transit":false,"station_id":"GDD","i_long":106.832183,"station_name":"Gondangdia","i_lat":-6.186295,"distance":2015},{"line":2,"i_lat":-6.198556,"distance":1750,"i_long":106.840169,"time":3,"transit":false,"station_id":"CKI","is_transit":false,"station_name":"Cikini"},{"station_id":"MRI","i_long":106.84912,"distance":1590,"time":4,"i_lat":-6.209883,"station_name":"Manggarai","is_transit":true,"line":2,"transit":true},{"i_long":106.822649,"line":1,"station_id":"SUD","time":4,"distance":3186,"is_transit":false,"station_name":"Sudirman","transit":false,"i_lat":-6.202263},{"line":1,"transit":false,"i_long":106.819881,"is_transit":false,"time":1,"i_lat":-6.201433,"station_id":"SUDB","station_name":"Sudirman Baru","distance":280},{"station_name":"Karet","line":1,"distance":471,"time":1,"transit":false,"is_transit":false,"i_long":106.816351,"station_id":"KAT","i_lat":-6.20132},{"distance":2029,"line":1,"transit":false,"is_transit":false,"i_lat":-6.185545,"station_id":"THB","station_name":"Tanah Abang","i_long":106.811091,"time":5},{"is_transit":false,"station_id":"DU","transit":false,"line":1,"station_name":"Duri","i_lat":-6.155215,"i_long":106.800832,"distance":3632,"time":8},{"is_transit":false,"i_lat":-6.144674,"i_long":106.79867,"time":4,"transit":false,"station_id":"AK","station_name":"Angke","distance":1230,"line":1},{"time":9,"i_long":106.826365,"transit":true,"station_name":"Kampung Bandan","station_id":"KPB","is_transit":true,"line":4,"i_lat":-6.132549,"distance":4102},{"is_transit":false,"station_id":"RJW","distance":1444,"station_name":"Rajawali","transit":false,"i_long":106.836569,"i_lat":-6.14505,"line":11,"time":3},{"time":5,"station_name":"Kemayoran","i_long":106.839204,"station_id":"KMO","transit":false,"is_transit":false,"line":11,"distance":1901,"i_lat":-6.161728},{"is_transit":false,"station_id":"PSE","i_lat":-6.174784,"i_long":106.84368,"line":11,"time":4,"distance":1436,"station_name":"Pasar Senen","transit":false},{"distance":1567,"line":11,"station_name":"Gang Sentiong","i_long":106.850107,"transit":false,"time":8,"is_transit":false,"station_id":"GST","i_lat":-6.185975},{"station_name":"Kramat","i_long":106.855437,"transit":false,"time":1,"i_lat":-6.193792,"distance":973,"line":11,"is_transit":false,"station_id":"KMT"},{"time":2,"station_id":"POK","line":11,"i_lat":-6.209188,"station_name":"Pondok Jati","distance":1829,"transit":false,"is_transit":false,"i_long":106.861737},{"i_lat":-6.215091,"station_name":"Jatinegara","is_transit":true,"i_long":106.86807400000001,"station_id":"JNG","line":1,"time":9,"transit":true,"distance":1236},{"time":3,"station_name":"Klender","transit":false,"i_long":106.899548,"line":1,"is_transit":false,"distance":3395,"station_id":"KLD","i_lat":-6.2135},{"distance":3100,"i_long":106.922662,"line":1,"i_lat":-6.215568,"time":2,"station_name":"Buaran","is_transit":false,"station_id":"BUA","transit":false},{"is_transit":false,"distance":1305,"i_long":106.939679,"i_lat":-6.217455,"transit":false,"time":1,"line":1,"station_id":"KLDB","station_name":"Klenderbaru"},{"i_long":106.951283,"station_id":"CUK","distance":1385,"station_name":"Cakung","line":1,"is_transit":false,"time":8,"i_lat":-6.219053,"transit":false},{"i_long":106.977657,"i_lat":-6.224515,"station_id":"KRI","transit":false,"is_transit":false,"time":3,"line":1,"distance":3097,"station_name":"Kranji"},{"i_lat":-6.236616,"line":1,"i_long":106.997013,"station_name":"Bekasi","distance":2520,"transit":false,"station_id":"BKS","time":4,"is_transit":false},{"time":2,"station_id":"BKST","transit":false,"i_long":107.016735,"line":1,"i_lat":-6.248029,"station_name":"Bekasi Timur","distance":2368,"is_transit":false},{"i_lat":-6.258864,"transit":false,"line":1,"i_long":107.055722,"distance":4460,"station_name":"Tambun","is_transit":false,"station_id":"TB","time":7},{"line":1,"station_id":"CIT","is_transit":false,"station_name":"Cibitung","transit":false,"i_long":107.083084,"distance":3420,"time":3,"i_lat":-6.261877},{"i_lat":-6.262938,"i_long":107.093313,"transit":false,"station_id":"TLM","station_name":"Metland Telaga Murni","distance":2800,"time":2,"line":1,"is_transit":false},{"is_transit":false,"i_lat":-6.2553149999999995,"line":1,"transit":false,"station_id":"CKR","i_long":107.144613,"station_name":"Cikarang","time":4,"distance":3689}]]}