{"data":[[{"station_name":"Sawah Besar","transit":false,"distance":0,"is_transit":false,"i_long":106.827103,"i_lat":-6.160725,"line":2,"time":0,"station_id":"SW"},{"i_lat":-6.166716,"station_id":"JUA","distance":1149,"i_long":106.828284,"station_name":"Juanda","time":2,"transit":false,"is_transit":false,"line":2},{"i_lat":-6.186295,"is_transit":false,"station_id":"GDD","i_long":106.832183,"line":2,"distance":2015,"station_name":"Gondangdia","transit":false,"time":4},{"i_lat":-6.198556,"transit":false,"i_long":106.840169,"line":0,"is_transit":false,"station_name":"Cikini","time":3,"distance":1750,"station_id":"CKI"},{"distance":1590,"transit":true,"station_name":"Manggarai","i_lat":-6.209883,"time":4,"line":0,"station_id":"MRI","i_long":106.84912,"is_transit":true},{"station_id":"TEB","is_transit":false,"station_name":"Tebet","i_long":106.857948,"time":4,"distance":2610,"i_lat":-6.226659,"line":2,"transit":false},{"line":0,"time":2,"station_name":"Cawang","i_long":106.856607,"distance":1230,"is_transit":false,"station_id":"CW","transit":false,"i_lat":-6.242512},{"station_name":"Duren Kalibata","time":3,"i_lat":-6.255332,"i_long":106.85449,"is_transit":false,"transit":false,"distance":1546,"line":0,"station_id":"DRN"},{"line":2,"time":2,"station_name":"Pasar Minggu Baru","is_transit":false,"transit":false,"i_lat":-6.263214,"i_long":106.851577,"station_id":"PSMB","distance":824},{"station_name":"Pasar Minggu","time":2,"i_lat":-6.2842400000000005,"distance":2380,"transit":false,"is_transit":false,"station_id":"PSM","i_long":106.843999,"line":2},{"time":4,"transit":false,"is_transit":false,"distance":2820,"line":2,"station_id":"TNT","i_long":106.838896,"station_name":"Tanjung Barat","i_lat":-6.3080680000000005},{"time":3,"station_id":"LNA","i_lat":-6.330363,"line":2,"i_long":106.832616,"transit":false,"is_transit":false,"distance":2671,"station_name":"Lenteng Agung"},{"time":2,"station_name":"Univ. Pancasila","i_lat":-6.339291,"is_transit":false,"transit":false,"distance":1029,"station_id":"UP","i_long":106.834175,"line":2},{"i_long":106.831474,"transit":false,"station_id":"UI","time":3,"is_transit":false,"line":2,"i_lat":-6.360749,"distance":2264,"station_name":"Univ. Indonesia"},{"distance":1109,"transit":false,"time":2,"is_transit":false,"station_id":"POC","station_name":"Pondok Cina","i_lat":-6.369073,"i_long":106.831114,"line":2},{"station_id":"DPB","transit":false,"station_name":"Depokbaru","time":4,"distance":2727,"i_lat":-6.391065,"i_long":106.819451,"line":0,"is_transit":false},{"distance":1584,"i_lat":-6.405256,"is_transit":false,"line":0,"station_name":"Depok","time":3,"station_id":"DP","i_long":106.816926,"transit":false}],[{"is_transit":false,"i_long":106.827103,"distance":0,"station_name":"Sawah Besar","time":0,"i_lat":-6.160725,"transit":false,"line":2,"station_id":"SW"},{"i_lat":-6.149769,"is_transit":false,"transit":false,"i_long":106.82482,"station_name":"Manggabesar","line":2,"distance":906,"station_id":"MGB","time":2},{"i_lat":-6.141205,"time":2,"distance":1080,"transit":false,"line":7,"is_transit":false,"station_id":"JAY","station_name":"Jayakarta","i_long":106.820901},{"is_transit":true,"transit":true,"i_long":106.812439,"station_id":"JAKK","station_name":"Jakarta Kota","i_lat":-6.137569,"line":0,"distance":1264,"time":4},{"time":3,"line":0,"distance":1364,"station_name":"Kampung Bandan","transit":false,"i_long":106.826365,"station_id":"KPB","is_transit":true,"i_lat":-6.132549},{"i_long":106.79867,"is_transit":false,"distance":4102,"i_lat":-6.144674,"transit":false,"station_id":"AK","time":9,"line":0,"station_name":"Angke"},{"time":4,"is_transit":true,"station_name":"Duri","transit":true,"line":1,"i_long":106.800832,"station_id":"DU","i_lat":-6.155215,"distance":1230},{"i_lat":-6.185545,"time":8,"station_id":"THB","station_name":"Tanah Abang","transit":false,"i_long":106.811091,"distance":3632,"is_transit":true,"line":1},{"i_long":106.816351,"is_transit":false,"station_id":"KAT","station_name":"Karet","line":1,"time":5,"transit":false,"distance":2029,"i_lat":-6.20132},{"time":1,"i_long":106.819881,"line":1,"station_name":"Sudirman Baru","transit":false,"distance":471,"is_transit":false,"i_lat":-6.201433,"station_id":"SUDB"},{"i_long":106.822649,"station_id":"SUD","station_name":"Sudirman","i_lat":-6.202263,"distance":280,"is_transit":false,"transit":false,"line":1,"time":1},{"line":0,"i_lat":-6.209883,"is_transit":true,"time":4,"distance":3186,"station_name":"Manggarai","station_id":"MRI","i_long":106.84912,"transit":true},{"station_id":"TEB","time":4,"i_long":106.857948,"i_lat":-6.226659,"station_name":"Tebet","line":2,"distance":2610,"transit":false,"is_transit":false},{"is_transit":false,"distance":1230,"station_name":"Cawang","station_id":"CW","transit":false,"time":2,"i_long":106.856607,"line":0,"i_lat":-6.242512},{"transit":false,"station_name":"Duren Kalibata","is_transit":false,"distance":1546,"time":3,"station_id":"DRN","i_lat":-6.255332,"i_long":106.85449,"line":0},{"is_transit":false,"time":2,"transit":false,"line":2,"station_id":"PSMB","distance":824,"station_name":"Pasar Minggu Baru","i_lat":-6.263214,"i_long":106.851577},{"distance":2380,"i_lat":-6.2842400000000005,"transit":false,"line":2,"is_transit":false,"station_name":"Pasar Minggu","time":2,"station_id":"PSM","i_long":106.843999},{"distance":2820,"station_id":"TNT","i_long":106.838896,"time":4,"station_name":"Tanjung Barat","i_lat":-6.3080680000000005,"line":2,"is_transit":false,"transit":false},{"i_lat":-6.330363,"line":2,"transit":false,"distance":2671,"i_long":106.832616,"station_name":"Lenteng Agung","is_transit":false,"time":3,"station_id":"LNA"},{"is_transit":false,"station_name":"Univ. Pancasila","transit":false,"station_id":"UP","i_long":106.834175,"time":2,"distance":1029,"i_lat":-6.339291,"line":2},{"station_id":"UI","i_long":106.831474,"transit":false,"station_name":"Univ. Indonesia","is_transit":false,"i_lat":-6.360749,"line":2,"distance":2264,"time":3},{"is_transit":false,"distance":1109,"station_id":"POC","station_name":"Pondok Cina","time":2,"transit":false,"i_lat":-6.369073,"i_long":106.831114,"line":2},{"transit":false,"distance":2727,"time":4,"is_transit":false,"station_id":"DPB","i_long":106.819451,"line":0,"station_name":"Depokbaru","i_lat":-6.391065},{"distance":1584,"is_transit":false,"station_id":"DP","transit":false,"line":0,"i_lat":-6.405256,"time":3,"station_name":"Depok","i_long":106.816926}],[{"line":2,"station_name":"Sawah Besar","distance":0,"time":0,"is_transit":false,"station_id":"SW","i_long":106.827103,"transit":false,"i_lat":-6.160725},{"is_transit":false,"time":2,"distance":906,"station_name":"Manggabesar","station_id":"MGB","i_lat":-6.149769,"line":2,"transit":false,"i_long":106.82482},{"station_name":"Jayakarta","time":2,"station_id":"JAY","i_lat":-6.141205,"i_long":106.820901,"line":7,"distance":1080,"is_transit":false,"transit":false},{"station_id":"JAKK","transit":true,"station_name":"Jakarta Kota","time":4,"i_long":106.812439,"distance":1264,"is_transit":true,"line":0,"i_lat":-6.137569},{"i_lat":-6.132549,"time":3,"station_id":"KPB","i_long":106.826365,"is_transit":true,"line":0,"distance":1364,"station_name":"Kampung Bandan","transit":true},{"i_lat":-6.14505,"station_name":"Rajawali","line":11,"station_id":"RJW","transit":false,"distance":1444,"time":3,"is_transit":false,"i_long":106.836569},{"station_id":"KMO","station_name":"Kemayoran","time":5,"distance":1901,"transit":false,"i_lat":-6.161728,"line":11,"i_long":106.839204,"is_transit":false},{"i_lat":-6.174784,"time":4,"station_name":"Pasar Senen","distance":1436,"line":11,"transit":false,"station_id":"PSE","is_transit":false,"i_long":106.84368},{"i_long":106.850107,"is_transit":false,"distance":1567,"time":8,"line":11,"station_id":"GST","transit":false,"station_name":"Gang Sentiong","i_lat":-6.185975},{"is_transit":false,"distance":973,"station_name":"Kramat","transit":false,"i_lat":-6.193792,"i_long":106.855437,"line":11,"station_id":"KMT","time":1},{"distance":1829,"i_lat":-6.209188,"is_transit":false,"time":2,"transit":false,"i_long":106.861737,"station_id":"POK","station_name":"Pondok Jati","line":11},{"station_name":"Jatinegara","time":9,"line":0,"i_long":106.86807400000001,"transit":true,"distance":1236,"station_id":"JNG","is_transit":true,"i_lat":-6.215091},{"transit":false,"station_id":"MTR","is_transit":false,"station_name":"Matraman","time":2,"line":1,"i_lat":-6.212485,"i_long":106.858896,"distance":1377},{"line":0,"station_name":"Manggarai","is_transit":true,"distance":1275,"i_lat":-6.209883,"station_id":"MRI","i_long":106.84912,"time":2,"transit":true},{"is_transit":false,"i_lat":-6.226659,"transit":false,"distance":2610,"line":2,"station_name":"Tebet","time":4,"station_id":"TEB","i_long":106.857948},{"station_id":"CW","i_long":106.856607,"distance":1230,"line":0,"station_name":"Cawang","transit":false,"i_lat":-6.242512,"time":2,"is_transit":false},{"time":3,"station_name":"Duren Kalibata","i_long":106.85449,"i_lat":-6.255332,"line":0,"distance":1546,"is_transit":false,"transit":false,"station_id":"DRN"},{"station_id":"PSMB","distance":824,"transit":false,"time":2,"i_lat":-6.263214,"i_long":106.851577,"station_name":"Pasar Minggu Baru","line":2,"is_transit":false},{"station_name":"Pasar Minggu","i_long":106.843999,"is_transit":false,"line":2,"distance":2380,"time":2,"i_lat":-6.2842400000000005,"transit":false,"station_id":"PSM"},{"station_id":"TNT","line":2,"distance":2820,"i_lat":-6.3080680000000005,"station_name":"Tanjung Barat","time":4,"transit":false,"is_transit":false,"i_long":106.838896},{"distance":2671,"i_lat":-6.330363,"time":3,"line":2,"transit":false,"station_name":"Lenteng Agung","is_transit":false,"station_id":"LNA","i_long":106.832616},{"time":2,"i_lat":-6.339291,"line":2,"is_transit":false,"station_name":"Univ. Pancasila","distance":1029,"i_long":106.834175,"station_id":"UP","transit":false},{"station_name":"Univ. Indonesia","distance":2264,"time":3,"transit":false,"station_id":"UI","i_long":106.831474,"is_transit":false,"i_lat":-6.360749,"line":2},{"transit":false,"i_long":106.831114,"station_id":"POC","is_transit":false,"distance":1109,"time":2,"line":2,"station_name":"Pondok Cina","i_lat":-6.369073},{"is_transit":false,"i_long":106.819451,"line":0,"station_name":"Depokbaru","transit":false,"time":4,"station_id":"DPB","distance":2727,"i_lat":-6.391065},{"is_transit":false,"station_name":"Depok","i_long":106.816926,"distance":1584,"time":3,"station_id":"DP","transit":false,"line":0,"i_lat":-6.405256}]]}