{"data":[[{"station_name":"Sawah Besar","i_long":106.827103,"distance":0,"time":0,"transit":false,"line":2,"station_id":"SW","i_lat":-6.160725,"is_transit":false},{"line":2,"i_lat":-6.166716,"station_id":"JUA","is_transit":false,"i_long":106.828284,"time":2,"transit":false,"station_name":"Juanda","distance":1149},{"i_lat":-6.186295,"station_name":"Gondangdia","i_long":106.832183,"line":2,"station_id":"GDD","distance":2015,"transit":false,"time":4,"is_transit":false},{"station_name":"Cikini","time":3,"line":2,"is_transit":false,"distance":1750,"i_long":106.840169,"transit":false,"station_id":"CKI","i_lat":-6.198556},{"line":2,"distance":1590,"station_name":"Manggarai","station_id":"MRI","i_lat":-6.209883,"is_transit":false,"transit":false,"time":4,"i_long":106.84912},{"time":4,"distance":2610,"is_transit":false,"station_name":"Tebet","i_lat":-6.226659,"station_id":"TEB","i_long":106.857948,"transit":false,"line":2},{"station_name":"Cawang","is_transit":false,"i_long":106.856607,"time":2,"distance":1230,"transit":false,"i_lat":-6.242512,"line":2,"station_id":"CW"},{"is_transit":false,"i_lat":-6.255332,"i_long":106.85449,"distance":1546,"station_id":"DRN","transit":false,"time":3,"station_name":"Duren Kalibata","line":2},{"time":2,"i_lat":-6.263214,"transit":false,"is_transit":false,"line":2,"station_id":"PSMB","distance":824,"station_name":"Pasar Minggu Baru","i_long":106.851577},{"line":2,"distance":2380,"station_id":"PSM","station_name":"Pasar Minggu","i_lat":-6.2842400000000005,"transit":false,"time":2,"is_transit":false,"i_long":106.843999},{"i_long":106.838896,"line":2,"station_id":"TNT","is_transit":false,"transit":false,"i_lat":-6.3080680000000005,"distance":2820,"station_name":"Tanjung Barat","time":4},{"i_long":106.832616,"line":2,"i_lat":-6.330363,"transit":false,"is_transit":false,"station_id":"LNA","station_name":"Lenteng Agung","time":3,"distance":2671},{"line":2,"i_long":106.834175,"station_name":"Univ. Pancasila","is_transit":false,"station_id":"UP","distance":1029,"time":2,"i_lat":-6.339291,"transit":false},{"is_transit":false,"transit":false,"time":3,"station_id":"UI","line":2,"distance":2264,"station_name":"Univ. Indonesia","i_lat":-6.360749,"i_long":106.831474},{"station_id":"POC","i_lat":-6.369073,"transit":false,"is_transit":false,"time":2,"line":2,"station_name":"Pondok Cina","i_long":106.831114,"distance":1109},{"i_long":106.819451,"is_transit":false,"time":4,"distance":2727,"i_lat":-6.391065,"line":2,"station_name":"Depokbaru","station_id":"DPB","transit":false},{"transit":false,"time":3,"station_id":"DP","station_name":"Depok","distance":1584,"i_lat":-6.405256,"line":2,"i_long":106.816926,"is_transit":false}],[{"line":2,"i_long":106.827103,"time":0,"distance":0,"is_transit":false,"station_id":"SW","i_lat":-6.160725,"station_name":"Sawah Besar","transit":false},{"is_transit":false,"distance":906,"time":2,"station_name":"Manggabesar","i_long":106.82482,"transit":false,"i_lat":-6.149769,"line":2,"station_id":"MGB"},{"transit":false,"station_name":"Jayakarta","is_transit":false,"distance":1080,"i_long":106.820901,"station_id":"JAY","i_lat":-6.141205,"time":2,"line":2},{"station_id":"JAKK","time":4,"i_lat":-6.137569,"distance":1264,"line":2,"i_long":106.812439,"is_transit":true,"station_name":"Jakarta Kota","transit":true},{"station_id":"KPB","transit":true,"is_transit":true,"line":4,"i_lat":-6.132549,"i_long":106.826365,"distance":1364,"time":3,"station_name":"Kampung Bandan"},{"station_id":"AK","time":9,"distance":4102,"i_long":106.79867,"station_name":"Angke","i_lat":-6.144674,"line":1,"transit":false,"is_transit":false},{"i_long":106.800832,"time":4,"line":1,"station_id":"DU","is_transit":false,"i_lat":-6.155215,"transit":false,"station_name":"Duri","distance":1230},{"station_id":"THB","station_name":"Tanah Abang","i_lat":-6.185545,"is_transit":false,"distance":3632,"transit":false,"line":1,"time":8,"i_long":106.811091},{"is_transit":false,"distance":2029,"transit":false,"station_name":"Karet","time":5,"i_lat":-6.20132,"station_id":"KAT","i_long":106.816351,"line":1},{"station_id":"SUDB","line":1,"transit":false,"is_transit":false,"time":1,"i_long":106.819881,"i_lat":-6.201433,"station_name":"Sudirman Baru","distance":471},{"i_lat":-6.202263,"distance":280,"i_long":106.822649,"transit":false,"station_name":"Sudirman","station_id":"SUD","line":1,"is_transit":false,"time":1},{"transit":true,"i_lat":-6.209883,"i_long":106.84912,"distance":3186,"line":2,"time":4,"station_name":"Manggarai","station_id":"MRI","is_transit":true},{"distance":2610,"transit":false,"i_lat":-6.226659,"i_long":106.857948,"line":2,"station_id":"TEB","time":4,"station_name":"Tebet","is_transit":false},{"time":2,"line":2,"station_name":"Cawang","station_id":"CW","is_transit":false,"i_lat":-6.242512,"i_long":106.856607,"distance":1230,"transit":false},{"distance":1546,"station_name":"Duren Kalibata","station_id":"DRN","is_transit":false,"time":3,"transit":false,"i_lat":-6.255332,"i_long":106.85449,"line":2},{"i_lat":-6.263214,"time":2,"line":2,"i_long":106.851577,"is_transit":false,"distance":824,"transit":false,"station_name":"Pasar Minggu Baru","station_id":"PSMB"},{"station_id":"PSM","transit":false,"time":2,"distance":2380,"i_lat":-6.2842400000000005,"line":2,"station_name":"Pasar Minggu","is_transit":false,"i_long":106.843999},{"station_name":"Tanjung Barat","distance":2820,"line":2,"i_long":106.838896,"is_transit":false,"time":4,"i_lat":-6.3080680000000005,"station_id":"TNT","transit":false},{"is_transit":false,"distance":2671,"i_long":106.832616,"transit":false,"station_name":"Lenteng Agung","time":3,"line":2,"station_id":"LNA","i_lat":-6.330363},{"transit":false,"line":2,"station_name":"Univ. Pancasila","station_id":"UP","time":2,"i_lat":-6.339291,"distance":1029,"is_transit":false,"i_long":106.834175},{"i_long":106.831474,"distance":2264,"time":3,"station_id":"UI","i_lat":-6.360749,"line":2,"transit":false,"station_name":"Univ. Indonesia","is_transit":false},{"line":2,"station_id":"POC","transit":false,"is_transit":false,"station_name":"Pondok Cina","distance":1109,"i_lat":-6.369073,"i_long":106.831114,"time":2},{"i_long":106.819451,"line":2,"station_id":"DPB","transit":false,"time":4,"i_lat":-6.391065,"station_name":"Depokbaru","is_transit":false,"distance":2727},{"station_name":"Depok","distance":1584,"i_long":106.816926,"station_id":"DP","i_lat":-6.405256,"is_transit":false,"line":2,"time":3,"transit":false}],[{"i_lat":-6.160725,"transit":false,"distance":0,"time":0,"i_long":106.827103,"is_transit":false,"station_id":"SW","station_name":"Sawah Besar","line":2},{"station_name":"Manggabesar","time":2,"i_lat":-6.149769,"i_long":106.82482,"distance":906,"station_id":"MGB","is_transit":false,"line":2,"transit":false},{"line":2,"time":2,"station_name":"Jayakarta","station_id":"JAY","i_lat":-6.141205,"i_long":106.820901,"transit":false,"is_transit":false,"distance":1080},{"station_id":"JAKK","i_lat":-6.137569,"is_transit":true,"distance":1264,"time":4,"i_long":106.812439,"line":2,"transit":true,"station_name":"Jakarta Kota"},{"line":4,"is_transit":true,"i_lat":-6.132549,"distance":1364,"station_name":"Kampung Bandan","i_long":106.826365,"transit":true,"time":3,"station_id":"KPB"},{"is_transit":false,"station_name":"Rajawali","i_long":106.836569,"line":11,"station_id":"RJW","transit":false,"time":3,"distance":1444,"i_lat":-6.14505},{"line":11,"time":5,"distance":1901,"station_name":"Kemayoran","is_transit":false,"transit":false,"i_lat":-6.161728,"station_id":"KMO","i_long":106.839204},{"time":4,"is_transit":false,"transit":false,"i_long":106.84368,"station_name":"Pasar Senen","i_lat":-6.174784,"station_id":"PSE","distance":1436,"line":11},{"is_transit":false,"time":8,"station_id":"GST","transit":false,"station_name":"Gang Sentiong","distance":1567,"i_lat":-6.185975,"i_long":106.850107,"line":11},{"transit":false,"distance":973,"line":11,"is_transit":false,"i_lat":-6.193792,"station_id":"KMT","i_long":106.855437,"station_name":"Kramat","time":1},{"line":11,"station_name":"Pondok Jati","transit":false,"is_transit":false,"distance":1829,"i_long":106.861737,"time":2,"i_lat":-6.209188,"station_id":"POK"},{"line":1,"i_lat":-6.215091,"i_long":106.86807400000001,"station_id":"JNG","time":9,"transit":true,"station_name":"Jatinegara","is_transit":true,"distance":1236},{"is_transit":false,"distance":1377,"time":2,"i_lat":-6.212485,"station_id":"MTR","i_long":106.858896,"transit":false,"line":1,"station_name":"Matraman"},{"line":2,"i_lat":-6.209883,"is_transit":true,"time":2,"transit":true,"distance":1275,"i_long":106.84912,"station_id":"MRI","station_name":"Manggarai"},{"time":4,"i_long":106.857948,"is_transit":false,"distance":2610,"transit":false,"station_id":"TEB","station_name":"Tebet","i_lat":-6.226659,"line":2},{"station_id":"CW","is_transit":false,"i_long":106.856607,"time":2,"line":2,"distance":1230,"transit":false,"station_name":"Cawang","i_lat":-6.242512},{"distance":1546,"i_lat":-6.255332,"i_long":106.85449,"line":2,"is_transit":false,"station_id":"DRN","transit":false,"station_name":"Duren Kalibata","time":3},{"time":2,"distance":824,"transit":false,"i_long":106.851577,"station_name":"Pasar Minggu Baru","line":2,"station_id":"PSMB","is_transit":false,"i_lat":-6.263214},{"station_id":"PSM","time":2,"transit":false,"i_long":106.843999,"distance":2380,"line":2,"is_transit":false,"i_lat":-6.2842400000000005,"station_name":"Pasar Minggu"},{"time":4,"station_name":"Tanjung Barat","line":2,"distance":2820,"i_long":106.838896,"i_lat":-6.3080680000000005,"is_transit":false,"station_id":"TNT","transit":false},{"line":2,"distance":2671,"transit":false,"i_long":106.832616,"time":3,"i_lat":-6.330363,"station_id":"LNA","station_name":"Lenteng Agung","is_transit":false},{"i_long":106.834175,"transit":false,"i_lat":-6.339291,"is_transit":false,"station_id":"UP","line":2,"distance":1029,"station_name":"Univ. Pancasila","time":2},{"is_transit":false,"line":2,"distance":2264,"i_lat":-6.360749,"station_id":"UI","transit":false,"time":3,"i_long":106.831474,"station_name":"Univ. Indonesia"},{"distance":1109,"time":2,"station_name":"Pondok Cina","station_id":"POC","i_lat":-6.369073,"i_long":106.831114,"is_transit":false,"line":2,"transit":false},{"line":2,"station_name":"Depokbaru","time":4,"station_id":"DPB","transit":false,"i_lat":-6.391065,"is_transit":false,"distance":2727,"i_long":106.819451},{"i_lat":-6.405256,"distance":1584,"is_transit":false,"i_long":106.816926,"line":2,"time":3,"transit":false,"station_id":"DP","station_name":"Depok"}]]}