{"data":[[{"is_transit":false,"i_long":106.827103,"i_lat":-6.160725,"time":0,"station_name":"Sawah Besar","distance":0,"transit":false,"station_id":"SW","line":2},{"is_transit":false,"line":2,"i_long":106.828284,"transit":false,"station_id":"JUA","time":2,"distance":1149,"station_name":"Juanda","i_lat":-6.166716},{"is_transit":false,"distance":2015,"i_lat":-6.186295,"station_id":"GDD","station_name":"Gondangdia","i_long":106.832183,"transit":false,"time":4,"line":2},{"i_long":106.840169,"station_id":"CKI","time":3,"is_transit":false,"station_name":"Cikini","distance":1750,"line":2,"i_lat":-6.198556,"transit":false},{"transit":false,"time":4,"i_lat":-6.209883,"i_long":106.84912,"station_id":"MRI","station_name":"Manggarai","distance":1590,"line":2,"is_transit":false},{"line":2,"is_transit":false,"transit":false,"time":4,"station_name":"Tebet","distance":2610,"i_lat":-6.226659,"station_id":"TEB","i_long":106.857948},{"is_transit":false,"transit":false,"station_name":"Cawang","i_lat":-6.242512,"line":2,"station_id":"CW","time":2,"distance":1230,"i_long":106.856607},{"line":2,"is_transit":false,"distance":1546,"station_name":"Duren Kalibata","transit":false,"i_lat":-6.255332,"station_id":"DRN","time":3,"i_long":106.85449},{"time":2,"i_lat":-6.263214,"transit":false,"station_id":"PSMB","distance":824,"i_long":106.851577,"station_name":"Pasar Minggu Baru","line":2,"is_transit":false},{"line":2,"time":2,"i_lat":-6.2842400000000005,"distance":2380,"is_transit":false,"i_long":106.843999,"station_id":"PSM","transit":false,"station_name":"Pasar Minggu"},{"station_name":"Tanjung Barat","line":2,"i_long":106.838896,"transit":false,"station_id":"TNT","time":4,"is_transit":false,"distance":2820,"i_lat":-6.3080680000000005},{"station_id":"LNA","i_long":106.832616,"i_lat":-6.330363,"is_transit":false,"line":2,"station_name":"Lenteng Agung","time":3,"distance":2671,"transit":false},{"i_lat":-6.339291,"transit":false,"line":2,"station_name":"Univ. Pancasila","distance":1029,"is_transit":false,"i_long":106.834175,"station_id":"UP","time":2},{"distance":2264,"time":3,"i_lat":-6.360749,"station_id":"UI","station_name":"Univ. Indonesia","is_transit":false,"line":2,"i_long":106.831474,"transit":false},{"distance":1109,"transit":false,"station_name":"Pondok Cina","time":2,"station_id":"POC","i_lat":-6.369073,"line":2,"is_transit":false,"i_long":106.831114},{"station_id":"DPB","distance":2727,"time":4,"transit":false,"is_transit":false,"station_name":"Depokbaru","i_lat":-6.391065,"line":2,"i_long":106.819451},{"transit":false,"distance":1584,"i_lat":-6.405256,"is_transit":false,"station_id":"DP","time":3,"i_long":106.816926,"line":2,"station_name":"Depok"}],[{"transit":false,"i_long":106.827103,"time":0,"distance":0,"is_transit":false,"i_lat":-6.160725,"station_id":"SW","station_name":"Sawah Besar","line":2},{"station_name":"Manggabesar","distance":906,"transit":false,"i_lat":-6.149769,"time":2,"i_long":106.82482,"is_transit":false,"station_id":"MGB","line":2},{"distance":1080,"station_name":"Jayakarta","is_transit":false,"i_lat":-6.141205,"i_long":106.820901,"time":2,"line":2,"station_id":"JAY","transit":false},{"transit":true,"station_id":"JAKK","i_lat":-6.137569,"time":4,"i_long":106.812439,"distance":1264,"is_transit":true,"station_name":"Jakarta Kota","line":2},{"i_lat":-6.132549,"station_name":"Kampung Bandan","is_transit":true,"line":4,"station_id":"KPB","i_long":106.826365,"transit":true,"time":3,"distance":1364},{"is_transit":false,"transit":false,"station_name":"Angke","station_id":"AK","distance":4102,"i_lat":-6.144674,"time":9,"i_long":106.79867,"line":1},{"station_id":"DU","distance":1230,"is_transit":false,"time":4,"transit":false,"station_name":"Duri","line":1,"i_lat":-6.155215,"i_long":106.800832},{"time":8,"transit":false,"i_lat":-6.185545,"distance":3632,"station_id":"THB","is_transit":false,"i_long":106.811091,"line":1,"station_name":"Tanah Abang"},{"distance":2029,"station_name":"Karet","time":5,"i_lat":-6.20132,"line":1,"is_transit":false,"i_long":106.816351,"station_id":"KAT","transit":false},{"i_lat":-6.201433,"time":1,"line":1,"station_name":"Sudirman Baru","transit":false,"distance":471,"i_long":106.819881,"station_id":"SUDB","is_transit":false},{"is_transit":false,"i_lat":-6.202263,"distance":280,"line":1,"time":1,"transit":false,"i_long":106.822649,"station_name":"Sudirman","station_id":"SUD"},{"transit":true,"station_name":"Manggarai","station_id":"MRI","is_transit":true,"time":4,"i_lat":-6.209883,"distance":3186,"i_long":106.84912,"line":2},{"station_id":"TEB","time":4,"i_long":106.857948,"distance":2610,"line":2,"transit":false,"is_transit":false,"i_lat":-6.226659,"station_name":"Tebet"},{"i_long":106.856607,"station_name":"Cawang","transit":false,"station_id":"CW","i_lat":-6.242512,"is_transit":false,"time":2,"line":2,"distance":1230},{"time":3,"i_lat":-6.255332,"station_id":"DRN","station_name":"Duren Kalibata","transit":false,"line":2,"i_long":106.85449,"distance":1546,"is_transit":false},{"station_id":"PSMB","distance":824,"i_lat":-6.263214,"transit":false,"i_long":106.851577,"time":2,"station_name":"Pasar Minggu Baru","is_transit":false,"line":2},{"station_name":"Pasar Minggu","transit":false,"i_lat":-6.2842400000000005,"i_long":106.843999,"station_id":"PSM","time":2,"distance":2380,"line":2,"is_transit":false},{"i_long":106.838896,"time":4,"station_id":"TNT","distance":2820,"is_transit":false,"station_name":"Tanjung Barat","line":2,"i_lat":-6.3080680000000005,"transit":false},{"i_lat":-6.330363,"i_long":106.832616,"is_transit":false,"line":2,"distance":2671,"time":3,"transit":false,"station_id":"LNA","station_name":"Lenteng Agung"},{"i_lat":-6.339291,"line":2,"time":2,"station_id":"UP","station_name":"Univ. Pancasila","distance":1029,"transit":false,"i_long":106.834175,"is_transit":false},{"time":3,"i_long":106.831474,"station_name":"Univ. Indonesia","transit":false,"i_lat":-6.360749,"is_transit":false,"line":2,"station_id":"UI","distance":2264},{"i_lat":-6.369073,"station_name":"Pondok Cina","is_transit":false,"distance":1109,"time":2,"line":2,"i_long":106.831114,"transit":false,"station_id":"POC"},{"time":4,"transit":false,"i_long":106.819451,"is_transit":false,"line":2,"distance":2727,"i_lat":-6.391065,"station_id":"DPB","station_name":"Depokbaru"},{"transit":false,"is_transit":false,"i_lat":-6.405256,"i_long":106.816926,"line":2,"time":3,"station_name":"Depok","distance":1584,"station_id":"DP"}],[{"i_lat":-6.160725,"station_id":"SW","time":0,"is_transit":false,"distance":0,"line":2,"i_long":106.827103,"transit":false,"station_name":"Sawah Besar"},{"is_transit":false,"distance":906,"transit":false,"i_lat":-6.149769,"time":2,"station_name":"Manggabesar","station_id":"MGB","i_long":106.82482,"line":2},{"distance":1080,"is_transit":false,"i_lat":-6.141205,"station_id":"JAY","station_name":"Jayakarta","i_long":106.820901,"transit":false,"time":2,"line":2},{"is_transit":true,"line":2,"time":4,"i_long":106.812439,"station_id":"JAKK","transit":true,"station_name":"Jakarta Kota","i_lat":-6.137569,"distance":1264},{"i_long":106.826365,"line":4,"i_lat":-6.132549,"station_id":"KPB","is_transit":true,"time":3,"station_name":"Kampung Bandan","distance":1364,"transit":true},{"time":3,"station_id":"RJW","station_name":"Rajawali","line":11,"i_long":106.836569,"i_lat":-6.14505,"transit":false,"distance":1444,"is_transit":false},{"transit":false,"time":5,"i_lat":-6.161728,"station_id":"KMO","is_transit":false,"i_long":106.839204,"distance":1901,"line":11,"station_name":"Kemayoran"},{"is_transit":false,"station_id":"PSE","station_name":"Pasar Senen","transit":false,"time":4,"distance":1436,"i_lat":-6.174784,"i_long":106.84368,"line":11},{"i_lat":-6.185975,"station_id":"GST","is_transit":false,"i_long":106.850107,"transit":false,"time":8,"distance":1567,"station_name":"Gang Sentiong","line":11},{"station_id":"KMT","distance":973,"is_transit":false,"i_lat":-6.193792,"i_long":106.855437,"station_name":"Kramat","time":1,"transit":false,"line":11},{"time":2,"station_name":"Pondok Jati","station_id":"POK","i_lat":-6.209188,"transit":false,"line":11,"is_transit":false,"distance":1829,"i_long":106.861737},{"time":9,"station_id":"JNG","is_transit":true,"station_name":"Jatinegara","transit":true,"line":1,"distance":1236,"i_lat":-6.215091,"i_long":106.86807400000001},{"transit":false,"station_name":"Matraman","i_long":106.858896,"i_lat":-6.212485,"time":2,"distance":1377,"station_id":"MTR","is_transit":false,"line":1},{"time":2,"is_transit":true,"i_long":106.84912,"station_name":"Manggarai","line":2,"i_lat":-6.209883,"station_id":"MRI","transit":true,"distance":1275},{"distance":2610,"station_name":"Tebet","i_long":106.857948,"transit":false,"i_lat":-6.226659,"line":2,"is_transit":false,"time":4,"station_id":"TEB"},{"time":2,"is_transit":false,"i_long":106.856607,"station_id":"CW","distance":1230,"transit":false,"line":2,"station_name":"Cawang","i_lat":-6.242512},{"is_transit":false,"station_id":"DRN","distance":1546,"line":2,"time":3,"i_lat":-6.255332,"i_long":106.85449,"transit":false,"station_name":"Duren Kalibata"},{"time":2,"is_transit":false,"station_name":"Pasar Minggu Baru","station_id":"PSMB","transit":false,"i_lat":-6.263214,"i_long":106.851577,"line":2,"distance":824},{"distance":2380,"is_transit":false,"transit":false,"station_id":"PSM","i_lat":-6.2842400000000005,"time":2,"i_long":106.843999,"station_name":"Pasar Minggu","line":2},{"i_lat":-6.3080680000000005,"station_id":"TNT","line":2,"i_long":106.838896,"distance":2820,"time":4,"is_transit":false,"transit":false,"station_name":"Tanjung Barat"},{"is_transit":false,"distance":2671,"transit":false,"i_lat":-6.330363,"line":2,"time":3,"station_name":"Lenteng Agung","i_long":106.832616,"station_id":"LNA"},{"station_id":"UP","line":2,"distance":1029,"time":2,"is_transit":false,"i_lat":-6.339291,"i_long":106.834175,"station_name":"Univ. Pancasila","transit":false},{"distance":2264,"i_lat":-6.360749,"is_transit":false,"time":3,"station_name":"Univ. Indonesia","station_id":"UI","transit":false,"i_long":106.831474,"line":2},{"station_id":"POC","is_transit":false,"i_long":106.831114,"i_lat":-6.369073,"line":2,"transit":false,"time":2,"distance":1109,"station_name":"Pondok Cina"},{"station_id":"DPB","station_name":"Depokbaru","transit":false,"distance":2727,"i_long":106.819451,"line":2,"time":4,"i_lat":-6.391065,"is_transit":false},{"i_lat":-6.405256,"i_long":106.816926,"is_transit":false,"transit":false,"station_id":"DP","time":3,"distance":1584,"line":2,"station_name":"Depok"}]]}