{"data":[[{"distance":0,"transit":false,"time":0,"station_name":"Sawah Besar","station_id":"SW","line":2,"i_lat":-6.160725,"is_transit":false,"i_long":106.827103},{"i_lat":-6.166716,"i_long":106.828284,"time":2,"line":2,"transit":false,"station_name":"Juanda","station_id":"JUA","distance":1149,"is_transit":false},{"station_id":"GDD","i_long":106.832183,"i_lat":-6.186295,"is_transit":false,"station_name":"Gondangdia","distance":2015,"time":4,"transit":false,"line":2},{"i_lat":-6.198556,"is_transit":false,"time":3,"i_long":106.840169,"distance":1750,"station_name":"Cikini","line":2,"transit":false,"station_id":"CKI"},{"station_id":"MRI","distance":1590,"transit":false,"i_long":106.84912,"is_transit":false,"station_name":"Manggarai","time":4,"i_lat":-6.209883,"line":2},{"i_long":106.857948,"line":2,"transit":false,"distance":2610,"station_id":"TEB","is_transit":false,"time":4,"station_name":"Tebet","i_lat":-6.226659},{"distance":1230,"is_transit":false,"i_long":106.856607,"station_id":"CW","station_name":"Cawang","i_lat":-6.242512,"line":2,"time":2,"transit":false},{"i_long":106.85449,"transit":false,"time":3,"station_name":"Duren Kalibata","is_transit":false,"i_lat":-6.255332,"line":2,"station_id":"DRN","distance":1546},{"transit":false,"is_transit":false,"time":2,"station_name":"Pasar Minggu Baru","station_id":"PSMB","i_long":106.851577,"distance":824,"i_lat":-6.263214,"line":2},{"i_lat":-6.2842400000000005,"distance":2380,"station_id":"PSM","time":2,"is_transit":false,"transit":false,"i_long":106.843999,"line":2,"station_name":"Pasar Minggu"},{"station_name":"Tanjung Barat","i_lat":-6.3080680000000005,"time":4,"is_transit":false,"distance":2820,"station_id":"TNT","i_long":106.838896,"transit":false,"line":2},{"transit":false,"line":2,"time":3,"is_transit":false,"i_lat":-6.330363,"station_id":"LNA","station_name":"Lenteng Agung","i_long":106.832616,"distance":2671},{"time":2,"i_long":106.834175,"line":2,"station_id":"UP","is_transit":false,"transit":false,"distance":1029,"i_lat":-6.339291,"station_name":"Univ. Pancasila"},{"station_name":"Univ. Indonesia","i_lat":-6.360749,"station_id":"UI","is_transit":false,"time":3,"distance":2264,"transit":false,"line":2,"i_long":106.831474},{"is_transit":false,"station_name":"Pondok Cina","i_lat":-6.369073,"i_long":106.831114,"time":2,"line":2,"station_id":"POC","transit":false,"distance":1109},{"time":4,"line":2,"station_id":"DPB","transit":false,"station_name":"Depokbaru","i_long":106.819451,"i_lat":-6.391065,"distance":2727,"is_transit":false},{"transit":false,"station_name":"Depok","distance":1584,"station_id":"DP","is_transit":false,"i_lat":-6.405256,"line":2,"time":3,"i_long":106.816926}],[{"i_lat":-6.160725,"station_id":"SW","transit":false,"line":2,"time":0,"i_long":106.827103,"distance":0,"station_name":"Sawah Besar","is_transit":false},{"transit":false,"line":2,"station_id":"MGB","is_transit":false,"station_name":"Manggabesar","i_lat":-6.149769,"i_long":106.82482,"time":2,"distance":906},{"i_lat":-6.141205,"time":2,"is_transit":false,"station_id":"JAY","station_name":"Jayakarta","i_long":106.820901,"line":2,"distance":1080,"transit":false},{"distance":1264,"line":2,"i_lat":-6.137569,"transit":true,"is_transit":true,"i_long":106.812439,"time":4,"station_name":"Jakarta Kota","station_id":"JAKK"},{"is_transit":true,"station_name":"Kampung Bandan","distance":1364,"station_id":"KPB","transit":true,"i_long":106.826365,"i_lat":-6.132549,"line":4,"time":3},{"i_lat":-6.144674,"station_name":"Angke","time":9,"is_transit":false,"station_id":"AK","line":1,"distance":4102,"i_long":106.79867,"transit":false},{"i_lat":-6.155215,"line":1,"transit":false,"i_long":106.800832,"is_transit":false,"distance":1230,"time":4,"station_id":"DU","station_name":"Duri"},{"transit":false,"time":8,"station_id":"THB","distance":3632,"i_lat":-6.185545,"i_long":106.811091,"station_name":"Tanah Abang","line":1,"is_transit":false},{"i_long":106.816351,"time":5,"distance":2029,"i_lat":-6.20132,"station_name":"Karet","line":1,"transit":false,"is_transit":false,"station_id":"KAT"},{"transit":false,"distance":471,"is_transit":false,"i_lat":-6.201433,"station_name":"Sudirman Baru","i_long":106.819881,"line":1,"time":1,"station_id":"SUDB"},{"transit":false,"station_id":"SUD","time":1,"distance":280,"i_lat":-6.202263,"i_long":106.822649,"line":1,"is_transit":false,"station_name":"Sudirman"},{"i_lat":-6.209883,"i_long":106.84912,"station_name":"Manggarai","line":2,"distance":3186,"time":4,"transit":true,"is_transit":true,"station_id":"MRI"},{"line":2,"i_lat":-6.226659,"time":4,"is_transit":false,"station_id":"TEB","distance":2610,"station_name":"Tebet","transit":false,"i_long":106.857948},{"transit":false,"line":2,"is_transit":false,"station_name":"Cawang","distance":1230,"i_lat":-6.242512,"i_long":106.856607,"time":2,"station_id":"CW"},{"station_name":"Duren Kalibata","station_id":"DRN","i_long":106.85449,"distance":1546,"i_lat":-6.255332,"line":2,"transit":false,"time":3,"is_transit":false},{"is_transit":false,"time":2,"transit":false,"distance":824,"station_name":"Pasar Minggu Baru","station_id":"PSMB","line":2,"i_long":106.851577,"i_lat":-6.263214},{"line":2,"distance":2380,"station_id":"PSM","transit":false,"i_lat":-6.2842400000000005,"station_name":"Pasar Minggu","i_long":106.843999,"time":2,"is_transit":false},{"i_lat":-6.3080680000000005,"i_long":106.838896,"is_transit":false,"station_id":"TNT","distance":2820,"line":2,"time":4,"transit":false,"station_name":"Tanjung Barat"},{"i_long":106.832616,"line":2,"time":3,"is_transit":false,"transit":false,"i_lat":-6.330363,"distance":2671,"station_id":"LNA","station_name":"Lenteng Agung"},{"station_id":"UP","distance":1029,"is_transit":false,"i_lat":-6.339291,"line":2,"station_name":"Univ. Pancasila","i_long":106.834175,"time":2,"transit":false},{"i_long":106.831474,"station_id":"UI","distance":2264,"time":3,"is_transit":false,"station_name":"Univ. Indonesia","transit":false,"i_lat":-6.360749,"line":2},{"is_transit":false,"i_long":106.831114,"transit":false,"time":2,"station_name":"Pondok Cina","line":2,"distance":1109,"station_id":"POC","i_lat":-6.369073},{"transit":false,"i_long":106.819451,"distance":2727,"station_name":"Depokbaru","i_lat":-6.391065,"line":2,"station_id":"DPB","time":4,"is_transit":false},{"time":3,"is_transit":false,"transit":false,"i_lat":-6.405256,"distance":1584,"i_long":106.816926,"line":2,"station_name":"Depok","station_id":"DP"}],[{"station_name":"Sawah Besar","i_lat":-6.160725,"transit":false,"station_id":"SW","i_long":106.827103,"distance":0,"line":2,"time":0,"is_transit":false},{"is_transit":false,"station_id":"MGB","i_lat":-6.149769,"transit":false,"line":2,"distance":906,"time":2,"i_long":106.82482,"station_name":"Manggabesar"},{"transit":false,"line":2,"is_transit":false,"distance":1080,"i_lat":-6.141205,"i_long":106.820901,"time":2,"station_name":"Jayakarta","station_id":"JAY"},{"station_id":"JAKK","i_lat":-6.137569,"line":2,"transit":true,"station_name":"Jakarta Kota","is_transit":true,"i_long":106.812439,"time":4,"distance":1264},{"i_lat":-6.132549,"line":4,"i_long":106.826365,"transit":true,"station_name":"Kampung Bandan","station_id":"KPB","distance":1364,"time":3,"is_transit":true},{"i_lat":-6.14505,"i_long":106.836569,"is_transit":false,"station_id":"RJW","line":11,"distance":1444,"station_name":"Rajawali","transit":false,"time":3},{"is_transit":false,"time":5,"station_name":"Kemayoran","line":11,"distance":1901,"i_lat":-6.161728,"transit":false,"i_long":106.839204,"station_id":"KMO"},{"time":4,"is_transit":false,"i_long":106.84368,"i_lat":-6.174784,"transit":false,"distance":1436,"station_name":"Pasar Senen","line":11,"station_id":"PSE"},{"line":11,"station_name":"Gang Sentiong","transit":false,"i_lat":-6.185975,"is_transit":false,"distance":1567,"station_id":"GST","time":8,"i_long":106.850107},{"station_name":"Kramat","line":11,"transit":false,"station_id":"KMT","is_transit":false,"i_lat":-6.193792,"i_long":106.855437,"time":1,"distance":973},{"i_lat":-6.209188,"i_long":106.861737,"line":11,"time":2,"is_transit":false,"station_id":"POK","distance":1829,"transit":false,"station_name":"Pondok Jati"},{"i_long":106.86807400000001,"is_transit":true,"distance":1236,"station_name":"Jatinegara","line":1,"station_id":"JNG","i_lat":-6.215091,"transit":true,"time":9},{"transit":false,"station_name":"Matraman","distance":1377,"time":2,"i_lat":-6.212485,"is_transit":false,"line":1,"station_id":"MTR","i_long":106.858896},{"i_long":106.84912,"transit":true,"station_id":"MRI","line":2,"station_name":"Manggarai","is_transit":true,"time":2,"distance":1275,"i_lat":-6.209883},{"transit":false,"time":4,"i_long":106.857948,"station_id":"TEB","distance":2610,"station_name":"Tebet","is_transit":false,"i_lat":-6.226659,"line":2},{"i_long":106.856607,"is_transit":false,"station_id":"CW","time":2,"line":2,"i_lat":-6.242512,"station_name":"Cawang","distance":1230,"transit":false},{"station_name":"Duren Kalibata","time":3,"transit":false,"is_transit":false,"i_long":106.85449,"distance":1546,"i_lat":-6.255332,"station_id":"DRN","line":2},{"transit":false,"station_name":"Pasar Minggu Baru","i_lat":-6.263214,"time":2,"line":2,"is_transit":false,"i_long":106.851577,"station_id":"PSMB","distance":824},{"i_lat":-6.2842400000000005,"time":2,"is_transit":false,"station_name":"Pasar Minggu","distance":2380,"transit":false,"i_long":106.843999,"station_id":"PSM","line":2},{"station_id":"TNT","i_long":106.838896,"line":2,"station_name":"Tanjung Barat","time":4,"is_transit":false,"distance":2820,"transit":false,"i_lat":-6.3080680000000005},{"station_name":"Lenteng Agung","transit":false,"distance":2671,"is_transit":false,"i_long":106.832616,"time":3,"line":2,"station_id":"LNA","i_lat":-6.330363},{"transit":false,"line":2,"distance":1029,"time":2,"i_long":106.834175,"is_transit":false,"station_id":"UP","i_lat":-6.339291,"station_name":"Univ. Pancasila"},{"transit":false,"is_transit":false,"time":3,"line":2,"i_lat":-6.360749,"station_id":"UI","distance":2264,"i_long":106.831474,"station_name":"Univ. Indonesia"},{"time":2,"station_name":"Pondok Cina","i_lat":-6.369073,"station_id":"POC","line":2,"distance":1109,"is_transit":false,"transit":false,"i_long":106.831114},{"is_transit":false,"i_lat":-6.391065,"i_long":106.819451,"station_name":"Depokbaru","time":4,"station_id":"DPB","distance":2727,"line":2,"transit":false},{"transit":false,"is_transit":false,"distance":1584,"station_name":"Depok","i_lat":-6.405256,"station_id":"DP","time":3,"line":2,"i_long":106.816926}]]}