{"data":[[{"station_id":"SW","station_name":"Sawah Besar","distance":0,"line":2,"transit":false,"time":0,"i_lat":-6.160725,"is_transit":false,"i_long":106.827103},{"distance":1149,"station_id":"JUA","i_lat":-6.166716,"is_transit":false,"i_long":106.828284,"time":2,"line":2,"transit":false,"station_name":"Juanda"},{"distance":2015,"i_long":106.832183,"line":2,"station_id":"GDD","time":4,"i_lat":-6.186295,"station_name":"Gondangdia","transit":false,"is_transit":false},{"station_id":"CKI","distance":1750,"line":2,"station_name":"Cikini","i_long":106.840169,"is_transit":false,"time":3,"i_lat":-6.198556,"transit":false},{"distance":1590,"is_transit":true,"i_long":106.84912,"station_id":"MRI","i_lat":-6.209883,"station_name":"Manggarai","line":2,"transit":true,"time":4},{"transit":false,"station_id":"MTR","i_lat":-6.212485,"distance":1275,"i_long":106.858896,"station_name":"Matraman","is_transit":false,"time":2,"line":1},{"distance":1377,"line":1,"transit":false,"i_long":106.86807400000001,"i_lat":-6.215091,"is_transit":false,"station_id":"JNG","station_name":"Jatinegara","time":8},{"station_name":"Klender","is_transit":false,"time":3,"station_id":"KLD","line":1,"distance":3395,"i_long":106.899548,"i_lat":-6.2135,"transit":false}],[{"transit":false,"line":2,"i_lat":-6.160725,"station_id":"SW","station_name":"Sawah Besar","is_transit":false,"distance":0,"time":0,"i_long":106.827103},{"station_name":"Manggabesar","time":2,"line":2,"station_id":"MGB","transit":false,"is_transit":false,"i_lat":-6.149769,"i_long":106.82482,"distance":906},{"station_id":"JAY","transit":false,"time":2,"station_name":"Jayakarta","distance":1080,"is_transit":false,"i_lat":-6.141205,"i_long":106.820901,"line":2},{"line":2,"transit":true,"station_id":"JAKK","i_lat":-6.137569,"i_long":106.812439,"distance":1264,"time":4,"is_transit":true,"station_name":"Jakarta Kota"},{"distance":1364,"station_id":"KPB","transit":true,"time":3,"i_lat":-6.132549,"is_transit":true,"line":4,"station_name":"Kampung Bandan","i_long":106.826365},{"is_transit":false,"time":3,"station_id":"RJW","distance":1444,"i_lat":-6.14505,"line":11,"transit":false,"station_name":"Rajawali","i_long":106.836569},{"i_long":106.839204,"distance":1901,"time":5,"station_id":"KMO","transit":false,"station_name":"Kemayoran","is_transit":false,"line":11,"i_lat":-6.161728},{"i_long":106.84368,"i_lat":-6.174784,"station_id":"PSE","time":4,"station_name":"Pasar Senen","is_transit":false,"line":11,"distance":1436,"transit":false},{"is_transit":false,"i_lat":-6.185975,"transit":false,"time":8,"i_long":106.850107,"station_id":"GST","station_name":"Gang Sentiong","distance":1567,"line":11},{"transit":false,"station_id":"KMT","station_name":"Kramat","is_transit":false,"line":11,"i_lat":-6.193792,"time":1,"i_long":106.855437,"distance":973},{"station_id":"POK","transit":false,"i_long":106.861737,"station_name":"Pondok Jati","distance":1829,"i_lat":-6.209188,"time":2,"is_transit":false,"line":11},{"transit":true,"is_transit":true,"line":1,"i_lat":-6.215091,"station_name":"Jatinegara","i_long":106.86807400000001,"time":9,"distance":1236,"station_id":"JNG"},{"distance":3395,"i_long":106.899548,"is_transit":false,"station_id":"KLD","line":1,"station_name":"Klender","transit":false,"time":3,"i_lat":-6.2135}],[{"transit":false,"i_lat":-6.160725,"station_name":"Sawah Besar","time":0,"distance":0,"station_id":"SW","is_transit":false,"i_long":106.827103,"line":2},{"station_name":"Manggabesar","i_lat":-6.149769,"line":2,"is_transit":false,"station_id":"MGB","distance":906,"transit":false,"time":2,"i_long":106.82482},{"is_transit":false,"line":2,"transit":false,"station_id":"JAY","time":2,"i_lat":-6.141205,"i_long":106.820901,"station_name":"Jayakarta","distance":1080},{"station_id":"JAKK","station_name":"Jakarta Kota","time":4,"transit":true,"distance":1264,"i_long":106.812439,"is_transit":true,"i_lat":-6.137569,"line":2},{"station_name":"Kampung Bandan","is_transit":true,"distance":1364,"i_long":106.826365,"line":4,"time":3,"station_id":"KPB","i_lat":-6.132549,"transit":true},{"is_transit":false,"station_id":"AK","station_name":"Angke","time":9,"line":1,"i_lat":-6.144674,"i_long":106.79867,"transit":false,"distance":4102},{"is_transit":false,"distance":1230,"line":1,"transit":false,"station_id":"DU","station_name":"Duri","i_lat":-6.155215,"time":4,"i_long":106.800832},{"station_id":"THB","i_long":106.811091,"i_lat":-6.185545,"line":1,"transit":false,"station_name":"Tanah Abang","is_transit":false,"distance":3632,"time":8},{"station_id":"KAT","i_lat":-6.20132,"distance":2029,"is_transit":false,"line":1,"station_name":"Karet","i_long":106.816351,"time":5,"transit":false},{"distance":471,"station_name":"Sudirman Baru","i_lat":-6.201433,"i_long":106.819881,"is_transit":false,"line":1,"time":1,"transit":false,"station_id":"SUDB"},{"station_id":"SUD","is_transit":false,"i_lat":-6.202263,"i_long":106.822649,"time":1,"line":1,"station_name":"Sudirman","distance":280,"transit":false},{"line":2,"i_long":106.84912,"distance":3186,"i_lat":-6.209883,"station_name":"Manggarai","transit":false,"station_id":"MRI","is_transit":false,"time":4},{"station_name":"Matraman","is_transit":false,"transit":false,"i_lat":-6.212485,"time":2,"i_long":106.858896,"station_id":"MTR","line":1,"distance":1275},{"station_id":"JNG","is_transit":false,"time":8,"i_lat":-6.215091,"line":1,"distance":1377,"i_long":106.86807400000001,"transit":false,"station_name":"Jatinegara"},{"transit":false,"station_id":"KLD","station_name":"Klender","is_transit":false,"i_lat":-6.2135,"time":3,"distance":3395,"i_long":106.899548,"line":1}],[{"distance":0,"station_name":"Sawah Besar","is_transit":false,"line":2,"station_id":"SW","time":0,"transit":false,"i_lat":-6.160725,"i_long":106.827103},{"i_lat":-6.166716,"time":2,"distance":1149,"i_long":106.828284,"station_id":"JUA","transit":false,"station_name":"Juanda","is_transit":false,"line":2},{"is_transit":false,"i_long":106.832183,"station_id":"GDD","station_name":"Gondangdia","i_lat":-6.186295,"line":2,"distance":2015,"transit":false,"time":4},{"transit":false,"i_long":106.840169,"line":2,"station_name":"Cikini","is_transit":false,"i_lat":-6.198556,"station_id":"CKI","time":3,"distance":1750},{"transit":true,"is_transit":true,"distance":1590,"station_id":"MRI","time":4,"i_long":106.84912,"station_name":"Manggarai","line":2,"i_lat":-6.209883},{"distance":3186,"time":4,"i_lat":-6.202263,"station_name":"Sudirman","transit":false,"i_long":106.822649,"line":1,"is_transit":false,"station_id":"SUD"},{"station_id":"SUDB","i_long":106.819881,"station_name":"Sudirman Baru","distance":280,"time":1,"is_transit":false,"i_lat":-6.201433,"line":1,"transit":false},{"i_long":106.816351,"line":1,"station_name":"Karet","i_lat":-6.20132,"station_id":"KAT","transit":false,"is_transit":false,"time":1,"distance":471},{"transit":false,"distance":2029,"i_lat":-6.185545,"is_transit":false,"i_long":106.811091,"time":5,"station_id":"THB","station_name":"Tanah Abang","line":1},{"distance":3632,"time":8,"station_name":"Duri","i_lat":-6.155215,"i_long":106.800832,"line":1,"is_transit":false,"transit":false,"station_id":"DU"},{"station_id":"AK","i_lat":-6.144674,"i_long":106.79867,"is_transit":false,"time":4,"line":1,"transit":false,"station_name":"Angke","distance":1230},{"time":9,"is_transit":true,"distance":4102,"i_lat":-6.132549,"i_long":106.826365,"station_id":"KPB","station_name":"Kampung Bandan","transit":true,"line":4},{"is_transit":false,"line":11,"i_long":106.836569,"station_name":"Rajawali","station_id":"RJW","i_lat":-6.14505,"transit":false,"distance":1444,"time":3},{"transit":false,"station_id":"KMO","i_long":106.839204,"distance":1901,"line":11,"station_name":"Kemayoran","is_transit":false,"time":5,"i_lat":-6.161728},{"time":4,"station_id":"PSE","i_lat":-6.174784,"is_transit":false,"i_long":106.84368,"distance":1436,"station_name":"Pasar Senen","transit":false,"line":11},{"i_lat":-6.185975,"i_long":106.850107,"station_name":"Gang Sentiong","transit":false,"station_id":"GST","is_transit":false,"distance":1567,"line":11,"time":8},{"time":1,"line":11,"transit":false,"is_transit":false,"distance":973,"i_lat":-6.193792,"station_id":"KMT","station_name":"Kramat","i_long":106.855437},{"is_transit":false,"time":2,"station_id":"POK","distance":1829,"transit":false,"i_lat":-6.209188,"station_name":"Pondok Jati","i_long":106.861737,"line":11},{"i_lat":-6.215091,"i_long":106.86807400000001,"station_name":"Jatinegara","transit":true,"time":9,"line":1,"station_id":"JNG","is_transit":true,"distance":1236},{"is_transit":false,"i_long":106.899548,"transit":false,"time":3,"i_lat":-6.2135,"station_id":"KLD","line":1,"station_name":"Klender","distance":3395}]]}