{"data":[[{"i_lat":-6.160725,"station_id":"SW","is_transit":false,"distance":0,"transit":false,"line":2,"i_long":106.827103,"station_name":"Sawah Besar","time":0},{"i_lat":-6.149769,"line":2,"is_transit":false,"transit":false,"station_id":"MGB","i_long":106.82482,"distance":906,"time":2,"station_name":"Manggabesar"},{"line":2,"transit":false,"time":2,"station_id":"JAY","is_transit":false,"i_lat":-6.141205,"distance":1080,"station_name":"Jayakarta","i_long":106.820901},{"distance":1264,"station_id":"JAKK","is_transit":true,"i_long":106.812439,"station_name":"Jakarta Kota","i_lat":-6.137569,"time":4,"line":2,"transit":true},{"transit":false,"is_transit":false,"i_long":106.826365,"station_name":"Kampung Bandan","i_lat":-6.132549,"distance":1364,"line":4,"time":3,"station_id":"KPB"}],[{"i_long":106.827103,"is_transit":false,"distance":0,"transit":false,"station_name":"Sawah Besar","i_lat":-6.160725,"line":2,"station_id":"SW","time":0},{"station_id":"JUA","is_transit":false,"i_lat":-6.166716,"line":2,"transit":false,"i_long":106.828284,"station_name":"Juanda","distance":1149,"time":2},{"distance":2015,"time":4,"i_long":106.832183,"line":2,"station_name":"Gondangdia","station_id":"GDD","transit":false,"is_transit":false,"i_lat":-6.186295},{"line":2,"station_id":"CKI","i_long":106.840169,"transit":false,"time":3,"distance":1750,"station_name":"Cikini","i_lat":-6.198556,"is_transit":false},{"transit":true,"time":4,"station_name":"Manggarai","is_transit":true,"i_lat":-6.209883,"line":2,"station_id":"MRI","i_long":106.84912,"distance":1590},{"i_lat":-6.202263,"transit":false,"distance":3186,"station_id":"SUD","station_name":"Sudirman","is_transit":false,"line":1,"i_long":106.822649,"time":4},{"time":1,"station_id":"SUDB","i_lat":-6.201433,"transit":false,"station_name":"Sudirman Baru","line":1,"distance":280,"is_transit":false,"i_long":106.819881},{"line":1,"time":1,"is_transit":false,"station_id":"KAT","i_lat":-6.20132,"distance":471,"transit":false,"station_name":"Karet","i_long":106.816351},{"time":5,"is_transit":false,"station_name":"Tanah Abang","transit":false,"distance":2029,"i_long":106.811091,"line":1,"i_lat":-6.185545,"station_id":"THB"},{"i_lat":-6.155215,"distance":3632,"transit":false,"station_name":"Duri","i_long":106.800832,"station_id":"DU","line":1,"time":8,"is_transit":false},{"transit":false,"i_lat":-6.144674,"station_name":"Angke","line":1,"station_id":"AK","time":4,"is_transit":false,"distance":1230,"i_long":106.79867},{"time":9,"i_long":106.826365,"i_lat":-6.132549,"distance":4102,"station_id":"KPB","is_transit":false,"transit":false,"station_name":"Kampung Bandan","line":4}],[{"is_transit":false,"i_lat":-6.160725,"i_long":106.827103,"transit":false,"line":2,"station_id":"SW","distance":0,"station_name":"Sawah Besar","time":0},{"time":2,"is_transit":false,"station_name":"Juanda","i_lat":-6.166716,"i_long":106.828284,"distance":1149,"station_id":"JUA","transit":false,"line":2},{"is_transit":false,"time":4,"distance":2015,"station_id":"GDD","station_name":"Gondangdia","i_lat":-6.186295,"line":2,"transit":false,"i_long":106.832183},{"i_long":106.840169,"station_name":"Cikini","time":3,"line":2,"transit":false,"distance":1750,"station_id":"CKI","is_transit":false,"i_lat":-6.198556},{"i_long":106.84912,"station_id":"MRI","station_name":"Manggarai","i_lat":-6.209883,"is_transit":true,"distance":1590,"line":2,"time":4,"transit":true},{"transit":false,"distance":1275,"station_id":"MTR","i_long":106.858896,"line":1,"is_transit":false,"i_lat":-6.212485,"time":2,"station_name":"Matraman"},{"time":8,"station_id":"JNG","transit":true,"line":1,"i_long":106.86807400000001,"station_name":"Jatinegara","distance":1377,"i_lat":-6.215091,"is_transit":true},{"station_id":"POK","i_lat":-6.209188,"i_long":106.861737,"time":2,"is_transit":false,"station_name":"Pondok Jati","distance":1236,"transit":false,"line":11},{"station_id":"KMT","distance":1829,"is_transit":false,"transit":false,"time":2,"station_name":"Kramat","line":11,"i_long":106.855437,"i_lat":-6.193792},{"station_name":"Gang Sentiong","time":1,"i_long":106.850107,"is_transit":false,"distance":973,"transit":false,"line":11,"station_id":"GST","i_lat":-6.185975},{"time":8,"distance":1567,"station_id":"PSE","is_transit":false,"i_lat":-6.174784,"line":11,"transit":false,"station_name":"Pasar Senen","i_long":106.84368},{"is_transit":false,"distance":1436,"station_name":"Kemayoran","i_lat":-6.161728,"transit":false,"i_long":106.839204,"station_id":"KMO","line":11,"time":4},{"station_name":"Rajawali","i_long":106.836569,"station_id":"RJW","time":5,"transit":false,"distance":1901,"is_transit":false,"i_lat":-6.14505,"line":11},{"i_long":106.826365,"station_id":"KPB","distance":1444,"line":4,"i_lat":-6.132549,"time":3,"is_transit":false,"station_name":"Kampung Bandan","transit":false}]]}