{"data":[[{"transit":false,"line":2,"station_id":"SW","i_lat":-6.160725,"i_long":106.827103,"is_transit":false,"station_name":"Sawah Besar","distance":0,"time":0},{"i_long":106.828284,"is_transit":false,"station_id":"JUA","i_lat":-6.166716,"line":2,"time":2,"transit":false,"station_name":"Juanda","distance":1149},{"distance":2015,"time":4,"station_name":"Gondangdia","i_long":106.832183,"i_lat":-6.186295,"is_transit":false,"station_id":"GDD","transit":false,"line":2},{"station_name":"Cikini","distance":1750,"station_id":"CKI","transit":false,"line":2,"time":3,"is_transit":false,"i_lat":-6.198556,"i_long":106.840169},{"station_name":"Manggarai","line":2,"distance":1590,"i_lat":-6.209883,"i_long":106.84912,"transit":true,"is_transit":true,"time":4,"station_id":"MRI"},{"station_name":"Matraman","time":2,"i_long":106.858896,"distance":1275,"station_id":"MTR","is_transit":false,"line":1,"i_lat":-6.212485,"transit":false},{"i_lat":-6.215091,"time":8,"distance":1377,"line":1,"is_transit":false,"transit":false,"i_long":106.86807400000001,"station_id":"JNG","station_name":"Jatinegara"},{"transit":false,"i_lat":-6.2135,"time":3,"station_name":"Klender","station_id":"KLD","distance":3395,"is_transit":false,"i_long":106.899548,"line":1}],[{"i_long":106.827103,"station_name":"Sawah Besar","station_id":"SW","i_lat":-6.160725,"is_transit":false,"transit":false,"line":2,"distance":0,"time":0},{"transit":false,"station_id":"MGB","distance":906,"time":2,"is_transit":false,"station_name":"Manggabesar","i_lat":-6.149769,"line":2,"i_long":106.82482},{"station_name":"Jayakarta","transit":false,"station_id":"JAY","is_transit":false,"i_long":106.820901,"distance":1080,"time":2,"i_lat":-6.141205,"line":2},{"time":4,"transit":true,"station_id":"JAKK","is_transit":true,"i_lat":-6.137569,"line":2,"i_long":106.812439,"distance":1264,"station_name":"Jakarta Kota"},{"distance":1364,"is_transit":true,"station_name":"Kampung Bandan","station_id":"KPB","i_lat":-6.132549,"line":4,"transit":true,"time":3,"i_long":106.826365},{"i_lat":-6.14505,"is_transit":false,"station_name":"Rajawali","line":11,"distance":1444,"station_id":"RJW","transit":false,"time":3,"i_long":106.836569},{"transit":false,"time":5,"is_transit":false,"station_name":"Kemayoran","station_id":"KMO","distance":1901,"i_long":106.839204,"line":11,"i_lat":-6.161728},{"station_id":"PSE","transit":false,"station_name":"Pasar Senen","i_lat":-6.174784,"line":11,"i_long":106.84368,"distance":1436,"time":4,"is_transit":false},{"i_lat":-6.185975,"i_long":106.850107,"station_name":"Gang Sentiong","time":8,"transit":false,"station_id":"GST","distance":1567,"is_transit":false,"line":11},{"transit":false,"distance":973,"station_id":"KMT","i_lat":-6.193792,"time":1,"is_transit":false,"line":11,"station_name":"Kramat","i_long":106.855437},{"line":11,"station_id":"POK","time":2,"transit":false,"i_long":106.861737,"is_transit":false,"station_name":"Pondok Jati","distance":1829,"i_lat":-6.209188},{"distance":1236,"time":9,"station_id":"JNG","i_long":106.86807400000001,"station_name":"Jatinegara","line":1,"i_lat":-6.215091,"is_transit":true,"transit":true},{"is_transit":false,"station_name":"Klender","station_id":"KLD","i_lat":-6.2135,"line":1,"time":3,"transit":false,"i_long":106.899548,"distance":3395}],[{"i_long":106.827103,"transit":false,"station_name":"Sawah Besar","line":2,"distance":0,"station_id":"SW","time":0,"i_lat":-6.160725,"is_transit":false},{"time":2,"station_name":"Manggabesar","distance":906,"transit":false,"line":2,"i_lat":-6.149769,"station_id":"MGB","is_transit":false,"i_long":106.82482},{"station_id":"JAY","distance":1080,"time":2,"line":2,"is_transit":false,"station_name":"Jayakarta","i_long":106.820901,"transit":false,"i_lat":-6.141205},{"line":2,"time":4,"distance":1264,"i_long":106.812439,"station_id":"JAKK","is_transit":true,"transit":true,"station_name":"Jakarta Kota","i_lat":-6.137569},{"station_id":"KPB","line":4,"i_lat":-6.132549,"is_transit":true,"transit":true,"time":3,"station_name":"Kampung Bandan","distance":1364,"i_long":106.826365},{"i_lat":-6.144674,"is_transit":false,"distance":4102,"station_name":"Angke","time":9,"line":1,"transit":false,"station_id":"AK","i_long":106.79867},{"is_transit":false,"time":4,"station_name":"Duri","i_long":106.800832,"transit":false,"i_lat":-6.155215,"line":1,"distance":1230,"station_id":"DU"},{"i_lat":-6.185545,"station_id":"THB","i_long":106.811091,"line":1,"is_transit":false,"transit":false,"time":8,"station_name":"Tanah Abang","distance":3632},{"i_long":106.816351,"time":5,"distance":2029,"transit":false,"is_transit":false,"station_name":"Karet","station_id":"KAT","i_lat":-6.20132,"line":1},{"i_long":106.819881,"distance":471,"line":1,"time":1,"i_lat":-6.201433,"station_id":"SUDB","is_transit":false,"transit":false,"station_name":"Sudirman Baru"},{"station_id":"SUD","transit":false,"is_transit":false,"line":1,"i_lat":-6.202263,"time":1,"station_name":"Sudirman","distance":280,"i_long":106.822649},{"distance":3186,"i_long":106.84912,"time":4,"is_transit":false,"transit":false,"station_id":"MRI","line":2,"station_name":"Manggarai","i_lat":-6.209883},{"is_transit":false,"distance":1275,"line":1,"station_name":"Matraman","transit":false,"station_id":"MTR","i_long":106.858896,"i_lat":-6.212485,"time":2},{"station_id":"JNG","i_lat":-6.215091,"line":1,"distance":1377,"is_transit":false,"time":8,"transit":false,"station_name":"Jatinegara","i_long":106.86807400000001},{"station_id":"KLD","time":3,"distance":3395,"line":1,"transit":false,"i_lat":-6.2135,"i_long":106.899548,"is_transit":false,"station_name":"Klender"}],[{"i_long":106.827103,"time":0,"transit":false,"station_name":"Sawah Besar","station_id":"SW","is_transit":false,"i_lat":-6.160725,"distance":0,"line":2},{"line":2,"i_lat":-6.166716,"is_transit":false,"i_long":106.828284,"station_id":"JUA","distance":1149,"transit":false,"time":2,"station_name":"Juanda"},{"station_id":"GDD","station_name":"Gondangdia","is_transit":false,"line":2,"i_lat":-6.186295,"time":4,"i_long":106.832183,"distance":2015,"transit":false},{"i_long":106.840169,"transit":false,"station_name":"Cikini","is_transit":false,"station_id":"CKI","distance":1750,"i_lat":-6.198556,"line":2,"time":3},{"line":2,"i_long":106.84912,"time":4,"transit":true,"distance":1590,"is_transit":true,"station_name":"Manggarai","station_id":"MRI","i_lat":-6.209883},{"i_lat":-6.202263,"distance":3186,"line":1,"station_id":"SUD","time":4,"is_transit":false,"transit":false,"i_long":106.822649,"station_name":"Sudirman"},{"line":1,"station_id":"SUDB","transit":false,"station_name":"Sudirman Baru","distance":280,"is_transit":false,"i_lat":-6.201433,"time":1,"i_long":106.819881},{"station_id":"KAT","i_lat":-6.20132,"time":1,"i_long":106.816351,"transit":false,"is_transit":false,"line":1,"distance":471,"station_name":"Karet"},{"distance":2029,"i_long":106.811091,"is_transit":false,"station_name":"Tanah Abang","transit":false,"line":1,"time":5,"station_id":"THB","i_lat":-6.185545},{"station_name":"Duri","is_transit":false,"time":8,"distance":3632,"line":1,"transit":false,"station_id":"DU","i_long":106.800832,"i_lat":-6.155215},{"i_long":106.79867,"station_name":"Angke","station_id":"AK","i_lat":-6.144674,"transit":false,"line":1,"time":4,"distance":1230,"is_transit":false},{"i_long":106.826365,"is_transit":true,"line":4,"station_id":"KPB","i_lat":-6.132549,"distance":4102,"transit":true,"station_name":"Kampung Bandan","time":9},{"distance":1444,"transit":false,"is_transit":false,"line":11,"i_long":106.836569,"station_name":"Rajawali","time":3,"station_id":"RJW","i_lat":-6.14505},{"time":5,"is_transit":false,"i_long":106.839204,"line":11,"station_id":"KMO","i_lat":-6.161728,"station_name":"Kemayoran","distance":1901,"transit":false},{"station_name":"Pasar Senen","i_lat":-6.174784,"line":11,"is_transit":false,"distance":1436,"station_id":"PSE","time":4,"transit":false,"i_long":106.84368},{"distance":1567,"transit":false,"station_id":"GST","station_name":"Gang Sentiong","is_transit":false,"time":8,"i_lat":-6.185975,"line":11,"i_long":106.850107},{"transit":false,"station_id":"KMT","time":1,"station_name":"Kramat","i_lat":-6.193792,"i_long":106.855437,"line":11,"distance":973,"is_transit":false},{"transit":false,"distance":1829,"station_name":"Pondok Jati","i_lat":-6.209188,"i_long":106.861737,"line":11,"station_id":"POK","is_transit":false,"time":2},{"i_long":106.86807400000001,"station_id":"JNG","station_name":"Jatinegara","line":1,"transit":true,"is_transit":true,"time":9,"distance":1236,"i_lat":-6.215091},{"time":3,"station_name":"Klender","line":1,"transit":false,"i_lat":-6.2135,"station_id":"KLD","distance":3395,"i_long":106.899548,"is_transit":false}]]}