{"data":[[{"line":2,"station_name":"Sawah Besar","station_id":"SW","is_transit":false,"distance":0,"transit":false,"i_long":106.827103,"i_lat":-6.160725,"time":0},{"station_id":"MGB","is_transit":false,"distance":906,"i_lat":-6.149769,"station_name":"Manggabesar","line":2,"transit":false,"time":2,"i_long":106.82482},{"station_name":"Jayakarta","is_transit":false,"i_long":106.820901,"time":2,"i_lat":-6.141205,"transit":false,"distance":1080,"line":2,"station_id":"JAY"},{"is_transit":true,"i_long":106.812439,"station_name":"Jakarta Kota","station_id":"JAKK","distance":1264,"line":2,"time":4,"i_lat":-6.137569,"transit":true},{"station_id":"KPB","transit":false,"time":3,"distance":1364,"i_lat":-6.132549,"station_name":"Kampung Bandan","is_transit":false,"i_long":106.826365,"line":4}],[{"i_lat":-6.160725,"line":2,"transit":false,"distance":0,"i_long":106.827103,"time":0,"station_name":"Sawah Besar","station_id":"SW","is_transit":false},{"station_name":"Juanda","station_id":"JUA","i_long":106.828284,"line":2,"time":2,"transit":false,"is_transit":false,"distance":1149,"i_lat":-6.166716},{"line":2,"station_id":"GDD","distance":2015,"station_name":"Gondangdia","transit":false,"i_lat":-6.186295,"is_transit":false,"time":4,"i_long":106.832183},{"is_transit":false,"distance":1750,"i_lat":-6.198556,"i_long":106.840169,"line":2,"time":3,"transit":false,"station_id":"CKI","station_name":"Cikini"},{"i_lat":-6.209883,"time":4,"i_long":106.84912,"transit":true,"station_name":"Manggarai","distance":1590,"station_id":"MRI","is_transit":true,"line":2},{"line":1,"distance":3186,"time":4,"station_name":"Sudirman","i_lat":-6.202263,"is_transit":false,"station_id":"SUD","i_long":106.822649,"transit":false},{"line":1,"station_id":"SUDB","transit":false,"i_lat":-6.201433,"is_transit":false,"station_name":"Sudirman Baru","time":1,"distance":280,"i_long":106.819881},{"time":1,"i_lat":-6.20132,"is_transit":false,"transit":false,"station_name":"Karet","i_long":106.816351,"distance":471,"line":1,"station_id":"KAT"},{"time":5,"i_lat":-6.185545,"is_transit":false,"i_long":106.811091,"distance":2029,"line":1,"transit":false,"station_name":"Tanah Abang","station_id":"THB"},{"is_transit":false,"i_lat":-6.155215,"transit":false,"station_id":"DU","time":8,"i_long":106.800832,"station_name":"Duri","distance":3632,"line":1},{"i_long":106.79867,"transit":false,"is_transit":false,"station_name":"Angke","time":4,"i_lat":-6.144674,"line":1,"station_id":"AK","distance":1230},{"station_name":"Kampung Bandan","is_transit":false,"line":4,"time":9,"transit":false,"station_id":"KPB","distance":4102,"i_lat":-6.132549,"i_long":106.826365}],[{"station_name":"Sawah Besar","time":0,"line":2,"i_long":106.827103,"station_id":"SW","transit":false,"is_transit":false,"distance":0,"i_lat":-6.160725},{"is_transit":false,"distance":1149,"i_long":106.828284,"time":2,"i_lat":-6.166716,"transit":false,"station_id":"JUA","line":2,"station_name":"Juanda"},{"line":2,"station_id":"GDD","is_transit":false,"time":4,"transit":false,"station_name":"Gondangdia","i_long":106.832183,"i_lat":-6.186295,"distance":2015},{"station_id":"CKI","transit":false,"line":2,"is_transit":false,"time":3,"i_lat":-6.198556,"station_name":"Cikini","distance":1750,"i_long":106.840169},{"transit":true,"is_transit":true,"time":4,"distance":1590,"station_id":"MRI","i_lat":-6.209883,"station_name":"Manggarai","line":2,"i_long":106.84912},{"station_name":"Matraman","is_transit":false,"distance":1275,"i_long":106.858896,"transit":false,"station_id":"MTR","time":2,"line":1,"i_lat":-6.212485},{"transit":true,"station_name":"Jatinegara","station_id":"JNG","distance":1377,"i_lat":-6.215091,"i_long":106.86807400000001,"line":1,"is_transit":true,"time":8},{"station_name":"Pondok Jati","transit":false,"is_transit":false,"line":11,"distance":1236,"i_long":106.861737,"station_id":"POK","i_lat":-6.209188,"time":2},{"station_name":"Kramat","is_transit":false,"line":11,"distance":1829,"i_long":106.855437,"transit":false,"i_lat":-6.193792,"time":2,"station_id":"KMT"},{"i_long":106.850107,"time":1,"distance":973,"is_transit":false,"station_name":"Gang Sentiong","station_id":"GST","i_lat":-6.185975,"line":11,"transit":false},{"is_transit":false,"line":11,"distance":1567,"i_long":106.84368,"time":8,"transit":false,"i_lat":-6.174784,"station_id":"PSE","station_name":"Pasar Senen"},{"is_transit":false,"station_name":"Kemayoran","time":4,"i_lat":-6.161728,"transit":false,"station_id":"KMO","distance":1436,"line":11,"i_long":106.839204},{"is_transit":false,"line":11,"station_id":"RJW","distance":1901,"i_long":106.836569,"transit":false,"station_name":"Rajawali","time":5,"i_lat":-6.14505},{"transit":false,"station_name":"Kampung Bandan","i_long":106.826365,"i_lat":-6.132549,"time":3,"station_id":"KPB","is_transit":false,"distance":1444,"line":4}]]}