{"data":[[{"station_name":"Sawah Besar","time":0,"i_long":106.827103,"distance":0,"station_id":"SW","line":2,"transit":false,"i_lat":-6.160725,"is_transit":false},{"i_long":106.82482,"i_lat":-6.149769,"transit":false,"station_id":"MGB","distance":906,"time":2,"line":2,"is_transit":false,"station_name":"Manggabesar"},{"transit":false,"time":2,"distance":1080,"is_transit":false,"i_lat":-6.141205,"line":7,"i_long":106.820901,"station_id":"JAY","station_name":"Jayakarta"},{"station_id":"JAKK","distance":1264,"time":4,"i_lat":-6.137569,"line":0,"i_long":106.812439,"station_name":"Jakarta Kota","is_transit":true,"transit":true},{"line":0,"station_name":"Kampung Bandan","distance":1364,"transit":false,"i_lat":-6.132549,"is_transit":true,"station_id":"KPB","time":3,"i_long":106.826365}],[{"time":0,"is_transit":false,"transit":false,"station_name":"Sawah Besar","distance":0,"line":2,"station_id":"SW","i_lat":-6.160725,"i_long":106.827103},{"time":2,"is_transit":false,"line":2,"i_lat":-6.166716,"transit":false,"i_long":106.828284,"distance":1149,"station_id":"JUA","station_name":"Juanda"},{"is_transit":false,"time":4,"distance":2015,"station_id":"GDD","transit":false,"i_lat":-6.186295,"line":2,"i_long":106.832183,"station_name":"Gondangdia"},{"distance":1750,"station_id":"CKI","station_name":"Cikini","line":0,"i_lat":-6.198556,"transit":false,"is_transit":false,"i_long":106.840169,"time":3},{"distance":1590,"i_long":106.84912,"station_name":"Manggarai","transit":true,"i_lat":-6.209883,"line":0,"is_transit":true,"time":4,"station_id":"MRI"},{"i_long":106.822649,"is_transit":false,"transit":false,"distance":3186,"time":4,"station_name":"Sudirman","station_id":"SUD","i_lat":-6.202263,"line":1},{"i_lat":-6.201433,"is_transit":false,"line":1,"time":1,"station_id":"SUDB","distance":280,"i_long":106.819881,"station_name":"Sudirman Baru","transit":false},{"distance":471,"transit":false,"is_transit":false,"time":1,"i_long":106.816351,"station_id":"KAT","line":1,"i_lat":-6.20132,"station_name":"Karet"},{"transit":false,"i_lat":-6.185545,"is_transit":true,"station_name":"Tanah Abang","distance":2029,"time":5,"i_long":106.811091,"line":1,"station_id":"THB"},{"is_transit":true,"time":8,"i_long":106.800832,"distance":3632,"station_name":"Duri","transit":true,"station_id":"DU","line":1,"i_lat":-6.155215},{"line":0,"is_transit":false,"i_lat":-6.144674,"station_id":"AK","distance":1230,"transit":false,"time":4,"i_long":106.79867,"station_name":"Angke"},{"station_id":"KPB","i_long":106.826365,"station_name":"Kampung Bandan","time":9,"i_lat":-6.132549,"line":0,"distance":4102,"is_transit":true,"transit":false}],[{"is_transit":false,"time":0,"station_id":"SW","station_name":"Sawah Besar","i_lat":-6.160725,"i_long":106.827103,"transit":false,"distance":0,"line":2},{"i_long":106.828284,"line":2,"is_transit":false,"station_id":"JUA","station_name":"Juanda","i_lat":-6.166716,"distance":1149,"transit":false,"time":2},{"i_long":106.832183,"i_lat":-6.186295,"line":2,"is_transit":false,"distance":2015,"transit":false,"station_id":"GDD","station_name":"Gondangdia","time":4},{"station_name":"Cikini","i_long":106.840169,"is_transit":false,"line":0,"station_id":"CKI","i_lat":-6.198556,"transit":false,"distance":1750,"time":3},{"station_id":"MRI","line":0,"is_transit":true,"station_name":"Manggarai","i_lat":-6.209883,"distance":1590,"transit":true,"time":4,"i_long":106.84912},{"i_lat":-6.212485,"distance":1275,"line":1,"i_long":106.858896,"is_transit":false,"station_name":"Matraman","station_id":"MTR","time":2,"transit":false},{"distance":1377,"line":0,"is_transit":true,"station_id":"JNG","station_name":"Jatinegara","i_long":106.86807400000001,"i_lat":-6.215091,"time":8,"transit":true},{"line":11,"i_long":106.861737,"is_transit":false,"i_lat":-6.209188,"distance":1236,"time":2,"transit":false,"station_id":"POK","station_name":"Pondok Jati"},{"i_long":106.855437,"distance":1829,"transit":false,"station_id":"KMT","station_name":"Kramat","i_lat":-6.193792,"is_transit":false,"line":11,"time":2},{"station_name":"Gang Sentiong","time":1,"distance":973,"is_transit":false,"i_lat":-6.185975,"line":11,"station_id":"GST","transit":false,"i_long":106.850107},{"distance":1567,"station_id":"PSE","station_name":"Pasar Senen","i_long":106.84368,"i_lat":-6.174784,"is_transit":false,"line":11,"transit":false,"time":8},{"time":4,"i_lat":-6.161728,"is_transit":false,"distance":1436,"i_long":106.839204,"station_id":"KMO","line":11,"station_name":"Kemayoran","transit":false},{"station_id":"RJW","i_long":106.836569,"time":5,"transit":false,"distance":1901,"station_name":"Rajawali","line":11,"i_lat":-6.14505,"is_transit":false},{"i_long":106.826365,"station_name":"Kampung Bandan","is_transit":true,"i_lat":-6.132549,"time":3,"transit":false,"line":0,"distance":1444,"station_id":"KPB"}]]}