{"data":[[{"i_long":106.827103,"transit":false,"is_transit":false,"station_name":"Sawah Besar","line":2,"station_id":"SW","time":0,"distance":0,"i_lat":-6.160725},{"i_long":106.828284,"is_transit":false,"station_name":"Juanda","time":2,"distance":1149,"line":2,"station_id":"JUA","transit":false,"i_lat":-6.166716},{"is_transit":false,"station_name":"Gondangdia","station_id":"GDD","time":4,"distance":2015,"i_long":106.832183,"transit":false,"line":2,"i_lat":-6.186295},{"i_lat":-6.198556,"time":3,"station_id":"CKI","distance":1750,"transit":false,"line":2,"i_long":106.840169,"station_name":"Cikini","is_transit":false},{"is_transit":true,"station_id":"MRI","distance":1590,"transit":true,"i_long":106.84912,"line":2,"i_lat":-6.209883,"station_name":"Manggarai","time":4},{"i_long":106.858896,"distance":1275,"line":1,"station_id":"MTR","transit":false,"is_transit":false,"time":2,"station_name":"Matraman","i_lat":-6.212485},{"i_lat":-6.215091,"distance":1377,"time":8,"is_transit":false,"transit":false,"station_name":"Jatinegara","line":1,"station_id":"JNG","i_long":106.86807400000001},{"distance":3395,"is_transit":false,"i_lat":-6.2135,"time":3,"station_name":"Klender","station_id":"KLD","i_long":106.899548,"transit":false,"line":1}],[{"is_transit":false,"transit":false,"i_lat":-6.160725,"station_name":"Sawah Besar","line":2,"station_id":"SW","distance":0,"i_long":106.827103,"time":0},{"distance":906,"line":2,"transit":false,"i_lat":-6.149769,"i_long":106.82482,"station_name":"Manggabesar","station_id":"MGB","time":2,"is_transit":false},{"transit":false,"distance":1080,"station_id":"JAY","line":2,"time":2,"i_long":106.820901,"is_transit":false,"station_name":"Jayakarta","i_lat":-6.141205},{"transit":true,"station_id":"JAKK","is_transit":true,"line":2,"time":4,"i_lat":-6.137569,"i_long":106.812439,"distance":1264,"station_name":"Jakarta Kota"},{"line":4,"transit":true,"station_name":"Kampung Bandan","i_long":106.826365,"distance":1364,"i_lat":-6.132549,"is_transit":true,"time":3,"station_id":"KPB"},{"transit":false,"distance":1444,"line":11,"time":3,"station_name":"Rajawali","i_lat":-6.14505,"station_id":"RJW","is_transit":false,"i_long":106.836569},{"station_id":"KMO","distance":1901,"time":5,"transit":false,"i_long":106.839204,"i_lat":-6.161728,"line":11,"station_name":"Kemayoran","is_transit":false},{"transit":false,"station_name":"Pasar Senen","station_id":"PSE","is_transit":false,"time":4,"distance":1436,"i_lat":-6.174784,"i_long":106.84368,"line":11},{"time":8,"transit":false,"i_long":106.850107,"station_id":"GST","station_name":"Gang Sentiong","is_transit":false,"i_lat":-6.185975,"distance":1567,"line":11},{"i_lat":-6.193792,"is_transit":false,"station_name":"Kramat","transit":false,"station_id":"KMT","i_long":106.855437,"distance":973,"line":11,"time":1},{"i_lat":-6.209188,"line":11,"station_name":"Pondok Jati","distance":1829,"transit":false,"time":2,"i_long":106.861737,"station_id":"POK","is_transit":false},{"distance":1236,"transit":true,"station_id":"JNG","is_transit":true,"i_lat":-6.215091,"station_name":"Jatinegara","i_long":106.86807400000001,"time":9,"line":1},{"distance":3395,"station_id":"KLD","is_transit":false,"time":3,"line":1,"i_lat":-6.2135,"station_name":"Klender","transit":false,"i_long":106.899548}],[{"i_lat":-6.160725,"transit":false,"station_id":"SW","station_name":"Sawah Besar","time":0,"line":2,"is_transit":false,"i_long":106.827103,"distance":0},{"is_transit":false,"time":2,"i_lat":-6.149769,"station_id":"MGB","i_long":106.82482,"distance":906,"station_name":"Manggabesar","transit":false,"line":2},{"station_name":"Jayakarta","i_lat":-6.141205,"i_long":106.820901,"line":2,"time":2,"station_id":"JAY","transit":false,"is_transit":false,"distance":1080},{"station_name":"Jakarta Kota","time":4,"distance":1264,"station_id":"JAKK","i_lat":-6.137569,"i_long":106.812439,"line":2,"transit":true,"is_transit":true},{"distance":1364,"station_id":"KPB","transit":true,"is_transit":true,"i_lat":-6.132549,"time":3,"station_name":"Kampung Bandan","i_long":106.826365,"line":4},{"station_name":"Angke","distance":4102,"i_lat":-6.144674,"line":1,"is_transit":false,"time":9,"transit":false,"i_long":106.79867,"station_id":"AK"},{"transit":false,"time":4,"i_long":106.800832,"station_name":"Duri","distance":1230,"i_lat":-6.155215,"line":1,"station_id":"DU","is_transit":false},{"distance":3632,"is_transit":false,"i_long":106.811091,"transit":false,"station_id":"THB","i_lat":-6.185545,"line":1,"time":8,"station_name":"Tanah Abang"},{"station_name":"Karet","time":5,"line":1,"i_long":106.816351,"station_id":"KAT","transit":false,"is_transit":false,"distance":2029,"i_lat":-6.20132},{"is_transit":false,"transit":false,"station_name":"Sudirman Baru","distance":471,"line":1,"time":1,"station_id":"SUDB","i_lat":-6.201433,"i_long":106.819881},{"station_name":"Sudirman","station_id":"SUD","line":1,"time":1,"i_lat":-6.202263,"i_long":106.822649,"transit":false,"distance":280,"is_transit":false},{"station_name":"Manggarai","i_long":106.84912,"station_id":"MRI","distance":3186,"line":2,"is_transit":false,"time":4,"transit":false,"i_lat":-6.209883},{"i_lat":-6.212485,"is_transit":false,"i_long":106.858896,"distance":1275,"station_id":"MTR","line":1,"station_name":"Matraman","time":2,"transit":false},{"transit":false,"i_long":106.86807400000001,"is_transit":false,"line":1,"distance":1377,"station_id":"JNG","time":8,"station_name":"Jatinegara","i_lat":-6.215091},{"station_id":"KLD","time":3,"i_lat":-6.2135,"line":1,"station_name":"Klender","is_transit":false,"i_long":106.899548,"transit":false,"distance":3395}],[{"station_id":"SW","transit":false,"is_transit":false,"i_lat":-6.160725,"i_long":106.827103,"distance":0,"station_name":"Sawah Besar","time":0,"line":2},{"time":2,"i_lat":-6.166716,"distance":1149,"line":2,"station_name":"Juanda","transit":false,"i_long":106.828284,"station_id":"JUA","is_transit":false},{"i_long":106.832183,"station_id":"GDD","transit":false,"time":4,"distance":2015,"is_transit":false,"i_lat":-6.186295,"station_name":"Gondangdia","line":2},{"line":2,"i_lat":-6.198556,"transit":false,"is_transit":false,"station_id":"CKI","station_name":"Cikini","time":3,"i_long":106.840169,"distance":1750},{"distance":1590,"time":4,"i_long":106.84912,"station_name":"Manggarai","line":2,"i_lat":-6.209883,"transit":true,"station_id":"MRI","is_transit":true},{"station_name":"Sudirman","station_id":"SUD","i_lat":-6.202263,"i_long":106.822649,"line":1,"is_transit":false,"distance":3186,"time":4,"transit":false},{"station_name":"Sudirman Baru","distance":280,"is_transit":false,"i_long":106.819881,"time":1,"transit":false,"line":1,"station_id":"SUDB","i_lat":-6.201433},{"line":1,"transit":false,"distance":471,"i_long":106.816351,"i_lat":-6.20132,"is_transit":false,"station_id":"KAT","station_name":"Karet","time":1},{"line":1,"transit":false,"station_name":"Tanah Abang","i_long":106.811091,"station_id":"THB","is_transit":false,"time":5,"i_lat":-6.185545,"distance":2029},{"station_id":"DU","is_transit":false,"distance":3632,"transit":false,"station_name":"Duri","time":8,"line":1,"i_lat":-6.155215,"i_long":106.800832},{"time":4,"i_long":106.79867,"station_id":"AK","is_transit":false,"i_lat":-6.144674,"line":1,"station_name":"Angke","distance":1230,"transit":false},{"transit":true,"station_name":"Kampung Bandan","distance":4102,"i_lat":-6.132549,"i_long":106.826365,"is_transit":true,"line":4,"station_id":"KPB","time":9},{"i_lat":-6.14505,"is_transit":false,"i_long":106.836569,"station_id":"RJW","time":3,"line":11,"distance":1444,"transit":false,"station_name":"Rajawali"},{"i_long":106.839204,"transit":false,"station_name":"Kemayoran","line":11,"i_lat":-6.161728,"distance":1901,"station_id":"KMO","is_transit":false,"time":5},{"station_id":"PSE","is_transit":false,"distance":1436,"transit":false,"line":11,"i_lat":-6.174784,"station_name":"Pasar Senen","i_long":106.84368,"time":4},{"time":8,"station_id":"GST","is_transit":false,"i_long":106.850107,"transit":false,"distance":1567,"line":11,"station_name":"Gang Sentiong","i_lat":-6.185975},{"station_id":"KMT","time":1,"i_long":106.855437,"station_name":"Kramat","transit":false,"line":11,"distance":973,"is_transit":false,"i_lat":-6.193792},{"line":11,"is_transit":false,"distance":1829,"station_name":"Pondok Jati","station_id":"POK","i_lat":-6.209188,"transit":false,"i_long":106.861737,"time":2},{"i_lat":-6.215091,"station_name":"Jatinegara","transit":true,"is_transit":true,"line":1,"distance":1236,"time":9,"i_long":106.86807400000001,"station_id":"JNG"},{"distance":3395,"i_lat":-6.2135,"i_long":106.899548,"line":1,"is_transit":false,"time":3,"station_name":"Klender","station_id":"KLD","transit":false}]]}