{"data":[[{"i_long":106.827103,"is_transit":false,"distance":0,"transit":false,"time":0,"station_id":"SW","line":2,"station_name":"Sawah Besar","i_lat":-6.160725},{"is_transit":false,"distance":1149,"station_name":"Juanda","transit":false,"i_long":106.828284,"time":2,"station_id":"JUA","i_lat":-6.166716,"line":2},{"station_name":"Gondangdia","line":2,"i_lat":-6.186295,"is_transit":false,"station_id":"GDD","distance":2015,"time":4,"i_long":106.832183,"transit":false},{"line":0,"time":3,"station_name":"Cikini","station_id":"CKI","is_transit":false,"distance":1750,"i_lat":-6.198556,"transit":false,"i_long":106.840169},{"distance":1590,"station_name":"Manggarai","station_id":"MRI","i_lat":-6.209883,"transit":true,"i_long":106.84912,"line":0,"time":4,"is_transit":true},{"time":2,"is_transit":false,"i_long":106.858896,"transit":false,"distance":1275,"station_name":"Matraman","i_lat":-6.212485,"line":1,"station_id":"MTR"},{"station_id":"JNG","transit":false,"is_transit":true,"line":0,"distance":1377,"i_lat":-6.215091,"station_name":"Jatinegara","time":8,"i_long":106.86807400000001},{"distance":3395,"station_name":"Klender","transit":false,"i_long":106.899548,"line":1,"time":3,"is_transit":false,"station_id":"KLD","i_lat":-6.2135}],[{"is_transit":false,"line":2,"station_name":"Sawah Besar","time":0,"i_lat":-6.160725,"station_id":"SW","distance":0,"i_long":106.827103,"transit":false},{"distance":906,"station_name":"Manggabesar","i_lat":-6.149769,"transit":false,"i_long":106.82482,"is_transit":false,"station_id":"MGB","time":2,"line":2},{"time":2,"line":7,"i_long":106.820901,"distance":1080,"transit":false,"i_lat":-6.141205,"is_transit":false,"station_id":"JAY","station_name":"Jayakarta"},{"is_transit":true,"station_id":"JAKK","i_lat":-6.137569,"line":0,"distance":1264,"transit":true,"station_name":"Jakarta Kota","time":4,"i_long":106.812439},{"transit":true,"distance":1364,"i_lat":-6.132549,"i_long":106.826365,"station_name":"Kampung Bandan","line":0,"time":3,"station_id":"KPB","is_transit":true},{"line":11,"station_id":"RJW","is_transit":false,"station_name":"Rajawali","time":3,"i_lat":-6.14505,"distance":1444,"i_long":106.836569,"transit":false},{"time":5,"distance":1901,"i_long":106.839204,"line":11,"station_name":"Kemayoran","is_transit":false,"transit":false,"i_lat":-6.161728,"station_id":"KMO"},{"i_long":106.84368,"distance":1436,"time":4,"station_id":"PSE","line":11,"station_name":"Pasar Senen","i_lat":-6.174784,"transit":false,"is_transit":false},{"transit":false,"i_lat":-6.185975,"i_long":106.850107,"line":11,"distance":1567,"station_id":"GST","station_name":"Gang Sentiong","is_transit":false,"time":8},{"line":11,"is_transit":false,"i_lat":-6.193792,"i_long":106.855437,"station_id":"KMT","transit":false,"time":1,"distance":973,"station_name":"Kramat"},{"i_lat":-6.209188,"station_name":"Pondok Jati","transit":false,"distance":1829,"time":2,"line":11,"i_long":106.861737,"is_transit":false,"station_id":"POK"},{"time":9,"transit":true,"i_long":106.86807400000001,"distance":1236,"is_transit":true,"station_name":"Jatinegara","i_lat":-6.215091,"station_id":"JNG","line":0},{"time":3,"is_transit":false,"transit":false,"i_lat":-6.2135,"line":1,"distance":3395,"station_id":"KLD","station_name":"Klender","i_long":106.899548}],[{"line":2,"is_transit":false,"distance":0,"transit":false,"station_id":"SW","station_name":"Sawah Besar","i_long":106.827103,"i_lat":-6.160725,"time":0},{"station_name":"Manggabesar","i_long":106.82482,"transit":false,"line":2,"distance":906,"station_id":"MGB","is_transit":false,"i_lat":-6.149769,"time":2},{"i_long":106.820901,"distance":1080,"station_name":"Jayakarta","station_id":"JAY","transit":false,"time":2,"i_lat":-6.141205,"is_transit":false,"line":7},{"i_long":106.812439,"station_name":"Jakarta Kota","station_id":"JAKK","time":4,"line":0,"transit":true,"i_lat":-6.137569,"is_transit":true,"distance":1264},{"distance":1364,"is_transit":true,"i_long":106.826365,"station_name":"Kampung Bandan","time":3,"station_id":"KPB","transit":false,"line":0,"i_lat":-6.132549},{"line":0,"station_id":"AK","distance":4102,"transit":false,"station_name":"Angke","time":9,"i_lat":-6.144674,"i_long":106.79867,"is_transit":false},{"line":1,"time":4,"is_transit":true,"i_long":106.800832,"station_name":"Duri","distance":1230,"i_lat":-6.155215,"transit":true,"station_id":"DU"},{"station_id":"THB","transit":false,"is_transit":true,"station_name":"Tanah Abang","time":8,"line":1,"i_long":106.811091,"distance":3632,"i_lat":-6.185545},{"time":5,"distance":2029,"transit":false,"is_transit":false,"station_name":"Karet","i_lat":-6.20132,"i_long":106.816351,"line":1,"station_id":"KAT"},{"distance":471,"time":1,"station_id":"SUDB","station_name":"Sudirman Baru","transit":false,"i_lat":-6.201433,"i_long":106.819881,"line":1,"is_transit":false},{"distance":280,"station_id":"SUD","station_name":"Sudirman","line":1,"i_lat":-6.202263,"time":1,"is_transit":false,"transit":false,"i_long":106.822649},{"i_long":106.84912,"transit":false,"is_transit":true,"time":4,"station_id":"MRI","distance":3186,"i_lat":-6.209883,"line":0,"station_name":"Manggarai"},{"transit":false,"line":1,"station_id":"MTR","station_name":"Matraman","distance":1275,"i_long":106.858896,"i_lat":-6.212485,"is_transit":false,"time":2},{"time":8,"line":0,"transit":false,"station_id":"JNG","i_lat":-6.215091,"station_name":"Jatinegara","i_long":106.86807400000001,"is_transit":true,"distance":1377},{"distance":3395,"transit":false,"time":3,"line":1,"station_name":"Klender","i_lat":-6.2135,"station_id":"KLD","i_long":106.899548,"is_transit":false}],[{"is_transit":false,"station_name":"Sawah Besar","transit":false,"time":0,"i_long":106.827103,"distance":0,"station_id":"SW","i_lat":-6.160725,"line":2},{"i_lat":-6.166716,"line":2,"station_id":"JUA","distance":1149,"time":2,"station_name":"Juanda","is_transit":false,"i_long":106.828284,"transit":false},{"transit":false,"is_transit":false,"time":4,"i_lat":-6.186295,"station_id":"GDD","station_name":"Gondangdia","i_long":106.832183,"line":2,"distance":2015},{"distance":1750,"station_name":"Cikini","station_id":"CKI","transit":false,"time":3,"i_lat":-6.198556,"i_long":106.840169,"line":0,"is_transit":false},{"i_lat":-6.209883,"line":0,"distance":1590,"i_long":106.84912,"station_name":"Manggarai","transit":true,"time":4,"is_transit":true,"station_id":"MRI"},{"distance":3186,"i_long":106.822649,"line":1,"is_transit":false,"i_lat":-6.202263,"station_id":"SUD","station_name":"Sudirman","transit":false,"time":4},{"station_name":"Sudirman Baru","is_transit":false,"i_lat":-6.201433,"time":1,"distance":280,"transit":false,"station_id":"SUDB","line":1,"i_long":106.819881},{"time":1,"station_id":"KAT","transit":false,"station_name":"Karet","i_long":106.816351,"distance":471,"is_transit":false,"i_lat":-6.20132,"line":1},{"distance":2029,"line":1,"i_lat":-6.185545,"is_transit":true,"time":5,"station_name":"Tanah Abang","i_long":106.811091,"station_id":"THB","transit":false},{"station_id":"DU","distance":3632,"i_long":106.800832,"is_transit":true,"line":1,"station_name":"Duri","i_lat":-6.155215,"time":8,"transit":true},{"line":0,"i_long":106.79867,"is_transit":false,"i_lat":-6.144674,"station_name":"Angke","station_id":"AK","transit":false,"distance":1230,"time":4},{"time":9,"i_long":106.826365,"i_lat":-6.132549,"distance":4102,"line":0,"is_transit":true,"station_name":"Kampung Bandan","transit":true,"station_id":"KPB"},{"transit":false,"i_long":106.836569,"i_lat":-6.14505,"is_transit":false,"time":3,"distance":1444,"station_id":"RJW","station_name":"Rajawali","line":11},{"is_transit":false,"distance":1901,"station_name":"Kemayoran","i_long":106.839204,"station_id":"KMO","i_lat":-6.161728,"transit":false,"time":5,"line":11},{"line":11,"is_transit":false,"distance":1436,"station_id":"PSE","transit":false,"time":4,"i_lat":-6.174784,"station_name":"Pasar Senen","i_long":106.84368},{"distance":1567,"station_id":"GST","i_long":106.850107,"line":11,"is_transit":false,"station_name":"Gang Sentiong","i_lat":-6.185975,"time":8,"transit":false},{"i_long":106.855437,"station_id":"KMT","station_name":"Kramat","time":1,"line":11,"distance":973,"transit":false,"i_lat":-6.193792,"is_transit":false},{"is_transit":false,"station_id":"POK","i_lat":-6.209188,"i_long":106.861737,"line":11,"time":2,"distance":1829,"station_name":"Pondok Jati","transit":false},{"line":0,"i_long":106.86807400000001,"i_lat":-6.215091,"is_transit":true,"distance":1236,"transit":true,"station_name":"Jatinegara","station_id":"JNG","time":9},{"station_name":"Klender","i_long":106.899548,"i_lat":-6.2135,"line":1,"is_transit":false,"station_id":"KLD","transit":false,"time":3,"distance":3395}]]}