{"data":[[{"transit":false,"i_long":106.827103,"time":0,"station_name":"Sawah Besar","is_transit":false,"distance":0,"station_id":"SW","line":2,"i_lat":-6.160725},{"is_transit":false,"line":2,"station_name":"Juanda","time":2,"distance":1149,"i_lat":-6.166716,"i_long":106.828284,"transit":false,"station_id":"JUA"},{"time":4,"i_long":106.832183,"line":2,"distance":2015,"station_id":"GDD","i_lat":-6.186295,"station_name":"Gondangdia","is_transit":false,"transit":false},{"time":3,"i_long":106.840169,"line":2,"distance":1750,"station_id":"CKI","transit":false,"station_name":"Cikini","is_transit":false,"i_lat":-6.198556},{"i_long":106.84912,"station_id":"MRI","is_transit":false,"station_name":"Manggarai","line":2,"time":4,"transit":false,"i_lat":-6.209883,"distance":1590}],[{"line":2,"station_id":"SW","i_long":106.827103,"time":0,"station_name":"Sawah Besar","distance":0,"is_transit":false,"transit":false,"i_lat":-6.160725},{"station_name":"Manggabesar","time":2,"station_id":"MGB","distance":906,"i_lat":-6.149769,"transit":false,"is_transit":false,"line":2,"i_long":106.82482},{"distance":1080,"i_lat":-6.141205,"transit":false,"is_transit":false,"station_name":"Jayakarta","i_long":106.820901,"time":2,"line":2,"station_id":"JAY"},{"station_name":"Jakarta Kota","transit":true,"i_lat":-6.137569,"is_transit":true,"distance":1264,"station_id":"JAKK","time":4,"i_long":106.812439,"line":2},{"line":4,"i_long":106.826365,"station_name":"Kampung Bandan","i_lat":-6.132549,"transit":true,"distance":1364,"station_id":"KPB","is_transit":true,"time":3},{"i_long":106.79867,"is_transit":false,"station_name":"Angke","i_lat":-6.144674,"line":1,"transit":false,"time":9,"distance":4102,"station_id":"AK"},{"time":4,"station_name":"Duri","is_transit":false,"distance":1230,"line":1,"i_lat":-6.155215,"i_long":106.800832,"transit":false,"station_id":"DU"},{"line":1,"is_transit":false,"i_lat":-6.185545,"transit":false,"time":8,"station_id":"THB","distance":3632,"i_long":106.811091,"station_name":"Tanah Abang"},{"i_lat":-6.20132,"distance":2029,"station_id":"KAT","transit":false,"is_transit":false,"time":5,"station_name":"Karet","line":1,"i_long":106.816351},{"distance":471,"station_id":"SUDB","transit":false,"is_transit":false,"station_name":"Sudirman Baru","time":1,"i_lat":-6.201433,"i_long":106.819881,"line":1},{"line":1,"time":1,"station_name":"Sudirman","station_id":"SUD","distance":280,"i_lat":-6.202263,"transit":false,"is_transit":false,"i_long":106.822649},{"transit":false,"distance":3186,"i_long":106.84912,"i_lat":-6.209883,"station_id":"MRI","is_transit":false,"station_name":"Manggarai","time":4,"line":2}],[{"station_name":"Sawah Besar","station_id":"SW","i_lat":-6.160725,"distance":0,"time":0,"i_long":106.827103,"line":2,"is_transit":false,"transit":false},{"transit":false,"station_id":"MGB","station_name":"Manggabesar","distance":906,"is_transit":false,"i_long":106.82482,"line":2,"time":2,"i_lat":-6.149769},{"station_id":"JAY","transit":false,"i_lat":-6.141205,"distance":1080,"i_long":106.820901,"time":2,"station_name":"Jayakarta","line":2,"is_transit":false},{"i_lat":-6.137569,"time":4,"station_id":"JAKK","transit":true,"is_transit":true,"line":2,"station_name":"Jakarta Kota","distance":1264,"i_long":106.812439},{"time":3,"station_name":"Kampung Bandan","line":4,"i_lat":-6.132549,"station_id":"KPB","is_transit":true,"transit":true,"i_long":106.826365,"distance":1364},{"line":11,"i_lat":-6.14505,"i_long":106.836569,"station_id":"RJW","is_transit":false,"time":3,"station_name":"Rajawali","distance":1444,"transit":false},{"station_name":"Kemayoran","i_long":106.839204,"transit":false,"station_id":"KMO","time":5,"i_lat":-6.161728,"is_transit":false,"distance":1901,"line":11},{"transit":false,"is_transit":false,"time":4,"distance":1436,"i_lat":-6.174784,"station_id":"PSE","station_name":"Pasar Senen","i_long":106.84368,"line":11},{"i_lat":-6.185975,"is_transit":false,"distance":1567,"line":11,"station_name":"Gang Sentiong","station_id":"GST","time":8,"transit":false,"i_long":106.850107},{"station_name":"Kramat","i_lat":-6.193792,"transit":false,"is_transit":false,"time":1,"station_id":"KMT","distance":973,"i_long":106.855437,"line":11},{"i_lat":-6.209188,"i_long":106.861737,"is_transit":false,"distance":1829,"line":11,"time":2,"station_name":"Pondok Jati","station_id":"POK","transit":false},{"transit":true,"i_lat":-6.215091,"station_id":"JNG","line":1,"station_name":"Jatinegara","distance":1236,"time":9,"is_transit":true,"i_long":106.86807400000001},{"i_lat":-6.212485,"distance":1377,"station_name":"Matraman","line":1,"station_id":"MTR","i_long":106.858896,"transit":false,"is_transit":false,"time":2},{"is_transit":false,"line":2,"i_long":106.84912,"time":2,"distance":1275,"station_id":"MRI","i_lat":-6.209883,"transit":false,"station_name":"Manggarai"}]]}