{"data":[[{"time":0,"i_lat":-6.160725,"station_name":"Sawah Besar","distance":0,"line":2,"transit":false,"station_id":"SW","is_transit":false,"i_long":106.827103},{"i_long":106.828284,"distance":1149,"station_name":"Juanda","transit":false,"time":2,"station_id":"JUA","i_lat":-6.166716,"line":2,"is_transit":false},{"transit":false,"station_name":"Gondangdia","is_transit":false,"time":4,"station_id":"GDD","i_lat":-6.186295,"line":2,"distance":2015,"i_long":106.832183},{"distance":1750,"i_lat":-6.198556,"line":2,"transit":false,"station_name":"Cikini","is_transit":false,"i_long":106.840169,"station_id":"CKI","time":3},{"time":4,"i_lat":-6.209883,"is_transit":false,"station_id":"MRI","i_long":106.84912,"transit":false,"distance":1590,"station_name":"Manggarai","line":2}],[{"station_name":"Sawah Besar","station_id":"SW","i_long":106.827103,"time":0,"i_lat":-6.160725,"distance":0,"transit":false,"line":2,"is_transit":false},{"i_lat":-6.149769,"time":2,"distance":906,"station_id":"MGB","i_long":106.82482,"line":2,"is_transit":false,"transit":false,"station_name":"Manggabesar"},{"station_id":"JAY","is_transit":false,"i_lat":-6.141205,"transit":false,"time":2,"i_long":106.820901,"station_name":"Jayakarta","line":2,"distance":1080},{"distance":1264,"is_transit":true,"time":4,"transit":true,"i_long":106.812439,"station_name":"Jakarta Kota","line":2,"station_id":"JAKK","i_lat":-6.137569},{"station_name":"Kampung Bandan","time":3,"i_lat":-6.132549,"i_long":106.826365,"is_transit":true,"distance":1364,"station_id":"KPB","line":4,"transit":true},{"i_lat":-6.144674,"is_transit":false,"line":1,"distance":4102,"station_id":"AK","time":9,"i_long":106.79867,"station_name":"Angke","transit":false},{"line":1,"is_transit":false,"station_name":"Duri","time":4,"i_long":106.800832,"distance":1230,"station_id":"DU","transit":false,"i_lat":-6.155215},{"distance":3632,"station_id":"THB","i_lat":-6.185545,"line":1,"is_transit":false,"time":8,"station_name":"Tanah Abang","transit":false,"i_long":106.811091},{"is_transit":false,"station_name":"Karet","distance":2029,"i_lat":-6.20132,"time":5,"i_long":106.816351,"station_id":"KAT","line":1,"transit":false},{"time":1,"transit":false,"i_long":106.819881,"distance":471,"is_transit":false,"station_id":"SUDB","i_lat":-6.201433,"line":1,"station_name":"Sudirman Baru"},{"station_name":"Sudirman","distance":280,"station_id":"SUD","i_lat":-6.202263,"i_long":106.822649,"line":1,"time":1,"transit":false,"is_transit":false},{"station_id":"MRI","distance":3186,"i_lat":-6.209883,"time":4,"i_long":106.84912,"station_name":"Manggarai","transit":false,"line":2,"is_transit":false}],[{"distance":0,"is_transit":false,"line":2,"station_id":"SW","i_lat":-6.160725,"transit":false,"time":0,"station_name":"Sawah Besar","i_long":106.827103},{"station_id":"MGB","i_long":106.82482,"station_name":"Manggabesar","time":2,"is_transit":false,"i_lat":-6.149769,"line":2,"distance":906,"transit":false},{"distance":1080,"line":2,"i_long":106.820901,"transit":false,"time":2,"is_transit":false,"station_id":"JAY","station_name":"Jayakarta","i_lat":-6.141205},{"transit":true,"station_name":"Jakarta Kota","station_id":"JAKK","distance":1264,"i_lat":-6.137569,"is_transit":true,"time":4,"line":2,"i_long":106.812439},{"i_long":106.826365,"is_transit":true,"i_lat":-6.132549,"station_name":"Kampung Bandan","station_id":"KPB","transit":true,"time":3,"distance":1364,"line":4},{"time":3,"i_long":106.836569,"transit":false,"line":11,"distance":1444,"is_transit":false,"station_id":"RJW","i_lat":-6.14505,"station_name":"Rajawali"},{"i_long":106.839204,"line":11,"is_transit":false,"transit":false,"distance":1901,"time":5,"station_name":"Kemayoran","i_lat":-6.161728,"station_id":"KMO"},{"station_name":"Pasar Senen","distance":1436,"transit":false,"is_transit":false,"time":4,"i_long":106.84368,"station_id":"PSE","i_lat":-6.174784,"line":11},{"i_lat":-6.185975,"distance":1567,"is_transit":false,"i_long":106.850107,"transit":false,"station_name":"Gang Sentiong","station_id":"GST","line":11,"time":8},{"line":11,"i_long":106.855437,"station_name":"Kramat","is_transit":false,"station_id":"KMT","i_lat":-6.193792,"distance":973,"time":1,"transit":false},{"station_id":"POK","station_name":"Pondok Jati","is_transit":false,"transit":false,"i_long":106.861737,"i_lat":-6.209188,"distance":1829,"time":2,"line":11},{"i_long":106.86807400000001,"i_lat":-6.215091,"line":1,"time":9,"station_name":"Jatinegara","station_id":"JNG","is_transit":true,"distance":1236,"transit":true},{"time":2,"i_long":106.858896,"transit":false,"station_name":"Matraman","distance":1377,"station_id":"MTR","i_lat":-6.212485,"is_transit":false,"line":1},{"i_long":106.84912,"distance":1275,"transit":false,"is_transit":false,"station_id":"MRI","i_lat":-6.209883,"station_name":"Manggarai","line":2,"time":2}]]}