{"data":[[{"distance":0,"time":0,"i_lat":-6.160725,"station_id":"SW","line":2,"station_name":"Sawah Besar","is_transit":false,"transit":false,"i_long":106.827103},{"distance":1149,"transit":false,"station_id":"JUA","line":2,"i_long":106.828284,"station_name":"Juanda","is_transit":false,"i_lat":-6.166716,"time":2},{"station_id":"GDD","i_lat":-6.186295,"i_long":106.832183,"station_name":"Gondangdia","line":2,"transit":false,"is_transit":false,"time":4,"distance":2015},{"time":3,"i_long":106.840169,"i_lat":-6.198556,"station_id":"CKI","transit":false,"station_name":"Cikini","is_transit":false,"line":2,"distance":1750},{"station_id":"MRI","transit":false,"time":4,"i_long":106.84912,"station_name":"Manggarai","i_lat":-6.209883,"is_transit":false,"line":2,"distance":1590}],[{"line":2,"transit":false,"i_lat":-6.160725,"time":0,"station_name":"Sawah Besar","is_transit":false,"i_long":106.827103,"station_id":"SW","distance":0},{"station_name":"Manggabesar","transit":false,"time":2,"station_id":"MGB","line":2,"i_lat":-6.149769,"distance":906,"is_transit":false,"i_long":106.82482},{"station_name":"Jayakarta","is_transit":false,"distance":1080,"i_lat":-6.141205,"transit":false,"time":2,"i_long":106.820901,"station_id":"JAY","line":2},{"distance":1264,"time":4,"is_transit":true,"i_long":106.812439,"station_id":"JAKK","i_lat":-6.137569,"line":2,"station_name":"Jakarta Kota","transit":true},{"station_id":"KPB","distance":1364,"i_long":106.826365,"station_name":"Kampung Bandan","i_lat":-6.132549,"line":4,"is_transit":true,"time":3,"transit":true},{"transit":false,"station_id":"AK","time":9,"distance":4102,"i_long":106.79867,"station_name":"Angke","is_transit":false,"i_lat":-6.144674,"line":1},{"station_id":"DU","transit":false,"time":4,"i_lat":-6.155215,"is_transit":false,"distance":1230,"i_long":106.800832,"station_name":"Duri","line":1},{"i_lat":-6.185545,"transit":false,"time":8,"i_long":106.811091,"line":1,"station_id":"THB","is_transit":false,"distance":3632,"station_name":"Tanah Abang"},{"transit":false,"time":5,"station_id":"KAT","distance":2029,"i_lat":-6.20132,"i_long":106.816351,"line":1,"is_transit":false,"station_name":"Karet"},{"transit":false,"line":1,"distance":471,"station_name":"Sudirman Baru","i_long":106.819881,"is_transit":false,"time":1,"i_lat":-6.201433,"station_id":"SUDB"},{"is_transit":false,"time":1,"station_id":"SUD","transit":false,"station_name":"Sudirman","line":1,"distance":280,"i_lat":-6.202263,"i_long":106.822649},{"station_id":"MRI","time":4,"transit":false,"i_lat":-6.209883,"is_transit":false,"distance":3186,"line":2,"i_long":106.84912,"station_name":"Manggarai"}],[{"i_long":106.827103,"line":2,"time":0,"station_name":"Sawah Besar","distance":0,"transit":false,"station_id":"SW","i_lat":-6.160725,"is_transit":false},{"transit":false,"station_name":"Manggabesar","time":2,"i_long":106.82482,"station_id":"MGB","line":2,"distance":906,"i_lat":-6.149769,"is_transit":false},{"time":2,"station_id":"JAY","transit":false,"distance":1080,"i_lat":-6.141205,"line":2,"is_transit":false,"i_long":106.820901,"station_name":"Jayakarta"},{"line":2,"is_transit":true,"distance":1264,"i_lat":-6.137569,"station_name":"Jakarta Kota","time":4,"transit":true,"station_id":"JAKK","i_long":106.812439},{"line":4,"station_name":"Kampung Bandan","transit":true,"is_transit":true,"i_lat":-6.132549,"distance":1364,"station_id":"KPB","time":3,"i_long":106.826365},{"i_lat":-6.14505,"is_transit":false,"i_long":106.836569,"transit":false,"line":11,"station_name":"Rajawali","station_id":"RJW","time":3,"distance":1444},{"line":11,"station_name":"Kemayoran","time":5,"distance":1901,"is_transit":false,"i_long":106.839204,"transit":false,"station_id":"KMO","i_lat":-6.161728},{"transit":false,"line":11,"is_transit":false,"distance":1436,"time":4,"i_long":106.84368,"station_name":"Pasar Senen","i_lat":-6.174784,"station_id":"PSE"},{"transit":false,"is_transit":false,"distance":1567,"station_name":"Gang Sentiong","line":11,"i_lat":-6.185975,"station_id":"GST","time":8,"i_long":106.850107},{"i_lat":-6.193792,"distance":973,"station_id":"KMT","time":1,"transit":false,"i_long":106.855437,"station_name":"Kramat","line":11,"is_transit":false},{"i_long":106.861737,"transit":false,"station_id":"POK","is_transit":false,"distance":1829,"station_name":"Pondok Jati","line":11,"time":2,"i_lat":-6.209188},{"is_transit":true,"time":9,"distance":1236,"i_long":106.86807400000001,"i_lat":-6.215091,"transit":true,"station_name":"Jatinegara","station_id":"JNG","line":1},{"is_transit":false,"distance":1377,"station_name":"Matraman","i_long":106.858896,"time":2,"i_lat":-6.212485,"transit":false,"station_id":"MTR","line":1},{"station_name":"Manggarai","is_transit":false,"time":2,"distance":1275,"i_long":106.84912,"station_id":"MRI","transit":false,"line":2,"i_lat":-6.209883}]]}