{"data":[[{"is_transit":false,"time":0,"line":2,"i_lat":-6.160725,"distance":0,"station_id":"SW","station_name":"Sawah Besar","i_long":106.827103,"transit":false},{"distance":1149,"time":2,"transit":false,"i_lat":-6.166716,"i_long":106.828284,"is_transit":false,"station_name":"Juanda","station_id":"JUA","line":2},{"i_lat":-6.186295,"station_name":"Gondangdia","time":4,"transit":false,"line":2,"station_id":"GDD","distance":2015,"i_long":106.832183,"is_transit":false},{"i_lat":-6.198556,"transit":false,"line":0,"is_transit":false,"station_name":"Cikini","station_id":"CKI","time":3,"distance":1750,"i_long":106.840169},{"station_name":"Manggarai","i_lat":-6.209883,"distance":1590,"line":0,"time":4,"i_long":106.84912,"transit":false,"is_transit":true,"station_id":"MRI"}],[{"i_long":106.827103,"distance":0,"is_transit":false,"station_id":"SW","station_name":"Sawah Besar","time":0,"i_lat":-6.160725,"transit":false,"line":2},{"i_lat":-6.149769,"line":2,"distance":906,"is_transit":false,"transit":false,"i_long":106.82482,"station_id":"MGB","time":2,"station_name":"Manggabesar"},{"is_transit":false,"station_name":"Jayakarta","station_id":"JAY","time":2,"i_long":106.820901,"line":7,"i_lat":-6.141205,"transit":false,"distance":1080},{"is_transit":true,"time":4,"i_lat":-6.137569,"station_name":"Jakarta Kota","line":0,"distance":1264,"station_id":"JAKK","transit":true,"i_long":106.812439},{"time":3,"station_id":"KPB","i_lat":-6.132549,"line":0,"transit":false,"is_transit":true,"station_name":"Kampung Bandan","i_long":106.826365,"distance":1364},{"transit":false,"station_id":"AK","i_long":106.79867,"distance":4102,"station_name":"Angke","i_lat":-6.144674,"is_transit":false,"line":0,"time":9},{"time":4,"is_transit":true,"i_long":106.800832,"station_name":"Duri","i_lat":-6.155215,"transit":true,"line":1,"distance":1230,"station_id":"DU"},{"station_name":"Tanah Abang","distance":3632,"line":1,"is_transit":true,"station_id":"THB","time":8,"i_lat":-6.185545,"i_long":106.811091,"transit":false},{"line":1,"distance":2029,"time":5,"i_lat":-6.20132,"is_transit":false,"i_long":106.816351,"station_id":"KAT","station_name":"Karet","transit":false},{"time":1,"distance":471,"i_lat":-6.201433,"i_long":106.819881,"station_name":"Sudirman Baru","station_id":"SUDB","is_transit":false,"line":1,"transit":false},{"station_name":"Sudirman","distance":280,"station_id":"SUD","i_lat":-6.202263,"line":1,"transit":false,"time":1,"is_transit":false,"i_long":106.822649},{"i_lat":-6.209883,"line":0,"station_id":"MRI","station_name":"Manggarai","is_transit":true,"i_long":106.84912,"time":4,"transit":false,"distance":3186}],[{"is_transit":false,"i_long":106.827103,"transit":false,"station_id":"SW","distance":0,"time":0,"i_lat":-6.160725,"station_name":"Sawah Besar","line":2},{"station_name":"Manggabesar","time":2,"is_transit":false,"transit":false,"distance":906,"i_lat":-6.149769,"i_long":106.82482,"line":2,"station_id":"MGB"},{"is_transit":false,"station_name":"Jayakarta","station_id":"JAY","time":2,"i_lat":-6.141205,"i_long":106.820901,"distance":1080,"line":7,"transit":false},{"i_long":106.812439,"station_id":"JAKK","line":0,"i_lat":-6.137569,"time":4,"is_transit":true,"transit":true,"station_name":"Jakarta Kota","distance":1264},{"station_id":"KPB","line":0,"transit":true,"station_name":"Kampung Bandan","time":3,"i_lat":-6.132549,"i_long":106.826365,"distance":1364,"is_transit":true},{"time":3,"line":11,"distance":1444,"is_transit":false,"transit":false,"i_lat":-6.14505,"i_long":106.836569,"station_name":"Rajawali","station_id":"RJW"},{"time":5,"line":11,"station_id":"KMO","distance":1901,"i_lat":-6.161728,"transit":false,"is_transit":false,"i_long":106.839204,"station_name":"Kemayoran"},{"transit":false,"station_id":"PSE","is_transit":false,"distance":1436,"line":11,"i_lat":-6.174784,"time":4,"i_long":106.84368,"station_name":"Pasar Senen"},{"line":11,"is_transit":false,"i_lat":-6.185975,"time":8,"i_long":106.850107,"station_id":"GST","transit":false,"station_name":"Gang Sentiong","distance":1567},{"time":1,"line":11,"i_long":106.855437,"transit":false,"distance":973,"station_name":"Kramat","i_lat":-6.193792,"station_id":"KMT","is_transit":false},{"distance":1829,"station_id":"POK","time":2,"line":11,"is_transit":false,"i_lat":-6.209188,"station_name":"Pondok Jati","transit":false,"i_long":106.861737},{"transit":true,"line":0,"station_name":"Jatinegara","i_lat":-6.215091,"station_id":"JNG","i_long":106.86807400000001,"is_transit":true,"distance":1236,"time":9},{"is_transit":false,"line":1,"time":2,"station_name":"Matraman","distance":1377,"transit":false,"i_lat":-6.212485,"station_id":"MTR","i_long":106.858896},{"transit":false,"station_id":"MRI","station_name":"Manggarai","time":2,"i_lat":-6.209883,"distance":1275,"i_long":106.84912,"is_transit":true,"line":0}]]}