{"data":[[{"station_name":"Sawah Besar","station_id":"SW","time":0,"distance":0,"transit":false,"is_transit":false,"i_lat":-6.160725,"line":2,"i_long":106.827103},{"station_name":"Manggabesar","i_lat":-6.149769,"is_transit":false,"time":2,"line":2,"distance":906,"station_id":"MGB","transit":false,"i_long":106.82482},{"station_name":"Jayakarta","transit":false,"time":2,"station_id":"JAY","line":2,"distance":1080,"i_lat":-6.141205,"is_transit":false,"i_long":106.820901},{"transit":true,"i_long":106.812439,"line":2,"station_name":"Jakarta Kota","distance":1264,"is_transit":true,"station_id":"JAKK","time":4,"i_lat":-6.137569},{"station_name":"Kampung Bandan","line":4,"transit":true,"i_long":106.826365,"time":3,"distance":1364,"station_id":"KPB","i_lat":-6.132549,"is_transit":true},{"distance":1444,"i_lat":-6.14505,"time":3,"line":11,"transit":false,"is_transit":false,"i_long":106.836569,"station_name":"Rajawali","station_id":"RJW"},{"i_lat":-6.161728,"i_long":106.839204,"transit":false,"is_transit":false,"time":5,"distance":1901,"station_id":"KMO","line":11,"station_name":"Kemayoran"},{"i_lat":-6.174784,"transit":false,"is_transit":false,"i_long":106.84368,"time":4,"distance":1436,"station_id":"PSE","line":11,"station_name":"Pasar Senen"}],[{"time":0,"i_long":106.827103,"transit":false,"is_transit":false,"line":2,"distance":0,"station_id":"SW","i_lat":-6.160725,"station_name":"Sawah Besar"},{"i_long":106.828284,"station_name":"Juanda","transit":false,"time":2,"i_lat":-6.166716,"is_transit":false,"line":2,"distance":1149,"station_id":"JUA"},{"time":4,"i_lat":-6.186295,"station_name":"Gondangdia","distance":2015,"is_transit":false,"line":2,"i_long":106.832183,"station_id":"GDD","transit":false},{"transit":false,"time":3,"distance":1750,"line":2,"station_name":"Cikini","i_lat":-6.198556,"i_long":106.840169,"station_id":"CKI","is_transit":false},{"is_transit":true,"time":4,"i_lat":-6.209883,"station_name":"Manggarai","distance":1590,"i_long":106.84912,"line":2,"station_id":"MRI","transit":true},{"station_name":"Matraman","transit":false,"i_lat":-6.212485,"station_id":"MTR","distance":1275,"i_long":106.858896,"time":2,"line":1,"is_transit":false},{"station_id":"JNG","i_long":106.86807400000001,"time":8,"is_transit":true,"station_name":"Jatinegara","distance":1377,"line":1,"transit":true,"i_lat":-6.215091},{"distance":1236,"i_lat":-6.209188,"i_long":106.861737,"transit":false,"station_id":"POK","time":2,"station_name":"Pondok Jati","line":11,"is_transit":false},{"station_name":"Kramat","i_lat":-6.193792,"i_long":106.855437,"station_id":"KMT","transit":false,"is_transit":false,"time":2,"distance":1829,"line":11},{"distance":973,"i_long":106.850107,"time":1,"line":11,"station_name":"Gang Sentiong","station_id":"GST","i_lat":-6.185975,"transit":false,"is_transit":false},{"transit":false,"is_transit":false,"station_id":"PSE","i_long":106.84368,"distance":1567,"time":8,"i_lat":-6.174784,"line":11,"station_name":"Pasar Senen"}],[{"i_lat":-6.160725,"line":2,"is_transit":false,"station_name":"Sawah Besar","i_long":106.827103,"transit":false,"distance":0,"time":0,"station_id":"SW"},{"i_lat":-6.166716,"distance":1149,"station_id":"JUA","i_long":106.828284,"transit":false,"line":2,"station_name":"Juanda","is_transit":false,"time":2},{"i_lat":-6.186295,"distance":2015,"transit":false,"station_id":"GDD","is_transit":false,"station_name":"Gondangdia","i_long":106.832183,"time":4,"line":2},{"transit":false,"is_transit":false,"time":3,"line":2,"i_long":106.840169,"station_name":"Cikini","station_id":"CKI","distance":1750,"i_lat":-6.198556},{"i_lat":-6.209883,"i_long":106.84912,"line":2,"distance":1590,"station_name":"Manggarai","transit":true,"station_id":"MRI","time":4,"is_transit":true},{"line":1,"i_lat":-6.202263,"station_id":"SUD","station_name":"Sudirman","transit":false,"is_transit":false,"time":4,"distance":3186,"i_long":106.822649},{"i_long":106.819881,"distance":280,"i_lat":-6.201433,"time":1,"station_name":"Sudirman Baru","is_transit":false,"line":1,"transit":false,"station_id":"SUDB"},{"distance":471,"i_lat":-6.20132,"line":1,"station_name":"Karet","is_transit":false,"time":1,"station_id":"KAT","i_long":106.816351,"transit":false},{"transit":false,"i_lat":-6.185545,"time":5,"station_id":"THB","distance":2029,"i_long":106.811091,"line":1,"station_name":"Tanah Abang","is_transit":false},{"station_name":"Duri","i_long":106.800832,"is_transit":false,"line":1,"time":8,"distance":3632,"transit":false,"i_lat":-6.155215,"station_id":"DU"},{"line":1,"distance":1230,"i_lat":-6.144674,"transit":false,"station_name":"Angke","station_id":"AK","time":4,"i_long":106.79867,"is_transit":false},{"i_lat":-6.132549,"line":4,"transit":true,"time":9,"distance":4102,"i_long":106.826365,"station_name":"Kampung Bandan","station_id":"KPB","is_transit":true},{"line":11,"i_lat":-6.14505,"station_name":"Rajawali","time":3,"station_id":"RJW","transit":false,"distance":1444,"i_long":106.836569,"is_transit":false},{"time":5,"distance":1901,"station_id":"KMO","i_long":106.839204,"line":11,"transit":false,"i_lat":-6.161728,"is_transit":false,"station_name":"Kemayoran"},{"transit":false,"station_id":"PSE","line":11,"i_lat":-6.174784,"station_name":"Pasar Senen","i_long":106.84368,"time":4,"is_transit":false,"distance":1436}],[{"time":0,"i_lat":-6.160725,"transit":false,"station_name":"Sawah Besar","station_id":"SW","i_long":106.827103,"distance":0,"is_transit":false,"line":2},{"i_lat":-6.149769,"i_long":106.82482,"time":2,"transit":false,"station_name":"Manggabesar","distance":906,"station_id":"MGB","line":2,"is_transit":false},{"time":2,"station_id":"JAY","i_long":106.820901,"line":2,"station_name":"Jayakarta","is_transit":false,"i_lat":-6.141205,"distance":1080,"transit":false},{"station_name":"Jakarta Kota","i_lat":-6.137569,"distance":1264,"transit":true,"station_id":"JAKK","time":4,"i_long":106.812439,"line":2,"is_transit":true},{"i_long":106.826365,"i_lat":-6.132549,"distance":1364,"line":4,"station_name":"Kampung Bandan","time":3,"station_id":"KPB","is_transit":true,"transit":true},{"line":1,"station_name":"Angke","distance":4102,"i_lat":-6.144674,"station_id":"AK","time":9,"transit":false,"is_transit":false,"i_long":106.79867},{"i_long":106.800832,"line":1,"time":4,"transit":false,"distance":1230,"station_id":"DU","station_name":"Duri","i_lat":-6.155215,"is_transit":false},{"time":8,"station_name":"Tanah Abang","distance":3632,"transit":false,"line":1,"i_long":106.811091,"station_id":"THB","i_lat":-6.185545,"is_transit":false},{"i_long":106.816351,"distance":2029,"station_name":"Karet","line":1,"is_transit":false,"transit":false,"i_lat":-6.20132,"station_id":"KAT","time":5},{"is_transit":false,"distance":471,"transit":false,"station_name":"Sudirman Baru","station_id":"SUDB","i_lat":-6.201433,"i_long":106.819881,"line":1,"time":1},{"station_id":"SUD","transit":false,"is_transit":false,"time":1,"i_lat":-6.202263,"line":1,"i_long":106.822649,"distance":280,"station_name":"Sudirman"},{"is_transit":false,"i_lat":-6.209883,"line":2,"i_long":106.84912,"time":4,"station_id":"MRI","distance":3186,"transit":false,"station_name":"Manggarai"},{"time":2,"i_lat":-6.212485,"station_name":"Matraman","station_id":"MTR","distance":1275,"transit":false,"i_long":106.858896,"line":1,"is_transit":false},{"is_transit":true,"time":8,"transit":true,"i_lat":-6.215091,"line":1,"distance":1377,"i_long":106.86807400000001,"station_name":"Jatinegara","station_id":"JNG"},{"transit":false,"distance":1236,"i_long":106.861737,"station_id":"POK","time":2,"is_transit":false,"line":11,"station_name":"Pondok Jati","i_lat":-6.209188},{"station_name":"Kramat","is_transit":false,"i_long":106.855437,"transit":false,"time":2,"distance":1829,"i_lat":-6.193792,"line":11,"station_id":"KMT"},{"time":1,"i_lat":-6.185975,"station_name":"Gang Sentiong","station_id":"GST","transit":false,"is_transit":false,"line":11,"i_long":106.850107,"distance":973},{"line":11,"i_lat":-6.174784,"time":8,"transit":false,"distance":1567,"is_transit":false,"station_id":"PSE","station_name":"Pasar Senen","i_long":106.84368}]]}