{"data":[[{"transit":false,"distance":0,"is_transit":false,"line":2,"i_long":106.827103,"i_lat":-6.160725,"station_name":"Sawah Besar","time":0,"station_id":"SW"},{"i_long":106.82482,"line":2,"station_id":"MGB","is_transit":false,"station_name":"Manggabesar","transit":false,"distance":906,"i_lat":-6.149769,"time":2},{"i_lat":-6.141205,"i_long":106.820901,"line":2,"transit":false,"station_id":"JAY","time":2,"is_transit":false,"station_name":"Jayakarta","distance":1080},{"distance":1264,"transit":true,"time":4,"i_lat":-6.137569,"is_transit":true,"station_id":"JAKK","station_name":"Jakarta Kota","i_long":106.812439,"line":2},{"i_long":106.826365,"is_transit":true,"i_lat":-6.132549,"line":4,"distance":1364,"time":3,"transit":true,"station_name":"Kampung Bandan","station_id":"KPB"},{"is_transit":false,"time":9,"transit":false,"distance":4102,"i_long":106.79867,"line":1,"station_id":"AK","station_name":"Angke","i_lat":-6.144674},{"is_transit":true,"i_lat":-6.155215,"i_long":106.800832,"line":1,"station_name":"Duri","distance":1230,"time":4,"station_id":"DU","transit":true},{"is_transit":false,"transit":false,"station_name":"Grogol","i_long":106.788277,"distance":1700,"time":3,"i_lat":-6.162021,"station_id":"GGL","line":5},{"transit":false,"i_lat":-6.161433,"i_long":106.771379,"is_transit":false,"station_name":"Pesing","line":5,"distance":2036,"station_id":"PSG","time":2},{"is_transit":false,"station_name":"Taman Kota","i_lat":-6.1587309999999995,"station_id":"TKO","distance":1614,"time":2,"i_long":106.756522,"transit":false,"line":5},{"i_lat":-6.159876,"is_transit":false,"i_long":106.737035,"distance":2334,"line":5,"station_id":"BOI","station_name":"Bojongindah","time":2,"transit":false},{"time":4,"station_id":"RW","line":5,"station_name":"Rawa Buaya","is_transit":false,"transit":false,"distance":1152,"i_long":106.723064,"i_lat":-6.162758},{"i_long":106.701612,"time":3,"station_id":"KDS","distance":2504,"transit":false,"is_transit":false,"station_name":"Kalideres","i_lat":-6.166068,"line":5},{"i_long":106.679458,"time":3,"is_transit":false,"station_name":"Poris","line":5,"distance":2548,"i_lat":-6.169933,"station_id":"PI","transit":false}],[{"line":2,"time":0,"is_transit":false,"i_long":106.827103,"distance":0,"station_id":"SW","i_lat":-6.160725,"transit":false,"station_name":"Sawah Besar"},{"transit":false,"i_long":106.828284,"time":2,"line":2,"station_id":"JUA","is_transit":false,"i_lat":-6.166716,"station_name":"Juanda","distance":1149},{"transit":false,"i_long":106.832183,"distance":2015,"i_lat":-6.186295,"station_id":"GDD","is_transit":false,"time":4,"station_name":"Gondangdia","line":2},{"station_name":"Cikini","station_id":"CKI","i_lat":-6.198556,"i_long":106.840169,"is_transit":false,"line":2,"time":3,"transit":false,"distance":1750},{"line":2,"i_lat":-6.209883,"is_transit":true,"station_id":"MRI","time":4,"station_name":"Manggarai","i_long":106.84912,"distance":1590,"transit":true},{"distance":3186,"station_id":"SUD","i_long":106.822649,"transit":false,"line":1,"station_name":"Sudirman","i_lat":-6.202263,"time":4,"is_transit":false},{"i_lat":-6.201433,"station_name":"Sudirman Baru","is_transit":false,"time":1,"line":1,"station_id":"SUDB","i_long":106.819881,"distance":280,"transit":false},{"is_transit":false,"i_lat":-6.20132,"distance":471,"station_id":"KAT","station_name":"Karet","i_long":106.816351,"line":1,"time":1,"transit":false},{"station_name":"Tanah Abang","transit":false,"time":5,"i_long":106.811091,"is_transit":false,"distance":2029,"station_id":"THB","i_lat":-6.185545,"line":1},{"time":8,"transit":true,"i_lat":-6.155215,"is_transit":true,"distance":3632,"station_id":"DU","i_long":106.800832,"line":1,"station_name":"Duri"},{"line":5,"is_transit":false,"i_lat":-6.162021,"transit":false,"station_name":"Grogol","distance":1700,"i_long":106.788277,"time":3,"station_id":"GGL"},{"i_lat":-6.161433,"station_name":"Pesing","time":2,"transit":false,"is_transit":false,"station_id":"PSG","distance":2036,"i_long":106.771379,"line":5},{"i_lat":-6.1587309999999995,"time":2,"i_long":106.756522,"station_name":"Taman Kota","station_id":"TKO","distance":1614,"line":5,"is_transit":false,"transit":false},{"station_id":"BOI","is_transit":false,"i_long":106.737035,"i_lat":-6.159876,"transit":false,"station_name":"Bojongindah","line":5,"distance":2334,"time":2},{"is_transit":false,"i_long":106.723064,"i_lat":-6.162758,"distance":1152,"line":5,"transit":false,"time":4,"station_id":"RW","station_name":"Rawa Buaya"},{"time":3,"station_id":"KDS","station_name":"Kalideres","i_lat":-6.166068,"i_long":106.701612,"line":5,"transit":false,"is_transit":false,"distance":2504},{"transit":false,"i_long":106.679458,"line":5,"station_name":"Poris","station_id":"PI","time":3,"distance":2548,"i_lat":-6.169933,"is_transit":false}],[{"is_transit":false,"distance":0,"i_lat":-6.160725,"station_id":"SW","station_name":"Sawah Besar","time":0,"i_long":106.827103,"transit":false,"line":2},{"transit":false,"distance":1149,"is_transit":false,"station_id":"JUA","station_name":"Juanda","i_lat":-6.166716,"line":2,"time":2,"i_long":106.828284},{"line":2,"station_name":"Gondangdia","station_id":"GDD","time":4,"i_lat":-6.186295,"distance":2015,"is_transit":false,"transit":false,"i_long":106.832183},{"distance":1750,"time":3,"is_transit":false,"i_lat":-6.198556,"station_name":"Cikini","station_id":"CKI","line":2,"transit":false,"i_long":106.840169},{"line":2,"is_transit":true,"station_id":"MRI","i_long":106.84912,"transit":true,"i_lat":-6.209883,"time":4,"station_name":"Manggarai","distance":1590},{"i_lat":-6.212485,"is_transit":false,"transit":false,"i_long":106.858896,"distance":1275,"time":2,"line":1,"station_name":"Matraman","station_id":"MTR"},{"i_lat":-6.215091,"i_long":106.86807400000001,"distance":1377,"station_name":"Jatinegara","station_id":"JNG","time":8,"transit":true,"is_transit":true,"line":1},{"transit":false,"i_lat":-6.209188,"station_id":"POK","distance":1236,"time":2,"i_long":106.861737,"station_name":"Pondok Jati","is_transit":false,"line":11},{"transit":false,"station_name":"Kramat","station_id":"KMT","distance":1829,"i_lat":-6.193792,"time":2,"is_transit":false,"line":11,"i_long":106.855437},{"transit":false,"i_long":106.850107,"station_id":"GST","distance":973,"line":11,"time":1,"station_name":"Gang Sentiong","i_lat":-6.185975,"is_transit":false},{"time":8,"station_name":"Pasar Senen","i_lat":-6.174784,"i_long":106.84368,"line":11,"distance":1567,"is_transit":false,"station_id":"PSE","transit":false},{"i_lat":-6.161728,"line":11,"time":4,"is_transit":false,"i_long":106.839204,"transit":false,"station_id":"KMO","distance":1436,"station_name":"Kemayoran"},{"i_lat":-6.14505,"transit":false,"station_name":"Rajawali","is_transit":false,"line":11,"i_long":106.836569,"distance":1901,"time":5,"station_id":"RJW"},{"i_long":106.826365,"station_id":"KPB","station_name":"Kampung Bandan","is_transit":true,"i_lat":-6.132549,"distance":1444,"time":3,"line":4,"transit":true},{"distance":4102,"i_long":106.79867,"time":9,"transit":false,"is_transit":false,"station_name":"Angke","line":1,"station_id":"AK","i_lat":-6.144674},{"line":1,"is_transit":true,"transit":true,"station_name":"Duri","distance":1230,"i_lat":-6.155215,"i_long":106.800832,"station_id":"DU","time":4},{"station_id":"GGL","station_name":"Grogol","is_transit":false,"transit":false,"distance":1700,"time":3,"i_lat":-6.162021,"line":5,"i_long":106.788277},{"distance":2036,"i_lat":-6.161433,"station_name":"Pesing","transit":false,"time":2,"station_id":"PSG","i_long":106.771379,"line":5,"is_transit":false},{"is_transit":false,"station_name":"Taman Kota","time":2,"transit":false,"line":5,"i_lat":-6.1587309999999995,"distance":1614,"station_id":"TKO","i_long":106.756522},{"i_lat":-6.159876,"time":2,"i_long":106.737035,"line":5,"station_name":"Bojongindah","transit":false,"is_transit":false,"distance":2334,"station_id":"BOI"},{"time":4,"line":5,"distance":1152,"station_name":"Rawa Buaya","is_transit":false,"i_lat":-6.162758,"transit":false,"i_long":106.723064,"station_id":"RW"},{"transit":false,"is_transit":false,"station_id":"KDS","time":3,"line":5,"i_lat":-6.166068,"i_long":106.701612,"distance":2504,"station_name":"Kalideres"},{"transit":false,"station_id":"PI","is_transit":false,"line":5,"distance":2548,"station_name":"Poris","time":3,"i_long":106.679458,"i_lat":-6.169933}],[{"distance":0,"is_transit":false,"transit":false,"station_name":"Sawah Besar","line":2,"station_id":"SW","i_lat":-6.160725,"time":0,"i_long":106.827103},{"station_name":"Manggabesar","distance":906,"station_id":"MGB","time":2,"i_long":106.82482,"is_transit":false,"line":2,"i_lat":-6.149769,"transit":false},{"i_lat":-6.141205,"time":2,"line":2,"is_transit":false,"distance":1080,"transit":false,"station_id":"JAY","i_long":106.820901,"station_name":"Jayakarta"},{"station_id":"JAKK","transit":true,"i_lat":-6.137569,"is_transit":true,"distance":1264,"station_name":"Jakarta Kota","time":4,"line":2,"i_long":106.812439},{"is_transit":true,"i_lat":-6.132549,"station_name":"Kampung Bandan","time":3,"line":4,"i_long":106.826365,"transit":true,"station_id":"KPB","distance":1364},{"distance":1444,"time":3,"i_lat":-6.14505,"line":11,"station_name":"Rajawali","station_id":"RJW","is_transit":false,"i_long":106.836569,"transit":false},{"station_id":"KMO","i_lat":-6.161728,"i_long":106.839204,"distance":1901,"station_name":"Kemayoran","is_transit":false,"time":5,"transit":false,"line":11},{"i_long":106.84368,"time":4,"i_lat":-6.174784,"line":11,"distance":1436,"transit":false,"station_id":"PSE","is_transit":false,"station_name":"Pasar Senen"},{"station_name":"Gang Sentiong","distance":1567,"transit":false,"time":8,"is_transit":false,"line":11,"i_long":106.850107,"i_lat":-6.185975,"station_id":"GST"},{"i_lat":-6.193792,"transit":false,"time":1,"line":11,"distance":973,"is_transit":false,"i_long":106.855437,"station_name":"Kramat","station_id":"KMT"},{"station_id":"POK","time":2,"i_lat":-6.209188,"distance":1829,"station_name":"Pondok Jati","line":11,"transit":false,"is_transit":false,"i_long":106.861737},{"distance":1236,"transit":true,"time":9,"i_lat":-6.215091,"station_id":"JNG","i_long":106.86807400000001,"line":1,"station_name":"Jatinegara","is_transit":true},{"distance":1377,"transit":false,"is_transit":false,"station_id":"MTR","line":1,"station_name":"Matraman","time":2,"i_lat":-6.212485,"i_long":106.858896},{"time":2,"line":2,"is_transit":false,"i_long":106.84912,"transit":false,"i_lat":-6.209883,"station_name":"Manggarai","station_id":"MRI","distance":1275},{"time":4,"is_transit":false,"i_long":106.822649,"transit":false,"station_id":"SUD","i_lat":-6.202263,"distance":3186,"station_name":"Sudirman","line":1},{"station_name":"Sudirman Baru","distance":280,"station_id":"SUDB","transit":false,"time":1,"is_transit":false,"i_long":106.819881,"line":1,"i_lat":-6.201433},{"i_long":106.816351,"distance":471,"i_lat":-6.20132,"line":1,"transit":false,"is_transit":false,"station_id":"KAT","station_name":"Karet","time":1},{"i_long":106.811091,"line":1,"station_id":"THB","i_lat":-6.185545,"distance":2029,"time":5,"transit":false,"is_transit":false,"station_name":"Tanah Abang"},{"i_long":106.800832,"line":1,"transit":true,"is_transit":true,"station_name":"Duri","station_id":"DU","distance":3632,"time":8,"i_lat":-6.155215},{"is_transit":false,"i_lat":-6.162021,"i_long":106.788277,"time":3,"station_name":"Grogol","line":5,"transit":false,"distance":1700,"station_id":"GGL"},{"station_id":"PSG","transit":false,"line":5,"i_long":106.771379,"i_lat":-6.161433,"station_name":"Pesing","distance":2036,"time":2,"is_transit":false},{"i_long":106.756522,"transit":false,"is_transit":false,"station_id":"TKO","i_lat":-6.1587309999999995,"line":5,"station_name":"Taman Kota","distance":1614,"time":2},{"station_id":"BOI","time":2,"i_long":106.737035,"line":5,"distance":2334,"transit":false,"station_name":"Bojongindah","is_transit":false,"i_lat":-6.159876},{"station_id":"RW","time":4,"i_lat":-6.162758,"is_transit":false,"i_long":106.723064,"line":5,"station_name":"Rawa Buaya","distance":1152,"transit":false},{"i_long":106.701612,"station_id":"KDS","distance":2504,"line":5,"transit":false,"station_name":"Kalideres","is_transit":false,"i_lat":-6.166068,"time":3},{"station_id":"PI","i_lat":-6.169933,"station_name":"Poris","distance":2548,"line":5,"is_transit":false,"transit":false,"i_long":106.679458,"time":3}]]}