{"data":[[{"distance":0,"i_lat":-6.160725,"station_id":"SW","line":2,"i_long":106.827103,"is_transit":false,"transit":false,"time":0,"station_name":"Sawah Besar"},{"distance":906,"is_transit":false,"i_lat":-6.149769,"station_id":"MGB","time":2,"i_long":106.82482,"line":2,"station_name":"Manggabesar","transit":false},{"time":2,"station_id":"JAY","distance":1080,"line":2,"is_transit":false,"i_lat":-6.141205,"i_long":106.820901,"station_name":"Jayakarta","transit":false},{"i_lat":-6.137569,"distance":1264,"transit":true,"i_long":106.812439,"station_id":"JAKK","station_name":"Jakarta Kota","is_transit":true,"line":2,"time":4},{"time":3,"line":4,"is_transit":true,"station_name":"Kampung Bandan","station_id":"KPB","transit":true,"distance":1364,"i_lat":-6.132549,"i_long":106.826365},{"time":3,"station_name":"Rajawali","i_long":106.836569,"i_lat":-6.14505,"distance":1444,"is_transit":false,"station_id":"RJW","transit":false,"line":11},{"distance":1901,"time":5,"station_name":"Kemayoran","i_long":106.839204,"i_lat":-6.161728,"line":11,"station_id":"KMO","is_transit":false,"transit":false},{"station_id":"PSE","time":4,"i_lat":-6.174784,"i_long":106.84368,"transit":false,"distance":1436,"is_transit":false,"line":11,"station_name":"Pasar Senen"}],[{"station_name":"Sawah Besar","i_long":106.827103,"line":2,"is_transit":false,"time":0,"transit":false,"station_id":"SW","distance":0,"i_lat":-6.160725},{"distance":1149,"i_long":106.828284,"time":2,"is_transit":false,"station_name":"Juanda","line":2,"transit":false,"station_id":"JUA","i_lat":-6.166716},{"time":4,"distance":2015,"station_id":"GDD","is_transit":false,"transit":false,"i_lat":-6.186295,"i_long":106.832183,"line":2,"station_name":"Gondangdia"},{"i_lat":-6.198556,"is_transit":false,"transit":false,"i_long":106.840169,"time":3,"station_name":"Cikini","distance":1750,"station_id":"CKI","line":2},{"line":2,"i_long":106.84912,"transit":true,"station_name":"Manggarai","i_lat":-6.209883,"is_transit":true,"distance":1590,"time":4,"station_id":"MRI"},{"line":1,"i_lat":-6.212485,"distance":1275,"station_id":"MTR","station_name":"Matraman","time":2,"i_long":106.858896,"is_transit":false,"transit":false},{"i_lat":-6.215091,"time":8,"i_long":106.86807400000001,"is_transit":true,"line":1,"station_id":"JNG","station_name":"Jatinegara","transit":true,"distance":1377},{"i_lat":-6.209188,"line":11,"distance":1236,"station_id":"POK","i_long":106.861737,"station_name":"Pondok Jati","transit":false,"time":2,"is_transit":false},{"time":2,"distance":1829,"i_long":106.855437,"transit":false,"is_transit":false,"station_name":"Kramat","i_lat":-6.193792,"line":11,"station_id":"KMT"},{"station_id":"GST","transit":false,"i_lat":-6.185975,"distance":973,"station_name":"Gang Sentiong","is_transit":false,"time":1,"i_long":106.850107,"line":11},{"station_id":"PSE","station_name":"Pasar Senen","transit":false,"i_lat":-6.174784,"distance":1567,"time":8,"is_transit":false,"i_long":106.84368,"line":11}],[{"station_id":"SW","i_lat":-6.160725,"distance":0,"station_name":"Sawah Besar","line":2,"time":0,"transit":false,"is_transit":false,"i_long":106.827103},{"distance":1149,"time":2,"station_id":"JUA","station_name":"Juanda","i_long":106.828284,"is_transit":false,"i_lat":-6.166716,"transit":false,"line":2},{"time":4,"transit":false,"distance":2015,"station_id":"GDD","station_name":"Gondangdia","line":2,"is_transit":false,"i_lat":-6.186295,"i_long":106.832183},{"i_lat":-6.198556,"station_id":"CKI","i_long":106.840169,"station_name":"Cikini","line":2,"time":3,"distance":1750,"is_transit":false,"transit":false},{"i_long":106.84912,"time":4,"transit":true,"i_lat":-6.209883,"line":2,"station_id":"MRI","is_transit":true,"distance":1590,"station_name":"Manggarai"},{"distance":3186,"time":4,"i_lat":-6.202263,"i_long":106.822649,"line":1,"station_name":"Sudirman","station_id":"SUD","is_transit":false,"transit":false},{"i_long":106.819881,"i_lat":-6.201433,"station_id":"SUDB","transit":false,"distance":280,"time":1,"is_transit":false,"station_name":"Sudirman Baru","line":1},{"line":1,"transit":false,"distance":471,"time":1,"station_id":"KAT","i_lat":-6.20132,"i_long":106.816351,"is_transit":false,"station_name":"Karet"},{"station_name":"Tanah Abang","i_lat":-6.185545,"distance":2029,"is_transit":false,"i_long":106.811091,"line":1,"time":5,"transit":false,"station_id":"THB"},{"line":1,"is_transit":false,"transit":false,"station_name":"Duri","time":8,"i_long":106.800832,"distance":3632,"i_lat":-6.155215,"station_id":"DU"},{"i_lat":-6.144674,"i_long":106.79867,"distance":1230,"transit":false,"is_transit":false,"station_id":"AK","station_name":"Angke","time":4,"line":1},{"transit":true,"station_name":"Kampung Bandan","i_long":106.826365,"time":9,"distance":4102,"station_id":"KPB","i_lat":-6.132549,"is_transit":true,"line":4},{"i_long":106.836569,"i_lat":-6.14505,"station_id":"RJW","is_transit":false,"transit":false,"distance":1444,"station_name":"Rajawali","line":11,"time":3},{"time":5,"i_lat":-6.161728,"i_long":106.839204,"station_name":"Kemayoran","is_transit":false,"transit":false,"distance":1901,"line":11,"station_id":"KMO"},{"line":11,"is_transit":false,"i_lat":-6.174784,"transit":false,"distance":1436,"station_id":"PSE","i_long":106.84368,"time":4,"station_name":"Pasar Senen"}],[{"transit":false,"line":2,"i_lat":-6.160725,"time":0,"i_long":106.827103,"station_name":"Sawah Besar","distance":0,"is_transit":false,"station_id":"SW"},{"transit":false,"time":2,"station_name":"Manggabesar","i_lat":-6.149769,"distance":906,"is_transit":false,"i_long":106.82482,"line":2,"station_id":"MGB"},{"is_transit":false,"i_long":106.820901,"station_name":"Jayakarta","i_lat":-6.141205,"transit":false,"time":2,"distance":1080,"station_id":"JAY","line":2},{"station_name":"Jakarta Kota","time":4,"line":2,"station_id":"JAKK","transit":true,"distance":1264,"is_transit":true,"i_long":106.812439,"i_lat":-6.137569},{"i_lat":-6.132549,"transit":true,"i_long":106.826365,"station_id":"KPB","is_transit":true,"line":4,"station_name":"Kampung Bandan","time":3,"distance":1364},{"i_lat":-6.144674,"station_name":"Angke","transit":false,"line":1,"is_transit":false,"i_long":106.79867,"distance":4102,"time":9,"station_id":"AK"},{"station_id":"DU","i_long":106.800832,"distance":1230,"line":1,"i_lat":-6.155215,"time":4,"is_transit":false,"transit":false,"station_name":"Duri"},{"time":8,"distance":3632,"i_lat":-6.185545,"i_long":106.811091,"line":1,"is_transit":false,"station_id":"THB","transit":false,"station_name":"Tanah Abang"},{"station_id":"KAT","station_name":"Karet","distance":2029,"time":5,"i_long":106.816351,"transit":false,"is_transit":false,"i_lat":-6.20132,"line":1},{"station_id":"SUDB","line":1,"time":1,"is_transit":false,"station_name":"Sudirman Baru","i_lat":-6.201433,"distance":471,"transit":false,"i_long":106.819881},{"i_lat":-6.202263,"station_name":"Sudirman","time":1,"i_long":106.822649,"distance":280,"transit":false,"is_transit":false,"line":1,"station_id":"SUD"},{"i_long":106.84912,"distance":3186,"is_transit":false,"line":2,"time":4,"station_id":"MRI","transit":false,"station_name":"Manggarai","i_lat":-6.209883},{"time":2,"i_long":106.858896,"station_id":"MTR","distance":1275,"is_transit":false,"transit":false,"i_lat":-6.212485,"line":1,"station_name":"Matraman"},{"time":8,"station_id":"JNG","is_transit":true,"transit":true,"station_name":"Jatinegara","i_lat":-6.215091,"line":1,"distance":1377,"i_long":106.86807400000001},{"time":2,"distance":1236,"line":11,"i_lat":-6.209188,"i_long":106.861737,"is_transit":false,"transit":false,"station_name":"Pondok Jati","station_id":"POK"},{"line":11,"distance":1829,"time":2,"station_id":"KMT","station_name":"Kramat","i_lat":-6.193792,"transit":false,"is_transit":false,"i_long":106.855437},{"transit":false,"distance":973,"station_name":"Gang Sentiong","i_lat":-6.185975,"is_transit":false,"i_long":106.850107,"station_id":"GST","time":1,"line":11},{"transit":false,"station_name":"Pasar Senen","time":8,"is_transit":false,"i_long":106.84368,"station_id":"PSE","distance":1567,"line":11,"i_lat":-6.174784}]]}