{"data":[[{"transit":false,"distance":0,"station_name":"Sawah Besar","time":0,"i_long":106.827103,"i_lat":-6.160725,"station_id":"SW","line":2,"is_transit":false},{"transit":false,"i_lat":-6.149769,"time":2,"is_transit":false,"station_name":"Manggabesar","i_long":106.82482,"line":2,"distance":906,"station_id":"MGB"},{"transit":false,"i_long":106.820901,"station_name":"Jayakarta","i_lat":-6.141205,"line":2,"time":2,"is_transit":false,"distance":1080,"station_id":"JAY"},{"distance":1264,"i_lat":-6.137569,"station_name":"Jakarta Kota","i_long":106.812439,"line":2,"station_id":"JAKK","time":4,"is_transit":true,"transit":true},{"distance":1364,"transit":true,"station_name":"Kampung Bandan","i_lat":-6.132549,"line":4,"time":3,"is_transit":true,"i_long":106.826365,"station_id":"KPB"},{"is_transit":false,"transit":false,"time":9,"distance":4102,"i_lat":-6.144674,"i_long":106.79867,"line":1,"station_id":"AK","station_name":"Angke"},{"line":1,"transit":false,"distance":1230,"station_id":"DU","station_name":"Duri","is_transit":false,"i_lat":-6.155215,"i_long":106.800832,"time":4},{"line":1,"is_transit":true,"distance":3632,"transit":true,"i_long":106.811091,"station_name":"Tanah Abang","i_lat":-6.185545,"time":8,"station_id":"THB"},{"station_name":"Palmerah","line":6,"distance":3191,"is_transit":false,"i_lat":-6.207404,"i_long":106.79689,"time":6,"station_id":"PLM","transit":false}],[{"station_name":"Sawah Besar","time":0,"i_long":106.827103,"station_id":"SW","i_lat":-6.160725,"line":2,"is_transit":false,"transit":false,"distance":0},{"is_transit":false,"i_long":106.828284,"i_lat":-6.166716,"line":2,"distance":1149,"transit":false,"time":2,"station_name":"Juanda","station_id":"JUA"},{"station_name":"Gondangdia","time":4,"line":2,"station_id":"GDD","distance":2015,"transit":false,"i_lat":-6.186295,"i_long":106.832183,"is_transit":false},{"is_transit":false,"i_lat":-6.198556,"line":2,"transit":false,"i_long":106.840169,"time":3,"station_name":"Cikini","distance":1750,"station_id":"CKI"},{"station_name":"Manggarai","is_transit":true,"line":2,"time":4,"transit":true,"i_lat":-6.209883,"i_long":106.84912,"station_id":"MRI","distance":1590},{"station_id":"SUD","station_name":"Sudirman","time":4,"i_long":106.822649,"is_transit":false,"transit":false,"distance":3186,"i_lat":-6.202263,"line":1},{"transit":false,"time":1,"station_name":"Sudirman Baru","station_id":"SUDB","is_transit":false,"i_long":106.819881,"distance":280,"i_lat":-6.201433,"line":1},{"is_transit":false,"station_name":"Karet","time":1,"i_lat":-6.20132,"i_long":106.816351,"line":1,"distance":471,"transit":false,"station_id":"KAT"},{"is_transit":true,"station_name":"Tanah Abang","transit":true,"distance":2029,"station_id":"THB","line":1,"i_long":106.811091,"i_lat":-6.185545,"time":5},{"is_transit":false,"time":6,"i_lat":-6.207404,"station_id":"PLM","line":6,"transit":false,"i_long":106.79689,"distance":3191,"station_name":"Palmerah"}],[{"line":2,"i_lat":-6.160725,"is_transit":false,"station_name":"Sawah Besar","distance":0,"time":0,"station_id":"SW","transit":false,"i_long":106.827103},{"i_lat":-6.166716,"line":2,"distance":1149,"time":2,"station_id":"JUA","transit":false,"i_long":106.828284,"is_transit":false,"station_name":"Juanda"},{"line":2,"station_id":"GDD","i_lat":-6.186295,"distance":2015,"is_transit":false,"time":4,"transit":false,"station_name":"Gondangdia","i_long":106.832183},{"transit":false,"i_lat":-6.198556,"distance":1750,"station_id":"CKI","time":3,"is_transit":false,"station_name":"Cikini","line":2,"i_long":106.840169},{"i_long":106.84912,"is_transit":true,"i_lat":-6.209883,"line":2,"distance":1590,"transit":true,"station_name":"Manggarai","time":4,"station_id":"MRI"},{"station_id":"MTR","i_lat":-6.212485,"distance":1275,"time":2,"station_name":"Matraman","is_transit":false,"transit":false,"i_long":106.858896,"line":1},{"i_lat":-6.215091,"i_long":106.86807400000001,"station_id":"JNG","is_transit":true,"transit":true,"station_name":"Jatinegara","time":8,"line":1,"distance":1377},{"transit":false,"distance":1236,"time":2,"is_transit":false,"station_id":"POK","i_lat":-6.209188,"station_name":"Pondok Jati","line":11,"i_long":106.861737},{"is_transit":false,"station_name":"Kramat","line":11,"station_id":"KMT","i_lat":-6.193792,"distance":1829,"transit":false,"i_long":106.855437,"time":2},{"is_transit":false,"transit":false,"station_id":"GST","i_long":106.850107,"station_name":"Gang Sentiong","i_lat":-6.185975,"time":1,"distance":973,"line":11},{"i_lat":-6.174784,"distance":1567,"station_name":"Pasar Senen","i_long":106.84368,"is_transit":false,"line":11,"time":8,"station_id":"PSE","transit":false},{"station_id":"KMO","is_transit":false,"station_name":"Kemayoran","transit":false,"distance":1436,"i_lat":-6.161728,"line":11,"time":4,"i_long":106.839204},{"line":11,"transit":false,"distance":1901,"i_lat":-6.14505,"station_id":"RJW","time":5,"i_long":106.836569,"is_transit":false,"station_name":"Rajawali"},{"station_name":"Kampung Bandan","distance":1444,"time":3,"i_lat":-6.132549,"line":4,"station_id":"KPB","transit":true,"is_transit":true,"i_long":106.826365},{"time":9,"is_transit":false,"line":1,"i_lat":-6.144674,"transit":false,"i_long":106.79867,"station_id":"AK","station_name":"Angke","distance":4102},{"distance":1230,"is_transit":false,"station_name":"Duri","i_lat":-6.155215,"transit":false,"line":1,"time":4,"station_id":"DU","i_long":106.800832},{"i_lat":-6.185545,"is_transit":true,"time":8,"station_id":"THB","distance":3632,"line":1,"i_long":106.811091,"transit":true,"station_name":"Tanah Abang"},{"station_name":"Palmerah","i_lat":-6.207404,"is_transit":false,"line":6,"transit":false,"i_long":106.79689,"time":6,"distance":3191,"station_id":"PLM"}],[{"time":0,"distance":0,"i_lat":-6.160725,"line":2,"is_transit":false,"i_long":106.827103,"station_id":"SW","transit":false,"station_name":"Sawah Besar"},{"line":2,"station_name":"Manggabesar","is_transit":false,"time":2,"i_lat":-6.149769,"i_long":106.82482,"transit":false,"distance":906,"station_id":"MGB"},{"line":2,"transit":false,"station_name":"Jayakarta","distance":1080,"i_lat":-6.141205,"i_long":106.820901,"is_transit":false,"station_id":"JAY","time":2},{"station_id":"JAKK","distance":1264,"station_name":"Jakarta Kota","time":4,"is_transit":true,"i_long":106.812439,"line":2,"transit":true,"i_lat":-6.137569},{"station_name":"Kampung Bandan","time":3,"is_transit":true,"i_lat":-6.132549,"distance":1364,"transit":true,"station_id":"KPB","i_long":106.826365,"line":4},{"i_long":106.836569,"transit":false,"station_name":"Rajawali","station_id":"RJW","time":3,"distance":1444,"is_transit":false,"line":11,"i_lat":-6.14505},{"transit":false,"station_id":"KMO","i_lat":-6.161728,"is_transit":false,"distance":1901,"time":5,"line":11,"station_name":"Kemayoran","i_long":106.839204},{"station_name":"Pasar Senen","station_id":"PSE","i_lat":-6.174784,"line":11,"is_transit":false,"transit":false,"time":4,"distance":1436,"i_long":106.84368},{"station_name":"Gang Sentiong","line":11,"station_id":"GST","i_long":106.850107,"i_lat":-6.185975,"time":8,"transit":false,"is_transit":false,"distance":1567},{"is_transit":false,"i_lat":-6.193792,"station_id":"KMT","i_long":106.855437,"time":1,"station_name":"Kramat","distance":973,"line":11,"transit":false},{"i_lat":-6.209188,"line":11,"is_transit":false,"transit":false,"station_name":"Pondok Jati","station_id":"POK","i_long":106.861737,"time":2,"distance":1829},{"transit":true,"station_id":"JNG","i_lat":-6.215091,"is_transit":true,"i_long":106.86807400000001,"station_name":"Jatinegara","line":1,"time":9,"distance":1236},{"transit":false,"i_long":106.858896,"distance":1377,"i_lat":-6.212485,"is_transit":false,"line":1,"station_id":"MTR","station_name":"Matraman","time":2},{"station_id":"MRI","is_transit":false,"time":2,"i_lat":-6.209883,"line":2,"transit":false,"station_name":"Manggarai","distance":1275,"i_long":106.84912},{"is_transit":false,"station_id":"SUD","i_long":106.822649,"distance":3186,"transit":false,"time":4,"station_name":"Sudirman","i_lat":-6.202263,"line":1},{"time":1,"transit":false,"distance":280,"line":1,"station_id":"SUDB","is_transit":false,"i_long":106.819881,"station_name":"Sudirman Baru","i_lat":-6.201433},{"distance":471,"i_lat":-6.20132,"i_long":106.816351,"is_transit":false,"time":1,"transit":false,"station_name":"Karet","station_id":"KAT","line":1},{"is_transit":true,"time":5,"distance":2029,"transit":true,"line":1,"i_long":106.811091,"station_name":"Tanah Abang","i_lat":-6.185545,"station_id":"THB"},{"i_lat":-6.207404,"i_long":106.79689,"line":6,"time":6,"is_transit":false,"transit":false,"distance":3191,"station_id":"PLM","station_name":"Palmerah"}]]}