{"data":[[{"i_long":106.827103,"is_transit":false,"station_name":"Sawah Besar","transit":false,"station_id":"SW","i_lat":-6.160725,"line":2,"time":0,"distance":0},{"line":2,"time":2,"i_long":106.82482,"distance":906,"station_id":"MGB","i_lat":-6.149769,"station_name":"Manggabesar","is_transit":false,"transit":false},{"line":7,"is_transit":false,"station_id":"JAY","station_name":"Jayakarta","transit":false,"i_long":106.820901,"i_lat":-6.141205,"distance":1080,"time":2},{"station_id":"JAKK","distance":1264,"is_transit":true,"time":4,"transit":true,"line":0,"i_lat":-6.137569,"station_name":"Jakarta Kota","i_long":106.812439},{"distance":1364,"station_id":"KPB","station_name":"Kampung Bandan","is_transit":true,"time":3,"i_lat":-6.132549,"line":0,"transit":false,"i_long":106.826365},{"transit":false,"i_lat":-6.144674,"distance":4102,"time":9,"is_transit":false,"i_long":106.79867,"station_id":"AK","line":0,"station_name":"Angke"},{"i_long":106.800832,"is_transit":true,"time":4,"line":1,"i_lat":-6.155215,"station_name":"Duri","station_id":"DU","transit":true,"distance":1230},{"i_lat":-6.162021,"time":3,"transit":false,"station_name":"Grogol","line":5,"is_transit":false,"station_id":"GGL","i_long":106.788277,"distance":1700},{"station_name":"Pesing","station_id":"PSG","transit":false,"is_transit":false,"i_lat":-6.161433,"i_long":106.771379,"time":2,"line":5,"distance":2036},{"i_lat":-6.1587309999999995,"is_transit":false,"station_id":"TKO","line":5,"distance":1614,"station_name":"Taman Kota","transit":false,"time":2,"i_long":106.756522},{"distance":2334,"i_lat":-6.159876,"is_transit":false,"station_name":"Bojongindah","i_long":106.737035,"transit":false,"line":0,"station_id":"BOI","time":2},{"station_name":"Rawa Buaya","transit":false,"time":4,"i_lat":-6.162758,"line":5,"station_id":"RW","i_long":106.723064,"distance":1152,"is_transit":false},{"distance":2504,"time":3,"is_transit":false,"station_name":"Kalideres","station_id":"KDS","i_lat":-6.166068,"transit":false,"i_long":106.701612,"line":5},{"time":3,"station_name":"Poris","i_lat":-6.169933,"distance":2548,"line":5,"is_transit":false,"station_id":"PI","transit":false,"i_long":106.679458}],[{"transit":false,"i_lat":-6.160725,"i_long":106.827103,"is_transit":false,"station_id":"SW","distance":0,"station_name":"Sawah Besar","time":0,"line":2},{"is_transit":false,"distance":1149,"station_name":"Juanda","time":2,"i_lat":-6.166716,"transit":false,"line":2,"station_id":"JUA","i_long":106.828284},{"station_id":"GDD","station_name":"Gondangdia","time":4,"is_transit":false,"distance":2015,"i_long":106.832183,"line":2,"transit":false,"i_lat":-6.186295},{"station_name":"Cikini","distance":1750,"station_id":"CKI","line":0,"is_transit":false,"time":3,"i_lat":-6.198556,"transit":false,"i_long":106.840169},{"time":4,"distance":1590,"station_id":"MRI","transit":true,"i_long":106.84912,"line":0,"i_lat":-6.209883,"station_name":"Manggarai","is_transit":true},{"distance":3186,"i_lat":-6.202263,"line":1,"i_long":106.822649,"station_name":"Sudirman","is_transit":false,"transit":false,"station_id":"SUD","time":4},{"station_name":"Sudirman Baru","i_lat":-6.201433,"distance":280,"transit":false,"i_long":106.819881,"is_transit":false,"station_id":"SUDB","line":1,"time":1},{"i_lat":-6.20132,"is_transit":false,"line":1,"i_long":106.816351,"station_id":"KAT","station_name":"Karet","transit":false,"distance":471,"time":1},{"i_lat":-6.185545,"station_id":"THB","time":5,"line":1,"distance":2029,"is_transit":true,"station_name":"Tanah Abang","i_long":106.811091,"transit":false},{"time":8,"station_name":"Duri","i_long":106.800832,"is_transit":true,"distance":3632,"transit":true,"station_id":"DU","line":1,"i_lat":-6.155215},{"is_transit":false,"line":5,"transit":false,"i_lat":-6.162021,"station_id":"GGL","i_long":106.788277,"station_name":"Grogol","distance":1700,"time":3},{"distance":2036,"transit":false,"station_name":"Pesing","i_lat":-6.161433,"is_transit":false,"line":5,"station_id":"PSG","i_long":106.771379,"time":2},{"time":2,"i_lat":-6.1587309999999995,"line":5,"transit":false,"is_transit":false,"station_id":"TKO","distance":1614,"station_name":"Taman Kota","i_long":106.756522},{"station_name":"Bojongindah","line":0,"is_transit":false,"distance":2334,"station_id":"BOI","i_lat":-6.159876,"transit":false,"time":2,"i_long":106.737035},{"is_transit":false,"station_name":"Rawa Buaya","line":5,"station_id":"RW","transit":false,"time":4,"i_long":106.723064,"i_lat":-6.162758,"distance":1152},{"time":3,"station_id":"KDS","transit":false,"line":5,"is_transit":false,"i_lat":-6.166068,"station_name":"Kalideres","i_long":106.701612,"distance":2504},{"station_id":"PI","transit":false,"distance":2548,"is_transit":false,"station_name":"Poris","time":3,"i_lat":-6.169933,"i_long":106.679458,"line":5}],[{"transit":false,"station_id":"SW","i_long":106.827103,"station_name":"Sawah Besar","time":0,"i_lat":-6.160725,"is_transit":false,"line":2,"distance":0},{"i_long":106.828284,"time":2,"is_transit":false,"i_lat":-6.166716,"line":2,"transit":false,"distance":1149,"station_name":"Juanda","station_id":"JUA"},{"transit":false,"station_id":"GDD","i_long":106.832183,"line":2,"distance":2015,"i_lat":-6.186295,"is_transit":false,"time":4,"station_name":"Gondangdia"},{"station_name":"Cikini","station_id":"CKI","distance":1750,"transit":false,"i_lat":-6.198556,"is_transit":false,"i_long":106.840169,"line":0,"time":3},{"i_long":106.84912,"is_transit":true,"transit":true,"station_name":"Manggarai","i_lat":-6.209883,"time":4,"station_id":"MRI","line":0,"distance":1590},{"transit":false,"is_transit":false,"line":1,"station_id":"MTR","time":2,"i_lat":-6.212485,"distance":1275,"i_long":106.858896,"station_name":"Matraman"},{"transit":true,"is_transit":true,"station_name":"Jatinegara","i_long":106.86807400000001,"distance":1377,"i_lat":-6.215091,"line":0,"time":8,"station_id":"JNG"},{"station_id":"POK","i_long":106.861737,"station_name":"Pondok Jati","transit":false,"i_lat":-6.209188,"distance":1236,"is_transit":false,"time":2,"line":11},{"distance":1829,"line":11,"transit":false,"time":2,"station_id":"KMT","is_transit":false,"station_name":"Kramat","i_lat":-6.193792,"i_long":106.855437},{"time":1,"i_lat":-6.185975,"i_long":106.850107,"station_name":"Gang Sentiong","station_id":"GST","is_transit":false,"transit":false,"line":11,"distance":973},{"time":8,"i_long":106.84368,"line":11,"distance":1567,"is_transit":false,"station_name":"Pasar Senen","station_id":"PSE","transit":false,"i_lat":-6.174784},{"distance":1436,"i_lat":-6.161728,"station_id":"KMO","i_long":106.839204,"station_name":"Kemayoran","time":4,"is_transit":false,"transit":false,"line":11},{"line":11,"transit":false,"station_name":"Rajawali","time":5,"distance":1901,"i_lat":-6.14505,"station_id":"RJW","i_long":106.836569,"is_transit":false},{"distance":1444,"i_lat":-6.132549,"station_name":"Kampung Bandan","line":0,"i_long":106.826365,"is_transit":true,"station_id":"KPB","transit":true,"time":3},{"is_transit":false,"station_name":"Angke","line":0,"time":9,"transit":false,"i_long":106.79867,"i_lat":-6.144674,"station_id":"AK","distance":4102},{"i_lat":-6.155215,"line":1,"station_name":"Duri","transit":true,"is_transit":true,"time":4,"distance":1230,"station_id":"DU","i_long":106.800832},{"i_lat":-6.162021,"i_long":106.788277,"station_id":"GGL","transit":false,"time":3,"station_name":"Grogol","is_transit":false,"line":5,"distance":1700},{"line":5,"is_transit":false,"time":2,"transit":false,"distance":2036,"station_name":"Pesing","station_id":"PSG","i_lat":-6.161433,"i_long":106.771379},{"station_id":"TKO","line":5,"is_transit":false,"i_lat":-6.1587309999999995,"i_long":106.756522,"station_name":"Taman Kota","time":2,"distance":1614,"transit":false},{"is_transit":false,"time":2,"i_lat":-6.159876,"station_id":"BOI","i_long":106.737035,"line":0,"station_name":"Bojongindah","distance":2334,"transit":false},{"transit":false,"time":4,"i_long":106.723064,"station_id":"RW","line":5,"is_transit":false,"i_lat":-6.162758,"station_name":"Rawa Buaya","distance":1152},{"is_transit":false,"station_id":"KDS","station_name":"Kalideres","time":3,"distance":2504,"line":5,"transit":false,"i_lat":-6.166068,"i_long":106.701612},{"distance":2548,"i_lat":-6.169933,"i_long":106.679458,"station_id":"PI","is_transit":false,"time":3,"transit":false,"line":5,"station_name":"Poris"}],[{"station_id":"SW","transit":false,"i_long":106.827103,"station_name":"Sawah Besar","i_lat":-6.160725,"line":2,"time":0,"distance":0,"is_transit":false},{"distance":906,"is_transit":false,"station_id":"MGB","transit":false,"i_lat":-6.149769,"i_long":106.82482,"line":2,"time":2,"station_name":"Manggabesar"},{"transit":false,"is_transit":false,"time":2,"i_long":106.820901,"line":7,"station_id":"JAY","i_lat":-6.141205,"distance":1080,"station_name":"Jayakarta"},{"transit":true,"station_name":"Jakarta Kota","time":4,"i_lat":-6.137569,"i_long":106.812439,"distance":1264,"station_id":"JAKK","line":0,"is_transit":true},{"transit":true,"distance":1364,"station_id":"KPB","line":0,"time":3,"i_long":106.826365,"i_lat":-6.132549,"station_name":"Kampung Bandan","is_transit":true},{"distance":1444,"i_lat":-6.14505,"i_long":106.836569,"time":3,"transit":false,"station_id":"RJW","is_transit":false,"station_name":"Rajawali","line":11},{"transit":false,"station_name":"Kemayoran","station_id":"KMO","line":11,"is_transit":false,"distance":1901,"time":5,"i_long":106.839204,"i_lat":-6.161728},{"is_transit":false,"i_long":106.84368,"station_id":"PSE","transit":false,"i_lat":-6.174784,"time":4,"station_name":"Pasar Senen","line":11,"distance":1436},{"line":11,"distance":1567,"i_lat":-6.185975,"time":8,"is_transit":false,"station_id":"GST","station_name":"Gang Sentiong","transit":false,"i_long":106.850107},{"i_lat":-6.193792,"is_transit":false,"station_id":"KMT","station_name":"Kramat","distance":973,"i_long":106.855437,"line":11,"transit":false,"time":1},{"station_id":"POK","station_name":"Pondok Jati","i_long":106.861737,"transit":false,"time":2,"line":11,"is_transit":false,"distance":1829,"i_lat":-6.209188},{"time":9,"distance":1236,"station_id":"JNG","station_name":"Jatinegara","i_lat":-6.215091,"is_transit":true,"i_long":106.86807400000001,"line":0,"transit":true},{"i_lat":-6.212485,"station_id":"MTR","line":1,"distance":1377,"i_long":106.858896,"transit":false,"is_transit":false,"station_name":"Matraman","time":2},{"station_name":"Manggarai","i_lat":-6.209883,"transit":false,"time":2,"distance":1275,"station_id":"MRI","i_long":106.84912,"is_transit":true,"line":0},{"transit":false,"station_id":"SUD","i_lat":-6.202263,"line":1,"time":4,"station_name":"Sudirman","is_transit":false,"distance":3186,"i_long":106.822649},{"i_long":106.819881,"time":1,"station_name":"Sudirman Baru","i_lat":-6.201433,"line":1,"distance":280,"is_transit":false,"transit":false,"station_id":"SUDB"},{"i_lat":-6.20132,"i_long":106.816351,"transit":false,"time":1,"is_transit":false,"line":1,"station_id":"KAT","station_name":"Karet","distance":471},{"time":5,"station_id":"THB","i_lat":-6.185545,"distance":2029,"i_long":106.811091,"line":1,"is_transit":true,"transit":false,"station_name":"Tanah Abang"},{"station_name":"Duri","is_transit":true,"time":8,"line":1,"distance":3632,"station_id":"DU","transit":true,"i_lat":-6.155215,"i_long":106.800832},{"line":5,"station_id":"GGL","is_transit":false,"time":3,"distance":1700,"transit":false,"station_name":"Grogol","i_lat":-6.162021,"i_long":106.788277},{"line":5,"transit":false,"time":2,"i_long":106.771379,"i_lat":-6.161433,"station_id":"PSG","distance":2036,"station_name":"Pesing","is_transit":false},{"station_name":"Taman Kota","station_id":"TKO","i_lat":-6.1587309999999995,"i_long":106.756522,"transit":false,"line":5,"distance":1614,"is_transit":false,"time":2},{"is_transit":false,"line":0,"transit":false,"distance":2334,"station_name":"Bojongindah","i_lat":-6.159876,"i_long":106.737035,"time":2,"station_id":"BOI"},{"distance":1152,"time":4,"is_transit":false,"station_id":"RW","station_name":"Rawa Buaya","transit":false,"i_lat":-6.162758,"i_long":106.723064,"line":5},{"i_lat":-6.166068,"is_transit":false,"distance":2504,"station_name":"Kalideres","transit":false,"time":3,"i_long":106.701612,"station_id":"KDS","line":5},{"i_long":106.679458,"distance":2548,"i_lat":-6.169933,"transit":false,"is_transit":false,"line":5,"station_name":"Poris","station_id":"PI","time":3}]]}