{"data":[[{"time":0,"station_id":"SW","distance":0,"station_name":"Sawah Besar","line":2,"i_lat":-6.160725,"is_transit":false,"transit":false,"i_long":106.827103},{"is_transit":false,"transit":false,"distance":906,"i_lat":-6.149769,"line":2,"i_long":106.82482,"station_name":"Manggabesar","time":2,"station_id":"MGB"},{"line":2,"distance":1080,"i_lat":-6.141205,"transit":false,"station_name":"Jayakarta","station_id":"JAY","is_transit":false,"i_long":106.820901,"time":2},{"transit":true,"station_id":"JAKK","time":4,"line":2,"is_transit":true,"distance":1264,"station_name":"Jakarta Kota","i_long":106.812439,"i_lat":-6.137569},{"station_name":"Kampung Bandan","time":3,"is_transit":true,"distance":1364,"i_lat":-6.132549,"station_id":"KPB","i_long":106.826365,"line":4,"transit":true},{"time":9,"distance":4102,"i_long":106.79867,"transit":false,"i_lat":-6.144674,"station_name":"Angke","station_id":"AK","line":1,"is_transit":false},{"transit":true,"station_name":"Duri","station_id":"DU","distance":1230,"line":1,"is_transit":true,"i_long":106.800832,"i_lat":-6.155215,"time":4},{"time":3,"transit":false,"distance":1700,"line":5,"i_lat":-6.162021,"station_id":"GGL","station_name":"Grogol","is_transit":false,"i_long":106.788277},{"distance":2036,"i_lat":-6.161433,"transit":false,"line":5,"time":2,"station_id":"PSG","i_long":106.771379,"station_name":"Pesing","is_transit":false},{"station_name":"Taman Kota","station_id":"TKO","transit":false,"i_lat":-6.1587309999999995,"i_long":106.756522,"time":2,"is_transit":false,"distance":1614,"line":5},{"transit":false,"time":2,"station_name":"Bojongindah","station_id":"BOI","line":5,"distance":2334,"i_long":106.737035,"i_lat":-6.159876,"is_transit":false},{"is_transit":false,"time":4,"distance":1152,"i_long":106.723064,"station_name":"Rawa Buaya","station_id":"RW","line":5,"i_lat":-6.162758,"transit":false},{"line":5,"transit":false,"station_name":"Kalideres","station_id":"KDS","is_transit":false,"distance":2504,"time":3,"i_lat":-6.166068,"i_long":106.701612},{"station_id":"PI","station_name":"Poris","time":3,"i_long":106.679458,"distance":2548,"line":5,"i_lat":-6.169933,"transit":false,"is_transit":false}],[{"distance":0,"transit":false,"time":0,"is_transit":false,"i_lat":-6.160725,"station_name":"Sawah Besar","station_id":"SW","i_long":106.827103,"line":2},{"station_id":"JUA","is_transit":false,"transit":false,"time":2,"line":2,"i_lat":-6.166716,"i_long":106.828284,"station_name":"Juanda","distance":1149},{"i_lat":-6.186295,"distance":2015,"time":4,"station_name":"Gondangdia","station_id":"GDD","line":2,"i_long":106.832183,"transit":false,"is_transit":false},{"station_name":"Cikini","i_lat":-6.198556,"is_transit":false,"distance":1750,"transit":false,"station_id":"CKI","time":3,"i_long":106.840169,"line":2},{"time":4,"station_name":"Manggarai","transit":true,"distance":1590,"i_lat":-6.209883,"is_transit":true,"i_long":106.84912,"line":2,"station_id":"MRI"},{"line":1,"is_transit":false,"distance":3186,"i_long":106.822649,"time":4,"transit":false,"station_name":"Sudirman","station_id":"SUD","i_lat":-6.202263},{"station_name":"Sudirman Baru","transit":false,"station_id":"SUDB","i_long":106.819881,"time":1,"distance":280,"line":1,"i_lat":-6.201433,"is_transit":false},{"station_id":"KAT","is_transit":false,"distance":471,"station_name":"Karet","time":1,"line":1,"i_lat":-6.20132,"transit":false,"i_long":106.816351},{"distance":2029,"station_name":"Tanah Abang","is_transit":false,"i_long":106.811091,"transit":false,"station_id":"THB","time":5,"line":1,"i_lat":-6.185545},{"time":8,"line":1,"transit":true,"station_id":"DU","station_name":"Duri","i_lat":-6.155215,"distance":3632,"i_long":106.800832,"is_transit":true},{"distance":1700,"station_id":"GGL","is_transit":false,"i_long":106.788277,"i_lat":-6.162021,"line":5,"station_name":"Grogol","time":3,"transit":false},{"i_lat":-6.161433,"is_transit":false,"i_long":106.771379,"line":5,"station_id":"PSG","station_name":"Pesing","transit":false,"distance":2036,"time":2},{"i_lat":-6.1587309999999995,"i_long":106.756522,"line":5,"distance":1614,"station_id":"TKO","station_name":"Taman Kota","time":2,"is_transit":false,"transit":false},{"i_lat":-6.159876,"station_id":"BOI","distance":2334,"line":5,"station_name":"Bojongindah","is_transit":false,"transit":false,"time":2,"i_long":106.737035},{"line":5,"transit":false,"time":4,"i_lat":-6.162758,"i_long":106.723064,"distance":1152,"station_name":"Rawa Buaya","station_id":"RW","is_transit":false},{"station_name":"Kalideres","is_transit":false,"station_id":"KDS","i_lat":-6.166068,"i_long":106.701612,"line":5,"distance":2504,"time":3,"transit":false},{"i_lat":-6.169933,"i_long":106.679458,"line":5,"distance":2548,"transit":false,"station_name":"Poris","station_id":"PI","time":3,"is_transit":false}],[{"i_long":106.827103,"transit":false,"station_id":"SW","station_name":"Sawah Besar","line":2,"is_transit":false,"distance":0,"time":0,"i_lat":-6.160725},{"is_transit":false,"transit":false,"time":2,"station_id":"JUA","station_name":"Juanda","distance":1149,"i_long":106.828284,"line":2,"i_lat":-6.166716},{"time":4,"distance":2015,"station_name":"Gondangdia","station_id":"GDD","transit":false,"is_transit":false,"line":2,"i_lat":-6.186295,"i_long":106.832183},{"station_name":"Cikini","transit":false,"i_lat":-6.198556,"is_transit":false,"station_id":"CKI","time":3,"distance":1750,"line":2,"i_long":106.840169},{"distance":1590,"is_transit":true,"i_lat":-6.209883,"station_id":"MRI","i_long":106.84912,"line":2,"station_name":"Manggarai","transit":true,"time":4},{"transit":false,"station_name":"Matraman","is_transit":false,"i_long":106.858896,"i_lat":-6.212485,"station_id":"MTR","distance":1275,"time":2,"line":1},{"transit":true,"line":1,"station_id":"JNG","station_name":"Jatinegara","distance":1377,"i_long":106.86807400000001,"time":8,"is_transit":true,"i_lat":-6.215091},{"station_name":"Pondok Jati","is_transit":false,"i_long":106.861737,"line":11,"time":2,"transit":false,"station_id":"POK","distance":1236,"i_lat":-6.209188},{"station_name":"Kramat","i_long":106.855437,"line":11,"station_id":"KMT","distance":1829,"transit":false,"time":2,"is_transit":false,"i_lat":-6.193792},{"station_id":"GST","station_name":"Gang Sentiong","time":1,"distance":973,"i_lat":-6.185975,"transit":false,"i_long":106.850107,"is_transit":false,"line":11},{"line":11,"station_id":"PSE","is_transit":false,"transit":false,"time":8,"distance":1567,"station_name":"Pasar Senen","i_lat":-6.174784,"i_long":106.84368},{"distance":1436,"transit":false,"station_id":"KMO","station_name":"Kemayoran","is_transit":false,"time":4,"i_lat":-6.161728,"i_long":106.839204,"line":11},{"transit":false,"is_transit":false,"time":5,"distance":1901,"i_lat":-6.14505,"station_name":"Rajawali","i_long":106.836569,"line":11,"station_id":"RJW"},{"i_long":106.826365,"is_transit":true,"line":4,"transit":true,"station_name":"Kampung Bandan","time":3,"distance":1444,"i_lat":-6.132549,"station_id":"KPB"},{"i_long":106.79867,"is_transit":false,"distance":4102,"station_id":"AK","time":9,"transit":false,"line":1,"station_name":"Angke","i_lat":-6.144674},{"station_name":"Duri","station_id":"DU","time":4,"distance":1230,"transit":true,"i_lat":-6.155215,"i_long":106.800832,"is_transit":true,"line":1},{"station_id":"GGL","transit":false,"time":3,"i_lat":-6.162021,"i_long":106.788277,"station_name":"Grogol","line":5,"is_transit":false,"distance":1700},{"station_id":"PSG","i_long":106.771379,"line":5,"distance":2036,"time":2,"station_name":"Pesing","i_lat":-6.161433,"transit":false,"is_transit":false},{"transit":false,"line":5,"station_name":"Taman Kota","i_long":106.756522,"i_lat":-6.1587309999999995,"station_id":"TKO","time":2,"is_transit":false,"distance":1614},{"distance":2334,"time":2,"station_id":"BOI","i_lat":-6.159876,"station_name":"Bojongindah","transit":false,"is_transit":false,"i_long":106.737035,"line":5},{"distance":1152,"station_id":"RW","is_transit":false,"transit":false,"i_long":106.723064,"time":4,"line":5,"i_lat":-6.162758,"station_name":"Rawa Buaya"},{"is_transit":false,"i_long":106.701612,"line":5,"station_name":"Kalideres","distance":2504,"transit":false,"time":3,"station_id":"KDS","i_lat":-6.166068},{"i_lat":-6.169933,"distance":2548,"station_id":"PI","is_transit":false,"transit":false,"station_name":"Poris","time":3,"i_long":106.679458,"line":5}],[{"distance":0,"i_long":106.827103,"station_name":"Sawah Besar","line":2,"transit":false,"i_lat":-6.160725,"station_id":"SW","is_transit":false,"time":0},{"i_lat":-6.149769,"i_long":106.82482,"distance":906,"line":2,"station_id":"MGB","transit":false,"station_name":"Manggabesar","time":2,"is_transit":false},{"i_lat":-6.141205,"station_id":"JAY","is_transit":false,"time":2,"transit":false,"distance":1080,"station_name":"Jayakarta","line":2,"i_long":106.820901},{"station_name":"Jakarta Kota","station_id":"JAKK","distance":1264,"time":4,"transit":true,"i_lat":-6.137569,"i_long":106.812439,"line":2,"is_transit":true},{"time":3,"is_transit":true,"station_id":"KPB","distance":1364,"station_name":"Kampung Bandan","transit":true,"i_lat":-6.132549,"i_long":106.826365,"line":4},{"is_transit":false,"i_lat":-6.14505,"transit":false,"line":11,"i_long":106.836569,"station_name":"Rajawali","station_id":"RJW","time":3,"distance":1444},{"time":5,"station_name":"Kemayoran","transit":false,"line":11,"distance":1901,"is_transit":false,"i_lat":-6.161728,"i_long":106.839204,"station_id":"KMO"},{"i_long":106.84368,"transit":false,"station_name":"Pasar Senen","i_lat":-6.174784,"line":11,"station_id":"PSE","time":4,"is_transit":false,"distance":1436},{"time":8,"station_name":"Gang Sentiong","transit":false,"station_id":"GST","distance":1567,"i_lat":-6.185975,"line":11,"i_long":106.850107,"is_transit":false},{"i_lat":-6.193792,"is_transit":false,"distance":973,"station_name":"Kramat","time":1,"station_id":"KMT","i_long":106.855437,"transit":false,"line":11},{"i_lat":-6.209188,"time":2,"distance":1829,"transit":false,"is_transit":false,"line":11,"station_name":"Pondok Jati","i_long":106.861737,"station_id":"POK"},{"i_lat":-6.215091,"time":9,"i_long":106.86807400000001,"line":1,"transit":true,"station_name":"Jatinegara","station_id":"JNG","is_transit":true,"distance":1236},{"i_long":106.858896,"line":1,"distance":1377,"time":2,"station_name":"Matraman","is_transit":false,"transit":false,"station_id":"MTR","i_lat":-6.212485},{"station_id":"MRI","line":2,"distance":1275,"transit":false,"is_transit":false,"i_long":106.84912,"station_name":"Manggarai","time":2,"i_lat":-6.209883},{"line":1,"station_id":"SUD","distance":3186,"transit":false,"i_lat":-6.202263,"time":4,"station_name":"Sudirman","is_transit":false,"i_long":106.822649},{"time":1,"distance":280,"station_id":"SUDB","i_lat":-6.201433,"station_name":"Sudirman Baru","i_long":106.819881,"transit":false,"line":1,"is_transit":false},{"transit":false,"is_transit":false,"i_lat":-6.20132,"station_id":"KAT","line":1,"i_long":106.816351,"distance":471,"station_name":"Karet","time":1},{"station_id":"THB","is_transit":false,"i_lat":-6.185545,"transit":false,"distance":2029,"time":5,"line":1,"i_long":106.811091,"station_name":"Tanah Abang"},{"station_id":"DU","i_long":106.800832,"line":1,"i_lat":-6.155215,"is_transit":true,"distance":3632,"transit":true,"station_name":"Duri","time":8},{"line":5,"i_long":106.788277,"is_transit":false,"time":3,"distance":1700,"station_id":"GGL","transit":false,"station_name":"Grogol","i_lat":-6.162021},{"station_name":"Pesing","transit":false,"is_transit":false,"distance":2036,"time":2,"i_long":106.771379,"line":5,"station_id":"PSG","i_lat":-6.161433},{"is_transit":false,"distance":1614,"line":5,"station_name":"Taman Kota","station_id":"TKO","transit":false,"i_lat":-6.1587309999999995,"i_long":106.756522,"time":2},{"is_transit":false,"i_long":106.737035,"line":5,"transit":false,"distance":2334,"station_id":"BOI","i_lat":-6.159876,"time":2,"station_name":"Bojongindah"},{"i_lat":-6.162758,"i_long":106.723064,"transit":false,"distance":1152,"time":4,"line":5,"station_name":"Rawa Buaya","station_id":"RW","is_transit":false},{"station_id":"KDS","line":5,"time":3,"i_long":106.701612,"i_lat":-6.166068,"transit":false,"station_name":"Kalideres","is_transit":false,"distance":2504},{"is_transit":false,"line":5,"i_long":106.679458,"time":3,"distance":2548,"station_id":"PI","transit":false,"station_name":"Poris","i_lat":-6.169933}]]}