{"data":[[{"line":2,"i_lat":-6.160725,"distance":0,"station_id":"SW","i_long":106.827103,"transit":false,"is_transit":false,"time":0,"station_name":"Sawah Besar"},{"distance":906,"i_long":106.82482,"station_id":"MGB","line":2,"transit":false,"station_name":"Manggabesar","is_transit":false,"time":2,"i_lat":-6.149769},{"i_long":106.820901,"is_transit":false,"i_lat":-6.141205,"line":2,"station_id":"JAY","transit":false,"distance":1080,"station_name":"Jayakarta","time":2},{"station_name":"Jakarta Kota","transit":true,"time":4,"station_id":"JAKK","distance":1264,"i_lat":-6.137569,"i_long":106.812439,"is_transit":true,"line":2},{"i_lat":-6.132549,"distance":1364,"station_name":"Kampung Bandan","is_transit":true,"time":3,"i_long":106.826365,"line":4,"transit":true,"station_id":"KPB"},{"i_long":106.79867,"i_lat":-6.144674,"distance":4102,"time":9,"station_id":"AK","line":1,"station_name":"Angke","is_transit":false,"transit":false},{"station_id":"DU","station_name":"Duri","distance":1230,"i_lat":-6.155215,"transit":true,"is_transit":true,"i_long":106.800832,"time":4,"line":1},{"line":5,"i_long":106.788277,"station_id":"GGL","transit":false,"time":3,"distance":1700,"i_lat":-6.162021,"station_name":"Grogol","is_transit":false},{"is_transit":false,"time":2,"i_lat":-6.161433,"i_long":106.771379,"station_name":"Pesing","distance":2036,"transit":false,"line":5,"station_id":"PSG"},{"i_long":106.756522,"line":5,"station_name":"Taman Kota","time":2,"station_id":"TKO","transit":false,"i_lat":-6.1587309999999995,"is_transit":false,"distance":1614},{"time":2,"station_name":"Bojongindah","is_transit":false,"i_long":106.737035,"station_id":"BOI","i_lat":-6.159876,"distance":2334,"line":5,"transit":false},{"distance":1152,"is_transit":false,"station_id":"RW","station_name":"Rawa Buaya","transit":false,"time":4,"i_lat":-6.162758,"i_long":106.723064,"line":5},{"transit":false,"station_id":"KDS","is_transit":false,"time":3,"distance":2504,"i_lat":-6.166068,"i_long":106.701612,"line":5,"station_name":"Kalideres"},{"i_long":106.679458,"transit":false,"station_name":"Poris","line":5,"is_transit":false,"station_id":"PI","time":3,"distance":2548,"i_lat":-6.169933}],[{"station_id":"SW","transit":false,"i_long":106.827103,"is_transit":false,"i_lat":-6.160725,"station_name":"Sawah Besar","distance":0,"time":0,"line":2},{"station_name":"Juanda","line":2,"station_id":"JUA","is_transit":false,"distance":1149,"i_long":106.828284,"transit":false,"time":2,"i_lat":-6.166716},{"i_long":106.832183,"transit":false,"time":4,"distance":2015,"station_id":"GDD","station_name":"Gondangdia","is_transit":false,"i_lat":-6.186295,"line":2},{"station_name":"Cikini","i_lat":-6.198556,"transit":false,"line":2,"station_id":"CKI","distance":1750,"i_long":106.840169,"is_transit":false,"time":3},{"transit":true,"i_long":106.84912,"time":4,"line":2,"is_transit":true,"i_lat":-6.209883,"station_id":"MRI","distance":1590,"station_name":"Manggarai"},{"station_id":"SUD","station_name":"Sudirman","time":4,"transit":false,"is_transit":false,"i_lat":-6.202263,"line":1,"distance":3186,"i_long":106.822649},{"station_id":"SUDB","distance":280,"transit":false,"i_lat":-6.201433,"station_name":"Sudirman Baru","line":1,"i_long":106.819881,"is_transit":false,"time":1},{"i_lat":-6.20132,"station_id":"KAT","time":1,"station_name":"Karet","distance":471,"is_transit":false,"i_long":106.816351,"line":1,"transit":false},{"transit":false,"station_id":"THB","line":1,"is_transit":false,"i_lat":-6.185545,"i_long":106.811091,"time":5,"distance":2029,"station_name":"Tanah Abang"},{"distance":3632,"line":1,"i_lat":-6.155215,"is_transit":true,"i_long":106.800832,"station_name":"Duri","time":8,"station_id":"DU","transit":true},{"line":5,"distance":1700,"station_name":"Grogol","i_lat":-6.162021,"time":3,"i_long":106.788277,"transit":false,"station_id":"GGL","is_transit":false},{"time":2,"line":5,"station_id":"PSG","transit":false,"station_name":"Pesing","i_long":106.771379,"distance":2036,"i_lat":-6.161433,"is_transit":false},{"distance":1614,"i_lat":-6.1587309999999995,"i_long":106.756522,"station_id":"TKO","station_name":"Taman Kota","transit":false,"is_transit":false,"time":2,"line":5},{"time":2,"line":5,"distance":2334,"transit":false,"station_name":"Bojongindah","i_lat":-6.159876,"is_transit":false,"station_id":"BOI","i_long":106.737035},{"station_name":"Rawa Buaya","line":5,"time":4,"i_long":106.723064,"i_lat":-6.162758,"distance":1152,"transit":false,"station_id":"RW","is_transit":false},{"station_id":"KDS","i_lat":-6.166068,"is_transit":false,"station_name":"Kalideres","time":3,"line":5,"distance":2504,"transit":false,"i_long":106.701612},{"time":3,"i_long":106.679458,"is_transit":false,"line":5,"transit":false,"station_name":"Poris","i_lat":-6.169933,"distance":2548,"station_id":"PI"}],[{"is_transit":false,"i_lat":-6.160725,"i_long":106.827103,"station_name":"Sawah Besar","distance":0,"transit":false,"station_id":"SW","line":2,"time":0},{"i_lat":-6.166716,"transit":false,"distance":1149,"i_long":106.828284,"station_name":"Juanda","time":2,"station_id":"JUA","is_transit":false,"line":2},{"i_lat":-6.186295,"station_id":"GDD","line":2,"i_long":106.832183,"station_name":"Gondangdia","time":4,"transit":false,"is_transit":false,"distance":2015},{"i_lat":-6.198556,"station_name":"Cikini","i_long":106.840169,"distance":1750,"time":3,"transit":false,"line":2,"is_transit":false,"station_id":"CKI"},{"time":4,"transit":true,"distance":1590,"i_lat":-6.209883,"i_long":106.84912,"line":2,"station_id":"MRI","is_transit":true,"station_name":"Manggarai"},{"i_long":106.858896,"transit":false,"station_id":"MTR","i_lat":-6.212485,"distance":1275,"is_transit":false,"line":1,"station_name":"Matraman","time":2},{"is_transit":true,"i_lat":-6.215091,"station_name":"Jatinegara","i_long":106.86807400000001,"time":8,"transit":true,"station_id":"JNG","line":1,"distance":1377},{"distance":1236,"station_name":"Pondok Jati","time":2,"i_long":106.861737,"station_id":"POK","line":11,"transit":false,"i_lat":-6.209188,"is_transit":false},{"station_id":"KMT","line":11,"time":2,"i_lat":-6.193792,"i_long":106.855437,"distance":1829,"transit":false,"is_transit":false,"station_name":"Kramat"},{"transit":false,"station_name":"Gang Sentiong","line":11,"is_transit":false,"time":1,"i_lat":-6.185975,"station_id":"GST","distance":973,"i_long":106.850107},{"transit":false,"i_lat":-6.174784,"station_id":"PSE","line":11,"i_long":106.84368,"distance":1567,"is_transit":false,"station_name":"Pasar Senen","time":8},{"line":11,"is_transit":false,"time":4,"station_id":"KMO","i_lat":-6.161728,"distance":1436,"station_name":"Kemayoran","transit":false,"i_long":106.839204},{"station_name":"Rajawali","is_transit":false,"i_long":106.836569,"distance":1901,"station_id":"RJW","i_lat":-6.14505,"transit":false,"time":5,"line":11},{"distance":1444,"line":4,"i_long":106.826365,"station_id":"KPB","time":3,"station_name":"Kampung Bandan","is_transit":true,"i_lat":-6.132549,"transit":true},{"station_name":"Angke","line":1,"transit":false,"i_lat":-6.144674,"station_id":"AK","distance":4102,"time":9,"is_transit":false,"i_long":106.79867},{"i_lat":-6.155215,"station_name":"Duri","distance":1230,"transit":true,"station_id":"DU","is_transit":true,"time":4,"i_long":106.800832,"line":1},{"i_lat":-6.162021,"i_long":106.788277,"station_name":"Grogol","distance":1700,"is_transit":false,"line":5,"station_id":"GGL","transit":false,"time":3},{"time":2,"distance":2036,"is_transit":false,"station_id":"PSG","i_lat":-6.161433,"i_long":106.771379,"line":5,"transit":false,"station_name":"Pesing"},{"station_name":"Taman Kota","distance":1614,"station_id":"TKO","is_transit":false,"transit":false,"time":2,"i_lat":-6.1587309999999995,"i_long":106.756522,"line":5},{"distance":2334,"station_id":"BOI","station_name":"Bojongindah","is_transit":false,"time":2,"i_long":106.737035,"i_lat":-6.159876,"line":5,"transit":false},{"transit":false,"station_name":"Rawa Buaya","station_id":"RW","line":5,"distance":1152,"is_transit":false,"time":4,"i_long":106.723064,"i_lat":-6.162758},{"transit":false,"station_name":"Kalideres","station_id":"KDS","is_transit":false,"i_long":106.701612,"time":3,"i_lat":-6.166068,"distance":2504,"line":5},{"line":5,"is_transit":false,"station_id":"PI","time":3,"i_lat":-6.169933,"distance":2548,"station_name":"Poris","transit":false,"i_long":106.679458}],[{"i_lat":-6.160725,"is_transit":false,"distance":0,"i_long":106.827103,"transit":false,"station_id":"SW","time":0,"line":2,"station_name":"Sawah Besar"},{"i_lat":-6.149769,"time":2,"transit":false,"station_id":"MGB","station_name":"Manggabesar","line":2,"is_transit":false,"i_long":106.82482,"distance":906},{"is_transit":false,"line":2,"distance":1080,"time":2,"station_name":"Jayakarta","i_long":106.820901,"transit":false,"i_lat":-6.141205,"station_id":"JAY"},{"time":4,"distance":1264,"is_transit":true,"i_long":106.812439,"station_id":"JAKK","station_name":"Jakarta Kota","i_lat":-6.137569,"transit":true,"line":2},{"line":4,"time":3,"i_lat":-6.132549,"distance":1364,"is_transit":true,"i_long":106.826365,"transit":true,"station_name":"Kampung Bandan","station_id":"KPB"},{"station_name":"Rajawali","is_transit":false,"i_lat":-6.14505,"transit":false,"i_long":106.836569,"line":11,"distance":1444,"time":3,"station_id":"RJW"},{"transit":false,"i_long":106.839204,"time":5,"distance":1901,"station_id":"KMO","station_name":"Kemayoran","i_lat":-6.161728,"line":11,"is_transit":false},{"line":11,"transit":false,"distance":1436,"station_id":"PSE","time":4,"i_lat":-6.174784,"i_long":106.84368,"station_name":"Pasar Senen","is_transit":false},{"distance":1567,"transit":false,"time":8,"line":11,"station_id":"GST","i_long":106.850107,"station_name":"Gang Sentiong","i_lat":-6.185975,"is_transit":false},{"line":11,"i_lat":-6.193792,"station_name":"Kramat","is_transit":false,"station_id":"KMT","i_long":106.855437,"distance":973,"transit":false,"time":1},{"i_lat":-6.209188,"station_name":"Pondok Jati","station_id":"POK","i_long":106.861737,"transit":false,"is_transit":false,"time":2,"line":11,"distance":1829},{"station_id":"JNG","time":9,"distance":1236,"i_long":106.86807400000001,"transit":true,"i_lat":-6.215091,"is_transit":true,"line":1,"station_name":"Jatinegara"},{"i_long":106.858896,"i_lat":-6.212485,"station_name":"Matraman","distance":1377,"station_id":"MTR","transit":false,"time":2,"is_transit":false,"line":1},{"time":2,"transit":false,"station_id":"MRI","distance":1275,"line":2,"is_transit":false,"i_long":106.84912,"i_lat":-6.209883,"station_name":"Manggarai"},{"i_lat":-6.202263,"transit":false,"station_name":"Sudirman","i_long":106.822649,"time":4,"distance":3186,"station_id":"SUD","line":1,"is_transit":false},{"i_long":106.819881,"station_name":"Sudirman Baru","distance":280,"i_lat":-6.201433,"transit":false,"station_id":"SUDB","is_transit":false,"line":1,"time":1},{"station_name":"Karet","is_transit":false,"i_long":106.816351,"time":1,"distance":471,"transit":false,"line":1,"station_id":"KAT","i_lat":-6.20132},{"i_lat":-6.185545,"is_transit":false,"distance":2029,"station_id":"THB","transit":false,"line":1,"time":5,"i_long":106.811091,"station_name":"Tanah Abang"},{"i_lat":-6.155215,"station_name":"Duri","station_id":"DU","is_transit":true,"i_long":106.800832,"line":1,"time":8,"distance":3632,"transit":true},{"distance":1700,"station_name":"Grogol","is_transit":false,"line":5,"i_long":106.788277,"time":3,"i_lat":-6.162021,"transit":false,"station_id":"GGL"},{"station_name":"Pesing","transit":false,"station_id":"PSG","i_lat":-6.161433,"i_long":106.771379,"time":2,"distance":2036,"line":5,"is_transit":false},{"time":2,"transit":false,"i_lat":-6.1587309999999995,"station_id":"TKO","station_name":"Taman Kota","i_long":106.756522,"distance":1614,"line":5,"is_transit":false},{"i_lat":-6.159876,"is_transit":false,"station_id":"BOI","station_name":"Bojongindah","distance":2334,"line":5,"transit":false,"time":2,"i_long":106.737035},{"distance":1152,"transit":false,"station_id":"RW","is_transit":false,"i_lat":-6.162758,"time":4,"station_name":"Rawa Buaya","i_long":106.723064,"line":5},{"i_lat":-6.166068,"line":5,"station_name":"Kalideres","distance":2504,"i_long":106.701612,"is_transit":false,"transit":false,"station_id":"KDS","time":3},{"i_long":106.679458,"distance":2548,"station_id":"PI","is_transit":false,"i_lat":-6.169933,"station_name":"Poris","line":5,"transit":false,"time":3}]]}