{"data":[[{"time":0,"distance":0,"transit":false,"line":2,"station_id":"SW","is_transit":false,"station_name":"Sawah Besar","i_long":106.827103,"i_lat":-6.160725},{"distance":906,"i_long":106.82482,"is_transit":false,"transit":false,"time":2,"station_id":"MGB","line":2,"station_name":"Manggabesar","i_lat":-6.149769},{"i_lat":-6.141205,"i_long":106.820901,"distance":1080,"is_transit":false,"station_name":"Jayakarta","transit":false,"time":2,"line":7,"station_id":"JAY"},{"is_transit":true,"transit":true,"distance":1264,"line":0,"i_lat":-6.137569,"time":4,"i_long":106.812439,"station_id":"JAKK","station_name":"Jakarta Kota"},{"is_transit":true,"i_lat":-6.132549,"station_id":"KPB","station_name":"Kampung Bandan","transit":true,"time":3,"line":0,"i_long":106.826365,"distance":1364},{"time":3,"line":11,"station_id":"RJW","i_lat":-6.14505,"distance":1444,"transit":false,"is_transit":false,"station_name":"Rajawali","i_long":106.836569},{"distance":1901,"transit":false,"i_long":106.839204,"station_name":"Kemayoran","time":5,"line":11,"i_lat":-6.161728,"is_transit":false,"station_id":"KMO"},{"is_transit":false,"distance":1436,"time":4,"line":11,"station_id":"PSE","transit":false,"station_name":"Pasar Senen","i_lat":-6.174784,"i_long":106.84368}],[{"distance":0,"station_id":"SW","station_name":"Sawah Besar","time":0,"is_transit":false,"i_lat":-6.160725,"line":2,"transit":false,"i_long":106.827103},{"distance":1149,"i_long":106.828284,"line":2,"station_id":"JUA","is_transit":false,"station_name":"Juanda","time":2,"transit":false,"i_lat":-6.166716},{"time":4,"i_lat":-6.186295,"station_name":"Gondangdia","i_long":106.832183,"station_id":"GDD","distance":2015,"line":2,"transit":false,"is_transit":false},{"station_id":"CKI","time":3,"is_transit":false,"station_name":"Cikini","line":0,"transit":false,"i_lat":-6.198556,"i_long":106.840169,"distance":1750},{"is_transit":true,"station_name":"Manggarai","time":4,"line":0,"i_long":106.84912,"station_id":"MRI","transit":true,"i_lat":-6.209883,"distance":1590},{"station_name":"Matraman","station_id":"MTR","time":2,"transit":false,"i_long":106.858896,"i_lat":-6.212485,"line":1,"distance":1275,"is_transit":false},{"distance":1377,"is_transit":true,"i_long":106.86807400000001,"time":8,"line":0,"station_id":"JNG","station_name":"Jatinegara","transit":true,"i_lat":-6.215091},{"station_id":"POK","station_name":"Pondok Jati","transit":false,"distance":1236,"is_transit":false,"time":2,"i_long":106.861737,"i_lat":-6.209188,"line":11},{"distance":1829,"station_id":"KMT","station_name":"Kramat","transit":false,"is_transit":false,"time":2,"i_long":106.855437,"line":11,"i_lat":-6.193792},{"transit":false,"time":1,"distance":973,"line":11,"is_transit":false,"station_id":"GST","station_name":"Gang Sentiong","i_lat":-6.185975,"i_long":106.850107},{"distance":1567,"time":8,"station_name":"Pasar Senen","i_long":106.84368,"transit":false,"station_id":"PSE","i_lat":-6.174784,"is_transit":false,"line":11}],[{"station_name":"Sawah Besar","is_transit":false,"line":2,"i_lat":-6.160725,"distance":0,"i_long":106.827103,"time":0,"station_id":"SW","transit":false},{"station_id":"JUA","distance":1149,"transit":false,"i_lat":-6.166716,"station_name":"Juanda","is_transit":false,"time":2,"line":2,"i_long":106.828284},{"station_id":"GDD","line":2,"transit":false,"i_long":106.832183,"time":4,"station_name":"Gondangdia","i_lat":-6.186295,"is_transit":false,"distance":2015},{"i_long":106.840169,"station_name":"Cikini","distance":1750,"is_transit":false,"transit":false,"i_lat":-6.198556,"station_id":"CKI","line":0,"time":3},{"i_lat":-6.209883,"transit":true,"i_long":106.84912,"is_transit":true,"line":0,"station_name":"Manggarai","station_id":"MRI","time":4,"distance":1590},{"i_lat":-6.202263,"line":1,"is_transit":false,"station_name":"Sudirman","distance":3186,"time":4,"transit":false,"i_long":106.822649,"station_id":"SUD"},{"is_transit":false,"station_name":"Sudirman Baru","transit":false,"i_lat":-6.201433,"i_long":106.819881,"time":1,"line":1,"distance":280,"station_id":"SUDB"},{"station_id":"KAT","i_lat":-6.20132,"is_transit":false,"transit":false,"station_name":"Karet","distance":471,"i_long":106.816351,"line":1,"time":1},{"is_transit":true,"line":1,"time":5,"i_lat":-6.185545,"transit":false,"distance":2029,"i_long":106.811091,"station_id":"THB","station_name":"Tanah Abang"},{"distance":3632,"station_name":"Duri","is_transit":true,"transit":true,"i_long":106.800832,"station_id":"DU","line":1,"time":8,"i_lat":-6.155215},{"is_transit":false,"station_name":"Angke","i_lat":-6.144674,"i_long":106.79867,"time":4,"distance":1230,"line":0,"station_id":"AK","transit":false},{"line":0,"station_name":"Kampung Bandan","i_lat":-6.132549,"distance":4102,"is_transit":true,"transit":true,"time":9,"station_id":"KPB","i_long":106.826365},{"distance":1444,"i_long":106.836569,"line":11,"station_name":"Rajawali","transit":false,"is_transit":false,"station_id":"RJW","time":3,"i_lat":-6.14505},{"i_long":106.839204,"line":11,"distance":1901,"time":5,"station_id":"KMO","is_transit":false,"i_lat":-6.161728,"station_name":"Kemayoran","transit":false},{"station_name":"Pasar Senen","distance":1436,"time":4,"i_long":106.84368,"transit":false,"is_transit":false,"station_id":"PSE","i_lat":-6.174784,"line":11}],[{"distance":0,"station_name":"Sawah Besar","transit":false,"time":0,"i_lat":-6.160725,"is_transit":false,"i_long":106.827103,"line":2,"station_id":"SW"},{"station_id":"MGB","station_name":"Manggabesar","is_transit":false,"time":2,"i_lat":-6.149769,"i_long":106.82482,"line":2,"distance":906,"transit":false},{"line":7,"time":2,"distance":1080,"i_lat":-6.141205,"i_long":106.820901,"station_id":"JAY","transit":false,"station_name":"Jayakarta","is_transit":false},{"time":4,"is_transit":true,"station_id":"JAKK","i_long":106.812439,"station_name":"Jakarta Kota","distance":1264,"transit":true,"i_lat":-6.137569,"line":0},{"i_lat":-6.132549,"distance":1364,"time":3,"i_long":106.826365,"is_transit":true,"station_id":"KPB","station_name":"Kampung Bandan","transit":false,"line":0},{"distance":4102,"time":9,"i_long":106.79867,"is_transit":false,"station_id":"AK","station_name":"Angke","transit":false,"i_lat":-6.144674,"line":0},{"i_long":106.800832,"line":1,"station_name":"Duri","distance":1230,"station_id":"DU","transit":true,"is_transit":true,"time":4,"i_lat":-6.155215},{"time":8,"distance":3632,"i_long":106.811091,"transit":false,"line":1,"is_transit":true,"station_id":"THB","i_lat":-6.185545,"station_name":"Tanah Abang"},{"i_long":106.816351,"transit":false,"is_transit":false,"time":5,"line":1,"distance":2029,"station_name":"Karet","station_id":"KAT","i_lat":-6.20132},{"is_transit":false,"station_name":"Sudirman Baru","station_id":"SUDB","time":1,"distance":471,"line":1,"i_lat":-6.201433,"transit":false,"i_long":106.819881},{"distance":280,"station_id":"SUD","transit":false,"i_lat":-6.202263,"is_transit":false,"line":1,"i_long":106.822649,"station_name":"Sudirman","time":1},{"time":4,"station_name":"Manggarai","i_lat":-6.209883,"i_long":106.84912,"line":0,"distance":3186,"is_transit":true,"station_id":"MRI","transit":false},{"transit":false,"station_id":"MTR","is_transit":false,"station_name":"Matraman","time":2,"i_long":106.858896,"line":1,"distance":1275,"i_lat":-6.212485},{"line":0,"transit":true,"is_transit":true,"station_name":"Jatinegara","i_lat":-6.215091,"station_id":"JNG","time":8,"distance":1377,"i_long":106.86807400000001},{"is_transit":false,"transit":false,"line":11,"station_id":"POK","station_name":"Pondok Jati","i_lat":-6.209188,"time":2,"i_long":106.861737,"distance":1236},{"i_long":106.855437,"line":11,"i_lat":-6.193792,"is_transit":false,"distance":1829,"transit":false,"station_id":"KMT","station_name":"Kramat","time":2},{"i_long":106.850107,"distance":973,"line":11,"i_lat":-6.185975,"time":1,"station_id":"GST","transit":false,"station_name":"Gang Sentiong","is_transit":false},{"line":11,"station_id":"PSE","i_long":106.84368,"time":8,"distance":1567,"i_lat":-6.174784,"station_name":"Pasar Senen","is_transit":false,"transit":false}]]}