{"data":[[{"line":2,"time":0,"i_lat":-6.160725,"station_name":"Sawah Besar","is_transit":false,"i_long":106.827103,"transit":false,"station_id":"SW","distance":0},{"line":2,"transit":false,"time":2,"i_lat":-6.149769,"i_long":106.82482,"is_transit":false,"distance":906,"station_id":"MGB","station_name":"Manggabesar"},{"line":2,"time":2,"distance":1080,"i_long":106.820901,"station_name":"Jayakarta","station_id":"JAY","i_lat":-6.141205,"is_transit":false,"transit":false},{"time":4,"i_lat":-6.137569,"i_long":106.812439,"line":2,"transit":true,"station_id":"JAKK","station_name":"Jakarta Kota","distance":1264,"is_transit":true},{"i_lat":-6.132549,"i_long":106.826365,"transit":true,"station_id":"KPB","is_transit":true,"time":3,"distance":1364,"line":4,"station_name":"Kampung Bandan"},{"i_lat":-6.14505,"is_transit":false,"distance":1444,"i_long":106.836569,"station_name":"Rajawali","station_id":"RJW","line":11,"transit":false,"time":3},{"distance":1901,"transit":false,"i_long":106.839204,"i_lat":-6.161728,"station_name":"Kemayoran","station_id":"KMO","line":11,"is_transit":false,"time":5},{"transit":false,"i_long":106.84368,"time":4,"station_name":"Pasar Senen","station_id":"PSE","distance":1436,"is_transit":false,"line":11,"i_lat":-6.174784}],[{"transit":false,"line":2,"station_id":"SW","time":0,"distance":0,"station_name":"Sawah Besar","i_lat":-6.160725,"is_transit":false,"i_long":106.827103},{"i_lat":-6.166716,"time":2,"distance":1149,"i_long":106.828284,"line":2,"transit":false,"station_name":"Juanda","is_transit":false,"station_id":"JUA"},{"i_lat":-6.186295,"station_name":"Gondangdia","is_transit":false,"time":4,"station_id":"GDD","distance":2015,"i_long":106.832183,"line":2,"transit":false},{"distance":1750,"line":2,"station_name":"Cikini","transit":false,"is_transit":false,"time":3,"i_long":106.840169,"i_lat":-6.198556,"station_id":"CKI"},{"transit":true,"is_transit":true,"i_lat":-6.209883,"station_name":"Manggarai","distance":1590,"station_id":"MRI","i_long":106.84912,"line":2,"time":4},{"station_id":"MTR","i_lat":-6.212485,"distance":1275,"i_long":106.858896,"is_transit":false,"time":2,"line":1,"station_name":"Matraman","transit":false},{"i_long":106.86807400000001,"line":1,"i_lat":-6.215091,"is_transit":true,"station_name":"Jatinegara","transit":true,"distance":1377,"station_id":"JNG","time":8},{"is_transit":false,"line":11,"transit":false,"station_name":"Pondok Jati","distance":1236,"station_id":"POK","i_lat":-6.209188,"i_long":106.861737,"time":2},{"is_transit":false,"station_name":"Kramat","i_lat":-6.193792,"i_long":106.855437,"line":11,"distance":1829,"time":2,"station_id":"KMT","transit":false},{"is_transit":false,"line":11,"time":1,"transit":false,"distance":973,"i_lat":-6.185975,"station_id":"GST","station_name":"Gang Sentiong","i_long":106.850107},{"i_lat":-6.174784,"is_transit":false,"station_name":"Pasar Senen","transit":false,"i_long":106.84368,"distance":1567,"line":11,"time":8,"station_id":"PSE"}],[{"time":0,"is_transit":false,"line":2,"station_id":"SW","i_lat":-6.160725,"transit":false,"distance":0,"station_name":"Sawah Besar","i_long":106.827103},{"transit":false,"station_id":"JUA","time":2,"i_long":106.828284,"station_name":"Juanda","is_transit":false,"distance":1149,"i_lat":-6.166716,"line":2},{"distance":2015,"transit":false,"i_long":106.832183,"line":2,"is_transit":false,"i_lat":-6.186295,"station_name":"Gondangdia","station_id":"GDD","time":4},{"transit":false,"i_lat":-6.198556,"station_name":"Cikini","time":3,"distance":1750,"is_transit":false,"station_id":"CKI","line":2,"i_long":106.840169},{"line":2,"station_id":"MRI","station_name":"Manggarai","time":4,"distance":1590,"is_transit":true,"i_lat":-6.209883,"i_long":106.84912,"transit":true},{"line":1,"is_transit":false,"distance":3186,"i_lat":-6.202263,"i_long":106.822649,"station_name":"Sudirman","transit":false,"station_id":"SUD","time":4},{"distance":280,"line":1,"is_transit":false,"station_id":"SUDB","station_name":"Sudirman Baru","transit":false,"i_long":106.819881,"i_lat":-6.201433,"time":1},{"time":1,"station_id":"KAT","station_name":"Karet","transit":false,"distance":471,"i_lat":-6.20132,"line":1,"is_transit":false,"i_long":106.816351},{"distance":2029,"i_long":106.811091,"line":1,"is_transit":false,"time":5,"i_lat":-6.185545,"transit":false,"station_name":"Tanah Abang","station_id":"THB"},{"time":8,"distance":3632,"i_lat":-6.155215,"i_long":106.800832,"line":1,"transit":false,"is_transit":false,"station_id":"DU","station_name":"Duri"},{"transit":false,"distance":1230,"is_transit":false,"i_lat":-6.144674,"time":4,"i_long":106.79867,"station_id":"AK","line":1,"station_name":"Angke"},{"transit":true,"i_lat":-6.132549,"is_transit":true,"station_name":"Kampung Bandan","i_long":106.826365,"line":4,"station_id":"KPB","time":9,"distance":4102},{"i_lat":-6.14505,"i_long":106.836569,"line":11,"transit":false,"distance":1444,"is_transit":false,"station_id":"RJW","time":3,"station_name":"Rajawali"},{"distance":1901,"station_name":"Kemayoran","i_long":106.839204,"line":11,"station_id":"KMO","is_transit":false,"time":5,"i_lat":-6.161728,"transit":false},{"i_lat":-6.174784,"station_name":"Pasar Senen","time":4,"station_id":"PSE","transit":false,"distance":1436,"i_long":106.84368,"is_transit":false,"line":11}],[{"i_lat":-6.160725,"transit":false,"line":2,"time":0,"station_id":"SW","is_transit":false,"distance":0,"station_name":"Sawah Besar","i_long":106.827103},{"transit":false,"station_id":"MGB","is_transit":false,"i_lat":-6.149769,"i_long":106.82482,"line":2,"time":2,"distance":906,"station_name":"Manggabesar"},{"transit":false,"station_name":"Jayakarta","is_transit":false,"i_lat":-6.141205,"station_id":"JAY","distance":1080,"time":2,"i_long":106.820901,"line":2},{"station_name":"Jakarta Kota","is_transit":true,"distance":1264,"line":2,"time":4,"i_long":106.812439,"transit":true,"station_id":"JAKK","i_lat":-6.137569},{"line":4,"station_id":"KPB","i_lat":-6.132549,"distance":1364,"is_transit":true,"transit":true,"time":3,"i_long":106.826365,"station_name":"Kampung Bandan"},{"station_id":"AK","distance":4102,"line":1,"station_name":"Angke","i_lat":-6.144674,"time":9,"transit":false,"is_transit":false,"i_long":106.79867},{"time":4,"transit":false,"is_transit":false,"station_id":"DU","station_name":"Duri","i_lat":-6.155215,"i_long":106.800832,"distance":1230,"line":1},{"station_name":"Tanah Abang","distance":3632,"time":8,"station_id":"THB","is_transit":false,"i_lat":-6.185545,"transit":false,"i_long":106.811091,"line":1},{"line":1,"distance":2029,"i_lat":-6.20132,"station_id":"KAT","station_name":"Karet","transit":false,"time":5,"is_transit":false,"i_long":106.816351},{"distance":471,"is_transit":false,"i_long":106.819881,"station_id":"SUDB","time":1,"i_lat":-6.201433,"transit":false,"station_name":"Sudirman Baru","line":1},{"transit":false,"line":1,"distance":280,"i_lat":-6.202263,"station_name":"Sudirman","station_id":"SUD","i_long":106.822649,"is_transit":false,"time":1},{"line":2,"i_long":106.84912,"distance":3186,"time":4,"transit":false,"station_name":"Manggarai","station_id":"MRI","is_transit":false,"i_lat":-6.209883},{"is_transit":false,"i_long":106.858896,"transit":false,"station_id":"MTR","time":2,"station_name":"Matraman","i_lat":-6.212485,"distance":1275,"line":1},{"distance":1377,"is_transit":true,"station_id":"JNG","station_name":"Jatinegara","time":8,"i_lat":-6.215091,"line":1,"i_long":106.86807400000001,"transit":true},{"transit":false,"is_transit":false,"time":2,"i_lat":-6.209188,"station_id":"POK","i_long":106.861737,"line":11,"station_name":"Pondok Jati","distance":1236},{"station_name":"Kramat","is_transit":false,"time":2,"transit":false,"i_long":106.855437,"line":11,"distance":1829,"i_lat":-6.193792,"station_id":"KMT"},{"time":1,"station_name":"Gang Sentiong","i_long":106.850107,"station_id":"GST","i_lat":-6.185975,"transit":false,"line":11,"distance":973,"is_transit":false},{"transit":false,"i_long":106.84368,"i_lat":-6.174784,"station_id":"PSE","time":8,"station_name":"Pasar Senen","line":11,"is_transit":false,"distance":1567}]]}