{"data":[[{"i_lat":-6.160725,"distance":0,"is_transit":false,"station_id":"SW","station_name":"Sawah Besar","time":0,"i_long":106.827103,"transit":false,"line":2},{"distance":906,"i_long":106.82482,"transit":false,"is_transit":false,"line":2,"time":2,"i_lat":-6.149769,"station_id":"MGB","station_name":"Manggabesar"},{"line":7,"distance":1080,"is_transit":false,"station_name":"Jayakarta","time":2,"i_long":106.820901,"station_id":"JAY","transit":false,"i_lat":-6.141205},{"i_lat":-6.137569,"line":0,"is_transit":true,"station_id":"JAKK","station_name":"Jakarta Kota","distance":1264,"transit":true,"time":4,"i_long":106.812439},{"distance":1364,"i_lat":-6.132549,"station_id":"KPB","station_name":"Kampung Bandan","is_transit":true,"transit":false,"line":0,"time":3,"i_long":106.826365},{"time":9,"is_transit":false,"i_long":106.79867,"station_name":"Angke","transit":false,"station_id":"AK","distance":4102,"line":0,"i_lat":-6.144674},{"station_id":"DU","transit":true,"i_long":106.800832,"distance":1230,"station_name":"Duri","time":4,"line":1,"i_lat":-6.155215,"is_transit":true},{"line":1,"i_lat":-6.185545,"transit":true,"is_transit":true,"i_long":106.811091,"distance":3632,"station_name":"Tanah Abang","station_id":"THB","time":8},{"is_transit":false,"station_name":"Palmerah","station_id":"PLM","transit":false,"time":6,"i_lat":-6.207404,"line":6,"i_long":106.79689,"distance":3191}],[{"transit":false,"time":0,"is_transit":false,"distance":0,"i_lat":-6.160725,"line":2,"station_name":"Sawah Besar","station_id":"SW","i_long":106.827103},{"i_lat":-6.166716,"station_name":"Juanda","is_transit":false,"station_id":"JUA","distance":1149,"i_long":106.828284,"transit":false,"time":2,"line":2},{"is_transit":false,"station_id":"GDD","transit":false,"time":4,"station_name":"Gondangdia","distance":2015,"i_lat":-6.186295,"i_long":106.832183,"line":2},{"transit":false,"distance":1750,"station_id":"CKI","is_transit":false,"station_name":"Cikini","time":3,"i_lat":-6.198556,"i_long":106.840169,"line":0},{"transit":true,"line":0,"i_lat":-6.209883,"station_id":"MRI","is_transit":true,"station_name":"Manggarai","time":4,"i_long":106.84912,"distance":1590},{"is_transit":false,"transit":false,"line":1,"station_id":"SUD","station_name":"Sudirman","time":4,"i_lat":-6.202263,"i_long":106.822649,"distance":3186},{"i_long":106.819881,"line":1,"is_transit":false,"station_name":"Sudirman Baru","station_id":"SUDB","distance":280,"transit":false,"time":1,"i_lat":-6.201433},{"i_lat":-6.20132,"is_transit":false,"distance":471,"station_id":"KAT","time":1,"i_long":106.816351,"transit":false,"station_name":"Karet","line":1},{"is_transit":true,"station_name":"Tanah Abang","station_id":"THB","transit":true,"i_lat":-6.185545,"i_long":106.811091,"distance":2029,"time":5,"line":1},{"station_name":"Palmerah","i_long":106.79689,"i_lat":-6.207404,"transit":false,"time":6,"distance":3191,"station_id":"PLM","is_transit":false,"line":6}],[{"is_transit":false,"line":2,"i_long":106.827103,"distance":0,"transit":false,"station_id":"SW","time":0,"i_lat":-6.160725,"station_name":"Sawah Besar"},{"distance":1149,"i_lat":-6.166716,"line":2,"i_long":106.828284,"station_id":"JUA","transit":false,"station_name":"Juanda","is_transit":false,"time":2},{"i_lat":-6.186295,"distance":2015,"is_transit":false,"time":4,"station_name":"Gondangdia","i_long":106.832183,"transit":false,"station_id":"GDD","line":2},{"station_name":"Cikini","i_lat":-6.198556,"is_transit":false,"transit":false,"line":0,"station_id":"CKI","distance":1750,"time":3,"i_long":106.840169},{"transit":true,"station_name":"Manggarai","is_transit":true,"i_lat":-6.209883,"line":0,"station_id":"MRI","distance":1590,"time":4,"i_long":106.84912},{"is_transit":false,"distance":1275,"transit":false,"time":2,"station_id":"MTR","i_lat":-6.212485,"station_name":"Matraman","i_long":106.858896,"line":1},{"distance":1377,"i_long":106.86807400000001,"is_transit":true,"i_lat":-6.215091,"transit":true,"line":0,"station_name":"Jatinegara","station_id":"JNG","time":8},{"line":11,"time":2,"i_lat":-6.209188,"station_id":"POK","distance":1236,"transit":false,"is_transit":false,"station_name":"Pondok Jati","i_long":106.861737},{"is_transit":false,"station_id":"KMT","i_lat":-6.193792,"i_long":106.855437,"station_name":"Kramat","transit":false,"distance":1829,"time":2,"line":11},{"line":11,"station_name":"Gang Sentiong","station_id":"GST","i_lat":-6.185975,"i_long":106.850107,"distance":973,"time":1,"transit":false,"is_transit":false},{"station_id":"PSE","station_name":"Pasar Senen","line":11,"transit":false,"i_lat":-6.174784,"time":8,"distance":1567,"is_transit":false,"i_long":106.84368},{"line":11,"distance":1436,"transit":false,"time":4,"is_transit":false,"station_name":"Kemayoran","i_long":106.839204,"station_id":"KMO","i_lat":-6.161728},{"line":11,"i_lat":-6.14505,"is_transit":false,"transit":false,"i_long":106.836569,"distance":1901,"station_id":"RJW","station_name":"Rajawali","time":5},{"transit":true,"distance":1444,"i_long":106.826365,"station_name":"Kampung Bandan","station_id":"KPB","is_transit":true,"time":3,"i_lat":-6.132549,"line":0},{"distance":4102,"station_id":"AK","i_lat":-6.144674,"time":9,"line":0,"is_transit":false,"i_long":106.79867,"transit":false,"station_name":"Angke"},{"i_lat":-6.155215,"i_long":106.800832,"transit":true,"distance":1230,"time":4,"is_transit":true,"station_id":"DU","line":1,"station_name":"Duri"},{"station_name":"Tanah Abang","station_id":"THB","i_lat":-6.185545,"time":8,"distance":3632,"is_transit":true,"line":1,"transit":true,"i_long":106.811091},{"station_id":"PLM","transit":false,"is_transit":false,"station_name":"Palmerah","time":6,"i_long":106.79689,"i_lat":-6.207404,"distance":3191,"line":6}],[{"station_id":"SW","distance":0,"i_lat":-6.160725,"i_long":106.827103,"line":2,"station_name":"Sawah Besar","is_transit":false,"transit":false,"time":0},{"station_id":"MGB","time":2,"i_lat":-6.149769,"line":2,"transit":false,"distance":906,"station_name":"Manggabesar","is_transit":false,"i_long":106.82482},{"station_name":"Jayakarta","distance":1080,"line":7,"station_id":"JAY","time":2,"i_long":106.820901,"is_transit":false,"transit":false,"i_lat":-6.141205},{"transit":true,"station_id":"JAKK","line":0,"i_lat":-6.137569,"i_long":106.812439,"is_transit":true,"distance":1264,"station_name":"Jakarta Kota","time":4},{"line":0,"is_transit":true,"station_name":"Kampung Bandan","i_long":106.826365,"transit":true,"distance":1364,"time":3,"i_lat":-6.132549,"station_id":"KPB"},{"i_lat":-6.14505,"i_long":106.836569,"distance":1444,"line":11,"station_id":"RJW","time":3,"is_transit":false,"station_name":"Rajawali","transit":false},{"line":11,"time":5,"i_lat":-6.161728,"distance":1901,"station_id":"KMO","station_name":"Kemayoran","is_transit":false,"transit":false,"i_long":106.839204},{"station_name":"Pasar Senen","is_transit":false,"i_lat":-6.174784,"line":11,"distance":1436,"station_id":"PSE","transit":false,"time":4,"i_long":106.84368},{"transit":false,"time":8,"distance":1567,"i_lat":-6.185975,"station_id":"GST","i_long":106.850107,"is_transit":false,"line":11,"station_name":"Gang Sentiong"},{"i_long":106.855437,"is_transit":false,"line":11,"i_lat":-6.193792,"station_id":"KMT","station_name":"Kramat","distance":973,"time":1,"transit":false},{"station_id":"POK","is_transit":false,"distance":1829,"station_name":"Pondok Jati","i_long":106.861737,"line":11,"i_lat":-6.209188,"transit":false,"time":2},{"i_long":106.86807400000001,"transit":true,"is_transit":true,"time":9,"i_lat":-6.215091,"station_id":"JNG","distance":1236,"station_name":"Jatinegara","line":0},{"line":1,"i_lat":-6.212485,"i_long":106.858896,"is_transit":false,"station_id":"MTR","time":2,"station_name":"Matraman","transit":false,"distance":1377},{"transit":false,"i_lat":-6.209883,"is_transit":true,"line":0,"distance":1275,"i_long":106.84912,"station_name":"Manggarai","station_id":"MRI","time":2},{"i_long":106.822649,"line":1,"station_id":"SUD","time":4,"distance":3186,"transit":false,"is_transit":false,"station_name":"Sudirman","i_lat":-6.202263},{"transit":false,"i_lat":-6.201433,"i_long":106.819881,"is_transit":false,"distance":280,"line":1,"station_id":"SUDB","time":1,"station_name":"Sudirman Baru"},{"line":1,"distance":471,"station_name":"Karet","station_id":"KAT","time":1,"i_lat":-6.20132,"i_long":106.816351,"is_transit":false,"transit":false},{"time":5,"is_transit":true,"station_name":"Tanah Abang","i_lat":-6.185545,"i_long":106.811091,"distance":2029,"station_id":"THB","transit":true,"line":1},{"i_long":106.79689,"station_id":"PLM","distance":3191,"line":6,"station_name":"Palmerah","transit":false,"i_lat":-6.207404,"time":6,"is_transit":false}]]}