{"data":[[{"transit":false,"i_lat":-6.160725,"line":2,"is_transit":false,"station_id":"SW","time":0,"station_name":"Sawah Besar","distance":0,"i_long":106.827103},{"time":2,"station_name":"Manggabesar","i_long":106.82482,"distance":906,"line":2,"is_transit":false,"station_id":"MGB","i_lat":-6.149769,"transit":false},{"time":2,"line":7,"transit":false,"distance":1080,"station_id":"JAY","is_transit":false,"station_name":"Jayakarta","i_lat":-6.141205,"i_long":106.820901},{"i_long":106.812439,"line":0,"station_name":"Jakarta Kota","distance":1264,"station_id":"JAKK","is_transit":true,"i_lat":-6.137569,"transit":true,"time":4},{"transit":false,"is_transit":true,"line":0,"i_long":106.826365,"station_name":"Kampung Bandan","distance":1364,"i_lat":-6.132549,"time":3,"station_id":"KPB"},{"station_name":"Angke","is_transit":false,"time":9,"distance":4102,"station_id":"AK","transit":false,"i_lat":-6.144674,"i_long":106.79867,"line":0},{"distance":1230,"is_transit":true,"station_id":"DU","transit":true,"time":4,"line":1,"i_long":106.800832,"i_lat":-6.155215,"station_name":"Duri"},{"transit":false,"is_transit":false,"i_long":106.788277,"line":5,"distance":1700,"i_lat":-6.162021,"station_name":"Grogol","station_id":"GGL","time":3},{"station_id":"PSG","time":2,"i_long":106.771379,"station_name":"Pesing","i_lat":-6.161433,"distance":2036,"transit":false,"is_transit":false,"line":5},{"transit":false,"i_lat":-6.1587309999999995,"i_long":106.756522,"distance":1614,"station_name":"Taman Kota","line":5,"is_transit":false,"time":2,"station_id":"TKO"},{"time":2,"i_long":106.737035,"transit":false,"i_lat":-6.159876,"station_name":"Bojongindah","distance":2334,"station_id":"BOI","line":0,"is_transit":false},{"is_transit":false,"time":4,"distance":1152,"i_long":106.723064,"line":5,"transit":false,"station_id":"RW","station_name":"Rawa Buaya","i_lat":-6.162758}],[{"i_long":106.827103,"transit":false,"station_id":"SW","station_name":"Sawah Besar","i_lat":-6.160725,"distance":0,"is_transit":false,"line":2,"time":0},{"i_lat":-6.166716,"is_transit":false,"transit":false,"line":2,"station_name":"Juanda","i_long":106.828284,"station_id":"JUA","distance":1149,"time":2},{"line":2,"i_lat":-6.186295,"is_transit":false,"station_id":"GDD","distance":2015,"station_name":"Gondangdia","transit":false,"time":4,"i_long":106.832183},{"is_transit":false,"distance":1750,"time":3,"station_name":"Cikini","i_lat":-6.198556,"transit":false,"line":0,"station_id":"CKI","i_long":106.840169},{"distance":1590,"line":0,"time":4,"is_transit":true,"i_lat":-6.209883,"i_long":106.84912,"station_name":"Manggarai","transit":true,"station_id":"MRI"},{"distance":3186,"time":4,"station_name":"Sudirman","i_lat":-6.202263,"station_id":"SUD","i_long":106.822649,"is_transit":false,"transit":false,"line":1},{"time":1,"station_name":"Sudirman Baru","i_long":106.819881,"is_transit":false,"i_lat":-6.201433,"line":1,"transit":false,"distance":280,"station_id":"SUDB"},{"station_name":"Karet","station_id":"KAT","distance":471,"i_lat":-6.20132,"i_long":106.816351,"is_transit":false,"line":1,"time":1,"transit":false},{"is_transit":true,"station_id":"THB","i_lat":-6.185545,"i_long":106.811091,"line":1,"time":5,"distance":2029,"station_name":"Tanah Abang","transit":false},{"line":1,"i_long":106.800832,"i_lat":-6.155215,"is_transit":true,"distance":3632,"transit":true,"station_name":"Duri","station_id":"DU","time":8},{"station_name":"Grogol","i_long":106.788277,"i_lat":-6.162021,"line":5,"is_transit":false,"station_id":"GGL","transit":false,"time":3,"distance":1700},{"i_long":106.771379,"distance":2036,"station_id":"PSG","transit":false,"i_lat":-6.161433,"line":5,"station_name":"Pesing","is_transit":false,"time":2},{"station_id":"TKO","station_name":"Taman Kota","time":2,"line":5,"i_long":106.756522,"transit":false,"is_transit":false,"i_lat":-6.1587309999999995,"distance":1614},{"transit":false,"distance":2334,"station_id":"BOI","station_name":"Bojongindah","i_long":106.737035,"line":0,"time":2,"is_transit":false,"i_lat":-6.159876},{"i_long":106.723064,"station_name":"Rawa Buaya","i_lat":-6.162758,"is_transit":false,"line":5,"station_id":"RW","distance":1152,"time":4,"transit":false}],[{"line":2,"time":0,"station_name":"Sawah Besar","i_lat":-6.160725,"distance":0,"i_long":106.827103,"is_transit":false,"transit":false,"station_id":"SW"},{"line":2,"station_id":"JUA","transit":false,"i_lat":-6.166716,"i_long":106.828284,"station_name":"Juanda","distance":1149,"is_transit":false,"time":2},{"is_transit":false,"i_long":106.832183,"distance":2015,"line":2,"station_id":"GDD","i_lat":-6.186295,"station_name":"Gondangdia","transit":false,"time":4},{"is_transit":false,"i_long":106.840169,"distance":1750,"station_id":"CKI","station_name":"Cikini","i_lat":-6.198556,"line":0,"time":3,"transit":false},{"line":0,"station_name":"Manggarai","station_id":"MRI","distance":1590,"is_transit":true,"transit":true,"time":4,"i_long":106.84912,"i_lat":-6.209883},{"distance":1275,"is_transit":false,"i_lat":-6.212485,"time":2,"station_name":"Matraman","station_id":"MTR","i_long":106.858896,"line":1,"transit":false},{"time":8,"station_name":"Jatinegara","line":0,"i_lat":-6.215091,"distance":1377,"transit":true,"i_long":106.86807400000001,"is_transit":true,"station_id":"JNG"},{"station_name":"Pondok Jati","station_id":"POK","is_transit":false,"line":11,"distance":1236,"i_lat":-6.209188,"time":2,"transit":false,"i_long":106.861737},{"distance":1829,"is_transit":false,"station_name":"Kramat","line":11,"time":2,"i_lat":-6.193792,"i_long":106.855437,"station_id":"KMT","transit":false},{"distance":973,"line":11,"i_long":106.850107,"station_id":"GST","station_name":"Gang Sentiong","time":1,"is_transit":false,"i_lat":-6.185975,"transit":false},{"distance":1567,"station_id":"PSE","time":8,"is_transit":false,"station_name":"Pasar Senen","i_lat":-6.174784,"transit":false,"line":11,"i_long":106.84368},{"i_lat":-6.161728,"station_name":"Kemayoran","distance":1436,"is_transit":false,"station_id":"KMO","i_long":106.839204,"time":4,"line":11,"transit":false},{"is_transit":false,"station_name":"Rajawali","transit":false,"station_id":"RJW","i_long":106.836569,"time":5,"distance":1901,"i_lat":-6.14505,"line":11},{"i_long":106.826365,"i_lat":-6.132549,"is_transit":true,"station_name":"Kampung Bandan","line":0,"station_id":"KPB","transit":true,"time":3,"distance":1444},{"transit":false,"is_transit":false,"i_lat":-6.144674,"i_long":106.79867,"station_id":"AK","line":0,"time":9,"station_name":"Angke","distance":4102},{"distance":1230,"is_transit":true,"transit":true,"i_lat":-6.155215,"i_long":106.800832,"station_id":"DU","line":1,"time":4,"station_name":"Duri"},{"line":5,"station_name":"Grogol","transit":false,"time":3,"i_long":106.788277,"i_lat":-6.162021,"station_id":"GGL","is_transit":false,"distance":1700},{"distance":2036,"transit":false,"time":2,"is_transit":false,"i_long":106.771379,"line":5,"station_name":"Pesing","i_lat":-6.161433,"station_id":"PSG"},{"time":2,"i_long":106.756522,"i_lat":-6.1587309999999995,"distance":1614,"line":5,"transit":false,"is_transit":false,"station_id":"TKO","station_name":"Taman Kota"},{"i_long":106.737035,"transit":false,"i_lat":-6.159876,"distance":2334,"station_id":"BOI","station_name":"Bojongindah","time":2,"line":0,"is_transit":false},{"station_id":"RW","i_long":106.723064,"station_name":"Rawa Buaya","transit":false,"time":4,"is_transit":false,"i_lat":-6.162758,"distance":1152,"line":5}],[{"i_long":106.827103,"station_name":"Sawah Besar","transit":false,"station_id":"SW","distance":0,"is_transit":false,"time":0,"i_lat":-6.160725,"line":2},{"line":2,"i_long":106.82482,"station_id":"MGB","distance":906,"is_transit":false,"station_name":"Manggabesar","time":2,"i_lat":-6.149769,"transit":false},{"is_transit":false,"i_long":106.820901,"time":2,"distance":1080,"station_id":"JAY","transit":false,"line":7,"i_lat":-6.141205,"station_name":"Jayakarta"},{"line":0,"time":4,"transit":true,"distance":1264,"is_transit":true,"station_id":"JAKK","i_long":106.812439,"i_lat":-6.137569,"station_name":"Jakarta Kota"},{"station_id":"KPB","i_long":106.826365,"transit":true,"is_transit":true,"station_name":"Kampung Bandan","time":3,"i_lat":-6.132549,"line":0,"distance":1364},{"time":3,"distance":1444,"station_id":"RJW","is_transit":false,"station_name":"Rajawali","i_lat":-6.14505,"i_long":106.836569,"transit":false,"line":11},{"is_transit":false,"time":5,"station_id":"KMO","station_name":"Kemayoran","line":11,"distance":1901,"transit":false,"i_lat":-6.161728,"i_long":106.839204},{"distance":1436,"line":11,"i_lat":-6.174784,"time":4,"station_id":"PSE","i_long":106.84368,"is_transit":false,"transit":false,"station_name":"Pasar Senen"},{"distance":1567,"transit":false,"line":11,"station_name":"Gang Sentiong","station_id":"GST","is_transit":false,"time":8,"i_long":106.850107,"i_lat":-6.185975},{"distance":973,"i_long":106.855437,"i_lat":-6.193792,"line":11,"station_id":"KMT","is_transit":false,"station_name":"Kramat","transit":false,"time":1},{"is_transit":false,"station_id":"POK","station_name":"Pondok Jati","time":2,"i_long":106.861737,"distance":1829,"i_lat":-6.209188,"transit":false,"line":11},{"i_lat":-6.215091,"time":9,"i_long":106.86807400000001,"distance":1236,"line":0,"station_id":"JNG","is_transit":true,"transit":true,"station_name":"Jatinegara"},{"station_id":"MTR","station_name":"Matraman","transit":false,"line":1,"time":2,"i_lat":-6.212485,"is_transit":false,"i_long":106.858896,"distance":1377},{"station_id":"MRI","time":2,"distance":1275,"i_long":106.84912,"is_transit":true,"i_lat":-6.209883,"station_name":"Manggarai","transit":false,"line":0},{"transit":false,"i_long":106.822649,"station_name":"Sudirman","i_lat":-6.202263,"line":1,"station_id":"SUD","distance":3186,"is_transit":false,"time":4},{"time":1,"line":1,"i_lat":-6.201433,"distance":280,"is_transit":false,"station_name":"Sudirman Baru","station_id":"SUDB","transit":false,"i_long":106.819881},{"transit":false,"i_lat":-6.20132,"is_transit":false,"i_long":106.816351,"line":1,"station_name":"Karet","time":1,"distance":471,"station_id":"KAT"},{"station_name":"Tanah Abang","time":5,"is_transit":true,"transit":false,"line":1,"distance":2029,"i_long":106.811091,"i_lat":-6.185545,"station_id":"THB"},{"i_lat":-6.155215,"is_transit":true,"station_id":"DU","i_long":106.800832,"time":8,"station_name":"Duri","line":1,"distance":3632,"transit":true},{"is_transit":false,"station_name":"Grogol","i_long":106.788277,"station_id":"GGL","transit":false,"i_lat":-6.162021,"line":5,"time":3,"distance":1700},{"i_long":106.771379,"station_name":"Pesing","transit":false,"distance":2036,"station_id":"PSG","is_transit":false,"time":2,"i_lat":-6.161433,"line":5},{"transit":false,"time":2,"i_lat":-6.1587309999999995,"i_long":106.756522,"station_id":"TKO","line":5,"station_name":"Taman Kota","distance":1614,"is_transit":false},{"station_name":"Bojongindah","time":2,"line":0,"i_long":106.737035,"distance":2334,"i_lat":-6.159876,"transit":false,"station_id":"BOI","is_transit":false},{"station_id":"RW","distance":1152,"i_long":106.723064,"is_transit":false,"station_name":"Rawa Buaya","i_lat":-6.162758,"line":5,"transit":false,"time":4}]]}