{"data":[[{"time":0,"i_long":106.827103,"station_id":"SW","transit":false,"station_name":"Sawah Besar","i_lat":-6.160725,"line":2,"is_transit":false,"distance":0},{"i_long":106.82482,"time":2,"line":2,"station_name":"Manggabesar","i_lat":-6.149769,"is_transit":false,"station_id":"MGB","transit":false,"distance":906},{"distance":1080,"transit":false,"station_id":"JAY","is_transit":false,"station_name":"Jayakarta","time":2,"i_lat":-6.141205,"i_long":106.820901,"line":2},{"distance":1264,"i_lat":-6.137569,"time":4,"i_long":106.812439,"station_name":"Jakarta Kota","transit":true,"is_transit":true,"station_id":"JAKK","line":2},{"time":3,"distance":1364,"transit":true,"i_long":106.826365,"station_name":"Kampung Bandan","line":4,"station_id":"KPB","is_transit":true,"i_lat":-6.132549},{"station_id":"RJW","time":3,"transit":false,"i_long":106.836569,"distance":1444,"line":11,"is_transit":false,"i_lat":-6.14505,"station_name":"Rajawali"}],[{"time":0,"station_name":"Sawah Besar","line":2,"distance":0,"i_long":106.827103,"i_lat":-6.160725,"is_transit":false,"station_id":"SW","transit":false},{"line":2,"distance":1149,"transit":false,"i_long":106.828284,"time":2,"i_lat":-6.166716,"station_id":"JUA","station_name":"Juanda","is_transit":false},{"i_long":106.832183,"transit":false,"i_lat":-6.186295,"is_transit":false,"station_id":"GDD","line":2,"distance":2015,"station_name":"Gondangdia","time":4},{"is_transit":false,"line":2,"distance":1750,"i_lat":-6.198556,"station_id":"CKI","transit":false,"time":3,"i_long":106.840169,"station_name":"Cikini"},{"distance":1590,"time":4,"station_name":"Manggarai","station_id":"MRI","i_lat":-6.209883,"i_long":106.84912,"is_transit":true,"line":2,"transit":true},{"line":1,"station_name":"Matraman","time":2,"station_id":"MTR","transit":false,"i_lat":-6.212485,"is_transit":false,"distance":1275,"i_long":106.858896},{"i_lat":-6.215091,"distance":1377,"is_transit":true,"i_long":106.86807400000001,"line":1,"time":8,"transit":true,"station_id":"JNG","station_name":"Jatinegara"},{"i_lat":-6.209188,"station_name":"Pondok Jati","is_transit":false,"transit":false,"time":2,"station_id":"POK","distance":1236,"i_long":106.861737,"line":11},{"station_name":"Kramat","time":2,"distance":1829,"station_id":"KMT","i_lat":-6.193792,"i_long":106.855437,"transit":false,"is_transit":false,"line":11},{"i_long":106.850107,"transit":false,"time":1,"station_name":"Gang Sentiong","station_id":"GST","is_transit":false,"i_lat":-6.185975,"distance":973,"line":11},{"transit":false,"i_lat":-6.174784,"station_id":"PSE","is_transit":false,"time":8,"distance":1567,"line":11,"station_name":"Pasar Senen","i_long":106.84368},{"is_transit":false,"i_long":106.839204,"transit":false,"time":4,"station_name":"Kemayoran","station_id":"KMO","i_lat":-6.161728,"line":11,"distance":1436},{"transit":false,"i_long":106.836569,"i_lat":-6.14505,"station_name":"Rajawali","station_id":"RJW","time":5,"is_transit":false,"distance":1901,"line":11}],[{"station_name":"Sawah Besar","transit":false,"station_id":"SW","time":0,"i_long":106.827103,"line":2,"i_lat":-6.160725,"is_transit":false,"distance":0},{"station_name":"Juanda","i_lat":-6.166716,"station_id":"JUA","time":2,"is_transit":false,"line":2,"distance":1149,"transit":false,"i_long":106.828284},{"is_transit":false,"distance":2015,"line":2,"i_lat":-6.186295,"transit":false,"station_id":"GDD","station_name":"Gondangdia","time":4,"i_long":106.832183},{"distance":1750,"is_transit":false,"transit":false,"station_name":"Cikini","line":2,"station_id":"CKI","i_lat":-6.198556,"time":3,"i_long":106.840169},{"station_name":"Manggarai","line":2,"station_id":"MRI","i_lat":-6.209883,"is_transit":true,"distance":1590,"i_long":106.84912,"time":4,"transit":true},{"time":4,"station_name":"Sudirman","station_id":"SUD","distance":3186,"i_long":106.822649,"i_lat":-6.202263,"transit":false,"line":1,"is_transit":false},{"station_id":"SUDB","time":1,"is_transit":false,"station_name":"Sudirman Baru","distance":280,"i_long":106.819881,"i_lat":-6.201433,"line":1,"transit":false},{"i_long":106.816351,"time":1,"line":1,"is_transit":false,"i_lat":-6.20132,"transit":false,"station_name":"Karet","station_id":"KAT","distance":471},{"i_lat":-6.185545,"transit":false,"station_name":"Tanah Abang","station_id":"THB","is_transit":false,"time":5,"i_long":106.811091,"line":1,"distance":2029},{"i_long":106.800832,"transit":false,"station_name":"Duri","distance":3632,"station_id":"DU","is_transit":false,"time":8,"i_lat":-6.155215,"line":1},{"station_name":"Angke","time":4,"i_lat":-6.144674,"distance":1230,"station_id":"AK","i_long":106.79867,"line":1,"is_transit":false,"transit":false},{"station_id":"KPB","distance":4102,"time":9,"transit":true,"is_transit":true,"station_name":"Kampung Bandan","i_lat":-6.132549,"i_long":106.826365,"line":4},{"transit":false,"station_name":"Rajawali","is_transit":false,"distance":1444,"i_long":106.836569,"station_id":"RJW","time":3,"i_lat":-6.14505,"line":11}],[{"distance":0,"i_long":106.827103,"line":2,"station_name":"Sawah Besar","is_transit":false,"time":0,"transit":false,"station_id":"SW","i_lat":-6.160725},{"station_id":"MGB","time":2,"line":2,"i_lat":-6.149769,"station_name":"Manggabesar","i_long":106.82482,"transit":false,"distance":906,"is_transit":false},{"station_id":"JAY","i_lat":-6.141205,"i_long":106.820901,"station_name":"Jayakarta","time":2,"transit":false,"is_transit":false,"distance":1080,"line":2},{"is_transit":true,"time":4,"station_id":"JAKK","i_lat":-6.137569,"i_long":106.812439,"transit":true,"station_name":"Jakarta Kota","distance":1264,"line":2},{"time":3,"is_transit":true,"transit":true,"distance":1364,"i_lat":-6.132549,"line":4,"station_name":"Kampung Bandan","station_id":"KPB","i_long":106.826365},{"station_name":"Angke","transit":false,"i_long":106.79867,"station_id":"AK","line":1,"distance":4102,"time":9,"is_transit":false,"i_lat":-6.144674},{"is_transit":false,"distance":1230,"transit":false,"i_lat":-6.155215,"station_id":"DU","i_long":106.800832,"time":4,"line":1,"station_name":"Duri"},{"transit":false,"i_long":106.811091,"line":1,"is_transit":false,"distance":3632,"station_id":"THB","station_name":"Tanah Abang","i_lat":-6.185545,"time":8},{"time":5,"i_long":106.816351,"station_id":"KAT","line":1,"transit":false,"i_lat":-6.20132,"is_transit":false,"distance":2029,"station_name":"Karet"},{"transit":false,"i_long":106.819881,"distance":471,"line":1,"station_name":"Sudirman Baru","station_id":"SUDB","is_transit":false,"time":1,"i_lat":-6.201433},{"is_transit":false,"line":1,"station_name":"Sudirman","i_lat":-6.202263,"transit":false,"station_id":"SUD","i_long":106.822649,"time":1,"distance":280},{"is_transit":false,"distance":3186,"station_id":"MRI","transit":false,"i_lat":-6.209883,"i_long":106.84912,"station_name":"Manggarai","line":2,"time":4},{"distance":1275,"time":2,"station_id":"MTR","transit":false,"is_transit":false,"i_lat":-6.212485,"station_name":"Matraman","i_long":106.858896,"line":1},{"time":8,"i_long":106.86807400000001,"transit":true,"station_id":"JNG","distance":1377,"station_name":"Jatinegara","i_lat":-6.215091,"line":1,"is_transit":true},{"is_transit":false,"time":2,"station_name":"Pondok Jati","station_id":"POK","distance":1236,"i_lat":-6.209188,"i_long":106.861737,"line":11,"transit":false},{"line":11,"station_id":"KMT","is_transit":false,"time":2,"i_lat":-6.193792,"transit":false,"station_name":"Kramat","distance":1829,"i_long":106.855437},{"line":11,"station_name":"Gang Sentiong","is_transit":false,"transit":false,"i_long":106.850107,"time":1,"distance":973,"station_id":"GST","i_lat":-6.185975},{"transit":false,"station_id":"PSE","i_lat":-6.174784,"line":11,"is_transit":false,"i_long":106.84368,"station_name":"Pasar Senen","time":8,"distance":1567},{"station_name":"Kemayoran","i_long":106.839204,"station_id":"KMO","is_transit":false,"transit":false,"time":4,"distance":1436,"i_lat":-6.161728,"line":11},{"is_transit":false,"time":5,"transit":false,"distance":1901,"i_lat":-6.14505,"station_id":"RJW","line":11,"i_long":106.836569,"station_name":"Rajawali"}]]}