{"data":[[{"transit":false,"is_transit":false,"station_name":"Sawah Besar","time":0,"distance":0,"i_lat":-6.160725,"station_id":"SW","i_long":106.827103,"line":2},{"transit":false,"i_lat":-6.149769,"station_name":"Manggabesar","line":2,"station_id":"MGB","i_long":106.82482,"time":2,"is_transit":false,"distance":906},{"transit":false,"line":2,"i_long":106.820901,"i_lat":-6.141205,"is_transit":false,"distance":1080,"station_name":"Jayakarta","time":2,"station_id":"JAY"},{"station_name":"Jakarta Kota","transit":true,"i_lat":-6.137569,"station_id":"JAKK","is_transit":true,"time":4,"i_long":106.812439,"line":2,"distance":1264},{"distance":1364,"is_transit":true,"i_lat":-6.132549,"transit":true,"station_id":"KPB","i_long":106.826365,"line":4,"station_name":"Kampung Bandan","time":3},{"transit":false,"is_transit":false,"distance":1444,"i_long":106.836569,"i_lat":-6.14505,"time":3,"station_id":"RJW","line":11,"station_name":"Rajawali"}],[{"station_id":"SW","i_lat":-6.160725,"station_name":"Sawah Besar","i_long":106.827103,"distance":0,"is_transit":false,"time":0,"transit":false,"line":2},{"is_transit":false,"station_id":"JUA","distance":1149,"transit":false,"station_name":"Juanda","time":2,"i_lat":-6.166716,"i_long":106.828284,"line":2},{"transit":false,"i_long":106.832183,"station_id":"GDD","i_lat":-6.186295,"distance":2015,"time":4,"line":2,"station_name":"Gondangdia","is_transit":false},{"i_long":106.840169,"station_id":"CKI","transit":false,"time":3,"distance":1750,"line":2,"station_name":"Cikini","is_transit":false,"i_lat":-6.198556},{"line":2,"is_transit":true,"station_id":"MRI","station_name":"Manggarai","time":4,"transit":true,"distance":1590,"i_lat":-6.209883,"i_long":106.84912},{"transit":false,"station_id":"MTR","is_transit":false,"time":2,"distance":1275,"i_lat":-6.212485,"i_long":106.858896,"line":1,"station_name":"Matraman"},{"distance":1377,"i_lat":-6.215091,"station_id":"JNG","is_transit":true,"transit":true,"i_long":106.86807400000001,"line":1,"time":8,"station_name":"Jatinegara"},{"i_lat":-6.209188,"distance":1236,"transit":false,"station_id":"POK","i_long":106.861737,"station_name":"Pondok Jati","is_transit":false,"time":2,"line":11},{"station_name":"Kramat","station_id":"KMT","distance":1829,"line":11,"i_lat":-6.193792,"i_long":106.855437,"transit":false,"is_transit":false,"time":2},{"line":11,"distance":973,"i_lat":-6.185975,"transit":false,"station_id":"GST","station_name":"Gang Sentiong","i_long":106.850107,"time":1,"is_transit":false},{"transit":false,"time":8,"distance":1567,"i_lat":-6.174784,"station_name":"Pasar Senen","line":11,"is_transit":false,"i_long":106.84368,"station_id":"PSE"},{"time":4,"transit":false,"distance":1436,"i_lat":-6.161728,"station_name":"Kemayoran","station_id":"KMO","is_transit":false,"i_long":106.839204,"line":11},{"station_id":"RJW","station_name":"Rajawali","i_long":106.836569,"transit":false,"line":11,"is_transit":false,"i_lat":-6.14505,"distance":1901,"time":5}],[{"transit":false,"i_long":106.827103,"station_id":"SW","station_name":"Sawah Besar","is_transit":false,"line":2,"distance":0,"i_lat":-6.160725,"time":0},{"station_id":"JUA","is_transit":false,"station_name":"Juanda","i_long":106.828284,"transit":false,"distance":1149,"time":2,"i_lat":-6.166716,"line":2},{"distance":2015,"station_id":"GDD","time":4,"i_long":106.832183,"is_transit":false,"transit":false,"line":2,"i_lat":-6.186295,"station_name":"Gondangdia"},{"is_transit":false,"transit":false,"station_id":"CKI","distance":1750,"i_long":106.840169,"line":2,"time":3,"i_lat":-6.198556,"station_name":"Cikini"},{"transit":true,"station_id":"MRI","is_transit":true,"i_lat":-6.209883,"time":4,"i_long":106.84912,"distance":1590,"station_name":"Manggarai","line":2},{"is_transit":false,"i_lat":-6.202263,"line":1,"transit":false,"distance":3186,"station_id":"SUD","station_name":"Sudirman","time":4,"i_long":106.822649},{"distance":280,"station_id":"SUDB","i_long":106.819881,"transit":false,"is_transit":false,"station_name":"Sudirman Baru","i_lat":-6.201433,"time":1,"line":1},{"is_transit":false,"time":1,"i_lat":-6.20132,"i_long":106.816351,"distance":471,"station_id":"KAT","line":1,"transit":false,"station_name":"Karet"},{"i_lat":-6.185545,"line":1,"i_long":106.811091,"station_id":"THB","transit":false,"distance":2029,"is_transit":false,"time":5,"station_name":"Tanah Abang"},{"is_transit":false,"station_name":"Duri","i_long":106.800832,"station_id":"DU","time":8,"transit":false,"i_lat":-6.155215,"distance":3632,"line":1},{"transit":false,"station_id":"AK","time":4,"station_name":"Angke","is_transit":false,"distance":1230,"i_lat":-6.144674,"i_long":106.79867,"line":1},{"transit":true,"is_transit":true,"distance":4102,"station_id":"KPB","i_lat":-6.132549,"line":4,"time":9,"station_name":"Kampung Bandan","i_long":106.826365},{"distance":1444,"station_name":"Rajawali","time":3,"transit":false,"i_lat":-6.14505,"i_long":106.836569,"is_transit":false,"line":11,"station_id":"RJW"}],[{"distance":0,"i_lat":-6.160725,"line":2,"station_name":"Sawah Besar","is_transit":false,"transit":false,"station_id":"SW","time":0,"i_long":106.827103},{"is_transit":false,"station_id":"MGB","line":2,"time":2,"transit":false,"distance":906,"i_long":106.82482,"station_name":"Manggabesar","i_lat":-6.149769},{"i_lat":-6.141205,"line":2,"station_id":"JAY","station_name":"Jayakarta","is_transit":false,"time":2,"transit":false,"distance":1080,"i_long":106.820901},{"station_name":"Jakarta Kota","station_id":"JAKK","transit":true,"i_long":106.812439,"line":2,"is_transit":true,"i_lat":-6.137569,"time":4,"distance":1264},{"distance":1364,"is_transit":true,"station_name":"Kampung Bandan","i_lat":-6.132549,"i_long":106.826365,"line":4,"transit":true,"station_id":"KPB","time":3},{"distance":4102,"i_long":106.79867,"time":9,"transit":false,"line":1,"i_lat":-6.144674,"station_id":"AK","station_name":"Angke","is_transit":false},{"is_transit":false,"line":1,"station_name":"Duri","transit":false,"i_lat":-6.155215,"i_long":106.800832,"time":4,"distance":1230,"station_id":"DU"},{"time":8,"i_lat":-6.185545,"station_name":"Tanah Abang","line":1,"distance":3632,"transit":false,"i_long":106.811091,"station_id":"THB","is_transit":false},{"station_name":"Karet","distance":2029,"transit":false,"station_id":"KAT","time":5,"is_transit":false,"i_lat":-6.20132,"i_long":106.816351,"line":1},{"distance":471,"i_long":106.819881,"transit":false,"time":1,"station_id":"SUDB","i_lat":-6.201433,"station_name":"Sudirman Baru","line":1,"is_transit":false},{"i_lat":-6.202263,"distance":280,"i_long":106.822649,"line":1,"transit":false,"time":1,"station_name":"Sudirman","is_transit":false,"station_id":"SUD"},{"time":4,"i_long":106.84912,"station_name":"Manggarai","transit":false,"line":2,"i_lat":-6.209883,"is_transit":false,"distance":3186,"station_id":"MRI"},{"distance":1275,"station_name":"Matraman","i_long":106.858896,"i_lat":-6.212485,"time":2,"station_id":"MTR","line":1,"is_transit":false,"transit":false},{"station_name":"Jatinegara","i_lat":-6.215091,"station_id":"JNG","is_transit":true,"time":8,"distance":1377,"i_long":106.86807400000001,"line":1,"transit":true},{"station_id":"POK","distance":1236,"is_transit":false,"line":11,"station_name":"Pondok Jati","transit":false,"time":2,"i_long":106.861737,"i_lat":-6.209188},{"distance":1829,"i_lat":-6.193792,"i_long":106.855437,"station_id":"KMT","station_name":"Kramat","line":11,"time":2,"transit":false,"is_transit":false},{"distance":973,"i_lat":-6.185975,"transit":false,"station_name":"Gang Sentiong","is_transit":false,"time":1,"i_long":106.850107,"line":11,"station_id":"GST"},{"distance":1567,"transit":false,"time":8,"station_name":"Pasar Senen","is_transit":false,"i_long":106.84368,"station_id":"PSE","i_lat":-6.174784,"line":11},{"station_name":"Kemayoran","time":4,"station_id":"KMO","i_lat":-6.161728,"transit":false,"i_long":106.839204,"is_transit":false,"distance":1436,"line":11},{"station_name":"Rajawali","distance":1901,"is_transit":false,"i_lat":-6.14505,"i_long":106.836569,"time":5,"line":11,"station_id":"RJW","transit":false}]]}