{"data":[[{"station_name":"Sawah Besar","i_long":106.827103,"is_transit":false,"distance":0,"station_id":"SW","line":2,"time":0,"i_lat":-6.160725,"transit":false},{"is_transit":false,"time":2,"i_lat":-6.149769,"station_name":"Manggabesar","line":2,"station_id":"MGB","distance":906,"i_long":106.82482,"transit":false},{"i_lat":-6.141205,"is_transit":false,"station_id":"JAY","transit":false,"time":2,"station_name":"Jayakarta","distance":1080,"i_long":106.820901,"line":2},{"time":4,"is_transit":true,"station_name":"Jakarta Kota","i_lat":-6.137569,"i_long":106.812439,"station_id":"JAKK","transit":true,"distance":1264,"line":2},{"i_long":106.826365,"line":4,"station_id":"KPB","time":3,"i_lat":-6.132549,"transit":true,"distance":1364,"is_transit":true,"station_name":"Kampung Bandan"},{"i_lat":-6.144674,"line":1,"is_transit":false,"i_long":106.79867,"transit":false,"distance":4102,"station_id":"AK","time":9,"station_name":"Angke"},{"i_long":106.800832,"line":1,"time":4,"station_name":"Duri","distance":1230,"transit":true,"station_id":"DU","i_lat":-6.155215,"is_transit":true},{"distance":1700,"station_id":"GGL","transit":false,"station_name":"Grogol","is_transit":false,"time":3,"i_long":106.788277,"line":5,"i_lat":-6.162021},{"distance":2036,"station_id":"PSG","i_lat":-6.161433,"i_long":106.771379,"time":2,"station_name":"Pesing","is_transit":false,"line":5,"transit":false},{"time":2,"transit":false,"station_name":"Taman Kota","is_transit":false,"i_lat":-6.1587309999999995,"station_id":"TKO","distance":1614,"line":5,"i_long":106.756522},{"is_transit":false,"station_name":"Bojongindah","i_long":106.737035,"station_id":"BOI","transit":false,"distance":2334,"i_lat":-6.159876,"time":2,"line":5},{"station_name":"Rawa Buaya","is_transit":false,"time":4,"i_long":106.723064,"transit":false,"station_id":"RW","i_lat":-6.162758,"line":5,"distance":1152}],[{"station_name":"Sawah Besar","station_id":"SW","transit":false,"distance":0,"i_long":106.827103,"is_transit":false,"line":2,"i_lat":-6.160725,"time":0},{"i_long":106.828284,"transit":false,"station_id":"JUA","station_name":"Juanda","line":2,"is_transit":false,"distance":1149,"time":2,"i_lat":-6.166716},{"is_transit":false,"transit":false,"time":4,"station_id":"GDD","station_name":"Gondangdia","distance":2015,"i_long":106.832183,"line":2,"i_lat":-6.186295},{"time":3,"distance":1750,"station_name":"Cikini","station_id":"CKI","transit":false,"is_transit":false,"line":2,"i_lat":-6.198556,"i_long":106.840169},{"station_name":"Manggarai","transit":true,"i_lat":-6.209883,"is_transit":true,"station_id":"MRI","time":4,"distance":1590,"line":2,"i_long":106.84912},{"distance":3186,"is_transit":false,"i_lat":-6.202263,"station_id":"SUD","i_long":106.822649,"line":1,"station_name":"Sudirman","transit":false,"time":4},{"transit":false,"station_name":"Sudirman Baru","is_transit":false,"i_long":106.819881,"i_lat":-6.201433,"station_id":"SUDB","distance":280,"time":1,"line":1},{"transit":false,"line":1,"station_id":"KAT","station_name":"Karet","distance":471,"i_long":106.816351,"time":1,"is_transit":false,"i_lat":-6.20132},{"station_name":"Tanah Abang","is_transit":false,"i_long":106.811091,"line":1,"time":5,"transit":false,"station_id":"THB","distance":2029,"i_lat":-6.185545},{"station_name":"Duri","i_long":106.800832,"line":1,"station_id":"DU","distance":3632,"transit":true,"time":8,"is_transit":true,"i_lat":-6.155215},{"station_id":"GGL","station_name":"Grogol","time":3,"distance":1700,"i_lat":-6.162021,"transit":false,"i_long":106.788277,"is_transit":false,"line":5},{"line":5,"station_id":"PSG","is_transit":false,"transit":false,"time":2,"distance":2036,"station_name":"Pesing","i_lat":-6.161433,"i_long":106.771379},{"distance":1614,"transit":false,"station_id":"TKO","station_name":"Taman Kota","is_transit":false,"time":2,"i_lat":-6.1587309999999995,"i_long":106.756522,"line":5},{"transit":false,"is_transit":false,"time":2,"distance":2334,"i_lat":-6.159876,"station_name":"Bojongindah","i_long":106.737035,"line":5,"station_id":"BOI"},{"i_long":106.723064,"is_transit":false,"line":5,"transit":false,"station_name":"Rawa Buaya","time":4,"distance":1152,"i_lat":-6.162758,"station_id":"RW"}],[{"i_long":106.827103,"is_transit":false,"distance":0,"station_id":"SW","time":0,"transit":false,"line":2,"station_name":"Sawah Besar","i_lat":-6.160725},{"station_name":"Juanda","station_id":"JUA","time":2,"distance":1149,"transit":false,"i_lat":-6.166716,"i_long":106.828284,"is_transit":false,"line":2},{"station_id":"GDD","transit":false,"time":4,"i_lat":-6.186295,"i_long":106.832183,"station_name":"Gondangdia","line":2,"is_transit":false,"distance":2015},{"distance":1750,"i_long":106.840169,"transit":false,"is_transit":false,"time":3,"station_id":"CKI","line":2,"station_name":"Cikini","i_lat":-6.198556},{"i_lat":-6.209883,"station_name":"Manggarai","is_transit":true,"i_long":106.84912,"transit":true,"time":4,"line":2,"station_id":"MRI","distance":1590},{"distance":1275,"i_long":106.858896,"station_id":"MTR","is_transit":false,"line":1,"i_lat":-6.212485,"station_name":"Matraman","transit":false,"time":2},{"time":8,"distance":1377,"i_long":106.86807400000001,"transit":true,"i_lat":-6.215091,"is_transit":true,"line":1,"station_name":"Jatinegara","station_id":"JNG"},{"time":2,"station_name":"Pondok Jati","distance":1236,"transit":false,"i_long":106.861737,"line":11,"station_id":"POK","i_lat":-6.209188,"is_transit":false},{"line":11,"station_name":"Kramat","is_transit":false,"distance":1829,"i_long":106.855437,"transit":false,"time":2,"station_id":"KMT","i_lat":-6.193792},{"line":11,"time":1,"distance":973,"station_name":"Gang Sentiong","station_id":"GST","is_transit":false,"i_lat":-6.185975,"transit":false,"i_long":106.850107},{"i_long":106.84368,"is_transit":false,"transit":false,"station_name":"Pasar Senen","distance":1567,"station_id":"PSE","time":8,"i_lat":-6.174784,"line":11},{"station_id":"KMO","station_name":"Kemayoran","is_transit":false,"time":4,"distance":1436,"i_long":106.839204,"transit":false,"line":11,"i_lat":-6.161728},{"transit":false,"station_id":"RJW","is_transit":false,"distance":1901,"i_long":106.836569,"station_name":"Rajawali","line":11,"time":5,"i_lat":-6.14505},{"is_transit":true,"station_id":"KPB","distance":1444,"time":3,"i_long":106.826365,"line":4,"i_lat":-6.132549,"station_name":"Kampung Bandan","transit":true},{"station_name":"Angke","i_lat":-6.144674,"is_transit":false,"i_long":106.79867,"time":9,"line":1,"distance":4102,"station_id":"AK","transit":false},{"i_long":106.800832,"time":4,"station_id":"DU","i_lat":-6.155215,"distance":1230,"is_transit":true,"transit":true,"station_name":"Duri","line":1},{"time":3,"line":5,"transit":false,"is_transit":false,"distance":1700,"station_id":"GGL","i_lat":-6.162021,"station_name":"Grogol","i_long":106.788277},{"time":2,"station_name":"Pesing","transit":false,"station_id":"PSG","distance":2036,"i_lat":-6.161433,"line":5,"i_long":106.771379,"is_transit":false},{"i_lat":-6.1587309999999995,"is_transit":false,"distance":1614,"station_name":"Taman Kota","time":2,"station_id":"TKO","i_long":106.756522,"transit":false,"line":5},{"i_lat":-6.159876,"time":2,"distance":2334,"transit":false,"is_transit":false,"line":5,"station_name":"Bojongindah","i_long":106.737035,"station_id":"BOI"},{"i_lat":-6.162758,"time":4,"i_long":106.723064,"line":5,"transit":false,"station_name":"Rawa Buaya","station_id":"RW","is_transit":false,"distance":1152}],[{"i_long":106.827103,"line":2,"distance":0,"time":0,"station_name":"Sawah Besar","is_transit":false,"transit":false,"station_id":"SW","i_lat":-6.160725},{"station_id":"MGB","line":2,"distance":906,"transit":false,"is_transit":false,"i_long":106.82482,"station_name":"Manggabesar","time":2,"i_lat":-6.149769},{"line":2,"station_id":"JAY","distance":1080,"transit":false,"i_lat":-6.141205,"time":2,"station_name":"Jayakarta","is_transit":false,"i_long":106.820901},{"time":4,"distance":1264,"station_id":"JAKK","i_lat":-6.137569,"station_name":"Jakarta Kota","i_long":106.812439,"transit":true,"line":2,"is_transit":true},{"transit":true,"is_transit":true,"i_lat":-6.132549,"station_id":"KPB","line":4,"i_long":106.826365,"distance":1364,"station_name":"Kampung Bandan","time":3},{"transit":false,"i_long":106.836569,"station_name":"Rajawali","line":11,"is_transit":false,"station_id":"RJW","distance":1444,"time":3,"i_lat":-6.14505},{"distance":1901,"time":5,"i_lat":-6.161728,"station_id":"KMO","is_transit":false,"i_long":106.839204,"line":11,"transit":false,"station_name":"Kemayoran"},{"station_id":"PSE","i_long":106.84368,"transit":false,"is_transit":false,"time":4,"station_name":"Pasar Senen","distance":1436,"i_lat":-6.174784,"line":11},{"line":11,"i_long":106.850107,"i_lat":-6.185975,"distance":1567,"is_transit":false,"station_name":"Gang Sentiong","time":8,"transit":false,"station_id":"GST"},{"time":1,"station_id":"KMT","line":11,"is_transit":false,"distance":973,"i_long":106.855437,"i_lat":-6.193792,"transit":false,"station_name":"Kramat"},{"station_name":"Pondok Jati","distance":1829,"is_transit":false,"time":2,"station_id":"POK","i_lat":-6.209188,"transit":false,"i_long":106.861737,"line":11},{"time":9,"line":1,"i_lat":-6.215091,"is_transit":true,"station_id":"JNG","distance":1236,"transit":true,"i_long":106.86807400000001,"station_name":"Jatinegara"},{"line":1,"transit":false,"station_id":"MTR","i_lat":-6.212485,"time":2,"i_long":106.858896,"station_name":"Matraman","is_transit":false,"distance":1377},{"station_name":"Manggarai","transit":false,"i_long":106.84912,"station_id":"MRI","time":2,"line":2,"i_lat":-6.209883,"distance":1275,"is_transit":false},{"i_lat":-6.202263,"i_long":106.822649,"station_name":"Sudirman","distance":3186,"station_id":"SUD","line":1,"transit":false,"is_transit":false,"time":4},{"station_id":"SUDB","line":1,"i_lat":-6.201433,"i_long":106.819881,"station_name":"Sudirman Baru","time":1,"is_transit":false,"distance":280,"transit":false},{"is_transit":false,"i_long":106.816351,"transit":false,"line":1,"time":1,"distance":471,"station_id":"KAT","station_name":"Karet","i_lat":-6.20132},{"station_id":"THB","station_name":"Tanah Abang","i_long":106.811091,"i_lat":-6.185545,"is_transit":false,"time":5,"distance":2029,"line":1,"transit":false},{"is_transit":true,"i_long":106.800832,"time":8,"station_name":"Duri","transit":true,"distance":3632,"i_lat":-6.155215,"line":1,"station_id":"DU"},{"station_id":"GGL","transit":false,"time":3,"distance":1700,"i_lat":-6.162021,"i_long":106.788277,"line":5,"is_transit":false,"station_name":"Grogol"},{"line":5,"i_lat":-6.161433,"i_long":106.771379,"station_id":"PSG","station_name":"Pesing","time":2,"distance":2036,"is_transit":false,"transit":false},{"is_transit":false,"station_id":"TKO","station_name":"Taman Kota","transit":false,"time":2,"line":5,"i_lat":-6.1587309999999995,"distance":1614,"i_long":106.756522},{"time":2,"station_id":"BOI","distance":2334,"i_long":106.737035,"line":5,"station_name":"Bojongindah","is_transit":false,"transit":false,"i_lat":-6.159876},{"line":5,"station_name":"Rawa Buaya","distance":1152,"i_lat":-6.162758,"i_long":106.723064,"time":4,"station_id":"RW","is_transit":false,"transit":false}]]}