{"data":[[{"is_transit":false,"station_name":"Sawah Besar","i_lat":-6.160725,"station_id":"SW","transit":false,"time":0,"distance":0,"i_long":106.827103,"line":2},{"distance":906,"i_long":106.82482,"time":2,"line":2,"transit":false,"i_lat":-6.149769,"is_transit":false,"station_name":"Manggabesar","station_id":"MGB"},{"i_lat":-6.141205,"line":2,"transit":false,"time":2,"station_id":"JAY","distance":1080,"i_long":106.820901,"is_transit":false,"station_name":"Jayakarta"},{"transit":true,"station_name":"Jakarta Kota","time":4,"i_lat":-6.137569,"i_long":106.812439,"line":2,"station_id":"JAKK","is_transit":true,"distance":1264},{"is_transit":true,"line":4,"i_long":106.826365,"time":3,"station_name":"Kampung Bandan","station_id":"KPB","distance":1364,"i_lat":-6.132549,"transit":true},{"i_lat":-6.144674,"transit":false,"line":1,"i_long":106.79867,"station_id":"AK","time":9,"is_transit":false,"station_name":"Angke","distance":4102},{"is_transit":true,"i_long":106.800832,"line":1,"transit":true,"station_name":"Duri","i_lat":-6.155215,"time":4,"distance":1230,"station_id":"DU"},{"i_lat":-6.162021,"i_long":106.788277,"line":5,"time":3,"is_transit":false,"station_id":"GGL","transit":false,"station_name":"Grogol","distance":1700},{"time":2,"transit":false,"is_transit":false,"distance":2036,"line":5,"station_id":"PSG","station_name":"Pesing","i_lat":-6.161433,"i_long":106.771379},{"time":2,"station_name":"Taman Kota","transit":false,"station_id":"TKO","i_lat":-6.1587309999999995,"i_long":106.756522,"distance":1614,"line":5,"is_transit":false},{"i_long":106.737035,"i_lat":-6.159876,"transit":false,"station_id":"BOI","distance":2334,"is_transit":false,"line":5,"station_name":"Bojongindah","time":2},{"station_id":"RW","transit":false,"is_transit":false,"station_name":"Rawa Buaya","i_long":106.723064,"line":5,"distance":1152,"i_lat":-6.162758,"time":4}],[{"line":2,"station_id":"SW","time":0,"is_transit":false,"i_long":106.827103,"station_name":"Sawah Besar","distance":0,"i_lat":-6.160725,"transit":false},{"time":2,"i_lat":-6.166716,"transit":false,"station_name":"Juanda","i_long":106.828284,"line":2,"is_transit":false,"station_id":"JUA","distance":1149},{"distance":2015,"i_long":106.832183,"transit":false,"i_lat":-6.186295,"time":4,"station_id":"GDD","line":2,"station_name":"Gondangdia","is_transit":false},{"time":3,"is_transit":false,"station_id":"CKI","station_name":"Cikini","i_lat":-6.198556,"line":2,"i_long":106.840169,"distance":1750,"transit":false},{"station_id":"MRI","i_lat":-6.209883,"transit":true,"distance":1590,"i_long":106.84912,"is_transit":true,"time":4,"station_name":"Manggarai","line":2},{"transit":false,"is_transit":false,"time":4,"station_id":"SUD","station_name":"Sudirman","i_lat":-6.202263,"line":1,"distance":3186,"i_long":106.822649},{"station_name":"Sudirman Baru","transit":false,"time":1,"station_id":"SUDB","i_long":106.819881,"distance":280,"is_transit":false,"i_lat":-6.201433,"line":1},{"distance":471,"transit":false,"station_id":"KAT","i_long":106.816351,"station_name":"Karet","line":1,"is_transit":false,"time":1,"i_lat":-6.20132},{"i_long":106.811091,"station_name":"Tanah Abang","line":1,"transit":false,"time":5,"station_id":"THB","is_transit":false,"distance":2029,"i_lat":-6.185545},{"transit":true,"i_lat":-6.155215,"i_long":106.800832,"station_id":"DU","station_name":"Duri","time":8,"distance":3632,"is_transit":true,"line":1},{"distance":1700,"line":5,"station_id":"GGL","station_name":"Grogol","i_lat":-6.162021,"i_long":106.788277,"transit":false,"time":3,"is_transit":false},{"is_transit":false,"station_name":"Pesing","i_lat":-6.161433,"i_long":106.771379,"transit":false,"station_id":"PSG","time":2,"distance":2036,"line":5},{"station_name":"Taman Kota","station_id":"TKO","i_long":106.756522,"time":2,"line":5,"distance":1614,"i_lat":-6.1587309999999995,"transit":false,"is_transit":false},{"is_transit":false,"i_lat":-6.159876,"line":5,"time":2,"station_id":"BOI","station_name":"Bojongindah","distance":2334,"i_long":106.737035,"transit":false},{"distance":1152,"station_id":"RW","station_name":"Rawa Buaya","i_long":106.723064,"is_transit":false,"i_lat":-6.162758,"line":5,"transit":false,"time":4}],[{"transit":false,"is_transit":false,"line":2,"i_long":106.827103,"i_lat":-6.160725,"station_id":"SW","station_name":"Sawah Besar","time":0,"distance":0},{"line":2,"i_long":106.828284,"station_id":"JUA","is_transit":false,"time":2,"distance":1149,"transit":false,"i_lat":-6.166716,"station_name":"Juanda"},{"i_lat":-6.186295,"station_name":"Gondangdia","i_long":106.832183,"is_transit":false,"station_id":"GDD","transit":false,"distance":2015,"line":2,"time":4},{"time":3,"station_id":"CKI","station_name":"Cikini","i_lat":-6.198556,"i_long":106.840169,"is_transit":false,"line":2,"distance":1750,"transit":false},{"station_id":"MRI","is_transit":true,"time":4,"distance":1590,"i_lat":-6.209883,"line":2,"transit":true,"station_name":"Manggarai","i_long":106.84912},{"station_name":"Matraman","line":1,"i_long":106.858896,"transit":false,"is_transit":false,"distance":1275,"station_id":"MTR","time":2,"i_lat":-6.212485},{"i_lat":-6.215091,"i_long":106.86807400000001,"line":1,"station_name":"Jatinegara","transit":true,"is_transit":true,"time":8,"station_id":"JNG","distance":1377},{"station_id":"POK","station_name":"Pondok Jati","time":2,"is_transit":false,"distance":1236,"line":11,"transit":false,"i_long":106.861737,"i_lat":-6.209188},{"i_lat":-6.193792,"line":11,"time":2,"i_long":106.855437,"transit":false,"distance":1829,"station_name":"Kramat","is_transit":false,"station_id":"KMT"},{"i_long":106.850107,"time":1,"is_transit":false,"station_name":"Gang Sentiong","i_lat":-6.185975,"transit":false,"station_id":"GST","line":11,"distance":973},{"time":8,"station_id":"PSE","distance":1567,"i_lat":-6.174784,"transit":false,"is_transit":false,"station_name":"Pasar Senen","line":11,"i_long":106.84368},{"line":11,"transit":false,"station_id":"KMO","is_transit":false,"station_name":"Kemayoran","distance":1436,"time":4,"i_lat":-6.161728,"i_long":106.839204},{"station_name":"Rajawali","distance":1901,"i_lat":-6.14505,"i_long":106.836569,"is_transit":false,"time":5,"line":11,"transit":false,"station_id":"RJW"},{"time":3,"is_transit":true,"distance":1444,"transit":true,"i_lat":-6.132549,"i_long":106.826365,"station_name":"Kampung Bandan","line":4,"station_id":"KPB"},{"i_long":106.79867,"is_transit":false,"transit":false,"time":9,"distance":4102,"line":1,"station_name":"Angke","station_id":"AK","i_lat":-6.144674},{"is_transit":true,"transit":true,"distance":1230,"time":4,"i_lat":-6.155215,"station_name":"Duri","i_long":106.800832,"line":1,"station_id":"DU"},{"station_name":"Grogol","is_transit":false,"line":5,"transit":false,"time":3,"station_id":"GGL","distance":1700,"i_long":106.788277,"i_lat":-6.162021},{"i_long":106.771379,"distance":2036,"transit":false,"line":5,"i_lat":-6.161433,"station_id":"PSG","station_name":"Pesing","time":2,"is_transit":false},{"station_id":"TKO","station_name":"Taman Kota","is_transit":false,"time":2,"distance":1614,"transit":false,"i_long":106.756522,"line":5,"i_lat":-6.1587309999999995},{"i_long":106.737035,"i_lat":-6.159876,"is_transit":false,"transit":false,"station_name":"Bojongindah","distance":2334,"time":2,"line":5,"station_id":"BOI"},{"line":5,"station_name":"Rawa Buaya","i_long":106.723064,"station_id":"RW","is_transit":false,"distance":1152,"time":4,"transit":false,"i_lat":-6.162758}],[{"distance":0,"station_id":"SW","is_transit":false,"time":0,"station_name":"Sawah Besar","i_lat":-6.160725,"i_long":106.827103,"line":2,"transit":false},{"station_name":"Manggabesar","i_long":106.82482,"station_id":"MGB","is_transit":false,"line":2,"time":2,"transit":false,"distance":906,"i_lat":-6.149769},{"station_name":"Jayakarta","i_long":106.820901,"station_id":"JAY","transit":false,"i_lat":-6.141205,"is_transit":false,"distance":1080,"line":2,"time":2},{"is_transit":true,"station_id":"JAKK","time":4,"transit":true,"station_name":"Jakarta Kota","i_long":106.812439,"i_lat":-6.137569,"line":2,"distance":1264},{"i_lat":-6.132549,"station_name":"Kampung Bandan","transit":true,"is_transit":true,"station_id":"KPB","time":3,"i_long":106.826365,"distance":1364,"line":4},{"line":11,"distance":1444,"is_transit":false,"time":3,"transit":false,"station_id":"RJW","station_name":"Rajawali","i_lat":-6.14505,"i_long":106.836569},{"line":11,"station_id":"KMO","transit":false,"i_long":106.839204,"time":5,"station_name":"Kemayoran","distance":1901,"i_lat":-6.161728,"is_transit":false},{"transit":false,"time":4,"line":11,"i_long":106.84368,"is_transit":false,"distance":1436,"i_lat":-6.174784,"station_id":"PSE","station_name":"Pasar Senen"},{"station_name":"Gang Sentiong","time":8,"is_transit":false,"distance":1567,"line":11,"i_long":106.850107,"i_lat":-6.185975,"transit":false,"station_id":"GST"},{"time":1,"line":11,"station_id":"KMT","transit":false,"is_transit":false,"station_name":"Kramat","i_lat":-6.193792,"distance":973,"i_long":106.855437},{"time":2,"station_name":"Pondok Jati","i_long":106.861737,"line":11,"is_transit":false,"station_id":"POK","distance":1829,"i_lat":-6.209188,"transit":false},{"time":9,"station_name":"Jatinegara","line":1,"transit":true,"station_id":"JNG","distance":1236,"is_transit":true,"i_long":106.86807400000001,"i_lat":-6.215091},{"i_lat":-6.212485,"time":2,"line":1,"station_id":"MTR","is_transit":false,"station_name":"Matraman","distance":1377,"i_long":106.858896,"transit":false},{"is_transit":false,"station_name":"Manggarai","i_long":106.84912,"time":2,"distance":1275,"line":2,"transit":false,"station_id":"MRI","i_lat":-6.209883},{"i_long":106.822649,"line":1,"is_transit":false,"time":4,"station_name":"Sudirman","i_lat":-6.202263,"station_id":"SUD","distance":3186,"transit":false},{"i_long":106.819881,"is_transit":false,"time":1,"station_id":"SUDB","station_name":"Sudirman Baru","transit":false,"distance":280,"line":1,"i_lat":-6.201433},{"station_name":"Karet","is_transit":false,"line":1,"i_lat":-6.20132,"station_id":"KAT","i_long":106.816351,"distance":471,"time":1,"transit":false},{"transit":false,"i_lat":-6.185545,"station_id":"THB","station_name":"Tanah Abang","line":1,"distance":2029,"is_transit":false,"i_long":106.811091,"time":5},{"time":8,"is_transit":true,"distance":3632,"station_id":"DU","i_long":106.800832,"station_name":"Duri","i_lat":-6.155215,"line":1,"transit":true},{"time":3,"station_id":"GGL","i_long":106.788277,"is_transit":false,"transit":false,"i_lat":-6.162021,"station_name":"Grogol","line":5,"distance":1700},{"station_name":"Pesing","time":2,"i_long":106.771379,"station_id":"PSG","i_lat":-6.161433,"line":5,"distance":2036,"is_transit":false,"transit":false},{"i_lat":-6.1587309999999995,"distance":1614,"i_long":106.756522,"time":2,"is_transit":false,"line":5,"transit":false,"station_id":"TKO","station_name":"Taman Kota"},{"is_transit":false,"i_lat":-6.159876,"i_long":106.737035,"transit":false,"line":5,"time":2,"station_id":"BOI","station_name":"Bojongindah","distance":2334},{"time":4,"i_lat":-6.162758,"station_name":"Rawa Buaya","distance":1152,"is_transit":false,"i_long":106.723064,"transit":false,"station_id":"RW","line":5}]]}