{"data":[[{"is_transit":false,"i_lat":-6.160725,"transit":false,"line":2,"i_long":106.827103,"time":0,"distance":0,"station_id":"SW","station_name":"Sawah Besar"},{"station_name":"Manggabesar","i_long":106.82482,"distance":906,"time":2,"transit":false,"i_lat":-6.149769,"line":2,"is_transit":false,"station_id":"MGB"},{"line":7,"is_transit":false,"transit":false,"i_long":106.820901,"station_id":"JAY","distance":1080,"station_name":"Jayakarta","time":2,"i_lat":-6.141205},{"station_id":"JAKK","is_transit":true,"i_lat":-6.137569,"i_long":106.812439,"line":0,"station_name":"Jakarta Kota","transit":true,"distance":1264,"time":4},{"i_long":106.826365,"i_lat":-6.132549,"line":0,"distance":1364,"is_transit":true,"transit":true,"time":3,"station_id":"KPB","station_name":"Kampung Bandan"},{"line":11,"is_transit":false,"transit":false,"i_lat":-6.14505,"distance":1444,"station_id":"RJW","time":3,"station_name":"Rajawali","i_long":106.836569}],[{"station_id":"SW","i_lat":-6.160725,"station_name":"Sawah Besar","i_long":106.827103,"line":2,"distance":0,"transit":false,"is_transit":false,"time":0},{"transit":false,"i_lat":-6.166716,"line":2,"is_transit":false,"distance":1149,"i_long":106.828284,"station_id":"JUA","time":2,"station_name":"Juanda"},{"i_long":106.832183,"line":2,"station_name":"Gondangdia","station_id":"GDD","time":4,"is_transit":false,"i_lat":-6.186295,"transit":false,"distance":2015},{"is_transit":false,"distance":1750,"station_id":"CKI","i_long":106.840169,"transit":false,"line":0,"i_lat":-6.198556,"station_name":"Cikini","time":3},{"is_transit":true,"station_name":"Manggarai","distance":1590,"transit":true,"i_long":106.84912,"time":4,"i_lat":-6.209883,"station_id":"MRI","line":0},{"distance":3186,"line":1,"station_id":"SUD","is_transit":false,"transit":false,"i_lat":-6.202263,"station_name":"Sudirman","time":4,"i_long":106.822649},{"time":1,"i_long":106.819881,"station_id":"SUDB","i_lat":-6.201433,"station_name":"Sudirman Baru","is_transit":false,"transit":false,"line":1,"distance":280},{"i_long":106.816351,"station_id":"KAT","station_name":"Karet","time":1,"transit":false,"is_transit":false,"i_lat":-6.20132,"distance":471,"line":1},{"is_transit":true,"station_id":"THB","station_name":"Tanah Abang","line":1,"i_lat":-6.185545,"transit":false,"time":5,"i_long":106.811091,"distance":2029},{"transit":true,"i_long":106.800832,"i_lat":-6.155215,"line":1,"is_transit":true,"station_id":"DU","time":8,"distance":3632,"station_name":"Duri"},{"station_name":"Angke","i_long":106.79867,"time":4,"distance":1230,"i_lat":-6.144674,"station_id":"AK","transit":false,"line":0,"is_transit":false},{"distance":4102,"station_id":"KPB","time":9,"line":0,"transit":true,"i_long":106.826365,"station_name":"Kampung Bandan","i_lat":-6.132549,"is_transit":true},{"distance":1444,"station_name":"Rajawali","time":3,"line":11,"transit":false,"station_id":"RJW","i_long":106.836569,"i_lat":-6.14505,"is_transit":false}],[{"i_lat":-6.160725,"distance":0,"station_id":"SW","is_transit":false,"time":0,"i_long":106.827103,"station_name":"Sawah Besar","transit":false,"line":2},{"station_id":"JUA","line":2,"i_lat":-6.166716,"distance":1149,"i_long":106.828284,"station_name":"Juanda","time":2,"is_transit":false,"transit":false},{"transit":false,"time":4,"station_name":"Gondangdia","is_transit":false,"i_long":106.832183,"station_id":"GDD","i_lat":-6.186295,"line":2,"distance":2015},{"transit":false,"line":0,"i_long":106.840169,"time":3,"i_lat":-6.198556,"is_transit":false,"station_id":"CKI","distance":1750,"station_name":"Cikini"},{"distance":1590,"i_lat":-6.209883,"i_long":106.84912,"time":4,"station_id":"MRI","is_transit":true,"line":0,"transit":true,"station_name":"Manggarai"},{"station_id":"MTR","is_transit":false,"station_name":"Matraman","transit":false,"time":2,"i_lat":-6.212485,"i_long":106.858896,"distance":1275,"line":1},{"is_transit":true,"i_long":106.86807400000001,"i_lat":-6.215091,"distance":1377,"transit":true,"station_id":"JNG","station_name":"Jatinegara","time":8,"line":0},{"time":2,"distance":1236,"is_transit":false,"i_lat":-6.209188,"i_long":106.861737,"transit":false,"station_id":"POK","station_name":"Pondok Jati","line":11},{"station_id":"KMT","is_transit":false,"line":11,"i_lat":-6.193792,"distance":1829,"transit":false,"time":2,"station_name":"Kramat","i_long":106.855437},{"i_lat":-6.185975,"transit":false,"station_id":"GST","station_name":"Gang Sentiong","time":1,"i_long":106.850107,"line":11,"distance":973,"is_transit":false},{"station_name":"Pasar Senen","is_transit":false,"time":8,"station_id":"PSE","i_long":106.84368,"transit":false,"i_lat":-6.174784,"distance":1567,"line":11},{"distance":1436,"station_id":"KMO","station_name":"Kemayoran","transit":false,"i_long":106.839204,"line":11,"is_transit":false,"time":4,"i_lat":-6.161728},{"station_name":"Rajawali","transit":false,"distance":1901,"is_transit":false,"station_id":"RJW","line":11,"i_long":106.836569,"time":5,"i_lat":-6.14505}],[{"is_transit":false,"station_name":"Sawah Besar","transit":false,"time":0,"station_id":"SW","line":2,"distance":0,"i_lat":-6.160725,"i_long":106.827103},{"transit":false,"distance":906,"is_transit":false,"time":2,"station_id":"MGB","i_long":106.82482,"line":2,"i_lat":-6.149769,"station_name":"Manggabesar"},{"i_long":106.820901,"station_name":"Jayakarta","is_transit":false,"station_id":"JAY","time":2,"distance":1080,"transit":false,"i_lat":-6.141205,"line":7},{"time":4,"line":0,"transit":true,"station_name":"Jakarta Kota","distance":1264,"i_lat":-6.137569,"i_long":106.812439,"is_transit":true,"station_id":"JAKK"},{"i_long":106.826365,"line":0,"is_transit":true,"transit":false,"station_name":"Kampung Bandan","distance":1364,"i_lat":-6.132549,"time":3,"station_id":"KPB"},{"distance":4102,"station_id":"AK","is_transit":false,"time":9,"i_lat":-6.144674,"station_name":"Angke","transit":false,"i_long":106.79867,"line":0},{"is_transit":true,"distance":1230,"station_id":"DU","transit":true,"line":1,"i_lat":-6.155215,"i_long":106.800832,"time":4,"station_name":"Duri"},{"station_name":"Tanah Abang","line":1,"transit":false,"station_id":"THB","i_lat":-6.185545,"distance":3632,"is_transit":true,"i_long":106.811091,"time":8},{"is_transit":false,"i_long":106.816351,"distance":2029,"line":1,"station_id":"KAT","transit":false,"i_lat":-6.20132,"time":5,"station_name":"Karet"},{"is_transit":false,"time":1,"station_id":"SUDB","i_lat":-6.201433,"station_name":"Sudirman Baru","i_long":106.819881,"distance":471,"transit":false,"line":1},{"i_long":106.822649,"i_lat":-6.202263,"transit":false,"station_name":"Sudirman","time":1,"is_transit":false,"distance":280,"line":1,"station_id":"SUD"},{"transit":false,"station_name":"Manggarai","i_lat":-6.209883,"is_transit":true,"time":4,"station_id":"MRI","i_long":106.84912,"line":0,"distance":3186},{"station_id":"MTR","time":2,"line":1,"is_transit":false,"i_long":106.858896,"transit":false,"i_lat":-6.212485,"distance":1275,"station_name":"Matraman"},{"station_name":"Jatinegara","time":8,"i_long":106.86807400000001,"is_transit":true,"i_lat":-6.215091,"transit":true,"line":0,"distance":1377,"station_id":"JNG"},{"i_long":106.861737,"time":2,"station_id":"POK","transit":false,"line":11,"i_lat":-6.209188,"is_transit":false,"distance":1236,"station_name":"Pondok Jati"},{"i_long":106.855437,"station_name":"Kramat","station_id":"KMT","transit":false,"time":2,"i_lat":-6.193792,"line":11,"distance":1829,"is_transit":false},{"is_transit":false,"station_name":"Gang Sentiong","transit":false,"line":11,"i_lat":-6.185975,"i_long":106.850107,"station_id":"GST","distance":973,"time":1},{"distance":1567,"station_id":"PSE","i_long":106.84368,"is_transit":false,"time":8,"station_name":"Pasar Senen","i_lat":-6.174784,"line":11,"transit":false},{"is_transit":false,"station_id":"KMO","time":4,"line":11,"i_lat":-6.161728,"transit":false,"i_long":106.839204,"station_name":"Kemayoran","distance":1436},{"distance":1901,"i_lat":-6.14505,"station_id":"RJW","time":5,"line":11,"is_transit":false,"transit":false,"station_name":"Rajawali","i_long":106.836569}]]}