{"data":[[{"transit":false,"time":0,"distance":0,"station_name":"Sawah Besar","i_lat":-6.160725,"line":2,"i_long":106.827103,"is_transit":false,"station_id":"SW"},{"station_id":"MGB","is_transit":false,"transit":false,"station_name":"Manggabesar","time":2,"line":2,"distance":906,"i_lat":-6.149769,"i_long":106.82482},{"line":2,"station_id":"JAY","distance":1080,"station_name":"Jayakarta","transit":false,"is_transit":false,"time":2,"i_lat":-6.141205,"i_long":106.820901},{"time":4,"station_id":"JAKK","is_transit":true,"transit":true,"i_lat":-6.137569,"line":2,"i_long":106.812439,"station_name":"Jakarta Kota","distance":1264},{"station_id":"KPB","distance":1364,"is_transit":true,"i_lat":-6.132549,"time":3,"i_long":106.826365,"transit":true,"line":4,"station_name":"Kampung Bandan"},{"i_lat":-6.144674,"transit":false,"distance":4102,"i_long":106.79867,"line":1,"is_transit":false,"station_id":"AK","station_name":"Angke","time":9},{"station_name":"Duri","transit":true,"i_long":106.800832,"line":1,"i_lat":-6.155215,"station_id":"DU","time":4,"distance":1230,"is_transit":true},{"transit":false,"distance":1700,"i_long":106.788277,"line":5,"is_transit":false,"station_name":"Grogol","station_id":"GGL","time":3,"i_lat":-6.162021},{"is_transit":false,"station_id":"PSG","transit":false,"station_name":"Pesing","distance":2036,"i_long":106.771379,"line":5,"time":2,"i_lat":-6.161433},{"transit":false,"line":5,"i_long":106.756522,"is_transit":false,"time":2,"distance":1614,"station_name":"Taman Kota","station_id":"TKO","i_lat":-6.1587309999999995},{"transit":false,"station_name":"Bojongindah","i_lat":-6.159876,"line":5,"station_id":"BOI","time":2,"distance":2334,"i_long":106.737035,"is_transit":false},{"station_name":"Rawa Buaya","is_transit":false,"i_long":106.723064,"i_lat":-6.162758,"distance":1152,"station_id":"RW","line":5,"time":4,"transit":false}],[{"time":0,"transit":false,"distance":0,"is_transit":false,"i_lat":-6.160725,"station_id":"SW","i_long":106.827103,"line":2,"station_name":"Sawah Besar"},{"station_id":"JUA","distance":1149,"time":2,"is_transit":false,"station_name":"Juanda","i_lat":-6.166716,"line":2,"i_long":106.828284,"transit":false},{"station_id":"GDD","time":4,"distance":2015,"line":2,"station_name":"Gondangdia","i_long":106.832183,"is_transit":false,"i_lat":-6.186295,"transit":false},{"distance":1750,"transit":false,"i_lat":-6.198556,"station_id":"CKI","i_long":106.840169,"line":2,"time":3,"station_name":"Cikini","is_transit":false},{"transit":true,"station_name":"Manggarai","i_long":106.84912,"line":2,"is_transit":true,"distance":1590,"i_lat":-6.209883,"station_id":"MRI","time":4},{"line":1,"station_id":"SUD","i_long":106.822649,"is_transit":false,"distance":3186,"i_lat":-6.202263,"transit":false,"time":4,"station_name":"Sudirman"},{"is_transit":false,"i_lat":-6.201433,"transit":false,"time":1,"distance":280,"station_id":"SUDB","line":1,"i_long":106.819881,"station_name":"Sudirman Baru"},{"is_transit":false,"distance":471,"line":1,"time":1,"station_id":"KAT","station_name":"Karet","i_long":106.816351,"i_lat":-6.20132,"transit":false},{"i_long":106.811091,"time":5,"station_name":"Tanah Abang","distance":2029,"is_transit":false,"i_lat":-6.185545,"line":1,"transit":false,"station_id":"THB"},{"distance":3632,"station_id":"DU","i_long":106.800832,"transit":true,"station_name":"Duri","is_transit":true,"line":1,"time":8,"i_lat":-6.155215},{"i_lat":-6.162021,"i_long":106.788277,"line":5,"transit":false,"station_id":"GGL","distance":1700,"is_transit":false,"station_name":"Grogol","time":3},{"transit":false,"distance":2036,"time":2,"station_name":"Pesing","i_lat":-6.161433,"i_long":106.771379,"line":5,"station_id":"PSG","is_transit":false},{"time":2,"distance":1614,"i_long":106.756522,"line":5,"station_id":"TKO","station_name":"Taman Kota","transit":false,"i_lat":-6.1587309999999995,"is_transit":false},{"line":5,"transit":false,"i_long":106.737035,"time":2,"station_id":"BOI","i_lat":-6.159876,"is_transit":false,"station_name":"Bojongindah","distance":2334},{"station_id":"RW","i_long":106.723064,"i_lat":-6.162758,"transit":false,"distance":1152,"is_transit":false,"line":5,"station_name":"Rawa Buaya","time":4}],[{"transit":false,"distance":0,"time":0,"is_transit":false,"i_lat":-6.160725,"station_id":"SW","station_name":"Sawah Besar","i_long":106.827103,"line":2},{"transit":false,"i_lat":-6.166716,"station_id":"JUA","time":2,"i_long":106.828284,"station_name":"Juanda","distance":1149,"is_transit":false,"line":2},{"line":2,"transit":false,"station_name":"Gondangdia","is_transit":false,"i_long":106.832183,"station_id":"GDD","time":4,"distance":2015,"i_lat":-6.186295},{"distance":1750,"station_id":"CKI","time":3,"i_lat":-6.198556,"transit":false,"station_name":"Cikini","line":2,"i_long":106.840169,"is_transit":false},{"distance":1590,"time":4,"station_id":"MRI","i_long":106.84912,"transit":true,"i_lat":-6.209883,"station_name":"Manggarai","line":2,"is_transit":true},{"is_transit":false,"i_lat":-6.212485,"line":1,"i_long":106.858896,"station_id":"MTR","time":2,"distance":1275,"transit":false,"station_name":"Matraman"},{"i_lat":-6.215091,"station_id":"JNG","time":8,"distance":1377,"is_transit":true,"station_name":"Jatinegara","line":1,"transit":true,"i_long":106.86807400000001},{"i_long":106.861737,"station_name":"Pondok Jati","station_id":"POK","is_transit":false,"time":2,"distance":1236,"transit":false,"i_lat":-6.209188,"line":11},{"is_transit":false,"line":11,"station_id":"KMT","i_long":106.855437,"i_lat":-6.193792,"distance":1829,"transit":false,"station_name":"Kramat","time":2},{"i_lat":-6.185975,"station_name":"Gang Sentiong","distance":973,"i_long":106.850107,"transit":false,"line":11,"time":1,"station_id":"GST","is_transit":false},{"transit":false,"line":11,"station_name":"Pasar Senen","is_transit":false,"station_id":"PSE","distance":1567,"i_lat":-6.174784,"i_long":106.84368,"time":8},{"distance":1436,"line":11,"time":4,"station_id":"KMO","i_lat":-6.161728,"is_transit":false,"station_name":"Kemayoran","i_long":106.839204,"transit":false},{"is_transit":false,"i_lat":-6.14505,"station_id":"RJW","time":5,"transit":false,"station_name":"Rajawali","i_long":106.836569,"distance":1901,"line":11},{"transit":true,"i_lat":-6.132549,"i_long":106.826365,"is_transit":true,"distance":1444,"line":4,"station_id":"KPB","station_name":"Kampung Bandan","time":3},{"station_id":"AK","i_long":106.79867,"is_transit":false,"time":9,"distance":4102,"i_lat":-6.144674,"line":1,"transit":false,"station_name":"Angke"},{"i_long":106.800832,"line":1,"transit":true,"distance":1230,"time":4,"station_name":"Duri","station_id":"DU","i_lat":-6.155215,"is_transit":true},{"station_name":"Grogol","distance":1700,"station_id":"GGL","transit":false,"is_transit":false,"i_long":106.788277,"i_lat":-6.162021,"time":3,"line":5},{"distance":2036,"transit":false,"time":2,"line":5,"station_id":"PSG","i_long":106.771379,"station_name":"Pesing","i_lat":-6.161433,"is_transit":false},{"line":5,"i_lat":-6.1587309999999995,"is_transit":false,"station_name":"Taman Kota","station_id":"TKO","i_long":106.756522,"distance":1614,"transit":false,"time":2},{"i_lat":-6.159876,"station_name":"Bojongindah","station_id":"BOI","i_long":106.737035,"transit":false,"is_transit":false,"time":2,"line":5,"distance":2334},{"station_id":"RW","time":4,"distance":1152,"i_long":106.723064,"transit":false,"i_lat":-6.162758,"is_transit":false,"line":5,"station_name":"Rawa Buaya"}],[{"i_long":106.827103,"i_lat":-6.160725,"station_name":"Sawah Besar","station_id":"SW","distance":0,"transit":false,"time":0,"is_transit":false,"line":2},{"time":2,"station_id":"MGB","transit":false,"distance":906,"line":2,"is_transit":false,"i_long":106.82482,"i_lat":-6.149769,"station_name":"Manggabesar"},{"i_lat":-6.141205,"transit":false,"station_name":"Jayakarta","i_long":106.820901,"time":2,"distance":1080,"station_id":"JAY","line":2,"is_transit":false},{"i_long":106.812439,"station_name":"Jakarta Kota","distance":1264,"i_lat":-6.137569,"station_id":"JAKK","transit":true,"is_transit":true,"line":2,"time":4},{"station_name":"Kampung Bandan","is_transit":true,"i_long":106.826365,"time":3,"distance":1364,"transit":true,"line":4,"station_id":"KPB","i_lat":-6.132549},{"distance":1444,"station_name":"Rajawali","i_long":106.836569,"station_id":"RJW","i_lat":-6.14505,"time":3,"transit":false,"line":11,"is_transit":false},{"line":11,"transit":false,"distance":1901,"station_id":"KMO","time":5,"i_lat":-6.161728,"is_transit":false,"station_name":"Kemayoran","i_long":106.839204},{"station_name":"Pasar Senen","time":4,"is_transit":false,"i_lat":-6.174784,"i_long":106.84368,"distance":1436,"station_id":"PSE","transit":false,"line":11},{"station_id":"GST","i_lat":-6.185975,"time":8,"i_long":106.850107,"transit":false,"is_transit":false,"line":11,"distance":1567,"station_name":"Gang Sentiong"},{"line":11,"is_transit":false,"station_id":"KMT","distance":973,"station_name":"Kramat","time":1,"transit":false,"i_lat":-6.193792,"i_long":106.855437},{"i_lat":-6.209188,"station_id":"POK","distance":1829,"is_transit":false,"time":2,"station_name":"Pondok Jati","line":11,"transit":false,"i_long":106.861737},{"station_name":"Jatinegara","i_lat":-6.215091,"i_long":106.86807400000001,"time":9,"line":1,"is_transit":true,"distance":1236,"transit":true,"station_id":"JNG"},{"distance":1377,"time":2,"i_lat":-6.212485,"station_name":"Matraman","is_transit":false,"line":1,"i_long":106.858896,"transit":false,"station_id":"MTR"},{"time":2,"station_name":"Manggarai","station_id":"MRI","distance":1275,"is_transit":false,"i_lat":-6.209883,"transit":false,"i_long":106.84912,"line":2},{"station_name":"Sudirman","time":4,"i_lat":-6.202263,"station_id":"SUD","distance":3186,"transit":false,"is_transit":false,"i_long":106.822649,"line":1},{"station_name":"Sudirman Baru","i_long":106.819881,"distance":280,"is_transit":false,"line":1,"station_id":"SUDB","i_lat":-6.201433,"time":1,"transit":false},{"transit":false,"i_lat":-6.20132,"line":1,"is_transit":false,"distance":471,"station_name":"Karet","time":1,"i_long":106.816351,"station_id":"KAT"},{"is_transit":false,"i_lat":-6.185545,"transit":false,"station_id":"THB","distance":2029,"time":5,"station_name":"Tanah Abang","i_long":106.811091,"line":1},{"i_lat":-6.155215,"line":1,"station_id":"DU","distance":3632,"time":8,"transit":true,"station_name":"Duri","is_transit":true,"i_long":106.800832},{"station_id":"GGL","distance":1700,"is_transit":false,"time":3,"i_lat":-6.162021,"i_long":106.788277,"station_name":"Grogol","transit":false,"line":5},{"i_long":106.771379,"line":5,"station_id":"PSG","is_transit":false,"station_name":"Pesing","distance":2036,"transit":false,"time":2,"i_lat":-6.161433},{"i_long":106.756522,"line":5,"distance":1614,"station_name":"Taman Kota","transit":false,"station_id":"TKO","time":2,"i_lat":-6.1587309999999995,"is_transit":false},{"transit":false,"station_name":"Bojongindah","distance":2334,"is_transit":false,"i_long":106.737035,"line":5,"station_id":"BOI","time":2,"i_lat":-6.159876},{"i_lat":-6.162758,"time":4,"station_name":"Rawa Buaya","distance":1152,"line":5,"transit":false,"station_id":"RW","is_transit":false,"i_long":106.723064}]]}