{"data":[[{"transit":false,"distance":0,"line":2,"station_id":"SW","time":0,"is_transit":false,"i_long":106.827103,"station_name":"Sawah Besar","i_lat":-6.160725},{"line":2,"transit":false,"station_id":"MGB","is_transit":false,"time":2,"distance":906,"i_lat":-6.149769,"i_long":106.82482,"station_name":"Manggabesar"},{"station_id":"JAY","i_lat":-6.141205,"distance":1080,"i_long":106.820901,"station_name":"Jayakarta","line":2,"transit":false,"is_transit":false,"time":2},{"line":2,"station_name":"Jakarta Kota","time":4,"i_lat":-6.137569,"is_transit":true,"i_long":106.812439,"transit":true,"distance":1264,"station_id":"JAKK"},{"time":3,"distance":1364,"station_name":"Kampung Bandan","transit":true,"station_id":"KPB","is_transit":true,"i_lat":-6.132549,"line":4,"i_long":106.826365},{"transit":false,"station_name":"Angke","i_long":106.79867,"time":9,"is_transit":false,"line":1,"distance":4102,"i_lat":-6.144674,"station_id":"AK"},{"is_transit":false,"time":4,"distance":1230,"transit":false,"station_id":"DU","i_lat":-6.155215,"i_long":106.800832,"station_name":"Duri","line":1},{"time":8,"station_name":"Tanah Abang","line":1,"distance":3632,"transit":true,"i_lat":-6.185545,"i_long":106.811091,"station_id":"THB","is_transit":true},{"transit":false,"is_transit":false,"station_id":"PLM","i_lat":-6.207404,"station_name":"Palmerah","time":6,"distance":3191,"i_long":106.79689,"line":6},{"station_id":"KBY","distance":3737,"station_name":"Kebayoran","is_transit":false,"i_lat":-6.237242,"i_long":106.780334,"transit":false,"line":6,"time":7},{"station_name":"Pondokranji","i_long":106.74273,"line":6,"is_transit":false,"distance":6218,"time":8,"transit":false,"station_id":"PDJ","i_lat":-6.276362},{"time":3,"transit":false,"station_id":"JMU","i_long":106.728916,"i_lat":-6.288927,"line":6,"station_name":"Jurangmangu","distance":2179,"is_transit":false},{"is_transit":false,"station_name":"Sudimara","i_lat":-6.296963,"i_long":106.712277,"station_id":"SDM","distance":1994,"transit":false,"line":6,"time":4}],[{"distance":0,"i_lat":-6.160725,"is_transit":false,"station_name":"Sawah Besar","line":2,"time":0,"station_id":"SW","i_long":106.827103,"transit":false},{"station_name":"Juanda","is_transit":false,"distance":1149,"transit":false,"i_lat":-6.166716,"i_long":106.828284,"station_id":"JUA","time":2,"line":2},{"time":4,"station_name":"Gondangdia","distance":2015,"i_lat":-6.186295,"transit":false,"station_id":"GDD","is_transit":false,"i_long":106.832183,"line":2},{"transit":false,"i_lat":-6.198556,"time":3,"i_long":106.840169,"distance":1750,"station_id":"CKI","is_transit":false,"line":2,"station_name":"Cikini"},{"transit":true,"station_id":"MRI","i_lat":-6.209883,"distance":1590,"time":4,"station_name":"Manggarai","i_long":106.84912,"line":2,"is_transit":true},{"is_transit":false,"line":1,"time":4,"i_long":106.822649,"i_lat":-6.202263,"distance":3186,"station_id":"SUD","station_name":"Sudirman","transit":false},{"i_lat":-6.201433,"station_name":"Sudirman Baru","distance":280,"station_id":"SUDB","time":1,"i_long":106.819881,"transit":false,"is_transit":false,"line":1},{"time":1,"is_transit":false,"station_id":"KAT","transit":false,"distance":471,"i_lat":-6.20132,"station_name":"Karet","i_long":106.816351,"line":1},{"station_name":"Tanah Abang","transit":true,"distance":2029,"i_lat":-6.185545,"line":1,"station_id":"THB","i_long":106.811091,"is_transit":true,"time":5},{"line":6,"time":6,"i_long":106.79689,"transit":false,"is_transit":false,"station_id":"PLM","distance":3191,"station_name":"Palmerah","i_lat":-6.207404},{"line":6,"transit":false,"station_id":"KBY","is_transit":false,"station_name":"Kebayoran","i_lat":-6.237242,"distance":3737,"i_long":106.780334,"time":7},{"line":6,"station_id":"PDJ","i_long":106.74273,"station_name":"Pondokranji","transit":false,"distance":6218,"i_lat":-6.276362,"is_transit":false,"time":8},{"station_name":"Jurangmangu","is_transit":false,"i_lat":-6.288927,"i_long":106.728916,"transit":false,"station_id":"JMU","distance":2179,"line":6,"time":3},{"distance":1994,"is_transit":false,"i_lat":-6.296963,"station_id":"SDM","i_long":106.712277,"line":6,"station_name":"Sudimara","transit":false,"time":4}],[{"station_id":"SW","time":0,"is_transit":false,"line":2,"i_lat":-6.160725,"i_long":106.827103,"station_name":"Sawah Besar","transit":false,"distance":0},{"transit":false,"station_name":"Juanda","line":2,"time":2,"is_transit":false,"i_long":106.828284,"station_id":"JUA","i_lat":-6.166716,"distance":1149},{"i_lat":-6.186295,"transit":false,"distance":2015,"i_long":106.832183,"station_id":"GDD","time":4,"line":2,"station_name":"Gondangdia","is_transit":false},{"station_name":"Cikini","station_id":"CKI","is_transit":false,"transit":false,"time":3,"distance":1750,"i_lat":-6.198556,"line":2,"i_long":106.840169},{"station_name":"Manggarai","i_lat":-6.209883,"i_long":106.84912,"is_transit":true,"line":2,"time":4,"station_id":"MRI","transit":true,"distance":1590},{"i_long":106.858896,"station_name":"Matraman","i_lat":-6.212485,"distance":1275,"is_transit":false,"time":2,"transit":false,"station_id":"MTR","line":1},{"i_lat":-6.215091,"distance":1377,"station_name":"Jatinegara","station_id":"JNG","time":8,"line":1,"is_transit":true,"transit":true,"i_long":106.86807400000001},{"transit":false,"is_transit":false,"line":11,"station_id":"POK","time":2,"distance":1236,"station_name":"Pondok Jati","i_lat":-6.209188,"i_long":106.861737},{"line":11,"station_id":"KMT","i_long":106.855437,"is_transit":false,"i_lat":-6.193792,"transit":false,"time":2,"distance":1829,"station_name":"Kramat"},{"i_lat":-6.185975,"is_transit":false,"distance":973,"transit":false,"i_long":106.850107,"line":11,"station_id":"GST","station_name":"Gang Sentiong","time":1},{"time":8,"distance":1567,"transit":false,"station_id":"PSE","i_lat":-6.174784,"i_long":106.84368,"line":11,"station_name":"Pasar Senen","is_transit":false},{"distance":1436,"i_long":106.839204,"transit":false,"station_id":"KMO","is_transit":false,"line":11,"time":4,"i_lat":-6.161728,"station_name":"Kemayoran"},{"is_transit":false,"transit":false,"distance":1901,"time":5,"i_long":106.836569,"station_name":"Rajawali","i_lat":-6.14505,"station_id":"RJW","line":11},{"station_name":"Kampung Bandan","is_transit":true,"transit":true,"station_id":"KPB","distance":1444,"time":3,"line":4,"i_long":106.826365,"i_lat":-6.132549},{"station_name":"Angke","time":9,"transit":false,"station_id":"AK","distance":4102,"i_lat":-6.144674,"is_transit":false,"i_long":106.79867,"line":1},{"is_transit":false,"i_lat":-6.155215,"time":4,"station_id":"DU","distance":1230,"transit":false,"line":1,"station_name":"Duri","i_long":106.800832},{"transit":true,"time":8,"i_lat":-6.185545,"line":1,"station_name":"Tanah Abang","station_id":"THB","i_long":106.811091,"is_transit":true,"distance":3632},{"line":6,"time":6,"i_lat":-6.207404,"distance":3191,"station_id":"PLM","transit":false,"i_long":106.79689,"is_transit":false,"station_name":"Palmerah"},{"distance":3737,"i_long":106.780334,"station_name":"Kebayoran","station_id":"KBY","i_lat":-6.237242,"transit":false,"line":6,"is_transit":false,"time":7},{"is_transit":false,"line":6,"distance":6218,"station_id":"PDJ","time":8,"transit":false,"i_lat":-6.276362,"i_long":106.74273,"station_name":"Pondokranji"},{"i_long":106.728916,"is_transit":false,"time":3,"station_name":"Jurangmangu","station_id":"JMU","transit":false,"distance":2179,"i_lat":-6.288927,"line":6},{"line":6,"is_transit":false,"time":4,"i_lat":-6.296963,"i_long":106.712277,"transit":false,"station_id":"SDM","distance":1994,"station_name":"Sudimara"}],[{"line":2,"i_long":106.827103,"time":0,"distance":0,"station_id":"SW","is_transit":false,"transit":false,"station_name":"Sawah Besar","i_lat":-6.160725},{"station_id":"MGB","time":2,"station_name":"Manggabesar","transit":false,"distance":906,"is_transit":false,"i_lat":-6.149769,"i_long":106.82482,"line":2},{"distance":1080,"is_transit":false,"line":2,"station_name":"Jayakarta","i_long":106.820901,"transit":false,"time":2,"station_id":"JAY","i_lat":-6.141205},{"line":2,"transit":true,"station_name":"Jakarta Kota","station_id":"JAKK","is_transit":true,"distance":1264,"time":4,"i_long":106.812439,"i_lat":-6.137569},{"line":4,"is_transit":true,"distance":1364,"station_name":"Kampung Bandan","i_long":106.826365,"station_id":"KPB","i_lat":-6.132549,"transit":true,"time":3},{"station_id":"RJW","time":3,"i_lat":-6.14505,"i_long":106.836569,"line":11,"is_transit":false,"distance":1444,"station_name":"Rajawali","transit":false},{"time":5,"line":11,"station_name":"Kemayoran","station_id":"KMO","is_transit":false,"distance":1901,"i_long":106.839204,"i_lat":-6.161728,"transit":false},{"transit":false,"time":4,"distance":1436,"i_long":106.84368,"i_lat":-6.174784,"station_id":"PSE","line":11,"station_name":"Pasar Senen","is_transit":false},{"transit":false,"i_lat":-6.185975,"station_id":"GST","i_long":106.850107,"station_name":"Gang Sentiong","time":8,"distance":1567,"line":11,"is_transit":false},{"time":1,"i_lat":-6.193792,"line":11,"is_transit":false,"station_name":"Kramat","distance":973,"i_long":106.855437,"transit":false,"station_id":"KMT"},{"is_transit":false,"transit":false,"time":2,"station_id":"POK","i_lat":-6.209188,"station_name":"Pondok Jati","distance":1829,"i_long":106.861737,"line":11},{"distance":1236,"i_lat":-6.215091,"transit":true,"i_long":106.86807400000001,"time":9,"is_transit":true,"station_name":"Jatinegara","line":1,"station_id":"JNG"},{"time":2,"station_name":"Matraman","distance":1377,"i_lat":-6.212485,"station_id":"MTR","is_transit":false,"i_long":106.858896,"line":1,"transit":false},{"transit":false,"line":2,"distance":1275,"time":2,"is_transit":false,"station_name":"Manggarai","station_id":"MRI","i_lat":-6.209883,"i_long":106.84912},{"is_transit":false,"line":1,"time":4,"station_id":"SUD","transit":false,"i_lat":-6.202263,"i_long":106.822649,"station_name":"Sudirman","distance":3186},{"line":1,"time":1,"station_name":"Sudirman Baru","station_id":"SUDB","distance":280,"transit":false,"is_transit":false,"i_lat":-6.201433,"i_long":106.819881},{"is_transit":false,"station_id":"KAT","transit":false,"time":1,"line":1,"distance":471,"i_long":106.816351,"station_name":"Karet","i_lat":-6.20132},{"transit":true,"is_transit":true,"line":1,"station_id":"THB","i_lat":-6.185545,"i_long":106.811091,"station_name":"Tanah Abang","distance":2029,"time":5},{"i_long":106.79689,"line":6,"i_lat":-6.207404,"distance":3191,"transit":false,"station_name":"Palmerah","station_id":"PLM","is_transit":false,"time":6},{"transit":false,"distance":3737,"time":7,"station_name":"Kebayoran","i_lat":-6.237242,"i_long":106.780334,"line":6,"station_id":"KBY","is_transit":false},{"station_name":"Pondokranji","time":8,"line":6,"i_long":106.74273,"station_id":"PDJ","i_lat":-6.276362,"is_transit":false,"distance":6218,"transit":false},{"distance":2179,"transit":false,"is_transit":false,"time":3,"station_name":"Jurangmangu","station_id":"JMU","line":6,"i_long":106.728916,"i_lat":-6.288927},{"transit":false,"line":6,"distance":1994,"i_long":106.712277,"station_id":"SDM","time":4,"is_transit":false,"station_name":"Sudimara","i_lat":-6.296963}]]}