{"data":[[{"station_id":"SW","line":2,"transit":false,"is_transit":false,"distance":0,"station_name":"Sawah Besar","i_long":106.827103,"time":0,"i_lat":-6.160725},{"is_transit":false,"station_name":"Manggabesar","station_id":"MGB","i_long":106.82482,"line":2,"transit":false,"distance":906,"time":2,"i_lat":-6.149769},{"is_transit":false,"line":7,"transit":false,"i_long":106.820901,"distance":1080,"i_lat":-6.141205,"station_name":"Jayakarta","time":2,"station_id":"JAY"},{"line":0,"station_name":"Jakarta Kota","transit":true,"distance":1264,"i_long":106.812439,"is_transit":true,"station_id":"JAKK","time":4,"i_lat":-6.137569},{"distance":1364,"i_lat":-6.132549,"station_id":"KPB","line":0,"i_long":106.826365,"is_transit":true,"transit":false,"station_name":"Kampung Bandan","time":3},{"station_id":"AK","i_long":106.79867,"time":9,"transit":false,"is_transit":false,"station_name":"Angke","line":0,"distance":4102,"i_lat":-6.144674},{"i_long":106.800832,"station_name":"Duri","i_lat":-6.155215,"line":1,"station_id":"DU","transit":true,"distance":1230,"is_transit":true,"time":4},{"distance":3632,"is_transit":true,"i_lat":-6.185545,"transit":true,"line":1,"time":8,"station_name":"Tanah Abang","station_id":"THB","i_long":106.811091},{"time":6,"station_id":"PLM","i_lat":-6.207404,"distance":3191,"transit":false,"is_transit":false,"station_name":"Palmerah","i_long":106.79689,"line":6},{"i_long":106.780334,"distance":3737,"station_id":"KBY","i_lat":-6.237242,"is_transit":false,"station_name":"Kebayoran","line":6,"transit":false,"time":7},{"distance":6218,"i_lat":-6.276362,"line":6,"station_name":"Pondokranji","i_long":106.74273,"station_id":"PDJ","time":8,"transit":false,"is_transit":false},{"distance":2179,"transit":false,"station_id":"JMU","i_lat":-6.288927,"station_name":"Jurangmangu","time":3,"is_transit":false,"i_long":106.728916,"line":6},{"i_lat":-6.296963,"i_long":106.712277,"distance":1994,"transit":false,"is_transit":false,"line":6,"station_id":"SDM","station_name":"Sudimara","time":4},{"station_id":"RU","i_long":106.675475,"line":6,"is_transit":false,"station_name":"Rawa Buntu","time":6,"distance":4566,"transit":false,"i_lat":-6.314823},{"transit":false,"is_transit":false,"distance":2413,"i_lat":-6.319871,"line":6,"time":4,"i_long":106.66566,"station_id":"SRP","station_name":"Serpong"}],[{"i_long":106.827103,"time":0,"line":2,"station_id":"SW","is_transit":false,"transit":false,"i_lat":-6.160725,"station_name":"Sawah Besar","distance":0},{"i_long":106.828284,"line":2,"station_id":"JUA","distance":1149,"station_name":"Juanda","transit":false,"i_lat":-6.166716,"time":2,"is_transit":false},{"station_id":"GDD","distance":2015,"station_name":"Gondangdia","time":4,"i_long":106.832183,"is_transit":false,"transit":false,"i_lat":-6.186295,"line":2},{"line":0,"station_name":"Cikini","transit":false,"time":3,"distance":1750,"is_transit":false,"i_lat":-6.198556,"i_long":106.840169,"station_id":"CKI"},{"time":4,"distance":1590,"transit":true,"line":0,"i_long":106.84912,"is_transit":true,"station_id":"MRI","station_name":"Manggarai","i_lat":-6.209883},{"distance":3186,"station_name":"Sudirman","time":4,"transit":false,"i_lat":-6.202263,"station_id":"SUD","i_long":106.822649,"is_transit":false,"line":1},{"distance":280,"time":1,"line":1,"station_id":"SUDB","is_transit":false,"station_name":"Sudirman Baru","transit":false,"i_lat":-6.201433,"i_long":106.819881},{"i_long":106.816351,"station_name":"Karet","is_transit":false,"station_id":"KAT","line":1,"time":1,"i_lat":-6.20132,"transit":false,"distance":471},{"station_id":"THB","is_transit":true,"distance":2029,"i_lat":-6.185545,"station_name":"Tanah Abang","transit":true,"i_long":106.811091,"line":1,"time":5},{"is_transit":false,"i_lat":-6.207404,"transit":false,"station_id":"PLM","station_name":"Palmerah","i_long":106.79689,"time":6,"distance":3191,"line":6},{"line":6,"distance":3737,"station_name":"Kebayoran","transit":false,"i_long":106.780334,"time":7,"i_lat":-6.237242,"station_id":"KBY","is_transit":false},{"station_id":"PDJ","is_transit":false,"transit":false,"time":8,"distance":6218,"station_name":"Pondokranji","i_lat":-6.276362,"i_long":106.74273,"line":6},{"i_long":106.728916,"is_transit":false,"i_lat":-6.288927,"time":3,"distance":2179,"station_name":"Jurangmangu","station_id":"JMU","line":6,"transit":false},{"is_transit":false,"i_lat":-6.296963,"distance":1994,"station_id":"SDM","transit":false,"line":6,"time":4,"i_long":106.712277,"station_name":"Sudimara"},{"transit":false,"time":6,"distance":4566,"station_name":"Rawa Buntu","i_lat":-6.314823,"is_transit":false,"station_id":"RU","i_long":106.675475,"line":6},{"is_transit":false,"time":4,"i_lat":-6.319871,"distance":2413,"transit":false,"station_name":"Serpong","line":6,"station_id":"SRP","i_long":106.66566}],[{"i_long":106.827103,"line":2,"transit":false,"distance":0,"i_lat":-6.160725,"is_transit":false,"station_name":"Sawah Besar","time":0,"station_id":"SW"},{"station_id":"JUA","distance":1149,"i_long":106.828284,"transit":false,"is_transit":false,"time":2,"i_lat":-6.166716,"station_name":"Juanda","line":2},{"distance":2015,"station_id":"GDD","station_name":"Gondangdia","line":2,"transit":false,"time":4,"i_lat":-6.186295,"i_long":106.832183,"is_transit":false},{"station_id":"CKI","station_name":"Cikini","distance":1750,"is_transit":false,"transit":false,"time":3,"line":0,"i_long":106.840169,"i_lat":-6.198556},{"i_lat":-6.209883,"line":0,"i_long":106.84912,"distance":1590,"station_id":"MRI","is_transit":true,"station_name":"Manggarai","time":4,"transit":true},{"i_lat":-6.212485,"line":1,"transit":false,"station_id":"MTR","distance":1275,"is_transit":false,"station_name":"Matraman","i_long":106.858896,"time":2},{"i_long":106.86807400000001,"transit":true,"station_name":"Jatinegara","distance":1377,"line":0,"time":8,"i_lat":-6.215091,"station_id":"JNG","is_transit":true},{"station_name":"Pondok Jati","line":11,"time":2,"station_id":"POK","distance":1236,"is_transit":false,"transit":false,"i_lat":-6.209188,"i_long":106.861737},{"time":2,"station_name":"Kramat","distance":1829,"is_transit":false,"i_lat":-6.193792,"station_id":"KMT","transit":false,"line":11,"i_long":106.855437},{"station_name":"Gang Sentiong","station_id":"GST","i_long":106.850107,"time":1,"transit":false,"is_transit":false,"i_lat":-6.185975,"distance":973,"line":11},{"transit":false,"station_name":"Pasar Senen","distance":1567,"time":8,"is_transit":false,"station_id":"PSE","i_lat":-6.174784,"i_long":106.84368,"line":11},{"time":4,"line":11,"transit":false,"is_transit":false,"i_lat":-6.161728,"i_long":106.839204,"station_id":"KMO","station_name":"Kemayoran","distance":1436},{"line":11,"is_transit":false,"i_long":106.836569,"transit":false,"distance":1901,"station_name":"Rajawali","station_id":"RJW","time":5,"i_lat":-6.14505},{"distance":1444,"is_transit":true,"time":3,"station_id":"KPB","station_name":"Kampung Bandan","i_lat":-6.132549,"i_long":106.826365,"transit":true,"line":0},{"i_long":106.79867,"i_lat":-6.144674,"transit":false,"line":0,"time":9,"station_id":"AK","distance":4102,"is_transit":false,"station_name":"Angke"},{"time":4,"is_transit":true,"station_id":"DU","distance":1230,"i_lat":-6.155215,"transit":true,"i_long":106.800832,"line":1,"station_name":"Duri"},{"line":1,"station_name":"Tanah Abang","transit":true,"i_lat":-6.185545,"distance":3632,"time":8,"station_id":"THB","i_long":106.811091,"is_transit":true},{"station_id":"PLM","transit":false,"i_lat":-6.207404,"station_name":"Palmerah","i_long":106.79689,"line":6,"is_transit":false,"distance":3191,"time":6},{"is_transit":false,"time":7,"station_id":"KBY","transit":false,"line":6,"i_long":106.780334,"distance":3737,"i_lat":-6.237242,"station_name":"Kebayoran"},{"distance":6218,"station_id":"PDJ","time":8,"i_lat":-6.276362,"station_name":"Pondokranji","line":6,"transit":false,"i_long":106.74273,"is_transit":false},{"station_id":"JMU","i_lat":-6.288927,"time":3,"line":6,"transit":false,"distance":2179,"station_name":"Jurangmangu","i_long":106.728916,"is_transit":false},{"station_id":"SDM","is_transit":false,"transit":false,"i_lat":-6.296963,"station_name":"Sudimara","distance":1994,"i_long":106.712277,"line":6,"time":4},{"i_long":106.675475,"is_transit":false,"time":6,"transit":false,"i_lat":-6.314823,"station_name":"Rawa Buntu","station_id":"RU","line":6,"distance":4566},{"i_lat":-6.319871,"is_transit":false,"line":6,"station_id":"SRP","station_name":"Serpong","transit":false,"distance":2413,"i_long":106.66566,"time":4}],[{"line":2,"time":0,"i_lat":-6.160725,"station_id":"SW","distance":0,"is_transit":false,"station_name":"Sawah Besar","i_long":106.827103,"transit":false},{"distance":906,"time":2,"is_transit":false,"i_long":106.82482,"line":2,"station_id":"MGB","transit":false,"i_lat":-6.149769,"station_name":"Manggabesar"},{"i_lat":-6.141205,"i_long":106.820901,"time":2,"line":7,"station_name":"Jayakarta","is_transit":false,"station_id":"JAY","transit":false,"distance":1080},{"distance":1264,"line":0,"station_id":"JAKK","time":4,"i_lat":-6.137569,"is_transit":true,"transit":true,"i_long":106.812439,"station_name":"Jakarta Kota"},{"line":0,"i_long":106.826365,"i_lat":-6.132549,"station_id":"KPB","distance":1364,"transit":true,"time":3,"station_name":"Kampung Bandan","is_transit":true},{"station_name":"Rajawali","transit":false,"distance":1444,"is_transit":false,"station_id":"RJW","time":3,"line":11,"i_long":106.836569,"i_lat":-6.14505},{"time":5,"station_id":"KMO","is_transit":false,"i_long":106.839204,"line":11,"transit":false,"distance":1901,"station_name":"Kemayoran","i_lat":-6.161728},{"distance":1436,"i_lat":-6.174784,"is_transit":false,"line":11,"i_long":106.84368,"transit":false,"time":4,"station_id":"PSE","station_name":"Pasar Senen"},{"distance":1567,"i_lat":-6.185975,"transit":false,"i_long":106.850107,"station_name":"Gang Sentiong","line":11,"time":8,"station_id":"GST","is_transit":false},{"i_lat":-6.193792,"station_name":"Kramat","transit":false,"station_id":"KMT","is_transit":false,"time":1,"i_long":106.855437,"line":11,"distance":973},{"station_id":"POK","transit":false,"line":11,"i_lat":-6.209188,"i_long":106.861737,"station_name":"Pondok Jati","time":2,"is_transit":false,"distance":1829},{"line":0,"transit":true,"station_name":"Jatinegara","time":9,"distance":1236,"station_id":"JNG","i_lat":-6.215091,"i_long":106.86807400000001,"is_transit":true},{"line":1,"distance":1377,"is_transit":false,"station_id":"MTR","station_name":"Matraman","transit":false,"time":2,"i_lat":-6.212485,"i_long":106.858896},{"station_name":"Manggarai","line":0,"station_id":"MRI","transit":false,"is_transit":true,"i_lat":-6.209883,"distance":1275,"i_long":106.84912,"time":2},{"station_id":"SUD","transit":false,"station_name":"Sudirman","i_long":106.822649,"is_transit":false,"line":1,"i_lat":-6.202263,"distance":3186,"time":4},{"time":1,"i_lat":-6.201433,"line":1,"i_long":106.819881,"station_id":"SUDB","station_name":"Sudirman Baru","is_transit":false,"distance":280,"transit":false},{"transit":false,"time":1,"distance":471,"station_id":"KAT","station_name":"Karet","i_lat":-6.20132,"is_transit":false,"i_long":106.816351,"line":1},{"time":5,"i_lat":-6.185545,"line":1,"transit":true,"is_transit":true,"station_id":"THB","i_long":106.811091,"distance":2029,"station_name":"Tanah Abang"},{"transit":false,"line":6,"is_transit":false,"station_id":"PLM","i_long":106.79689,"time":6,"distance":3191,"station_name":"Palmerah","i_lat":-6.207404},{"i_lat":-6.237242,"transit":false,"station_name":"Kebayoran","distance":3737,"station_id":"KBY","i_long":106.780334,"line":6,"is_transit":false,"time":7},{"time":8,"is_transit":false,"station_id":"PDJ","i_lat":-6.276362,"line":6,"i_long":106.74273,"station_name":"Pondokranji","distance":6218,"transit":false},{"distance":2179,"is_transit":false,"station_id":"JMU","transit":false,"station_name":"Jurangmangu","time":3,"i_lat":-6.288927,"i_long":106.728916,"line":6},{"station_id":"SDM","i_lat":-6.296963,"time":4,"i_long":106.712277,"line":6,"is_transit":false,"station_name":"Sudimara","transit":false,"distance":1994},{"i_lat":-6.314823,"line":6,"transit":false,"is_transit":false,"time":6,"station_name":"Rawa Buntu","distance":4566,"i_long":106.675475,"station_id":"RU"},{"i_long":106.66566,"line":6,"station_id":"SRP","time":4,"distance":2413,"station_name":"Serpong","transit":false,"i_lat":-6.319871,"is_transit":false}]]}