{"data":[[{"is_transit":false,"station_id":"SW","line":2,"i_lat":-6.160725,"time":0,"station_name":"Sawah Besar","transit":false,"distance":0,"i_long":106.827103},{"line":2,"station_id":"JUA","station_name":"Juanda","transit":false,"distance":1149,"is_transit":false,"i_lat":-6.166716,"i_long":106.828284,"time":2},{"i_long":106.832183,"station_id":"GDD","line":2,"time":4,"transit":false,"i_lat":-6.186295,"station_name":"Gondangdia","distance":2015,"is_transit":false},{"station_name":"Cikini","i_long":106.840169,"time":3,"i_lat":-6.198556,"is_transit":false,"transit":false,"distance":1750,"station_id":"CKI","line":2},{"station_id":"MRI","time":4,"i_lat":-6.209883,"transit":true,"distance":1590,"is_transit":true,"i_long":106.84912,"line":2,"station_name":"Manggarai"},{"i_long":106.822649,"line":1,"transit":false,"distance":3186,"is_transit":false,"time":4,"i_lat":-6.202263,"station_id":"SUD","station_name":"Sudirman"},{"time":1,"i_long":106.819881,"station_name":"Sudirman Baru","i_lat":-6.201433,"line":1,"station_id":"SUDB","is_transit":false,"distance":280,"transit":false}],[{"time":0,"transit":false,"is_transit":false,"i_long":106.827103,"station_id":"SW","line":2,"i_lat":-6.160725,"distance":0,"station_name":"Sawah Besar"},{"transit":false,"station_name":"Manggabesar","time":2,"i_lat":-6.149769,"station_id":"MGB","i_long":106.82482,"is_transit":false,"distance":906,"line":2},{"distance":1080,"time":2,"station_name":"Jayakarta","is_transit":false,"station_id":"JAY","line":2,"i_lat":-6.141205,"i_long":106.820901,"transit":false},{"transit":true,"distance":1264,"station_name":"Jakarta Kota","i_lat":-6.137569,"i_long":106.812439,"is_transit":true,"time":4,"station_id":"JAKK","line":2},{"i_lat":-6.132549,"transit":true,"station_id":"KPB","distance":1364,"station_name":"Kampung Bandan","time":3,"i_long":106.826365,"line":4,"is_transit":true},{"line":1,"is_transit":false,"i_long":106.79867,"transit":false,"time":9,"distance":4102,"i_lat":-6.144674,"station_name":"Angke","station_id":"AK"},{"is_transit":false,"time":4,"station_name":"Duri","i_long":106.800832,"line":1,"transit":false,"distance":1230,"i_lat":-6.155215,"station_id":"DU"},{"time":8,"i_long":106.811091,"is_transit":false,"line":1,"i_lat":-6.185545,"transit":false,"station_id":"THB","distance":3632,"station_name":"Tanah Abang"},{"transit":false,"is_transit":false,"distance":2029,"i_long":106.816351,"time":5,"station_name":"Karet","station_id":"KAT","i_lat":-6.20132,"line":1},{"i_long":106.819881,"distance":471,"transit":false,"station_id":"SUDB","i_lat":-6.201433,"station_name":"Sudirman Baru","time":1,"line":1,"is_transit":false}],[{"is_transit":false,"i_long":106.827103,"transit":false,"time":0,"station_name":"Sawah Besar","distance":0,"i_lat":-6.160725,"station_id":"SW","line":2},{"is_transit":false,"time":2,"station_id":"MGB","distance":906,"transit":false,"station_name":"Manggabesar","i_lat":-6.149769,"line":2,"i_long":106.82482},{"station_id":"JAY","distance":1080,"i_long":106.820901,"line":2,"i_lat":-6.141205,"time":2,"is_transit":false,"transit":false,"station_name":"Jayakarta"},{"station_id":"JAKK","i_lat":-6.137569,"i_long":106.812439,"line":2,"transit":true,"is_transit":true,"station_name":"Jakarta Kota","time":4,"distance":1264},{"station_id":"KPB","transit":true,"time":3,"distance":1364,"i_lat":-6.132549,"station_name":"Kampung Bandan","line":4,"is_transit":true,"i_long":106.826365},{"i_lat":-6.14505,"transit":false,"line":11,"distance":1444,"is_transit":false,"time":3,"station_id":"RJW","i_long":106.836569,"station_name":"Rajawali"},{"line":11,"station_id":"KMO","distance":1901,"station_name":"Kemayoran","i_long":106.839204,"time":5,"i_lat":-6.161728,"transit":false,"is_transit":false},{"i_lat":-6.174784,"transit":false,"station_id":"PSE","distance":1436,"time":4,"line":11,"is_transit":false,"station_name":"Pasar Senen","i_long":106.84368},{"is_transit":false,"station_id":"GST","i_lat":-6.185975,"transit":false,"line":11,"i_long":106.850107,"time":8,"distance":1567,"station_name":"Gang Sentiong"},{"station_name":"Kramat","time":1,"station_id":"KMT","distance":973,"is_transit":false,"i_lat":-6.193792,"i_long":106.855437,"line":11,"transit":false},{"i_lat":-6.209188,"line":11,"time":2,"transit":false,"distance":1829,"station_name":"Pondok Jati","station_id":"POK","is_transit":false,"i_long":106.861737},{"time":9,"distance":1236,"transit":true,"i_lat":-6.215091,"line":1,"station_id":"JNG","i_long":106.86807400000001,"is_transit":true,"station_name":"Jatinegara"},{"distance":1377,"transit":false,"i_lat":-6.212485,"station_name":"Matraman","station_id":"MTR","i_long":106.858896,"is_transit":false,"time":2,"line":1},{"station_name":"Manggarai","station_id":"MRI","i_lat":-6.209883,"transit":false,"is_transit":false,"time":2,"distance":1275,"i_long":106.84912,"line":2},{"distance":3186,"i_lat":-6.202263,"station_name":"Sudirman","time":4,"station_id":"SUD","i_long":106.822649,"transit":false,"line":1,"is_transit":false},{"station_id":"SUDB","distance":280,"i_lat":-6.201433,"i_long":106.819881,"time":1,"is_transit":false,"transit":false,"station_name":"Sudirman Baru","line":1}],[{"distance":0,"i_long":106.827103,"line":2,"time":0,"transit":false,"is_transit":false,"station_id":"SW","station_name":"Sawah Besar","i_lat":-6.160725},{"transit":false,"is_transit":false,"i_lat":-6.166716,"station_name":"Juanda","i_long":106.828284,"station_id":"JUA","distance":1149,"line":2,"time":2},{"station_id":"GDD","is_transit":false,"time":4,"distance":2015,"station_name":"Gondangdia","transit":false,"i_lat":-6.186295,"i_long":106.832183,"line":2},{"station_id":"CKI","i_long":106.840169,"i_lat":-6.198556,"station_name":"Cikini","distance":1750,"transit":false,"line":2,"is_transit":false,"time":3},{"transit":true,"station_name":"Manggarai","distance":1590,"is_transit":true,"i_lat":-6.209883,"line":2,"i_long":106.84912,"station_id":"MRI","time":4},{"station_id":"MTR","is_transit":false,"i_lat":-6.212485,"distance":1275,"i_long":106.858896,"transit":false,"station_name":"Matraman","time":2,"line":1},{"distance":1377,"i_lat":-6.215091,"line":1,"i_long":106.86807400000001,"station_name":"Jatinegara","station_id":"JNG","is_transit":true,"transit":true,"time":8},{"transit":false,"time":2,"station_name":"Pondok Jati","i_long":106.861737,"is_transit":false,"station_id":"POK","distance":1236,"i_lat":-6.209188,"line":11},{"transit":false,"station_name":"Kramat","station_id":"KMT","distance":1829,"time":2,"i_lat":-6.193792,"line":11,"i_long":106.855437,"is_transit":false},{"is_transit":false,"transit":false,"time":1,"i_lat":-6.185975,"station_name":"Gang Sentiong","station_id":"GST","distance":973,"line":11,"i_long":106.850107},{"distance":1567,"station_name":"Pasar Senen","i_lat":-6.174784,"i_long":106.84368,"transit":false,"station_id":"PSE","is_transit":false,"time":8,"line":11},{"i_long":106.839204,"distance":1436,"is_transit":false,"station_name":"Kemayoran","transit":false,"station_id":"KMO","time":4,"i_lat":-6.161728,"line":11},{"time":5,"line":11,"station_name":"Rajawali","distance":1901,"i_long":106.836569,"station_id":"RJW","transit":false,"i_lat":-6.14505,"is_transit":false},{"transit":true,"i_lat":-6.132549,"i_long":106.826365,"station_id":"KPB","distance":1444,"time":3,"is_transit":true,"station_name":"Kampung Bandan","line":4},{"transit":false,"time":9,"i_long":106.79867,"station_id":"AK","is_transit":false,"i_lat":-6.144674,"line":1,"distance":4102,"station_name":"Angke"},{"station_id":"DU","is_transit":false,"station_name":"Duri","time":4,"i_lat":-6.155215,"i_long":106.800832,"line":1,"transit":false,"distance":1230},{"station_id":"THB","time":8,"is_transit":false,"line":1,"i_long":106.811091,"station_name":"Tanah Abang","distance":3632,"transit":false,"i_lat":-6.185545},{"station_id":"KAT","i_lat":-6.20132,"transit":false,"time":5,"distance":2029,"is_transit":false,"i_long":106.816351,"station_name":"Karet","line":1},{"station_name":"Sudirman Baru","is_transit":false,"station_id":"SUDB","i_long":106.819881,"transit":false,"distance":471,"i_lat":-6.201433,"time":1,"line":1}]]}