{"data":[[{"station_name":"Sawah Besar","i_lat":-6.160725,"time":0,"line":2,"is_transit":false,"distance":0,"i_long":106.827103,"station_id":"SW","transit":false},{"i_lat":-6.166716,"transit":false,"is_transit":false,"i_long":106.828284,"time":2,"distance":1149,"station_id":"JUA","station_name":"Juanda","line":2},{"i_lat":-6.186295,"distance":2015,"transit":false,"time":4,"is_transit":false,"station_name":"Gondangdia","station_id":"GDD","line":2,"i_long":106.832183},{"i_lat":-6.198556,"is_transit":false,"i_long":106.840169,"line":2,"time":3,"station_name":"Cikini","distance":1750,"transit":false,"station_id":"CKI"},{"line":2,"i_long":106.84912,"time":4,"station_id":"MRI","station_name":"Manggarai","is_transit":true,"distance":1590,"i_lat":-6.209883,"transit":true},{"i_lat":-6.202263,"time":4,"transit":false,"line":1,"i_long":106.822649,"station_id":"SUD","is_transit":false,"station_name":"Sudirman","distance":3186},{"is_transit":false,"i_long":106.819881,"time":1,"distance":280,"transit":false,"station_id":"SUDB","station_name":"Sudirman Baru","line":1,"i_lat":-6.201433}],[{"station_id":"SW","transit":false,"line":2,"time":0,"station_name":"Sawah Besar","is_transit":false,"i_lat":-6.160725,"distance":0,"i_long":106.827103},{"station_id":"MGB","is_transit":false,"line":2,"i_long":106.82482,"station_name":"Manggabesar","distance":906,"transit":false,"i_lat":-6.149769,"time":2},{"i_lat":-6.141205,"i_long":106.820901,"station_id":"JAY","transit":false,"station_name":"Jayakarta","distance":1080,"is_transit":false,"time":2,"line":2},{"i_lat":-6.137569,"station_id":"JAKK","time":4,"is_transit":true,"transit":true,"i_long":106.812439,"distance":1264,"line":2,"station_name":"Jakarta Kota"},{"transit":true,"distance":1364,"station_id":"KPB","i_lat":-6.132549,"time":3,"i_long":106.826365,"station_name":"Kampung Bandan","is_transit":true,"line":4},{"distance":4102,"i_long":106.79867,"station_id":"AK","time":9,"station_name":"Angke","transit":false,"i_lat":-6.144674,"line":1,"is_transit":false},{"station_name":"Duri","transit":false,"i_lat":-6.155215,"i_long":106.800832,"line":1,"distance":1230,"time":4,"station_id":"DU","is_transit":false},{"distance":3632,"time":8,"i_lat":-6.185545,"station_name":"Tanah Abang","is_transit":false,"i_long":106.811091,"station_id":"THB","line":1,"transit":false},{"time":5,"station_name":"Karet","line":1,"is_transit":false,"transit":false,"i_lat":-6.20132,"i_long":106.816351,"distance":2029,"station_id":"KAT"},{"station_id":"SUDB","distance":471,"i_lat":-6.201433,"transit":false,"station_name":"Sudirman Baru","i_long":106.819881,"line":1,"is_transit":false,"time":1}],[{"time":0,"is_transit":false,"station_id":"SW","i_long":106.827103,"station_name":"Sawah Besar","transit":false,"line":2,"distance":0,"i_lat":-6.160725},{"line":2,"time":2,"is_transit":false,"transit":false,"i_lat":-6.149769,"station_name":"Manggabesar","station_id":"MGB","distance":906,"i_long":106.82482},{"distance":1080,"is_transit":false,"time":2,"i_long":106.820901,"i_lat":-6.141205,"line":2,"station_id":"JAY","station_name":"Jayakarta","transit":false},{"station_name":"Jakarta Kota","is_transit":true,"transit":true,"i_lat":-6.137569,"time":4,"line":2,"i_long":106.812439,"station_id":"JAKK","distance":1264},{"station_name":"Kampung Bandan","i_long":106.826365,"is_transit":true,"transit":true,"distance":1364,"line":4,"i_lat":-6.132549,"time":3,"station_id":"KPB"},{"i_long":106.836569,"line":11,"transit":false,"is_transit":false,"distance":1444,"i_lat":-6.14505,"time":3,"station_id":"RJW","station_name":"Rajawali"},{"i_lat":-6.161728,"transit":false,"line":11,"time":5,"i_long":106.839204,"station_id":"KMO","station_name":"Kemayoran","is_transit":false,"distance":1901},{"line":11,"i_lat":-6.174784,"i_long":106.84368,"station_name":"Pasar Senen","station_id":"PSE","is_transit":false,"distance":1436,"transit":false,"time":4},{"station_name":"Gang Sentiong","transit":false,"i_lat":-6.185975,"station_id":"GST","distance":1567,"i_long":106.850107,"time":8,"line":11,"is_transit":false},{"line":11,"transit":false,"distance":973,"i_lat":-6.193792,"time":1,"station_id":"KMT","i_long":106.855437,"station_name":"Kramat","is_transit":false},{"time":2,"line":11,"station_id":"POK","station_name":"Pondok Jati","distance":1829,"transit":false,"i_lat":-6.209188,"i_long":106.861737,"is_transit":false},{"line":1,"i_lat":-6.215091,"transit":true,"distance":1236,"station_name":"Jatinegara","i_long":106.86807400000001,"time":9,"is_transit":true,"station_id":"JNG"},{"i_long":106.858896,"station_name":"Matraman","station_id":"MTR","distance":1377,"is_transit":false,"time":2,"transit":false,"i_lat":-6.212485,"line":1},{"station_id":"MRI","is_transit":false,"distance":1275,"transit":false,"i_lat":-6.209883,"i_long":106.84912,"line":2,"station_name":"Manggarai","time":2},{"i_long":106.822649,"station_id":"SUD","station_name":"Sudirman","line":1,"i_lat":-6.202263,"time":4,"is_transit":false,"distance":3186,"transit":false},{"station_name":"Sudirman Baru","i_lat":-6.201433,"i_long":106.819881,"is_transit":false,"line":1,"transit":false,"time":1,"distance":280,"station_id":"SUDB"}],[{"i_long":106.827103,"station_name":"Sawah Besar","distance":0,"time":0,"transit":false,"i_lat":-6.160725,"line":2,"station_id":"SW","is_transit":false},{"line":2,"distance":1149,"i_lat":-6.166716,"station_id":"JUA","is_transit":false,"time":2,"station_name":"Juanda","transit":false,"i_long":106.828284},{"transit":false,"distance":2015,"is_transit":false,"station_name":"Gondangdia","i_lat":-6.186295,"i_long":106.832183,"line":2,"time":4,"station_id":"GDD"},{"time":3,"station_name":"Cikini","transit":false,"station_id":"CKI","i_lat":-6.198556,"i_long":106.840169,"is_transit":false,"distance":1750,"line":2},{"station_id":"MRI","time":4,"is_transit":true,"station_name":"Manggarai","i_long":106.84912,"line":2,"transit":true,"i_lat":-6.209883,"distance":1590},{"line":1,"i_long":106.858896,"station_name":"Matraman","transit":false,"distance":1275,"time":2,"station_id":"MTR","i_lat":-6.212485,"is_transit":false},{"transit":true,"i_long":106.86807400000001,"is_transit":true,"line":1,"station_id":"JNG","i_lat":-6.215091,"time":8,"distance":1377,"station_name":"Jatinegara"},{"station_name":"Pondok Jati","i_lat":-6.209188,"time":2,"station_id":"POK","distance":1236,"transit":false,"line":11,"is_transit":false,"i_long":106.861737},{"line":11,"transit":false,"station_id":"KMT","i_lat":-6.193792,"distance":1829,"time":2,"station_name":"Kramat","i_long":106.855437,"is_transit":false},{"i_long":106.850107,"station_id":"GST","is_transit":false,"line":11,"station_name":"Gang Sentiong","i_lat":-6.185975,"distance":973,"transit":false,"time":1},{"is_transit":false,"station_id":"PSE","station_name":"Pasar Senen","line":11,"distance":1567,"transit":false,"time":8,"i_lat":-6.174784,"i_long":106.84368},{"i_lat":-6.161728,"transit":false,"station_name":"Kemayoran","time":4,"station_id":"KMO","is_transit":false,"distance":1436,"line":11,"i_long":106.839204},{"is_transit":false,"i_lat":-6.14505,"transit":false,"time":5,"i_long":106.836569,"station_id":"RJW","station_name":"Rajawali","line":11,"distance":1901},{"i_long":106.826365,"is_transit":true,"time":3,"line":4,"station_id":"KPB","distance":1444,"i_lat":-6.132549,"transit":true,"station_name":"Kampung Bandan"},{"i_long":106.79867,"station_id":"AK","is_transit":false,"time":9,"i_lat":-6.144674,"line":1,"distance":4102,"station_name":"Angke","transit":false},{"time":4,"i_long":106.800832,"station_name":"Duri","station_id":"DU","distance":1230,"i_lat":-6.155215,"line":1,"transit":false,"is_transit":false},{"station_id":"THB","is_transit":false,"station_name":"Tanah Abang","i_long":106.811091,"distance":3632,"i_lat":-6.185545,"time":8,"transit":false,"line":1},{"time":5,"i_long":106.816351,"line":1,"station_name":"Karet","is_transit":false,"station_id":"KAT","transit":false,"i_lat":-6.20132,"distance":2029},{"transit":false,"i_long":106.819881,"line":1,"time":1,"distance":471,"station_id":"SUDB","i_lat":-6.201433,"station_name":"Sudirman Baru","is_transit":false}]]}