{"data":[[{"i_lat":-6.160725,"is_transit":false,"station_id":"SW","time":0,"line":2,"distance":0,"i_long":106.827103,"transit":false,"station_name":"Sawah Besar"},{"i_long":106.82482,"i_lat":-6.149769,"station_id":"MGB","distance":906,"line":2,"station_name":"Manggabesar","is_transit":false,"time":2,"transit":false},{"is_transit":false,"station_id":"JAY","distance":1080,"line":2,"i_long":106.820901,"i_lat":-6.141205,"transit":false,"station_name":"Jayakarta","time":2},{"line":2,"transit":true,"i_lat":-6.137569,"station_name":"Jakarta Kota","station_id":"JAKK","time":4,"i_long":106.812439,"distance":1264,"is_transit":true},{"i_lat":-6.132549,"i_long":106.826365,"line":4,"is_transit":true,"station_name":"Kampung Bandan","transit":true,"time":3,"distance":1364,"station_id":"KPB"},{"i_long":106.79867,"station_id":"AK","is_transit":false,"time":9,"line":1,"distance":4102,"i_lat":-6.144674,"transit":false,"station_name":"Angke"},{"station_name":"Duri","i_long":106.800832,"line":1,"station_id":"DU","time":4,"transit":false,"is_transit":false,"i_lat":-6.155215,"distance":1230},{"line":1,"transit":true,"i_long":106.811091,"station_id":"THB","time":8,"is_transit":true,"distance":3632,"station_name":"Tanah Abang","i_lat":-6.185545},{"transit":false,"i_long":106.79689,"station_name":"Palmerah","i_lat":-6.207404,"station_id":"PLM","is_transit":false,"distance":3191,"time":6,"line":6},{"distance":3737,"transit":false,"i_long":106.780334,"line":6,"station_id":"KBY","time":7,"station_name":"Kebayoran","is_transit":false,"i_lat":-6.237242},{"distance":6218,"station_id":"PDJ","station_name":"Pondokranji","i_long":106.74273,"is_transit":false,"line":6,"i_lat":-6.276362,"transit":false,"time":8},{"transit":false,"distance":2179,"line":6,"station_name":"Jurangmangu","station_id":"JMU","i_long":106.728916,"is_transit":false,"time":3,"i_lat":-6.288927},{"time":4,"is_transit":false,"distance":1994,"i_long":106.712277,"i_lat":-6.296963,"line":6,"station_id":"SDM","station_name":"Sudimara","transit":false},{"station_id":"RU","line":6,"transit":false,"i_lat":-6.314823,"time":6,"i_long":106.675475,"station_name":"Rawa Buntu","is_transit":false,"distance":4566},{"station_id":"SRP","transit":false,"distance":2413,"time":4,"station_name":"Serpong","line":6,"is_transit":false,"i_long":106.66566,"i_lat":-6.319871}],[{"station_name":"Sawah Besar","station_id":"SW","transit":false,"i_long":106.827103,"is_transit":false,"line":2,"i_lat":-6.160725,"time":0,"distance":0},{"line":2,"i_long":106.828284,"transit":false,"distance":1149,"station_name":"Juanda","time":2,"i_lat":-6.166716,"is_transit":false,"station_id":"JUA"},{"is_transit":false,"distance":2015,"i_lat":-6.186295,"line":2,"time":4,"station_name":"Gondangdia","i_long":106.832183,"transit":false,"station_id":"GDD"},{"time":3,"station_id":"CKI","station_name":"Cikini","distance":1750,"is_transit":false,"transit":false,"i_lat":-6.198556,"i_long":106.840169,"line":2},{"distance":1590,"station_name":"Manggarai","i_long":106.84912,"line":2,"i_lat":-6.209883,"station_id":"MRI","is_transit":true,"transit":true,"time":4},{"time":4,"line":1,"transit":false,"is_transit":false,"station_id":"SUD","i_long":106.822649,"station_name":"Sudirman","i_lat":-6.202263,"distance":3186},{"station_id":"SUDB","station_name":"Sudirman Baru","time":1,"is_transit":false,"distance":280,"i_long":106.819881,"i_lat":-6.201433,"line":1,"transit":false},{"is_transit":false,"distance":471,"time":1,"i_lat":-6.20132,"station_name":"Karet","line":1,"station_id":"KAT","i_long":106.816351,"transit":false},{"is_transit":true,"time":5,"i_lat":-6.185545,"station_name":"Tanah Abang","station_id":"THB","distance":2029,"line":1,"i_long":106.811091,"transit":true},{"is_transit":false,"line":6,"station_name":"Palmerah","i_lat":-6.207404,"station_id":"PLM","i_long":106.79689,"distance":3191,"transit":false,"time":6},{"transit":false,"station_id":"KBY","station_name":"Kebayoran","is_transit":false,"i_lat":-6.237242,"time":7,"i_long":106.780334,"distance":3737,"line":6},{"distance":6218,"line":6,"transit":false,"time":8,"is_transit":false,"i_lat":-6.276362,"i_long":106.74273,"station_name":"Pondokranji","station_id":"PDJ"},{"distance":2179,"i_long":106.728916,"transit":false,"station_name":"Jurangmangu","station_id":"JMU","time":3,"i_lat":-6.288927,"is_transit":false,"line":6},{"time":4,"transit":false,"i_lat":-6.296963,"station_name":"Sudimara","i_long":106.712277,"station_id":"SDM","is_transit":false,"distance":1994,"line":6},{"line":6,"station_name":"Rawa Buntu","i_long":106.675475,"is_transit":false,"time":6,"station_id":"RU","transit":false,"distance":4566,"i_lat":-6.314823},{"i_lat":-6.319871,"station_name":"Serpong","transit":false,"time":4,"line":6,"is_transit":false,"station_id":"SRP","distance":2413,"i_long":106.66566}],[{"i_long":106.827103,"i_lat":-6.160725,"line":2,"transit":false,"distance":0,"station_name":"Sawah Besar","is_transit":false,"station_id":"SW","time":0},{"transit":false,"distance":1149,"station_id":"JUA","time":2,"is_transit":false,"i_lat":-6.166716,"station_name":"Juanda","i_long":106.828284,"line":2},{"station_id":"GDD","time":4,"i_long":106.832183,"transit":false,"i_lat":-6.186295,"is_transit":false,"distance":2015,"line":2,"station_name":"Gondangdia"},{"i_lat":-6.198556,"is_transit":false,"i_long":106.840169,"station_id":"CKI","time":3,"distance":1750,"line":2,"transit":false,"station_name":"Cikini"},{"station_id":"MRI","i_lat":-6.209883,"station_name":"Manggarai","transit":true,"time":4,"i_long":106.84912,"line":2,"is_transit":true,"distance":1590},{"i_lat":-6.212485,"station_id":"MTR","distance":1275,"i_long":106.858896,"is_transit":false,"station_name":"Matraman","line":1,"time":2,"transit":false},{"time":8,"station_name":"Jatinegara","i_long":106.86807400000001,"distance":1377,"transit":true,"is_transit":true,"i_lat":-6.215091,"station_id":"JNG","line":1},{"i_lat":-6.209188,"station_name":"Pondok Jati","transit":false,"line":11,"is_transit":false,"station_id":"POK","time":2,"distance":1236,"i_long":106.861737},{"time":2,"is_transit":false,"station_id":"KMT","i_lat":-6.193792,"line":11,"station_name":"Kramat","distance":1829,"i_long":106.855437,"transit":false},{"station_name":"Gang Sentiong","distance":973,"i_long":106.850107,"time":1,"transit":false,"i_lat":-6.185975,"line":11,"is_transit":false,"station_id":"GST"},{"station_id":"PSE","transit":false,"time":8,"is_transit":false,"distance":1567,"i_long":106.84368,"i_lat":-6.174784,"line":11,"station_name":"Pasar Senen"},{"is_transit":false,"time":4,"line":11,"station_id":"KMO","i_lat":-6.161728,"distance":1436,"transit":false,"station_name":"Kemayoran","i_long":106.839204},{"i_lat":-6.14505,"i_long":106.836569,"station_id":"RJW","station_name":"Rajawali","line":11,"transit":false,"is_transit":false,"time":5,"distance":1901},{"station_name":"Kampung Bandan","distance":1444,"transit":true,"time":3,"i_long":106.826365,"station_id":"KPB","is_transit":true,"i_lat":-6.132549,"line":4},{"time":9,"transit":false,"distance":4102,"station_id":"AK","line":1,"is_transit":false,"i_lat":-6.144674,"i_long":106.79867,"station_name":"Angke"},{"i_lat":-6.155215,"station_id":"DU","is_transit":false,"line":1,"i_long":106.800832,"distance":1230,"time":4,"station_name":"Duri","transit":false},{"i_lat":-6.185545,"distance":3632,"transit":true,"is_transit":true,"time":8,"i_long":106.811091,"line":1,"station_id":"THB","station_name":"Tanah Abang"},{"i_lat":-6.207404,"time":6,"is_transit":false,"station_name":"Palmerah","line":6,"distance":3191,"transit":false,"station_id":"PLM","i_long":106.79689},{"time":7,"distance":3737,"station_id":"KBY","i_long":106.780334,"is_transit":false,"station_name":"Kebayoran","transit":false,"i_lat":-6.237242,"line":6},{"i_lat":-6.276362,"is_transit":false,"line":6,"i_long":106.74273,"time":8,"transit":false,"station_name":"Pondokranji","station_id":"PDJ","distance":6218},{"station_name":"Jurangmangu","distance":2179,"is_transit":false,"transit":false,"time":3,"i_long":106.728916,"i_lat":-6.288927,"line":6,"station_id":"JMU"},{"station_id":"SDM","i_lat":-6.296963,"i_long":106.712277,"transit":false,"station_name":"Sudimara","time":4,"distance":1994,"line":6,"is_transit":false},{"distance":4566,"station_id":"RU","station_name":"Rawa Buntu","i_long":106.675475,"is_transit":false,"time":6,"transit":false,"line":6,"i_lat":-6.314823},{"station_id":"SRP","line":6,"transit":false,"i_long":106.66566,"distance":2413,"i_lat":-6.319871,"is_transit":false,"time":4,"station_name":"Serpong"}],[{"station_id":"SW","distance":0,"is_transit":false,"i_lat":-6.160725,"transit":false,"time":0,"i_long":106.827103,"line":2,"station_name":"Sawah Besar"},{"time":2,"distance":906,"station_id":"MGB","line":2,"i_lat":-6.149769,"is_transit":false,"i_long":106.82482,"station_name":"Manggabesar","transit":false},{"station_id":"JAY","time":2,"distance":1080,"station_name":"Jayakarta","line":2,"i_long":106.820901,"i_lat":-6.141205,"transit":false,"is_transit":false},{"station_id":"JAKK","i_lat":-6.137569,"time":4,"station_name":"Jakarta Kota","line":2,"distance":1264,"transit":true,"i_long":106.812439,"is_transit":true},{"distance":1364,"i_lat":-6.132549,"station_id":"KPB","station_name":"Kampung Bandan","transit":true,"is_transit":true,"time":3,"i_long":106.826365,"line":4},{"station_id":"RJW","i_lat":-6.14505,"distance":1444,"i_long":106.836569,"line":11,"is_transit":false,"transit":false,"time":3,"station_name":"Rajawali"},{"station_id":"KMO","line":11,"station_name":"Kemayoran","transit":false,"distance":1901,"i_lat":-6.161728,"time":5,"is_transit":false,"i_long":106.839204},{"transit":false,"station_name":"Pasar Senen","line":11,"station_id":"PSE","is_transit":false,"i_lat":-6.174784,"time":4,"i_long":106.84368,"distance":1436},{"station_name":"Gang Sentiong","is_transit":false,"time":8,"distance":1567,"transit":false,"i_lat":-6.185975,"i_long":106.850107,"line":11,"station_id":"GST"},{"is_transit":false,"i_long":106.855437,"line":11,"transit":false,"station_id":"KMT","station_name":"Kramat","time":1,"distance":973,"i_lat":-6.193792},{"line":11,"transit":false,"is_transit":false,"station_name":"Pondok Jati","time":2,"i_lat":-6.209188,"i_long":106.861737,"station_id":"POK","distance":1829},{"i_lat":-6.215091,"distance":1236,"is_transit":true,"i_long":106.86807400000001,"station_name":"Jatinegara","station_id":"JNG","transit":true,"time":9,"line":1},{"i_long":106.858896,"is_transit":false,"transit":false,"station_id":"MTR","station_name":"Matraman","time":2,"i_lat":-6.212485,"distance":1377,"line":1},{"line":2,"is_transit":false,"station_id":"MRI","i_lat":-6.209883,"station_name":"Manggarai","time":2,"transit":false,"distance":1275,"i_long":106.84912},{"time":4,"is_transit":false,"transit":false,"station_name":"Sudirman","i_lat":-6.202263,"i_long":106.822649,"distance":3186,"line":1,"station_id":"SUD"},{"is_transit":false,"transit":false,"station_name":"Sudirman Baru","time":1,"distance":280,"line":1,"i_lat":-6.201433,"i_long":106.819881,"station_id":"SUDB"},{"station_id":"KAT","is_transit":false,"station_name":"Karet","line":1,"i_lat":-6.20132,"time":1,"distance":471,"i_long":106.816351,"transit":false},{"station_name":"Tanah Abang","distance":2029,"transit":true,"line":1,"i_lat":-6.185545,"station_id":"THB","i_long":106.811091,"time":5,"is_transit":true},{"is_transit":false,"line":6,"station_id":"PLM","time":6,"station_name":"Palmerah","transit":false,"distance":3191,"i_long":106.79689,"i_lat":-6.207404},{"station_name":"Kebayoran","station_id":"KBY","i_long":106.780334,"line":6,"distance":3737,"transit":false,"i_lat":-6.237242,"time":7,"is_transit":false},{"transit":false,"line":6,"time":8,"is_transit":false,"station_name":"Pondokranji","station_id":"PDJ","i_lat":-6.276362,"distance":6218,"i_long":106.74273},{"line":6,"is_transit":false,"distance":2179,"time":3,"transit":false,"station_id":"JMU","i_lat":-6.288927,"station_name":"Jurangmangu","i_long":106.728916},{"distance":1994,"transit":false,"i_lat":-6.296963,"station_name":"Sudimara","station_id":"SDM","i_long":106.712277,"line":6,"time":4,"is_transit":false},{"distance":4566,"transit":false,"i_lat":-6.314823,"i_long":106.675475,"is_transit":false,"time":6,"station_id":"RU","line":6,"station_name":"Rawa Buntu"},{"i_long":106.66566,"station_id":"SRP","line":6,"distance":2413,"transit":false,"station_name":"Serpong","is_transit":false,"time":4,"i_lat":-6.319871}]]}