{"data":[[{"i_lat":-6.160725,"is_transit":false,"distance":0,"transit":false,"station_id":"SW","station_name":"Sawah Besar","i_long":106.827103,"time":0,"line":2},{"transit":false,"distance":906,"station_id":"MGB","line":2,"station_name":"Manggabesar","time":2,"i_lat":-6.149769,"i_long":106.82482,"is_transit":false},{"transit":false,"line":2,"station_id":"JAY","station_name":"Jayakarta","time":2,"i_lat":-6.141205,"i_long":106.820901,"distance":1080,"is_transit":false},{"i_lat":-6.137569,"station_id":"JAKK","station_name":"Jakarta Kota","is_transit":true,"distance":1264,"i_long":106.812439,"line":2,"transit":true,"time":4},{"i_long":106.826365,"i_lat":-6.132549,"line":4,"time":3,"distance":1364,"station_id":"KPB","transit":true,"station_name":"Kampung Bandan","is_transit":true},{"i_long":106.79867,"time":9,"transit":false,"station_name":"Angke","is_transit":false,"line":1,"station_id":"AK","i_lat":-6.144674,"distance":4102},{"time":4,"station_name":"Duri","i_long":106.800832,"distance":1230,"line":1,"i_lat":-6.155215,"station_id":"DU","is_transit":false,"transit":false},{"station_name":"Tanah Abang","is_transit":true,"distance":3632,"i_long":106.811091,"time":8,"station_id":"THB","line":1,"transit":true,"i_lat":-6.185545},{"time":6,"i_long":106.79689,"line":6,"i_lat":-6.207404,"station_id":"PLM","distance":3191,"is_transit":false,"transit":false,"station_name":"Palmerah"},{"line":6,"station_name":"Kebayoran","i_long":106.780334,"station_id":"KBY","is_transit":false,"transit":false,"time":7,"distance":3737,"i_lat":-6.237242},{"time":8,"station_id":"PDJ","station_name":"Pondokranji","is_transit":false,"i_long":106.74273,"transit":false,"distance":6218,"i_lat":-6.276362,"line":6},{"is_transit":false,"station_name":"Jurangmangu","time":3,"distance":2179,"i_lat":-6.288927,"i_long":106.728916,"line":6,"station_id":"JMU","transit":false},{"time":4,"i_lat":-6.296963,"distance":1994,"is_transit":false,"i_long":106.712277,"station_id":"SDM","transit":false,"station_name":"Sudimara","line":6},{"distance":4566,"time":6,"i_lat":-6.314823,"line":6,"station_name":"Rawa Buntu","station_id":"RU","transit":false,"i_long":106.675475,"is_transit":false},{"station_id":"SRP","line":6,"station_name":"Serpong","transit":false,"distance":2413,"i_lat":-6.319871,"i_long":106.66566,"time":4,"is_transit":false}],[{"line":2,"is_transit":false,"station_id":"SW","distance":0,"station_name":"Sawah Besar","i_long":106.827103,"i_lat":-6.160725,"time":0,"transit":false},{"station_id":"JUA","is_transit":false,"time":2,"line":2,"distance":1149,"i_long":106.828284,"station_name":"Juanda","i_lat":-6.166716,"transit":false},{"time":4,"station_id":"GDD","transit":false,"i_lat":-6.186295,"i_long":106.832183,"station_name":"Gondangdia","is_transit":false,"distance":2015,"line":2},{"station_id":"CKI","station_name":"Cikini","i_lat":-6.198556,"line":2,"time":3,"is_transit":false,"transit":false,"i_long":106.840169,"distance":1750},{"distance":1590,"station_id":"MRI","station_name":"Manggarai","time":4,"line":2,"is_transit":true,"i_long":106.84912,"i_lat":-6.209883,"transit":true},{"i_long":106.822649,"line":1,"transit":false,"is_transit":false,"station_id":"SUD","i_lat":-6.202263,"station_name":"Sudirman","time":4,"distance":3186},{"is_transit":false,"i_lat":-6.201433,"distance":280,"station_name":"Sudirman Baru","time":1,"transit":false,"station_id":"SUDB","line":1,"i_long":106.819881},{"i_lat":-6.20132,"time":1,"station_id":"KAT","transit":false,"is_transit":false,"line":1,"i_long":106.816351,"distance":471,"station_name":"Karet"},{"i_long":106.811091,"station_id":"THB","i_lat":-6.185545,"time":5,"distance":2029,"is_transit":true,"transit":true,"station_name":"Tanah Abang","line":1},{"station_name":"Palmerah","i_lat":-6.207404,"distance":3191,"i_long":106.79689,"line":6,"time":6,"station_id":"PLM","transit":false,"is_transit":false},{"line":6,"station_id":"KBY","i_lat":-6.237242,"station_name":"Kebayoran","time":7,"distance":3737,"is_transit":false,"transit":false,"i_long":106.780334},{"transit":false,"distance":6218,"i_long":106.74273,"station_name":"Pondokranji","line":6,"station_id":"PDJ","i_lat":-6.276362,"is_transit":false,"time":8},{"station_name":"Jurangmangu","is_transit":false,"transit":false,"station_id":"JMU","distance":2179,"time":3,"i_lat":-6.288927,"i_long":106.728916,"line":6},{"is_transit":false,"time":4,"station_name":"Sudimara","line":6,"i_long":106.712277,"transit":false,"i_lat":-6.296963,"distance":1994,"station_id":"SDM"},{"transit":false,"station_id":"RU","distance":4566,"i_lat":-6.314823,"station_name":"Rawa Buntu","i_long":106.675475,"is_transit":false,"time":6,"line":6},{"transit":false,"station_name":"Serpong","i_lat":-6.319871,"time":4,"i_long":106.66566,"line":6,"is_transit":false,"distance":2413,"station_id":"SRP"}],[{"line":2,"transit":false,"station_id":"SW","is_transit":false,"i_lat":-6.160725,"time":0,"i_long":106.827103,"distance":0,"station_name":"Sawah Besar"},{"i_lat":-6.166716,"i_long":106.828284,"line":2,"transit":false,"station_id":"JUA","station_name":"Juanda","is_transit":false,"time":2,"distance":1149},{"distance":2015,"station_id":"GDD","is_transit":false,"transit":false,"time":4,"line":2,"i_long":106.832183,"i_lat":-6.186295,"station_name":"Gondangdia"},{"time":3,"is_transit":false,"i_long":106.840169,"transit":false,"distance":1750,"i_lat":-6.198556,"station_name":"Cikini","line":2,"station_id":"CKI"},{"transit":true,"station_id":"MRI","i_long":106.84912,"i_lat":-6.209883,"station_name":"Manggarai","is_transit":true,"distance":1590,"time":4,"line":2},{"line":1,"i_long":106.858896,"time":2,"distance":1275,"station_name":"Matraman","transit":false,"station_id":"MTR","is_transit":false,"i_lat":-6.212485},{"station_name":"Jatinegara","is_transit":true,"time":8,"transit":true,"station_id":"JNG","distance":1377,"i_lat":-6.215091,"line":1,"i_long":106.86807400000001},{"line":11,"transit":false,"is_transit":false,"station_name":"Pondok Jati","distance":1236,"i_long":106.861737,"station_id":"POK","i_lat":-6.209188,"time":2},{"transit":false,"station_name":"Kramat","is_transit":false,"time":2,"distance":1829,"i_long":106.855437,"line":11,"i_lat":-6.193792,"station_id":"KMT"},{"station_id":"GST","distance":973,"line":11,"time":1,"transit":false,"i_lat":-6.185975,"i_long":106.850107,"is_transit":false,"station_name":"Gang Sentiong"},{"line":11,"time":8,"i_long":106.84368,"transit":false,"station_id":"PSE","station_name":"Pasar Senen","distance":1567,"is_transit":false,"i_lat":-6.174784},{"station_name":"Kemayoran","distance":1436,"i_long":106.839204,"i_lat":-6.161728,"transit":false,"time":4,"line":11,"station_id":"KMO","is_transit":false},{"i_lat":-6.14505,"time":5,"i_long":106.836569,"line":11,"station_id":"RJW","station_name":"Rajawali","transit":false,"is_transit":false,"distance":1901},{"i_lat":-6.132549,"line":4,"transit":true,"station_name":"Kampung Bandan","is_transit":true,"station_id":"KPB","time":3,"distance":1444,"i_long":106.826365},{"station_id":"AK","transit":false,"station_name":"Angke","time":9,"distance":4102,"i_lat":-6.144674,"line":1,"i_long":106.79867,"is_transit":false},{"time":4,"line":1,"i_lat":-6.155215,"is_transit":false,"i_long":106.800832,"transit":false,"station_name":"Duri","station_id":"DU","distance":1230},{"station_id":"THB","station_name":"Tanah Abang","i_long":106.811091,"is_transit":true,"distance":3632,"i_lat":-6.185545,"time":8,"line":1,"transit":true},{"i_lat":-6.207404,"i_long":106.79689,"line":6,"time":6,"station_id":"PLM","is_transit":false,"station_name":"Palmerah","distance":3191,"transit":false},{"i_lat":-6.237242,"line":6,"station_id":"KBY","station_name":"Kebayoran","is_transit":false,"time":7,"distance":3737,"i_long":106.780334,"transit":false},{"line":6,"distance":6218,"station_id":"PDJ","time":8,"transit":false,"i_lat":-6.276362,"i_long":106.74273,"station_name":"Pondokranji","is_transit":false},{"line":6,"station_id":"JMU","is_transit":false,"i_lat":-6.288927,"time":3,"distance":2179,"transit":false,"i_long":106.728916,"station_name":"Jurangmangu"},{"time":4,"distance":1994,"transit":false,"i_lat":-6.296963,"line":6,"station_id":"SDM","i_long":106.712277,"station_name":"Sudimara","is_transit":false},{"i_lat":-6.314823,"distance":4566,"is_transit":false,"time":6,"transit":false,"station_name":"Rawa Buntu","i_long":106.675475,"station_id":"RU","line":6},{"station_id":"SRP","is_transit":false,"transit":false,"i_long":106.66566,"line":6,"distance":2413,"station_name":"Serpong","time":4,"i_lat":-6.319871}],[{"i_lat":-6.160725,"i_long":106.827103,"transit":false,"is_transit":false,"line":2,"station_name":"Sawah Besar","station_id":"SW","time":0,"distance":0},{"i_lat":-6.149769,"i_long":106.82482,"time":2,"distance":906,"station_name":"Manggabesar","station_id":"MGB","transit":false,"is_transit":false,"line":2},{"distance":1080,"line":2,"is_transit":false,"transit":false,"i_lat":-6.141205,"station_id":"JAY","station_name":"Jayakarta","i_long":106.820901,"time":2},{"distance":1264,"line":2,"transit":true,"is_transit":true,"time":4,"i_lat":-6.137569,"i_long":106.812439,"station_name":"Jakarta Kota","station_id":"JAKK"},{"distance":1364,"time":3,"i_long":106.826365,"i_lat":-6.132549,"line":4,"station_id":"KPB","station_name":"Kampung Bandan","is_transit":true,"transit":true},{"i_lat":-6.14505,"is_transit":false,"i_long":106.836569,"time":3,"transit":false,"station_id":"RJW","distance":1444,"station_name":"Rajawali","line":11},{"line":11,"i_long":106.839204,"station_id":"KMO","station_name":"Kemayoran","time":5,"i_lat":-6.161728,"transit":false,"distance":1901,"is_transit":false},{"station_name":"Pasar Senen","line":11,"time":4,"distance":1436,"station_id":"PSE","i_lat":-6.174784,"i_long":106.84368,"transit":false,"is_transit":false},{"i_lat":-6.185975,"station_name":"Gang Sentiong","transit":false,"distance":1567,"line":11,"time":8,"i_long":106.850107,"is_transit":false,"station_id":"GST"},{"time":1,"station_name":"Kramat","transit":false,"line":11,"i_long":106.855437,"i_lat":-6.193792,"station_id":"KMT","is_transit":false,"distance":973},{"is_transit":false,"station_id":"POK","time":2,"line":11,"i_lat":-6.209188,"i_long":106.861737,"distance":1829,"transit":false,"station_name":"Pondok Jati"},{"station_id":"JNG","time":9,"distance":1236,"i_long":106.86807400000001,"line":1,"i_lat":-6.215091,"station_name":"Jatinegara","transit":true,"is_transit":true},{"distance":1377,"transit":false,"i_lat":-6.212485,"is_transit":false,"station_name":"Matraman","time":2,"line":1,"station_id":"MTR","i_long":106.858896},{"i_long":106.84912,"station_id":"MRI","transit":false,"is_transit":false,"distance":1275,"i_lat":-6.209883,"line":2,"station_name":"Manggarai","time":2},{"i_lat":-6.202263,"is_transit":false,"station_name":"Sudirman","transit":false,"i_long":106.822649,"line":1,"station_id":"SUD","distance":3186,"time":4},{"transit":false,"line":1,"i_lat":-6.201433,"is_transit":false,"i_long":106.819881,"distance":280,"station_id":"SUDB","station_name":"Sudirman Baru","time":1},{"station_id":"KAT","distance":471,"station_name":"Karet","i_lat":-6.20132,"line":1,"i_long":106.816351,"is_transit":false,"time":1,"transit":false},{"station_id":"THB","transit":true,"line":1,"i_long":106.811091,"distance":2029,"i_lat":-6.185545,"is_transit":true,"time":5,"station_name":"Tanah Abang"},{"station_name":"Palmerah","is_transit":false,"station_id":"PLM","distance":3191,"i_long":106.79689,"line":6,"time":6,"i_lat":-6.207404,"transit":false},{"station_id":"KBY","is_transit":false,"i_lat":-6.237242,"transit":false,"i_long":106.780334,"time":7,"distance":3737,"station_name":"Kebayoran","line":6},{"time":8,"distance":6218,"station_id":"PDJ","is_transit":false,"i_lat":-6.276362,"transit":false,"i_long":106.74273,"line":6,"station_name":"Pondokranji"},{"station_name":"Jurangmangu","station_id":"JMU","is_transit":false,"transit":false,"i_long":106.728916,"line":6,"i_lat":-6.288927,"distance":2179,"time":3},{"station_name":"Sudimara","time":4,"i_long":106.712277,"station_id":"SDM","distance":1994,"line":6,"transit":false,"i_lat":-6.296963,"is_transit":false},{"station_name":"Rawa Buntu","station_id":"RU","i_lat":-6.314823,"time":6,"is_transit":false,"i_long":106.675475,"line":6,"distance":4566,"transit":false},{"distance":2413,"time":4,"station_id":"SRP","line":6,"transit":false,"station_name":"Serpong","is_transit":false,"i_lat":-6.319871,"i_long":106.66566}]]}