{"data":[[{"time":0,"i_lat":-6.160725,"transit":false,"line":2,"i_long":106.827103,"station_name":"Sawah Besar","is_transit":false,"station_id":"SW","distance":0},{"station_id":"JUA","i_lat":-6.166716,"transit":false,"i_long":106.828284,"station_name":"Juanda","distance":1149,"is_transit":false,"time":2,"line":2},{"station_id":"GDD","station_name":"Gondangdia","distance":2015,"is_transit":false,"i_lat":-6.186295,"transit":false,"i_long":106.832183,"line":2,"time":4},{"is_transit":false,"station_id":"CKI","time":3,"distance":1750,"i_lat":-6.198556,"transit":false,"station_name":"Cikini","i_long":106.840169,"line":2},{"transit":true,"is_transit":true,"station_id":"MRI","i_long":106.84912,"i_lat":-6.209883,"line":2,"distance":1590,"time":4,"station_name":"Manggarai"},{"transit":false,"line":1,"station_name":"Sudirman","distance":3186,"is_transit":false,"time":4,"station_id":"SUD","i_lat":-6.202263,"i_long":106.822649}],[{"i_long":106.827103,"station_name":"Sawah Besar","time":0,"distance":0,"transit":false,"line":2,"station_id":"SW","is_transit":false,"i_lat":-6.160725},{"transit":false,"line":2,"station_id":"MGB","i_lat":-6.149769,"i_long":106.82482,"distance":906,"station_name":"Manggabesar","time":2,"is_transit":false},{"distance":1080,"i_lat":-6.141205,"line":2,"transit":false,"station_id":"JAY","i_long":106.820901,"station_name":"Jayakarta","time":2,"is_transit":false},{"station_name":"Jakarta Kota","transit":true,"station_id":"JAKK","distance":1264,"time":4,"i_lat":-6.137569,"line":2,"is_transit":true,"i_long":106.812439},{"transit":true,"is_transit":true,"station_name":"Kampung Bandan","time":3,"i_lat":-6.132549,"i_long":106.826365,"station_id":"KPB","distance":1364,"line":4},{"distance":4102,"station_name":"Angke","i_long":106.79867,"is_transit":false,"station_id":"AK","line":1,"time":9,"transit":false,"i_lat":-6.144674},{"is_transit":false,"station_name":"Duri","time":4,"i_lat":-6.155215,"transit":false,"line":1,"distance":1230,"i_long":106.800832,"station_id":"DU"},{"i_long":106.811091,"transit":false,"distance":3632,"station_name":"Tanah Abang","time":8,"i_lat":-6.185545,"is_transit":false,"station_id":"THB","line":1},{"is_transit":false,"line":1,"station_id":"KAT","i_long":106.816351,"transit":false,"time":5,"station_name":"Karet","distance":2029,"i_lat":-6.20132},{"is_transit":false,"station_id":"SUDB","time":1,"distance":471,"i_lat":-6.201433,"station_name":"Sudirman Baru","line":1,"i_long":106.819881,"transit":false},{"transit":false,"i_long":106.822649,"line":1,"time":1,"station_name":"Sudirman","station_id":"SUD","distance":280,"i_lat":-6.202263,"is_transit":false}],[{"time":0,"distance":0,"i_lat":-6.160725,"i_long":106.827103,"line":2,"station_name":"Sawah Besar","is_transit":false,"station_id":"SW","transit":false},{"is_transit":false,"i_long":106.82482,"station_id":"MGB","distance":906,"i_lat":-6.149769,"line":2,"station_name":"Manggabesar","transit":false,"time":2},{"station_name":"Jayakarta","line":2,"is_transit":false,"time":2,"transit":false,"distance":1080,"i_long":106.820901,"station_id":"JAY","i_lat":-6.141205},{"station_name":"Jakarta Kota","station_id":"JAKK","distance":1264,"line":2,"time":4,"i_long":106.812439,"is_transit":true,"transit":true,"i_lat":-6.137569},{"time":3,"station_id":"KPB","i_lat":-6.132549,"transit":true,"line":4,"is_transit":true,"i_long":106.826365,"station_name":"Kampung Bandan","distance":1364},{"is_transit":false,"station_name":"Rajawali","i_lat":-6.14505,"i_long":106.836569,"line":11,"distance":1444,"station_id":"RJW","transit":false,"time":3},{"station_name":"Kemayoran","i_lat":-6.161728,"line":11,"is_transit":false,"time":5,"distance":1901,"transit":false,"i_long":106.839204,"station_id":"KMO"},{"i_lat":-6.174784,"distance":1436,"i_long":106.84368,"station_id":"PSE","time":4,"transit":false,"line":11,"station_name":"Pasar Senen","is_transit":false},{"i_long":106.850107,"i_lat":-6.185975,"station_name":"Gang Sentiong","is_transit":false,"time":8,"distance":1567,"transit":false,"line":11,"station_id":"GST"},{"time":1,"i_long":106.855437,"is_transit":false,"i_lat":-6.193792,"distance":973,"line":11,"station_id":"KMT","transit":false,"station_name":"Kramat"},{"i_long":106.861737,"station_name":"Pondok Jati","is_transit":false,"station_id":"POK","line":11,"distance":1829,"time":2,"i_lat":-6.209188,"transit":false},{"station_name":"Jatinegara","distance":1236,"station_id":"JNG","transit":true,"i_long":106.86807400000001,"line":1,"i_lat":-6.215091,"time":9,"is_transit":true},{"line":1,"station_id":"MTR","transit":false,"time":2,"distance":1377,"i_lat":-6.212485,"station_name":"Matraman","i_long":106.858896,"is_transit":false},{"station_name":"Manggarai","distance":1275,"i_lat":-6.209883,"line":2,"i_long":106.84912,"transit":false,"is_transit":false,"station_id":"MRI","time":2},{"transit":false,"station_id":"SUD","i_lat":-6.202263,"line":1,"i_long":106.822649,"station_name":"Sudirman","is_transit":false,"distance":3186,"time":4}],[{"distance":0,"station_name":"Sawah Besar","i_long":106.827103,"transit":false,"i_lat":-6.160725,"line":2,"station_id":"SW","is_transit":false,"time":0},{"i_lat":-6.166716,"station_id":"JUA","transit":false,"is_transit":false,"time":2,"distance":1149,"line":2,"station_name":"Juanda","i_long":106.828284},{"line":2,"i_lat":-6.186295,"i_long":106.832183,"transit":false,"station_name":"Gondangdia","time":4,"station_id":"GDD","is_transit":false,"distance":2015},{"distance":1750,"transit":false,"station_name":"Cikini","time":3,"is_transit":false,"i_lat":-6.198556,"line":2,"i_long":106.840169,"station_id":"CKI"},{"i_lat":-6.209883,"station_id":"MRI","i_long":106.84912,"station_name":"Manggarai","is_transit":true,"distance":1590,"line":2,"transit":true,"time":4},{"i_long":106.858896,"line":1,"time":2,"station_id":"MTR","distance":1275,"transit":false,"station_name":"Matraman","i_lat":-6.212485,"is_transit":false},{"is_transit":true,"line":1,"distance":1377,"i_lat":-6.215091,"i_long":106.86807400000001,"time":8,"transit":true,"station_id":"JNG","station_name":"Jatinegara"},{"is_transit":false,"i_lat":-6.209188,"i_long":106.861737,"line":11,"distance":1236,"time":2,"station_name":"Pondok Jati","transit":false,"station_id":"POK"},{"time":2,"is_transit":false,"station_id":"KMT","station_name":"Kramat","distance":1829,"line":11,"transit":false,"i_long":106.855437,"i_lat":-6.193792},{"line":11,"distance":973,"station_id":"GST","time":1,"i_lat":-6.185975,"station_name":"Gang Sentiong","transit":false,"i_long":106.850107,"is_transit":false},{"time":8,"station_name":"Pasar Senen","distance":1567,"i_long":106.84368,"line":11,"station_id":"PSE","transit":false,"is_transit":false,"i_lat":-6.174784},{"is_transit":false,"transit":false,"station_id":"KMO","i_lat":-6.161728,"distance":1436,"i_long":106.839204,"station_name":"Kemayoran","line":11,"time":4},{"station_id":"RJW","distance":1901,"time":5,"i_lat":-6.14505,"i_long":106.836569,"transit":false,"is_transit":false,"line":11,"station_name":"Rajawali"},{"line":4,"station_name":"Kampung Bandan","is_transit":true,"time":3,"transit":true,"distance":1444,"i_long":106.826365,"i_lat":-6.132549,"station_id":"KPB"},{"i_lat":-6.144674,"transit":false,"is_transit":false,"time":9,"station_name":"Angke","line":1,"station_id":"AK","distance":4102,"i_long":106.79867},{"station_id":"DU","i_long":106.800832,"i_lat":-6.155215,"is_transit":false,"station_name":"Duri","time":4,"line":1,"transit":false,"distance":1230},{"station_id":"THB","is_transit":false,"transit":false,"line":1,"station_name":"Tanah Abang","time":8,"i_lat":-6.185545,"i_long":106.811091,"distance":3632},{"line":1,"i_long":106.816351,"station_id":"KAT","station_name":"Karet","i_lat":-6.20132,"transit":false,"is_transit":false,"distance":2029,"time":5},{"distance":471,"line":1,"transit":false,"i_lat":-6.201433,"station_name":"Sudirman Baru","time":1,"i_long":106.819881,"station_id":"SUDB","is_transit":false},{"i_lat":-6.202263,"transit":false,"is_transit":false,"i_long":106.822649,"line":1,"station_name":"Sudirman","time":1,"distance":280,"station_id":"SUD"}]]}