{"data":[[{"i_long":106.827103,"distance":0,"time":0,"station_id":"SW","is_transit":false,"i_lat":-6.160725,"station_name":"Sawah Besar","line":2,"transit":false},{"is_transit":false,"distance":906,"time":2,"transit":false,"station_name":"Manggabesar","station_id":"MGB","i_lat":-6.149769,"line":2,"i_long":106.82482},{"station_id":"JAY","distance":1080,"time":2,"i_lat":-6.141205,"is_transit":false,"transit":false,"station_name":"Jayakarta","i_long":106.820901,"line":2},{"distance":1264,"line":2,"station_id":"JAKK","i_long":106.812439,"time":4,"station_name":"Jakarta Kota","transit":true,"is_transit":true,"i_lat":-6.137569},{"is_transit":true,"transit":true,"station_name":"Kampung Bandan","i_lat":-6.132549,"line":4,"time":3,"i_long":106.826365,"distance":1364,"station_id":"KPB"},{"is_transit":false,"i_lat":-6.144674,"station_name":"Angke","transit":false,"time":9,"line":1,"i_long":106.79867,"distance":4102,"station_id":"AK"},{"distance":1230,"time":4,"transit":false,"i_long":106.800832,"station_name":"Duri","i_lat":-6.155215,"station_id":"DU","line":1,"is_transit":false},{"station_id":"THB","station_name":"Tanah Abang","i_long":106.811091,"distance":3632,"i_lat":-6.185545,"line":1,"is_transit":true,"transit":true,"time":8},{"i_long":106.79689,"time":6,"station_id":"PLM","distance":3191,"i_lat":-6.207404,"transit":false,"line":6,"station_name":"Palmerah","is_transit":false},{"distance":3737,"i_lat":-6.237242,"i_long":106.780334,"line":6,"station_name":"Kebayoran","transit":false,"time":7,"is_transit":false,"station_id":"KBY"},{"station_name":"Pondokranji","transit":false,"i_lat":-6.276362,"station_id":"PDJ","is_transit":false,"line":6,"distance":6218,"time":8,"i_long":106.74273},{"i_long":106.728916,"distance":2179,"station_name":"Jurangmangu","time":3,"is_transit":false,"transit":false,"i_lat":-6.288927,"station_id":"JMU","line":6},{"i_lat":-6.296963,"distance":1994,"line":6,"time":4,"station_id":"SDM","transit":false,"station_name":"Sudimara","i_long":106.712277,"is_transit":false}],[{"i_lat":-6.160725,"is_transit":false,"i_long":106.827103,"station_name":"Sawah Besar","line":2,"transit":false,"station_id":"SW","time":0,"distance":0},{"distance":1149,"time":2,"i_lat":-6.166716,"station_name":"Juanda","station_id":"JUA","transit":false,"is_transit":false,"i_long":106.828284,"line":2},{"distance":2015,"is_transit":false,"i_lat":-6.186295,"time":4,"i_long":106.832183,"station_name":"Gondangdia","station_id":"GDD","transit":false,"line":2},{"time":3,"station_id":"CKI","line":2,"i_lat":-6.198556,"distance":1750,"is_transit":false,"station_name":"Cikini","i_long":106.840169,"transit":false},{"i_long":106.84912,"transit":true,"distance":1590,"is_transit":true,"station_id":"MRI","time":4,"station_name":"Manggarai","line":2,"i_lat":-6.209883},{"time":4,"line":1,"distance":3186,"station_id":"SUD","transit":false,"station_name":"Sudirman","i_lat":-6.202263,"i_long":106.822649,"is_transit":false},{"transit":false,"i_long":106.819881,"time":1,"station_id":"SUDB","is_transit":false,"distance":280,"station_name":"Sudirman Baru","line":1,"i_lat":-6.201433},{"station_id":"KAT","line":1,"transit":false,"i_lat":-6.20132,"i_long":106.816351,"distance":471,"time":1,"is_transit":false,"station_name":"Karet"},{"transit":true,"station_name":"Tanah Abang","station_id":"THB","line":1,"i_lat":-6.185545,"i_long":106.811091,"is_transit":true,"time":5,"distance":2029},{"is_transit":false,"time":6,"line":6,"i_long":106.79689,"i_lat":-6.207404,"station_name":"Palmerah","distance":3191,"station_id":"PLM","transit":false},{"line":6,"transit":false,"i_long":106.780334,"station_id":"KBY","time":7,"is_transit":false,"station_name":"Kebayoran","i_lat":-6.237242,"distance":3737},{"transit":false,"distance":6218,"station_name":"Pondokranji","i_lat":-6.276362,"i_long":106.74273,"line":6,"station_id":"PDJ","is_transit":false,"time":8},{"i_long":106.728916,"station_id":"JMU","station_name":"Jurangmangu","line":6,"distance":2179,"is_transit":false,"time":3,"transit":false,"i_lat":-6.288927},{"is_transit":false,"station_name":"Sudimara","line":6,"transit":false,"i_lat":-6.296963,"distance":1994,"station_id":"SDM","i_long":106.712277,"time":4}],[{"line":2,"i_long":106.827103,"is_transit":false,"station_id":"SW","distance":0,"transit":false,"i_lat":-6.160725,"station_name":"Sawah Besar","time":0},{"station_id":"JUA","is_transit":false,"station_name":"Juanda","i_lat":-6.166716,"i_long":106.828284,"distance":1149,"line":2,"transit":false,"time":2},{"station_id":"GDD","line":2,"station_name":"Gondangdia","i_lat":-6.186295,"time":4,"distance":2015,"i_long":106.832183,"is_transit":false,"transit":false},{"time":3,"i_lat":-6.198556,"distance":1750,"station_id":"CKI","is_transit":false,"station_name":"Cikini","i_long":106.840169,"line":2,"transit":false},{"is_transit":true,"station_name":"Manggarai","i_long":106.84912,"line":2,"station_id":"MRI","i_lat":-6.209883,"distance":1590,"transit":true,"time":4},{"i_lat":-6.212485,"is_transit":false,"distance":1275,"time":2,"i_long":106.858896,"line":1,"transit":false,"station_id":"MTR","station_name":"Matraman"},{"time":8,"station_name":"Jatinegara","distance":1377,"line":1,"station_id":"JNG","i_lat":-6.215091,"transit":true,"i_long":106.86807400000001,"is_transit":true},{"is_transit":false,"i_long":106.861737,"station_name":"Pondok Jati","line":11,"distance":1236,"station_id":"POK","transit":false,"i_lat":-6.209188,"time":2},{"i_long":106.855437,"is_transit":false,"distance":1829,"station_name":"Kramat","line":11,"i_lat":-6.193792,"time":2,"station_id":"KMT","transit":false},{"transit":false,"station_id":"GST","i_lat":-6.185975,"time":1,"is_transit":false,"station_name":"Gang Sentiong","distance":973,"line":11,"i_long":106.850107},{"line":11,"transit":false,"time":8,"distance":1567,"station_id":"PSE","station_name":"Pasar Senen","is_transit":false,"i_lat":-6.174784,"i_long":106.84368},{"i_lat":-6.161728,"station_name":"Kemayoran","i_long":106.839204,"line":11,"station_id":"KMO","distance":1436,"is_transit":false,"transit":false,"time":4},{"i_long":106.836569,"station_id":"RJW","line":11,"distance":1901,"is_transit":false,"station_name":"Rajawali","transit":false,"time":5,"i_lat":-6.14505},{"station_name":"Kampung Bandan","i_lat":-6.132549,"i_long":106.826365,"distance":1444,"is_transit":true,"station_id":"KPB","line":4,"transit":true,"time":3},{"station_id":"AK","time":9,"station_name":"Angke","i_lat":-6.144674,"i_long":106.79867,"distance":4102,"is_transit":false,"transit":false,"line":1},{"line":1,"i_long":106.800832,"is_transit":false,"station_id":"DU","distance":1230,"transit":false,"i_lat":-6.155215,"station_name":"Duri","time":4},{"line":1,"time":8,"is_transit":true,"i_lat":-6.185545,"transit":true,"i_long":106.811091,"distance":3632,"station_id":"THB","station_name":"Tanah Abang"},{"station_name":"Palmerah","line":6,"station_id":"PLM","is_transit":false,"transit":false,"distance":3191,"i_lat":-6.207404,"i_long":106.79689,"time":6},{"distance":3737,"i_long":106.780334,"time":7,"i_lat":-6.237242,"station_id":"KBY","line":6,"station_name":"Kebayoran","transit":false,"is_transit":false},{"is_transit":false,"transit":false,"station_name":"Pondokranji","station_id":"PDJ","distance":6218,"time":8,"i_long":106.74273,"i_lat":-6.276362,"line":6},{"i_long":106.728916,"line":6,"is_transit":false,"distance":2179,"time":3,"i_lat":-6.288927,"station_name":"Jurangmangu","transit":false,"station_id":"JMU"},{"i_lat":-6.296963,"is_transit":false,"station_id":"SDM","station_name":"Sudimara","i_long":106.712277,"time":4,"line":6,"transit":false,"distance":1994}],[{"transit":false,"i_lat":-6.160725,"station_name":"Sawah Besar","is_transit":false,"station_id":"SW","time":0,"distance":0,"i_long":106.827103,"line":2},{"i_lat":-6.149769,"station_name":"Manggabesar","transit":false,"is_transit":false,"i_long":106.82482,"distance":906,"line":2,"station_id":"MGB","time":2},{"station_name":"Jayakarta","transit":false,"station_id":"JAY","i_long":106.820901,"time":2,"is_transit":false,"distance":1080,"line":2,"i_lat":-6.141205},{"transit":true,"station_id":"JAKK","station_name":"Jakarta Kota","time":4,"i_long":106.812439,"is_transit":true,"i_lat":-6.137569,"distance":1264,"line":2},{"distance":1364,"station_id":"KPB","i_lat":-6.132549,"is_transit":true,"station_name":"Kampung Bandan","transit":true,"time":3,"line":4,"i_long":106.826365},{"i_long":106.836569,"is_transit":false,"station_id":"RJW","station_name":"Rajawali","time":3,"line":11,"distance":1444,"i_lat":-6.14505,"transit":false},{"i_lat":-6.161728,"i_long":106.839204,"transit":false,"station_id":"KMO","distance":1901,"line":11,"is_transit":false,"station_name":"Kemayoran","time":5},{"station_id":"PSE","is_transit":false,"transit":false,"i_lat":-6.174784,"station_name":"Pasar Senen","i_long":106.84368,"time":4,"line":11,"distance":1436},{"distance":1567,"transit":false,"time":8,"line":11,"i_lat":-6.185975,"is_transit":false,"station_id":"GST","station_name":"Gang Sentiong","i_long":106.850107},{"is_transit":false,"station_id":"KMT","time":1,"i_long":106.855437,"station_name":"Kramat","distance":973,"line":11,"transit":false,"i_lat":-6.193792},{"station_id":"POK","is_transit":false,"distance":1829,"i_long":106.861737,"line":11,"transit":false,"i_lat":-6.209188,"time":2,"station_name":"Pondok Jati"},{"transit":true,"station_id":"JNG","i_long":106.86807400000001,"distance":1236,"is_transit":true,"line":1,"i_lat":-6.215091,"station_name":"Jatinegara","time":9},{"is_transit":false,"station_id":"MTR","time":2,"i_lat":-6.212485,"transit":false,"station_name":"Matraman","line":1,"i_long":106.858896,"distance":1377},{"transit":false,"is_transit":false,"station_id":"MRI","i_lat":-6.209883,"line":2,"i_long":106.84912,"distance":1275,"station_name":"Manggarai","time":2},{"i_long":106.822649,"i_lat":-6.202263,"station_id":"SUD","transit":false,"is_transit":false,"distance":3186,"line":1,"station_name":"Sudirman","time":4},{"station_id":"SUDB","distance":280,"station_name":"Sudirman Baru","time":1,"i_lat":-6.201433,"is_transit":false,"transit":false,"line":1,"i_long":106.819881},{"distance":471,"is_transit":false,"line":1,"i_lat":-6.20132,"transit":false,"station_name":"Karet","time":1,"i_long":106.816351,"station_id":"KAT"},{"i_lat":-6.185545,"transit":true,"time":5,"is_transit":true,"station_id":"THB","station_name":"Tanah Abang","distance":2029,"line":1,"i_long":106.811091},{"is_transit":false,"transit":false,"station_name":"Palmerah","i_long":106.79689,"distance":3191,"i_lat":-6.207404,"line":6,"station_id":"PLM","time":6},{"station_id":"KBY","line":6,"is_transit":false,"distance":3737,"time":7,"i_long":106.780334,"i_lat":-6.237242,"station_name":"Kebayoran","transit":false},{"transit":false,"i_lat":-6.276362,"is_transit":false,"distance":6218,"i_long":106.74273,"station_name":"Pondokranji","time":8,"line":6,"station_id":"PDJ"},{"line":6,"transit":false,"is_transit":false,"time":3,"i_long":106.728916,"i_lat":-6.288927,"station_id":"JMU","distance":2179,"station_name":"Jurangmangu"},{"line":6,"station_name":"Sudimara","time":4,"i_long":106.712277,"station_id":"SDM","is_transit":false,"transit":false,"distance":1994,"i_lat":-6.296963}]]}