{"data":[[{"transit":false,"station_name":"Sawah Besar","i_long":106.827103,"time":0,"station_id":"SW","i_lat":-6.160725,"line":2,"is_transit":false,"distance":0},{"transit":false,"station_name":"Juanda","line":2,"distance":1149,"is_transit":false,"time":2,"i_long":106.828284,"i_lat":-6.166716,"station_id":"JUA"},{"station_id":"GDD","distance":2015,"transit":false,"time":4,"line":2,"i_lat":-6.186295,"station_name":"Gondangdia","i_long":106.832183,"is_transit":false},{"transit":false,"time":3,"i_long":106.840169,"i_lat":-6.198556,"line":2,"station_id":"CKI","is_transit":false,"station_name":"Cikini","distance":1750},{"i_long":106.84912,"station_id":"MRI","transit":true,"station_name":"Manggarai","i_lat":-6.209883,"line":2,"is_transit":true,"distance":1590,"time":4},{"station_id":"SUD","time":4,"i_long":106.822649,"line":1,"i_lat":-6.202263,"distance":3186,"transit":false,"station_name":"Sudirman","is_transit":false},{"distance":280,"transit":false,"is_transit":false,"i_long":106.819881,"station_name":"Sudirman Baru","line":1,"station_id":"SUDB","i_lat":-6.201433,"time":1}],[{"distance":0,"time":0,"i_lat":-6.160725,"i_long":106.827103,"line":2,"station_id":"SW","station_name":"Sawah Besar","is_transit":false,"transit":false},{"distance":906,"station_name":"Manggabesar","line":2,"i_lat":-6.149769,"station_id":"MGB","transit":false,"is_transit":false,"time":2,"i_long":106.82482},{"i_lat":-6.141205,"transit":false,"station_id":"JAY","time":2,"station_name":"Jayakarta","is_transit":false,"i_long":106.820901,"line":2,"distance":1080},{"i_lat":-6.137569,"transit":true,"station_name":"Jakarta Kota","line":2,"is_transit":true,"time":4,"station_id":"JAKK","i_long":106.812439,"distance":1264},{"distance":1364,"time":3,"is_transit":true,"station_id":"KPB","station_name":"Kampung Bandan","transit":true,"line":4,"i_long":106.826365,"i_lat":-6.132549},{"station_id":"AK","line":1,"i_lat":-6.144674,"station_name":"Angke","time":9,"i_long":106.79867,"is_transit":false,"distance":4102,"transit":false},{"time":4,"station_name":"Duri","station_id":"DU","is_transit":false,"distance":1230,"line":1,"i_lat":-6.155215,"i_long":106.800832,"transit":false},{"station_id":"THB","is_transit":false,"distance":3632,"i_long":106.811091,"i_lat":-6.185545,"station_name":"Tanah Abang","line":1,"transit":false,"time":8},{"is_transit":false,"transit":false,"line":1,"i_lat":-6.20132,"distance":2029,"time":5,"i_long":106.816351,"station_name":"Karet","station_id":"KAT"},{"station_id":"SUDB","time":1,"distance":471,"station_name":"Sudirman Baru","line":1,"is_transit":false,"transit":false,"i_lat":-6.201433,"i_long":106.819881}],[{"distance":0,"transit":false,"time":0,"station_name":"Sawah Besar","is_transit":false,"i_long":106.827103,"station_id":"SW","i_lat":-6.160725,"line":2},{"station_name":"Manggabesar","time":2,"station_id":"MGB","i_lat":-6.149769,"transit":false,"i_long":106.82482,"is_transit":false,"distance":906,"line":2},{"station_name":"Jayakarta","distance":1080,"is_transit":false,"i_lat":-6.141205,"i_long":106.820901,"time":2,"line":2,"station_id":"JAY","transit":false},{"line":2,"is_transit":true,"time":4,"i_lat":-6.137569,"transit":true,"i_long":106.812439,"station_name":"Jakarta Kota","station_id":"JAKK","distance":1264},{"is_transit":true,"line":4,"station_name":"Kampung Bandan","transit":true,"station_id":"KPB","i_long":106.826365,"time":3,"i_lat":-6.132549,"distance":1364},{"is_transit":false,"i_long":106.836569,"time":3,"distance":1444,"i_lat":-6.14505,"line":11,"station_id":"RJW","station_name":"Rajawali","transit":false},{"i_lat":-6.161728,"is_transit":false,"transit":false,"i_long":106.839204,"line":11,"station_id":"KMO","distance":1901,"station_name":"Kemayoran","time":5},{"i_long":106.84368,"distance":1436,"i_lat":-6.174784,"line":11,"time":4,"station_name":"Pasar Senen","is_transit":false,"transit":false,"station_id":"PSE"},{"time":8,"i_long":106.850107,"is_transit":false,"distance":1567,"i_lat":-6.185975,"transit":false,"station_id":"GST","line":11,"station_name":"Gang Sentiong"},{"station_name":"Kramat","distance":973,"transit":false,"is_transit":false,"time":1,"station_id":"KMT","i_lat":-6.193792,"i_long":106.855437,"line":11},{"distance":1829,"transit":false,"station_id":"POK","station_name":"Pondok Jati","time":2,"line":11,"is_transit":false,"i_lat":-6.209188,"i_long":106.861737},{"time":9,"distance":1236,"is_transit":true,"i_long":106.86807400000001,"line":1,"station_name":"Jatinegara","station_id":"JNG","i_lat":-6.215091,"transit":true},{"transit":false,"distance":1377,"time":2,"is_transit":false,"station_name":"Matraman","station_id":"MTR","i_lat":-6.212485,"i_long":106.858896,"line":1},{"line":2,"distance":1275,"is_transit":false,"i_long":106.84912,"station_id":"MRI","transit":false,"station_name":"Manggarai","i_lat":-6.209883,"time":2},{"is_transit":false,"time":4,"station_name":"Sudirman","transit":false,"distance":3186,"line":1,"i_lat":-6.202263,"i_long":106.822649,"station_id":"SUD"},{"time":1,"distance":280,"i_lat":-6.201433,"transit":false,"is_transit":false,"line":1,"station_name":"Sudirman Baru","station_id":"SUDB","i_long":106.819881}],[{"station_name":"Sawah Besar","i_long":106.827103,"is_transit":false,"line":2,"i_lat":-6.160725,"distance":0,"station_id":"SW","time":0,"transit":false},{"i_long":106.828284,"station_name":"Juanda","transit":false,"time":2,"i_lat":-6.166716,"station_id":"JUA","line":2,"distance":1149,"is_transit":false},{"time":4,"i_long":106.832183,"transit":false,"station_id":"GDD","is_transit":false,"i_lat":-6.186295,"station_name":"Gondangdia","distance":2015,"line":2},{"transit":false,"is_transit":false,"station_name":"Cikini","distance":1750,"i_lat":-6.198556,"line":2,"time":3,"i_long":106.840169,"station_id":"CKI"},{"station_name":"Manggarai","line":2,"transit":true,"distance":1590,"i_long":106.84912,"station_id":"MRI","time":4,"is_transit":true,"i_lat":-6.209883},{"time":2,"station_id":"MTR","distance":1275,"i_long":106.858896,"is_transit":false,"station_name":"Matraman","i_lat":-6.212485,"line":1,"transit":false},{"i_long":106.86807400000001,"transit":true,"distance":1377,"i_lat":-6.215091,"line":1,"station_id":"JNG","station_name":"Jatinegara","time":8,"is_transit":true},{"time":2,"station_name":"Pondok Jati","i_lat":-6.209188,"distance":1236,"line":11,"station_id":"POK","transit":false,"is_transit":false,"i_long":106.861737},{"time":2,"distance":1829,"station_id":"KMT","station_name":"Kramat","i_lat":-6.193792,"is_transit":false,"transit":false,"i_long":106.855437,"line":11},{"station_name":"Gang Sentiong","time":1,"i_long":106.850107,"transit":false,"i_lat":-6.185975,"is_transit":false,"line":11,"distance":973,"station_id":"GST"},{"i_long":106.84368,"transit":false,"station_name":"Pasar Senen","is_transit":false,"line":11,"time":8,"station_id":"PSE","distance":1567,"i_lat":-6.174784},{"station_name":"Kemayoran","time":4,"i_long":106.839204,"station_id":"KMO","transit":false,"distance":1436,"i_lat":-6.161728,"line":11,"is_transit":false},{"station_name":"Rajawali","is_transit":false,"line":11,"time":5,"transit":false,"station_id":"RJW","i_long":106.836569,"i_lat":-6.14505,"distance":1901},{"i_long":106.826365,"line":4,"is_transit":true,"transit":true,"station_name":"Kampung Bandan","time":3,"station_id":"KPB","i_lat":-6.132549,"distance":1444},{"is_transit":false,"i_lat":-6.144674,"line":1,"station_name":"Angke","station_id":"AK","transit":false,"i_long":106.79867,"time":9,"distance":4102},{"line":1,"transit":false,"i_lat":-6.155215,"is_transit":false,"i_long":106.800832,"station_name":"Duri","time":4,"station_id":"DU","distance":1230},{"line":1,"station_id":"THB","transit":false,"distance":3632,"i_lat":-6.185545,"station_name":"Tanah Abang","is_transit":false,"time":8,"i_long":106.811091},{"i_long":106.816351,"station_name":"Karet","transit":false,"time":5,"line":1,"is_transit":false,"i_lat":-6.20132,"distance":2029,"station_id":"KAT"},{"i_long":106.819881,"distance":471,"transit":false,"station_name":"Sudirman Baru","line":1,"station_id":"SUDB","is_transit":false,"time":1,"i_lat":-6.201433}]]}