{"data":[[{"line":2,"station_name":"Sawah Besar","transit":false,"is_transit":false,"time":0,"distance":0,"i_long":106.827103,"i_lat":-6.160725,"station_id":"SW"},{"i_long":106.82482,"i_lat":-6.149769,"distance":906,"station_id":"MGB","transit":false,"station_name":"Manggabesar","is_transit":false,"time":2,"line":2},{"distance":1080,"station_name":"Jayakarta","transit":false,"is_transit":false,"i_long":106.820901,"i_lat":-6.141205,"station_id":"JAY","line":2,"time":2},{"i_lat":-6.137569,"i_long":106.812439,"station_name":"Jakarta Kota","distance":1264,"line":2,"station_id":"JAKK","is_transit":true,"time":4,"transit":true},{"distance":1364,"is_transit":true,"line":4,"station_name":"Kampung Bandan","i_lat":-6.132549,"i_long":106.826365,"transit":true,"station_id":"KPB","time":3},{"i_lat":-6.144674,"transit":false,"station_id":"AK","station_name":"Angke","distance":4102,"i_long":106.79867,"is_transit":false,"line":1,"time":9},{"line":1,"transit":false,"distance":1230,"station_id":"DU","is_transit":false,"i_long":106.800832,"time":4,"station_name":"Duri","i_lat":-6.155215},{"is_transit":true,"distance":3632,"i_lat":-6.185545,"line":1,"station_name":"Tanah Abang","time":8,"i_long":106.811091,"transit":true,"station_id":"THB"},{"is_transit":false,"line":6,"station_id":"PLM","transit":false,"time":6,"i_long":106.79689,"i_lat":-6.207404,"station_name":"Palmerah","distance":3191},{"is_transit":false,"distance":3737,"time":7,"station_name":"Kebayoran","i_lat":-6.237242,"line":6,"transit":false,"station_id":"KBY","i_long":106.780334},{"transit":false,"i_lat":-6.276362,"time":8,"station_name":"Pondokranji","station_id":"PDJ","is_transit":false,"distance":6218,"i_long":106.74273,"line":6},{"i_lat":-6.288927,"i_long":106.728916,"transit":false,"is_transit":false,"station_id":"JMU","time":3,"station_name":"Jurangmangu","distance":2179,"line":6},{"transit":false,"is_transit":false,"line":6,"station_id":"SDM","time":4,"distance":1994,"i_lat":-6.296963,"station_name":"Sudimara","i_long":106.712277}],[{"line":2,"station_name":"Sawah Besar","time":0,"distance":0,"is_transit":false,"transit":false,"station_id":"SW","i_long":106.827103,"i_lat":-6.160725},{"station_id":"JUA","i_lat":-6.166716,"i_long":106.828284,"transit":false,"is_transit":false,"time":2,"distance":1149,"station_name":"Juanda","line":2},{"line":2,"is_transit":false,"transit":false,"i_lat":-6.186295,"distance":2015,"station_id":"GDD","time":4,"station_name":"Gondangdia","i_long":106.832183},{"transit":false,"time":3,"i_long":106.840169,"station_id":"CKI","distance":1750,"is_transit":false,"line":2,"station_name":"Cikini","i_lat":-6.198556},{"station_id":"MRI","is_transit":true,"i_lat":-6.209883,"time":4,"i_long":106.84912,"transit":true,"line":2,"station_name":"Manggarai","distance":1590},{"i_lat":-6.202263,"is_transit":false,"time":4,"i_long":106.822649,"line":1,"station_name":"Sudirman","station_id":"SUD","transit":false,"distance":3186},{"station_name":"Sudirman Baru","i_long":106.819881,"distance":280,"i_lat":-6.201433,"is_transit":false,"line":1,"station_id":"SUDB","time":1,"transit":false},{"i_long":106.816351,"line":1,"time":1,"station_name":"Karet","is_transit":false,"station_id":"KAT","transit":false,"distance":471,"i_lat":-6.20132},{"i_long":106.811091,"time":5,"line":1,"station_name":"Tanah Abang","station_id":"THB","transit":true,"distance":2029,"is_transit":true,"i_lat":-6.185545},{"distance":3191,"transit":false,"station_id":"PLM","is_transit":false,"time":6,"i_long":106.79689,"i_lat":-6.207404,"line":6,"station_name":"Palmerah"},{"station_id":"KBY","station_name":"Kebayoran","transit":false,"i_long":106.780334,"line":6,"i_lat":-6.237242,"time":7,"distance":3737,"is_transit":false},{"transit":false,"distance":6218,"i_long":106.74273,"station_id":"PDJ","i_lat":-6.276362,"line":6,"is_transit":false,"time":8,"station_name":"Pondokranji"},{"station_id":"JMU","transit":false,"i_lat":-6.288927,"station_name":"Jurangmangu","time":3,"i_long":106.728916,"distance":2179,"line":6,"is_transit":false},{"distance":1994,"i_lat":-6.296963,"line":6,"is_transit":false,"i_long":106.712277,"station_name":"Sudimara","station_id":"SDM","time":4,"transit":false}],[{"distance":0,"i_lat":-6.160725,"line":2,"station_name":"Sawah Besar","time":0,"i_long":106.827103,"is_transit":false,"transit":false,"station_id":"SW"},{"i_long":106.828284,"is_transit":false,"time":2,"station_id":"JUA","distance":1149,"i_lat":-6.166716,"transit":false,"station_name":"Juanda","line":2},{"station_id":"GDD","i_long":106.832183,"transit":false,"station_name":"Gondangdia","i_lat":-6.186295,"distance":2015,"line":2,"is_transit":false,"time":4},{"is_transit":false,"i_long":106.840169,"transit":false,"distance":1750,"time":3,"i_lat":-6.198556,"line":2,"station_name":"Cikini","station_id":"CKI"},{"is_transit":true,"i_lat":-6.209883,"station_name":"Manggarai","distance":1590,"station_id":"MRI","transit":true,"time":4,"i_long":106.84912,"line":2},{"i_lat":-6.212485,"line":1,"is_transit":false,"station_name":"Matraman","i_long":106.858896,"station_id":"MTR","distance":1275,"transit":false,"time":2},{"distance":1377,"transit":true,"i_long":106.86807400000001,"station_name":"Jatinegara","i_lat":-6.215091,"time":8,"line":1,"station_id":"JNG","is_transit":true},{"station_name":"Pondok Jati","line":11,"is_transit":false,"i_long":106.861737,"i_lat":-6.209188,"distance":1236,"transit":false,"station_id":"POK","time":2},{"is_transit":false,"station_name":"Kramat","time":2,"station_id":"KMT","line":11,"i_lat":-6.193792,"transit":false,"distance":1829,"i_long":106.855437},{"distance":973,"station_name":"Gang Sentiong","i_long":106.850107,"is_transit":false,"time":1,"transit":false,"i_lat":-6.185975,"line":11,"station_id":"GST"},{"i_lat":-6.174784,"is_transit":false,"distance":1567,"i_long":106.84368,"time":8,"station_name":"Pasar Senen","line":11,"station_id":"PSE","transit":false},{"distance":1436,"i_long":106.839204,"line":11,"time":4,"i_lat":-6.161728,"transit":false,"station_id":"KMO","station_name":"Kemayoran","is_transit":false},{"time":5,"i_long":106.836569,"distance":1901,"station_id":"RJW","i_lat":-6.14505,"station_name":"Rajawali","is_transit":false,"line":11,"transit":false},{"line":4,"station_id":"KPB","i_long":106.826365,"station_name":"Kampung Bandan","transit":true,"time":3,"distance":1444,"i_lat":-6.132549,"is_transit":true},{"transit":false,"is_transit":false,"line":1,"distance":4102,"station_id":"AK","station_name":"Angke","i_long":106.79867,"i_lat":-6.144674,"time":9},{"time":4,"is_transit":false,"distance":1230,"i_lat":-6.155215,"station_name":"Duri","i_long":106.800832,"transit":false,"line":1,"station_id":"DU"},{"station_id":"THB","is_transit":true,"transit":true,"time":8,"line":1,"distance":3632,"i_lat":-6.185545,"i_long":106.811091,"station_name":"Tanah Abang"},{"station_name":"Palmerah","line":6,"i_long":106.79689,"transit":false,"time":6,"is_transit":false,"i_lat":-6.207404,"distance":3191,"station_id":"PLM"},{"transit":false,"station_name":"Kebayoran","is_transit":false,"i_lat":-6.237242,"line":6,"i_long":106.780334,"time":7,"distance":3737,"station_id":"KBY"},{"station_id":"PDJ","transit":false,"line":6,"i_long":106.74273,"i_lat":-6.276362,"station_name":"Pondokranji","distance":6218,"time":8,"is_transit":false},{"i_long":106.728916,"distance":2179,"station_name":"Jurangmangu","station_id":"JMU","time":3,"is_transit":false,"transit":false,"i_lat":-6.288927,"line":6},{"station_name":"Sudimara","transit":false,"i_lat":-6.296963,"i_long":106.712277,"time":4,"line":6,"is_transit":false,"distance":1994,"station_id":"SDM"}],[{"time":0,"station_id":"SW","i_long":106.827103,"transit":false,"line":2,"is_transit":false,"distance":0,"station_name":"Sawah Besar","i_lat":-6.160725},{"is_transit":false,"i_lat":-6.149769,"transit":false,"line":2,"station_id":"MGB","station_name":"Manggabesar","distance":906,"time":2,"i_long":106.82482},{"line":2,"i_lat":-6.141205,"station_name":"Jayakarta","is_transit":false,"distance":1080,"i_long":106.820901,"time":2,"station_id":"JAY","transit":false},{"is_transit":true,"i_lat":-6.137569,"line":2,"distance":1264,"transit":true,"station_name":"Jakarta Kota","station_id":"JAKK","time":4,"i_long":106.812439},{"station_id":"KPB","distance":1364,"transit":true,"is_transit":true,"i_long":106.826365,"time":3,"i_lat":-6.132549,"station_name":"Kampung Bandan","line":4},{"station_id":"RJW","distance":1444,"station_name":"Rajawali","transit":false,"is_transit":false,"line":11,"time":3,"i_lat":-6.14505,"i_long":106.836569},{"is_transit":false,"station_name":"Kemayoran","distance":1901,"i_long":106.839204,"transit":false,"time":5,"line":11,"i_lat":-6.161728,"station_id":"KMO"},{"station_name":"Pasar Senen","i_lat":-6.174784,"line":11,"station_id":"PSE","distance":1436,"i_long":106.84368,"is_transit":false,"time":4,"transit":false},{"distance":1567,"is_transit":false,"time":8,"station_name":"Gang Sentiong","transit":false,"station_id":"GST","line":11,"i_lat":-6.185975,"i_long":106.850107},{"line":11,"i_lat":-6.193792,"station_id":"KMT","transit":false,"distance":973,"i_long":106.855437,"time":1,"is_transit":false,"station_name":"Kramat"},{"i_lat":-6.209188,"distance":1829,"is_transit":false,"station_name":"Pondok Jati","transit":false,"station_id":"POK","i_long":106.861737,"line":11,"time":2},{"station_name":"Jatinegara","transit":true,"i_lat":-6.215091,"i_long":106.86807400000001,"line":1,"is_transit":true,"station_id":"JNG","time":9,"distance":1236},{"i_long":106.858896,"line":1,"station_name":"Matraman","i_lat":-6.212485,"transit":false,"distance":1377,"station_id":"MTR","time":2,"is_transit":false},{"distance":1275,"transit":false,"station_name":"Manggarai","i_lat":-6.209883,"line":2,"i_long":106.84912,"is_transit":false,"station_id":"MRI","time":2},{"i_long":106.822649,"is_transit":false,"time":4,"i_lat":-6.202263,"transit":false,"station_name":"Sudirman","line":1,"station_id":"SUD","distance":3186},{"is_transit":false,"station_id":"SUDB","transit":false,"i_long":106.819881,"line":1,"time":1,"distance":280,"i_lat":-6.201433,"station_name":"Sudirman Baru"},{"i_lat":-6.20132,"distance":471,"time":1,"is_transit":false,"i_long":106.816351,"station_id":"KAT","station_name":"Karet","transit":false,"line":1},{"line":1,"station_id":"THB","is_transit":true,"i_lat":-6.185545,"station_name":"Tanah Abang","time":5,"i_long":106.811091,"transit":true,"distance":2029},{"time":6,"line":6,"i_long":106.79689,"station_name":"Palmerah","station_id":"PLM","transit":false,"is_transit":false,"distance":3191,"i_lat":-6.207404},{"is_transit":false,"distance":3737,"line":6,"transit":false,"i_long":106.780334,"station_name":"Kebayoran","time":7,"station_id":"KBY","i_lat":-6.237242},{"transit":false,"time":8,"distance":6218,"i_lat":-6.276362,"station_name":"Pondokranji","is_transit":false,"line":6,"i_long":106.74273,"station_id":"PDJ"},{"transit":false,"i_lat":-6.288927,"is_transit":false,"i_long":106.728916,"station_name":"Jurangmangu","station_id":"JMU","line":6,"time":3,"distance":2179},{"station_id":"SDM","time":4,"i_long":106.712277,"station_name":"Sudimara","transit":false,"is_transit":false,"distance":1994,"line":6,"i_lat":-6.296963}]]}