{"data":[[{"distance":0,"is_transit":false,"station_name":"Sawah Besar","transit":false,"time":0,"i_lat":-6.160725,"station_id":"SW","i_long":106.827103,"line":2},{"line":2,"station_name":"Manggabesar","station_id":"MGB","distance":906,"transit":false,"i_lat":-6.149769,"i_long":106.82482,"time":2,"is_transit":false},{"i_long":106.820901,"station_id":"JAY","station_name":"Jayakarta","is_transit":false,"time":2,"i_lat":-6.141205,"transit":false,"line":7,"distance":1080},{"transit":true,"station_name":"Jakarta Kota","is_transit":true,"line":0,"time":4,"distance":1264,"i_lat":-6.137569,"station_id":"JAKK","i_long":106.812439},{"station_id":"KPB","distance":1364,"i_long":106.826365,"line":0,"is_transit":true,"i_lat":-6.132549,"time":3,"station_name":"Kampung Bandan","transit":false},{"i_long":106.79867,"i_lat":-6.144674,"is_transit":false,"distance":4102,"station_name":"Angke","line":0,"transit":false,"time":9,"station_id":"AK"},{"transit":true,"station_name":"Duri","i_long":106.800832,"time":4,"distance":1230,"is_transit":true,"station_id":"DU","i_lat":-6.155215,"line":1},{"station_name":"Tanah Abang","i_lat":-6.185545,"distance":3632,"is_transit":true,"i_long":106.811091,"time":8,"line":1,"transit":true,"station_id":"THB"},{"i_lat":-6.207404,"time":6,"distance":3191,"is_transit":false,"station_name":"Palmerah","line":6,"i_long":106.79689,"transit":false,"station_id":"PLM"},{"is_transit":false,"transit":false,"time":7,"line":6,"station_id":"KBY","station_name":"Kebayoran","distance":3737,"i_lat":-6.237242,"i_long":106.780334},{"station_id":"PDJ","station_name":"Pondokranji","i_lat":-6.276362,"is_transit":false,"distance":6218,"i_long":106.74273,"line":6,"transit":false,"time":8},{"line":6,"transit":false,"station_id":"JMU","station_name":"Jurangmangu","is_transit":false,"distance":2179,"i_long":106.728916,"i_lat":-6.288927,"time":3},{"i_lat":-6.296963,"line":6,"time":4,"station_id":"SDM","distance":1994,"is_transit":false,"station_name":"Sudimara","transit":false,"i_long":106.712277}],[{"i_long":106.827103,"transit":false,"line":2,"i_lat":-6.160725,"distance":0,"station_name":"Sawah Besar","station_id":"SW","is_transit":false,"time":0},{"i_long":106.828284,"line":2,"transit":false,"station_id":"JUA","is_transit":false,"station_name":"Juanda","time":2,"distance":1149,"i_lat":-6.166716},{"i_lat":-6.186295,"i_long":106.832183,"distance":2015,"station_name":"Gondangdia","station_id":"GDD","line":2,"transit":false,"time":4,"is_transit":false},{"time":3,"distance":1750,"i_lat":-6.198556,"station_name":"Cikini","is_transit":false,"i_long":106.840169,"station_id":"CKI","transit":false,"line":0},{"line":0,"is_transit":true,"time":4,"station_name":"Manggarai","station_id":"MRI","transit":true,"i_long":106.84912,"distance":1590,"i_lat":-6.209883},{"station_id":"SUD","time":4,"transit":false,"distance":3186,"line":1,"station_name":"Sudirman","i_lat":-6.202263,"is_transit":false,"i_long":106.822649},{"distance":280,"station_name":"Sudirman Baru","i_lat":-6.201433,"i_long":106.819881,"line":1,"station_id":"SUDB","time":1,"is_transit":false,"transit":false},{"transit":false,"line":1,"distance":471,"i_lat":-6.20132,"station_id":"KAT","time":1,"is_transit":false,"station_name":"Karet","i_long":106.816351},{"i_lat":-6.185545,"i_long":106.811091,"line":1,"station_name":"Tanah Abang","transit":true,"distance":2029,"is_transit":true,"time":5,"station_id":"THB"},{"is_transit":false,"time":6,"station_id":"PLM","transit":false,"i_lat":-6.207404,"i_long":106.79689,"station_name":"Palmerah","line":6,"distance":3191},{"transit":false,"time":7,"is_transit":false,"i_lat":-6.237242,"line":6,"i_long":106.780334,"distance":3737,"station_name":"Kebayoran","station_id":"KBY"},{"i_lat":-6.276362,"station_name":"Pondokranji","is_transit":false,"distance":6218,"i_long":106.74273,"transit":false,"time":8,"line":6,"station_id":"PDJ"},{"is_transit":false,"station_name":"Jurangmangu","distance":2179,"i_lat":-6.288927,"time":3,"transit":false,"i_long":106.728916,"line":6,"station_id":"JMU"},{"transit":false,"i_long":106.712277,"time":4,"is_transit":false,"line":6,"station_name":"Sudimara","i_lat":-6.296963,"station_id":"SDM","distance":1994}],[{"is_transit":false,"station_id":"SW","transit":false,"line":2,"distance":0,"i_lat":-6.160725,"i_long":106.827103,"time":0,"station_name":"Sawah Besar"},{"time":2,"distance":1149,"station_name":"Juanda","station_id":"JUA","line":2,"i_long":106.828284,"is_transit":false,"transit":false,"i_lat":-6.166716},{"station_name":"Gondangdia","time":4,"distance":2015,"is_transit":false,"transit":false,"i_lat":-6.186295,"i_long":106.832183,"line":2,"station_id":"GDD"},{"i_long":106.840169,"distance":1750,"station_name":"Cikini","transit":false,"station_id":"CKI","i_lat":-6.198556,"is_transit":false,"time":3,"line":0},{"time":4,"is_transit":true,"station_name":"Manggarai","i_lat":-6.209883,"station_id":"MRI","transit":true,"line":0,"distance":1590,"i_long":106.84912},{"is_transit":false,"distance":1275,"i_lat":-6.212485,"line":1,"station_name":"Matraman","transit":false,"i_long":106.858896,"station_id":"MTR","time":2},{"station_id":"JNG","is_transit":true,"distance":1377,"station_name":"Jatinegara","i_long":106.86807400000001,"time":8,"line":0,"transit":true,"i_lat":-6.215091},{"time":2,"distance":1236,"is_transit":false,"i_long":106.861737,"transit":false,"i_lat":-6.209188,"line":11,"station_name":"Pondok Jati","station_id":"POK"},{"time":2,"transit":false,"station_id":"KMT","i_long":106.855437,"is_transit":false,"line":11,"distance":1829,"station_name":"Kramat","i_lat":-6.193792},{"line":11,"station_id":"GST","i_long":106.850107,"is_transit":false,"time":1,"i_lat":-6.185975,"distance":973,"station_name":"Gang Sentiong","transit":false},{"station_name":"Pasar Senen","is_transit":false,"transit":false,"distance":1567,"time":8,"line":11,"station_id":"PSE","i_long":106.84368,"i_lat":-6.174784},{"line":11,"station_id":"KMO","is_transit":false,"transit":false,"i_long":106.839204,"time":4,"station_name":"Kemayoran","distance":1436,"i_lat":-6.161728},{"station_id":"RJW","i_lat":-6.14505,"distance":1901,"station_name":"Rajawali","line":11,"is_transit":false,"time":5,"transit":false,"i_long":106.836569},{"is_transit":true,"station_id":"KPB","station_name":"Kampung Bandan","line":0,"i_long":106.826365,"distance":1444,"time":3,"transit":true,"i_lat":-6.132549},{"is_transit":false,"time":9,"transit":false,"station_id":"AK","i_lat":-6.144674,"station_name":"Angke","i_long":106.79867,"distance":4102,"line":0},{"i_long":106.800832,"distance":1230,"line":1,"station_name":"Duri","is_transit":true,"i_lat":-6.155215,"transit":true,"time":4,"station_id":"DU"},{"time":8,"i_lat":-6.185545,"line":1,"station_name":"Tanah Abang","station_id":"THB","i_long":106.811091,"distance":3632,"is_transit":true,"transit":true},{"time":6,"line":6,"i_lat":-6.207404,"i_long":106.79689,"station_name":"Palmerah","transit":false,"distance":3191,"is_transit":false,"station_id":"PLM"},{"station_name":"Kebayoran","time":7,"transit":false,"i_lat":-6.237242,"is_transit":false,"station_id":"KBY","i_long":106.780334,"distance":3737,"line":6},{"time":8,"station_id":"PDJ","is_transit":false,"distance":6218,"station_name":"Pondokranji","transit":false,"i_lat":-6.276362,"i_long":106.74273,"line":6},{"station_name":"Jurangmangu","transit":false,"station_id":"JMU","time":3,"i_lat":-6.288927,"i_long":106.728916,"is_transit":false,"line":6,"distance":2179},{"time":4,"distance":1994,"transit":false,"station_id":"SDM","is_transit":false,"station_name":"Sudimara","i_lat":-6.296963,"i_long":106.712277,"line":6}],[{"distance":0,"time":0,"i_lat":-6.160725,"transit":false,"i_long":106.827103,"line":2,"is_transit":false,"station_name":"Sawah Besar","station_id":"SW"},{"time":2,"i_lat":-6.149769,"i_long":106.82482,"station_id":"MGB","station_name":"Manggabesar","line":2,"transit":false,"is_transit":false,"distance":906},{"is_transit":false,"i_lat":-6.141205,"station_id":"JAY","i_long":106.820901,"line":7,"distance":1080,"transit":false,"time":2,"station_name":"Jayakarta"},{"line":0,"time":4,"i_long":106.812439,"i_lat":-6.137569,"station_id":"JAKK","distance":1264,"is_transit":true,"transit":true,"station_name":"Jakarta Kota"},{"distance":1364,"time":3,"is_transit":true,"station_name":"Kampung Bandan","station_id":"KPB","line":0,"transit":true,"i_long":106.826365,"i_lat":-6.132549},{"station_id":"RJW","line":11,"i_lat":-6.14505,"i_long":106.836569,"station_name":"Rajawali","is_transit":false,"distance":1444,"time":3,"transit":false},{"transit":false,"line":11,"time":5,"i_lat":-6.161728,"is_transit":false,"station_id":"KMO","i_long":106.839204,"distance":1901,"station_name":"Kemayoran"},{"transit":false,"is_transit":false,"time":4,"station_name":"Pasar Senen","distance":1436,"i_long":106.84368,"line":11,"station_id":"PSE","i_lat":-6.174784},{"transit":false,"line":11,"i_long":106.850107,"distance":1567,"is_transit":false,"station_name":"Gang Sentiong","station_id":"GST","time":8,"i_lat":-6.185975},{"transit":false,"station_id":"KMT","line":11,"station_name":"Kramat","distance":973,"is_transit":false,"i_long":106.855437,"time":1,"i_lat":-6.193792},{"time":2,"distance":1829,"line":11,"i_lat":-6.209188,"station_id":"POK","transit":false,"i_long":106.861737,"is_transit":false,"station_name":"Pondok Jati"},{"line":0,"distance":1236,"time":9,"i_lat":-6.215091,"is_transit":true,"station_name":"Jatinegara","transit":true,"i_long":106.86807400000001,"station_id":"JNG"},{"distance":1377,"time":2,"is_transit":false,"line":1,"i_long":106.858896,"station_id":"MTR","station_name":"Matraman","transit":false,"i_lat":-6.212485},{"time":2,"distance":1275,"station_name":"Manggarai","station_id":"MRI","i_long":106.84912,"transit":false,"i_lat":-6.209883,"line":0,"is_transit":true},{"i_long":106.822649,"transit":false,"is_transit":false,"line":1,"i_lat":-6.202263,"distance":3186,"station_id":"SUD","time":4,"station_name":"Sudirman"},{"is_transit":false,"i_lat":-6.201433,"line":1,"time":1,"transit":false,"distance":280,"station_name":"Sudirman Baru","i_long":106.819881,"station_id":"SUDB"},{"distance":471,"station_id":"KAT","transit":false,"time":1,"line":1,"is_transit":false,"i_long":106.816351,"station_name":"Karet","i_lat":-6.20132},{"transit":true,"station_id":"THB","distance":2029,"is_transit":true,"station_name":"Tanah Abang","i_long":106.811091,"line":1,"time":5,"i_lat":-6.185545},{"distance":3191,"station_id":"PLM","station_name":"Palmerah","time":6,"transit":false,"line":6,"is_transit":false,"i_lat":-6.207404,"i_long":106.79689},{"station_id":"KBY","transit":false,"time":7,"line":6,"i_long":106.780334,"is_transit":false,"station_name":"Kebayoran","distance":3737,"i_lat":-6.237242},{"is_transit":false,"station_id":"PDJ","transit":false,"station_name":"Pondokranji","i_lat":-6.276362,"line":6,"i_long":106.74273,"time":8,"distance":6218},{"station_name":"Jurangmangu","transit":false,"station_id":"JMU","i_lat":-6.288927,"i_long":106.728916,"time":3,"distance":2179,"is_transit":false,"line":6},{"line":6,"is_transit":false,"time":4,"distance":1994,"i_lat":-6.296963,"station_name":"Sudimara","station_id":"SDM","i_long":106.712277,"transit":false}]]}