{"data":[[{"time":0,"station_name":"Sawah Besar","i_long":106.827103,"is_transit":false,"station_id":"SW","distance":0,"line":2,"i_lat":-6.160725,"transit":false},{"line":2,"station_id":"JUA","time":2,"i_lat":-6.166716,"station_name":"Juanda","is_transit":false,"transit":false,"distance":1149,"i_long":106.828284},{"station_id":"GDD","i_long":106.832183,"distance":2015,"station_name":"Gondangdia","transit":false,"is_transit":false,"time":4,"i_lat":-6.186295,"line":2},{"i_long":106.840169,"station_name":"Cikini","station_id":"CKI","transit":false,"line":2,"time":3,"i_lat":-6.198556,"distance":1750,"is_transit":false},{"distance":1590,"line":2,"station_id":"MRI","i_lat":-6.209883,"i_long":106.84912,"transit":true,"station_name":"Manggarai","is_transit":true,"time":4},{"i_long":106.822649,"line":1,"distance":3186,"i_lat":-6.202263,"is_transit":false,"station_name":"Sudirman","transit":false,"time":4,"station_id":"SUD"}],[{"station_name":"Sawah Besar","i_long":106.827103,"distance":0,"transit":false,"is_transit":false,"line":2,"station_id":"SW","i_lat":-6.160725,"time":0},{"i_long":106.82482,"distance":906,"station_name":"Manggabesar","station_id":"MGB","i_lat":-6.149769,"transit":false,"is_transit":false,"time":2,"line":2},{"time":2,"line":2,"transit":false,"station_id":"JAY","i_long":106.820901,"is_transit":false,"station_name":"Jayakarta","i_lat":-6.141205,"distance":1080},{"transit":true,"line":2,"i_long":106.812439,"i_lat":-6.137569,"station_id":"JAKK","is_transit":true,"time":4,"distance":1264,"station_name":"Jakarta Kota"},{"station_name":"Kampung Bandan","station_id":"KPB","distance":1364,"is_transit":true,"i_long":106.826365,"transit":true,"i_lat":-6.132549,"line":4,"time":3},{"is_transit":false,"line":1,"station_name":"Angke","distance":4102,"i_long":106.79867,"i_lat":-6.144674,"time":9,"transit":false,"station_id":"AK"},{"i_long":106.800832,"is_transit":false,"transit":false,"line":1,"i_lat":-6.155215,"time":4,"distance":1230,"station_name":"Duri","station_id":"DU"},{"transit":false,"i_lat":-6.185545,"station_id":"THB","i_long":106.811091,"time":8,"line":1,"station_name":"Tanah Abang","is_transit":false,"distance":3632},{"is_transit":false,"station_id":"KAT","transit":false,"i_lat":-6.20132,"station_name":"Karet","line":1,"i_long":106.816351,"distance":2029,"time":5},{"is_transit":false,"i_lat":-6.201433,"transit":false,"distance":471,"line":1,"i_long":106.819881,"station_name":"Sudirman Baru","time":1,"station_id":"SUDB"},{"i_long":106.822649,"station_id":"SUD","station_name":"Sudirman","distance":280,"time":1,"i_lat":-6.202263,"transit":false,"is_transit":false,"line":1}],[{"time":0,"line":2,"i_lat":-6.160725,"transit":false,"distance":0,"is_transit":false,"station_id":"SW","station_name":"Sawah Besar","i_long":106.827103},{"time":2,"transit":false,"station_name":"Manggabesar","is_transit":false,"i_lat":-6.149769,"i_long":106.82482,"line":2,"station_id":"MGB","distance":906},{"station_id":"JAY","distance":1080,"time":2,"i_lat":-6.141205,"i_long":106.820901,"line":2,"transit":false,"is_transit":false,"station_name":"Jayakarta"},{"line":2,"is_transit":true,"station_name":"Jakarta Kota","time":4,"distance":1264,"station_id":"JAKK","transit":true,"i_long":106.812439,"i_lat":-6.137569},{"line":4,"i_lat":-6.132549,"distance":1364,"time":3,"i_long":106.826365,"transit":true,"station_name":"Kampung Bandan","station_id":"KPB","is_transit":true},{"i_long":106.836569,"distance":1444,"station_id":"RJW","station_name":"Rajawali","transit":false,"line":11,"is_transit":false,"time":3,"i_lat":-6.14505},{"i_long":106.839204,"is_transit":false,"station_name":"Kemayoran","transit":false,"i_lat":-6.161728,"distance":1901,"time":5,"station_id":"KMO","line":11},{"station_name":"Pasar Senen","transit":false,"station_id":"PSE","is_transit":false,"distance":1436,"i_long":106.84368,"line":11,"time":4,"i_lat":-6.174784},{"is_transit":false,"station_name":"Gang Sentiong","transit":false,"station_id":"GST","time":8,"distance":1567,"i_lat":-6.185975,"i_long":106.850107,"line":11},{"transit":false,"is_transit":false,"i_lat":-6.193792,"station_name":"Kramat","station_id":"KMT","line":11,"time":1,"i_long":106.855437,"distance":973},{"line":11,"i_long":106.861737,"time":2,"i_lat":-6.209188,"distance":1829,"is_transit":false,"transit":false,"station_name":"Pondok Jati","station_id":"POK"},{"station_id":"JNG","i_lat":-6.215091,"i_long":106.86807400000001,"distance":1236,"is_transit":true,"station_name":"Jatinegara","time":9,"line":1,"transit":true},{"line":1,"station_name":"Matraman","is_transit":false,"i_long":106.858896,"distance":1377,"transit":false,"station_id":"MTR","time":2,"i_lat":-6.212485},{"transit":false,"is_transit":false,"station_name":"Manggarai","station_id":"MRI","i_long":106.84912,"time":2,"distance":1275,"line":2,"i_lat":-6.209883},{"i_lat":-6.202263,"transit":false,"station_name":"Sudirman","time":4,"distance":3186,"i_long":106.822649,"station_id":"SUD","line":1,"is_transit":false}],[{"transit":false,"time":0,"i_long":106.827103,"distance":0,"line":2,"station_name":"Sawah Besar","is_transit":false,"i_lat":-6.160725,"station_id":"SW"},{"station_name":"Juanda","i_long":106.828284,"line":2,"is_transit":false,"distance":1149,"i_lat":-6.166716,"transit":false,"station_id":"JUA","time":2},{"station_name":"Gondangdia","distance":2015,"is_transit":false,"time":4,"station_id":"GDD","transit":false,"i_lat":-6.186295,"i_long":106.832183,"line":2},{"is_transit":false,"transit":false,"station_name":"Cikini","station_id":"CKI","distance":1750,"i_lat":-6.198556,"line":2,"i_long":106.840169,"time":3},{"i_long":106.84912,"distance":1590,"is_transit":true,"station_name":"Manggarai","i_lat":-6.209883,"transit":true,"station_id":"MRI","time":4,"line":2},{"i_lat":-6.212485,"is_transit":false,"station_id":"MTR","distance":1275,"transit":false,"time":2,"i_long":106.858896,"line":1,"station_name":"Matraman"},{"distance":1377,"i_long":106.86807400000001,"line":1,"is_transit":true,"i_lat":-6.215091,"time":8,"station_name":"Jatinegara","station_id":"JNG","transit":true},{"i_long":106.861737,"time":2,"transit":false,"station_id":"POK","station_name":"Pondok Jati","is_transit":false,"distance":1236,"line":11,"i_lat":-6.209188},{"i_lat":-6.193792,"transit":false,"i_long":106.855437,"line":11,"station_id":"KMT","is_transit":false,"distance":1829,"time":2,"station_name":"Kramat"},{"i_lat":-6.185975,"line":11,"station_id":"GST","transit":false,"time":1,"station_name":"Gang Sentiong","is_transit":false,"distance":973,"i_long":106.850107},{"transit":false,"distance":1567,"time":8,"i_long":106.84368,"station_id":"PSE","station_name":"Pasar Senen","is_transit":false,"line":11,"i_lat":-6.174784},{"is_transit":false,"station_id":"KMO","i_lat":-6.161728,"i_long":106.839204,"transit":false,"station_name":"Kemayoran","distance":1436,"line":11,"time":4},{"transit":false,"station_id":"RJW","time":5,"station_name":"Rajawali","is_transit":false,"line":11,"i_long":106.836569,"distance":1901,"i_lat":-6.14505},{"transit":true,"station_id":"KPB","distance":1444,"i_lat":-6.132549,"station_name":"Kampung Bandan","is_transit":true,"time":3,"line":4,"i_long":106.826365},{"distance":4102,"transit":false,"station_id":"AK","station_name":"Angke","line":1,"time":9,"is_transit":false,"i_lat":-6.144674,"i_long":106.79867},{"station_name":"Duri","time":4,"i_long":106.800832,"station_id":"DU","is_transit":false,"distance":1230,"i_lat":-6.155215,"line":1,"transit":false},{"station_id":"THB","distance":3632,"is_transit":false,"i_long":106.811091,"time":8,"station_name":"Tanah Abang","i_lat":-6.185545,"line":1,"transit":false},{"is_transit":false,"distance":2029,"station_name":"Karet","transit":false,"i_lat":-6.20132,"line":1,"time":5,"i_long":106.816351,"station_id":"KAT"},{"distance":471,"time":1,"i_lat":-6.201433,"station_id":"SUDB","line":1,"is_transit":false,"i_long":106.819881,"transit":false,"station_name":"Sudirman Baru"},{"transit":false,"line":1,"i_long":106.822649,"station_id":"SUD","station_name":"Sudirman","time":1,"is_transit":false,"i_lat":-6.202263,"distance":280}]]}