{"data":[[{"i_long":106.827103,"transit":false,"station_name":"Sawah Besar","is_transit":false,"line":2,"distance":0,"station_id":"SW","time":0,"i_lat":-6.160725},{"station_id":"MGB","i_long":106.82482,"distance":906,"station_name":"Manggabesar","time":2,"line":2,"is_transit":false,"transit":false,"i_lat":-6.149769},{"station_name":"Jayakarta","i_lat":-6.141205,"station_id":"JAY","distance":1080,"transit":false,"i_long":106.820901,"line":2,"time":2,"is_transit":false},{"station_id":"JAKK","transit":true,"station_name":"Jakarta Kota","i_long":106.812439,"line":2,"distance":1264,"i_lat":-6.137569,"time":4,"is_transit":true},{"i_long":106.826365,"distance":1364,"transit":true,"station_id":"KPB","i_lat":-6.132549,"is_transit":true,"station_name":"Kampung Bandan","time":3,"line":4},{"time":9,"station_name":"Angke","distance":4102,"i_lat":-6.144674,"station_id":"AK","transit":false,"i_long":106.79867,"is_transit":false,"line":1},{"station_id":"DU","is_transit":false,"distance":1230,"i_lat":-6.155215,"time":4,"transit":false,"station_name":"Duri","i_long":106.800832,"line":1},{"time":8,"station_id":"THB","station_name":"Tanah Abang","line":1,"i_lat":-6.185545,"transit":true,"i_long":106.811091,"distance":3632,"is_transit":true},{"station_id":"PLM","transit":false,"distance":3191,"time":6,"i_lat":-6.207404,"i_long":106.79689,"line":6,"is_transit":false,"station_name":"Palmerah"},{"distance":3737,"i_long":106.780334,"is_transit":false,"station_id":"KBY","i_lat":-6.237242,"line":6,"station_name":"Kebayoran","transit":false,"time":7},{"transit":false,"station_id":"PDJ","distance":6218,"is_transit":false,"station_name":"Pondokranji","i_lat":-6.276362,"i_long":106.74273,"line":6,"time":8},{"transit":false,"station_id":"JMU","i_lat":-6.288927,"line":6,"station_name":"Jurangmangu","is_transit":false,"i_long":106.728916,"time":3,"distance":2179},{"line":6,"time":4,"is_transit":false,"transit":false,"station_id":"SDM","i_long":106.712277,"station_name":"Sudimara","i_lat":-6.296963,"distance":1994},{"line":6,"i_lat":-6.314823,"distance":4566,"i_long":106.675475,"time":6,"station_id":"RU","transit":false,"is_transit":false,"station_name":"Rawa Buntu"},{"station_id":"SRP","i_long":106.66566,"distance":2413,"time":4,"i_lat":-6.319871,"station_name":"Serpong","is_transit":false,"line":6,"transit":false}],[{"i_long":106.827103,"line":2,"station_id":"SW","time":0,"distance":0,"is_transit":false,"station_name":"Sawah Besar","transit":false,"i_lat":-6.160725},{"line":2,"transit":false,"i_long":106.828284,"time":2,"is_transit":false,"i_lat":-6.166716,"station_id":"JUA","station_name":"Juanda","distance":1149},{"station_name":"Gondangdia","line":2,"distance":2015,"time":4,"transit":false,"is_transit":false,"i_long":106.832183,"station_id":"GDD","i_lat":-6.186295},{"distance":1750,"line":2,"is_transit":false,"transit":false,"i_lat":-6.198556,"station_id":"CKI","station_name":"Cikini","i_long":106.840169,"time":3},{"station_id":"MRI","is_transit":true,"transit":true,"line":2,"station_name":"Manggarai","i_lat":-6.209883,"i_long":106.84912,"distance":1590,"time":4},{"is_transit":false,"i_lat":-6.202263,"i_long":106.822649,"time":4,"transit":false,"station_id":"SUD","station_name":"Sudirman","distance":3186,"line":1},{"time":1,"i_long":106.819881,"transit":false,"station_name":"Sudirman Baru","station_id":"SUDB","is_transit":false,"line":1,"i_lat":-6.201433,"distance":280},{"station_id":"KAT","is_transit":false,"distance":471,"transit":false,"station_name":"Karet","i_long":106.816351,"i_lat":-6.20132,"line":1,"time":1},{"time":5,"station_name":"Tanah Abang","i_long":106.811091,"station_id":"THB","transit":true,"is_transit":true,"line":1,"distance":2029,"i_lat":-6.185545},{"station_id":"PLM","is_transit":false,"i_lat":-6.207404,"i_long":106.79689,"line":6,"time":6,"distance":3191,"transit":false,"station_name":"Palmerah"},{"distance":3737,"line":6,"station_name":"Kebayoran","i_long":106.780334,"time":7,"transit":false,"station_id":"KBY","is_transit":false,"i_lat":-6.237242},{"station_name":"Pondokranji","i_long":106.74273,"transit":false,"time":8,"i_lat":-6.276362,"distance":6218,"line":6,"is_transit":false,"station_id":"PDJ"},{"station_id":"JMU","i_long":106.728916,"transit":false,"i_lat":-6.288927,"line":6,"distance":2179,"is_transit":false,"time":3,"station_name":"Jurangmangu"},{"i_lat":-6.296963,"distance":1994,"time":4,"station_id":"SDM","transit":false,"is_transit":false,"i_long":106.712277,"line":6,"station_name":"Sudimara"},{"i_lat":-6.314823,"transit":false,"time":6,"station_id":"RU","distance":4566,"station_name":"Rawa Buntu","i_long":106.675475,"line":6,"is_transit":false},{"station_id":"SRP","station_name":"Serpong","distance":2413,"line":6,"i_long":106.66566,"i_lat":-6.319871,"time":4,"is_transit":false,"transit":false}],[{"station_id":"SW","i_long":106.827103,"time":0,"distance":0,"i_lat":-6.160725,"transit":false,"station_name":"Sawah Besar","is_transit":false,"line":2},{"line":2,"transit":false,"i_long":106.828284,"station_name":"Juanda","station_id":"JUA","i_lat":-6.166716,"distance":1149,"time":2,"is_transit":false},{"transit":false,"time":4,"is_transit":false,"station_name":"Gondangdia","i_lat":-6.186295,"i_long":106.832183,"station_id":"GDD","line":2,"distance":2015},{"is_transit":false,"station_id":"CKI","transit":false,"distance":1750,"time":3,"i_long":106.840169,"station_name":"Cikini","line":2,"i_lat":-6.198556},{"station_id":"MRI","is_transit":true,"transit":true,"station_name":"Manggarai","line":2,"time":4,"i_long":106.84912,"distance":1590,"i_lat":-6.209883},{"distance":1275,"station_id":"MTR","i_long":106.858896,"station_name":"Matraman","i_lat":-6.212485,"is_transit":false,"line":1,"time":2,"transit":false},{"distance":1377,"station_name":"Jatinegara","time":8,"is_transit":true,"i_lat":-6.215091,"i_long":106.86807400000001,"station_id":"JNG","transit":true,"line":1},{"station_name":"Pondok Jati","distance":1236,"station_id":"POK","i_long":106.861737,"is_transit":false,"transit":false,"time":2,"i_lat":-6.209188,"line":11},{"time":2,"transit":false,"station_name":"Kramat","line":11,"station_id":"KMT","i_lat":-6.193792,"i_long":106.855437,"is_transit":false,"distance":1829},{"i_long":106.850107,"station_id":"GST","station_name":"Gang Sentiong","distance":973,"time":1,"is_transit":false,"transit":false,"line":11,"i_lat":-6.185975},{"i_long":106.84368,"is_transit":false,"station_id":"PSE","distance":1567,"transit":false,"station_name":"Pasar Senen","line":11,"time":8,"i_lat":-6.174784},{"time":4,"station_id":"KMO","is_transit":false,"i_long":106.839204,"distance":1436,"i_lat":-6.161728,"line":11,"station_name":"Kemayoran","transit":false},{"i_long":106.836569,"distance":1901,"station_name":"Rajawali","transit":false,"i_lat":-6.14505,"time":5,"is_transit":false,"line":11,"station_id":"RJW"},{"is_transit":true,"i_lat":-6.132549,"station_id":"KPB","station_name":"Kampung Bandan","transit":true,"line":4,"time":3,"i_long":106.826365,"distance":1444},{"station_name":"Angke","line":1,"i_lat":-6.144674,"is_transit":false,"station_id":"AK","time":9,"distance":4102,"transit":false,"i_long":106.79867},{"i_lat":-6.155215,"is_transit":false,"time":4,"distance":1230,"line":1,"i_long":106.800832,"station_id":"DU","station_name":"Duri","transit":false},{"distance":3632,"station_id":"THB","is_transit":true,"station_name":"Tanah Abang","i_lat":-6.185545,"time":8,"transit":true,"line":1,"i_long":106.811091},{"station_id":"PLM","is_transit":false,"time":6,"distance":3191,"i_lat":-6.207404,"station_name":"Palmerah","transit":false,"line":6,"i_long":106.79689},{"is_transit":false,"i_lat":-6.237242,"i_long":106.780334,"station_name":"Kebayoran","line":6,"transit":false,"distance":3737,"station_id":"KBY","time":7},{"i_lat":-6.276362,"time":8,"line":6,"distance":6218,"transit":false,"station_name":"Pondokranji","is_transit":false,"station_id":"PDJ","i_long":106.74273},{"time":3,"i_lat":-6.288927,"station_id":"JMU","line":6,"transit":false,"is_transit":false,"station_name":"Jurangmangu","i_long":106.728916,"distance":2179},{"is_transit":false,"i_lat":-6.296963,"time":4,"station_name":"Sudimara","station_id":"SDM","i_long":106.712277,"line":6,"transit":false,"distance":1994},{"transit":false,"i_long":106.675475,"distance":4566,"is_transit":false,"station_id":"RU","station_name":"Rawa Buntu","i_lat":-6.314823,"time":6,"line":6},{"i_long":106.66566,"is_transit":false,"transit":false,"i_lat":-6.319871,"station_name":"Serpong","time":4,"distance":2413,"line":6,"station_id":"SRP"}],[{"line":2,"is_transit":false,"i_lat":-6.160725,"time":0,"i_long":106.827103,"station_id":"SW","station_name":"Sawah Besar","transit":false,"distance":0},{"transit":false,"i_lat":-6.149769,"station_id":"MGB","is_transit":false,"i_long":106.82482,"station_name":"Manggabesar","time":2,"distance":906,"line":2},{"time":2,"transit":false,"line":2,"is_transit":false,"station_id":"JAY","i_lat":-6.141205,"station_name":"Jayakarta","distance":1080,"i_long":106.820901},{"line":2,"station_name":"Jakarta Kota","i_lat":-6.137569,"distance":1264,"transit":true,"is_transit":true,"station_id":"JAKK","time":4,"i_long":106.812439},{"i_lat":-6.132549,"i_long":106.826365,"line":4,"time":3,"station_id":"KPB","transit":true,"distance":1364,"is_transit":true,"station_name":"Kampung Bandan"},{"i_long":106.836569,"station_name":"Rajawali","station_id":"RJW","line":11,"distance":1444,"transit":false,"i_lat":-6.14505,"is_transit":false,"time":3},{"is_transit":false,"i_lat":-6.161728,"station_id":"KMO","station_name":"Kemayoran","distance":1901,"time":5,"transit":false,"i_long":106.839204,"line":11},{"time":4,"line":11,"transit":false,"i_long":106.84368,"is_transit":false,"station_name":"Pasar Senen","station_id":"PSE","i_lat":-6.174784,"distance":1436},{"station_id":"GST","time":8,"i_lat":-6.185975,"distance":1567,"transit":false,"i_long":106.850107,"station_name":"Gang Sentiong","line":11,"is_transit":false},{"distance":973,"transit":false,"is_transit":false,"time":1,"i_long":106.855437,"station_id":"KMT","i_lat":-6.193792,"station_name":"Kramat","line":11},{"line":11,"station_id":"POK","distance":1829,"is_transit":false,"i_lat":-6.209188,"i_long":106.861737,"time":2,"transit":false,"station_name":"Pondok Jati"},{"station_id":"JNG","i_lat":-6.215091,"station_name":"Jatinegara","is_transit":true,"distance":1236,"line":1,"transit":true,"time":9,"i_long":106.86807400000001},{"is_transit":false,"distance":1377,"time":2,"station_name":"Matraman","station_id":"MTR","line":1,"transit":false,"i_lat":-6.212485,"i_long":106.858896},{"station_id":"MRI","station_name":"Manggarai","time":2,"line":2,"is_transit":false,"i_long":106.84912,"distance":1275,"transit":false,"i_lat":-6.209883},{"distance":3186,"station_id":"SUD","time":4,"i_lat":-6.202263,"i_long":106.822649,"is_transit":false,"line":1,"station_name":"Sudirman","transit":false},{"is_transit":false,"station_id":"SUDB","i_long":106.819881,"i_lat":-6.201433,"line":1,"transit":false,"time":1,"distance":280,"station_name":"Sudirman Baru"},{"station_name":"Karet","line":1,"transit":false,"is_transit":false,"i_lat":-6.20132,"i_long":106.816351,"distance":471,"station_id":"KAT","time":1},{"transit":true,"time":5,"i_lat":-6.185545,"distance":2029,"station_id":"THB","is_transit":true,"i_long":106.811091,"line":1,"station_name":"Tanah Abang"},{"distance":3191,"transit":false,"is_transit":false,"line":6,"i_lat":-6.207404,"i_long":106.79689,"time":6,"station_id":"PLM","station_name":"Palmerah"},{"station_id":"KBY","time":7,"station_name":"Kebayoran","i_lat":-6.237242,"i_long":106.780334,"transit":false,"is_transit":false,"distance":3737,"line":6},{"station_id":"PDJ","i_long":106.74273,"is_transit":false,"time":8,"line":6,"i_lat":-6.276362,"station_name":"Pondokranji","transit":false,"distance":6218},{"i_long":106.728916,"line":6,"distance":2179,"station_id":"JMU","station_name":"Jurangmangu","transit":false,"i_lat":-6.288927,"time":3,"is_transit":false},{"i_long":106.712277,"i_lat":-6.296963,"line":6,"is_transit":false,"station_id":"SDM","transit":false,"distance":1994,"station_name":"Sudimara","time":4},{"i_lat":-6.314823,"distance":4566,"station_name":"Rawa Buntu","line":6,"transit":false,"time":6,"station_id":"RU","i_long":106.675475,"is_transit":false},{"time":4,"station_name":"Serpong","distance":2413,"i_lat":-6.319871,"station_id":"SRP","transit":false,"line":6,"is_transit":false,"i_long":106.66566}]]}