{"data":[[{"transit":false,"distance":0,"station_id":"SW","station_name":"Sawah Besar","i_lat":-6.160725,"time":0,"i_long":106.827103,"is_transit":false,"line":2},{"line":2,"i_lat":-6.166716,"station_name":"Juanda","station_id":"JUA","time":2,"transit":false,"distance":1149,"is_transit":false,"i_long":106.828284},{"line":2,"is_transit":false,"station_name":"Gondangdia","i_long":106.832183,"transit":false,"station_id":"GDD","distance":2015,"i_lat":-6.186295,"time":4},{"is_transit":false,"transit":false,"i_lat":-6.198556,"line":2,"time":3,"station_id":"CKI","i_long":106.840169,"station_name":"Cikini","distance":1750},{"station_id":"MRI","station_name":"Manggarai","i_long":106.84912,"i_lat":-6.209883,"transit":true,"line":2,"distance":1590,"is_transit":true,"time":4},{"distance":3186,"station_id":"SUD","i_lat":-6.202263,"station_name":"Sudirman","line":1,"is_transit":false,"transit":false,"time":4,"i_long":106.822649}],[{"transit":false,"time":0,"i_lat":-6.160725,"i_long":106.827103,"station_id":"SW","distance":0,"line":2,"is_transit":false,"station_name":"Sawah Besar"},{"line":2,"i_long":106.82482,"distance":906,"station_name":"Manggabesar","time":2,"is_transit":false,"station_id":"MGB","i_lat":-6.149769,"transit":false},{"i_long":106.820901,"time":2,"station_id":"JAY","is_transit":false,"i_lat":-6.141205,"transit":false,"station_name":"Jayakarta","line":2,"distance":1080},{"i_long":106.812439,"line":2,"distance":1264,"i_lat":-6.137569,"station_name":"Jakarta Kota","station_id":"JAKK","time":4,"transit":true,"is_transit":true},{"i_lat":-6.132549,"is_transit":true,"time":3,"station_id":"KPB","distance":1364,"station_name":"Kampung Bandan","line":4,"i_long":106.826365,"transit":true},{"station_id":"AK","i_long":106.79867,"time":9,"i_lat":-6.144674,"distance":4102,"station_name":"Angke","is_transit":false,"line":1,"transit":false},{"time":4,"transit":false,"i_lat":-6.155215,"distance":1230,"i_long":106.800832,"is_transit":false,"station_name":"Duri","station_id":"DU","line":1},{"i_lat":-6.185545,"station_name":"Tanah Abang","time":8,"line":1,"distance":3632,"is_transit":false,"station_id":"THB","transit":false,"i_long":106.811091},{"station_id":"KAT","station_name":"Karet","is_transit":false,"time":5,"transit":false,"i_lat":-6.20132,"line":1,"distance":2029,"i_long":106.816351},{"i_long":106.819881,"time":1,"line":1,"is_transit":false,"station_name":"Sudirman Baru","i_lat":-6.201433,"distance":471,"transit":false,"station_id":"SUDB"},{"is_transit":false,"i_long":106.822649,"line":1,"distance":280,"station_id":"SUD","time":1,"station_name":"Sudirman","transit":false,"i_lat":-6.202263}],[{"station_name":"Sawah Besar","line":2,"is_transit":false,"distance":0,"i_long":106.827103,"time":0,"transit":false,"i_lat":-6.160725,"station_id":"SW"},{"time":2,"station_name":"Manggabesar","i_lat":-6.149769,"is_transit":false,"i_long":106.82482,"line":2,"transit":false,"distance":906,"station_id":"MGB"},{"distance":1080,"is_transit":false,"station_id":"JAY","i_lat":-6.141205,"i_long":106.820901,"line":2,"time":2,"station_name":"Jayakarta","transit":false},{"i_lat":-6.137569,"i_long":106.812439,"line":2,"station_name":"Jakarta Kota","distance":1264,"station_id":"JAKK","time":4,"is_transit":true,"transit":true},{"is_transit":true,"i_lat":-6.132549,"station_name":"Kampung Bandan","station_id":"KPB","transit":true,"time":3,"i_long":106.826365,"line":4,"distance":1364},{"transit":false,"station_id":"RJW","is_transit":false,"station_name":"Rajawali","i_lat":-6.14505,"i_long":106.836569,"line":11,"distance":1444,"time":3},{"transit":false,"station_name":"Kemayoran","i_long":106.839204,"station_id":"KMO","is_transit":false,"i_lat":-6.161728,"line":11,"time":5,"distance":1901},{"i_lat":-6.174784,"time":4,"transit":false,"distance":1436,"line":11,"station_name":"Pasar Senen","is_transit":false,"station_id":"PSE","i_long":106.84368},{"station_id":"GST","distance":1567,"line":11,"i_lat":-6.185975,"is_transit":false,"time":8,"transit":false,"station_name":"Gang Sentiong","i_long":106.850107},{"station_name":"Kramat","time":1,"line":11,"distance":973,"is_transit":false,"transit":false,"i_long":106.855437,"i_lat":-6.193792,"station_id":"KMT"},{"line":11,"station_name":"Pondok Jati","is_transit":false,"time":2,"station_id":"POK","distance":1829,"transit":false,"i_lat":-6.209188,"i_long":106.861737},{"distance":1236,"transit":true,"is_transit":true,"i_lat":-6.215091,"i_long":106.86807400000001,"station_name":"Jatinegara","line":1,"time":9,"station_id":"JNG"},{"transit":false,"is_transit":false,"time":2,"i_lat":-6.212485,"line":1,"i_long":106.858896,"station_name":"Matraman","distance":1377,"station_id":"MTR"},{"i_long":106.84912,"station_id":"MRI","line":2,"i_lat":-6.209883,"time":2,"is_transit":false,"station_name":"Manggarai","transit":false,"distance":1275},{"time":4,"transit":false,"i_long":106.822649,"line":1,"station_id":"SUD","distance":3186,"is_transit":false,"station_name":"Sudirman","i_lat":-6.202263}],[{"i_long":106.827103,"line":2,"station_name":"Sawah Besar","transit":false,"i_lat":-6.160725,"time":0,"distance":0,"station_id":"SW","is_transit":false},{"i_long":106.828284,"station_id":"JUA","i_lat":-6.166716,"is_transit":false,"station_name":"Juanda","transit":false,"line":2,"time":2,"distance":1149},{"station_name":"Gondangdia","transit":false,"line":2,"time":4,"is_transit":false,"i_long":106.832183,"i_lat":-6.186295,"station_id":"GDD","distance":2015},{"is_transit":false,"distance":1750,"time":3,"station_id":"CKI","i_lat":-6.198556,"line":2,"transit":false,"station_name":"Cikini","i_long":106.840169},{"station_name":"Manggarai","is_transit":true,"transit":true,"i_long":106.84912,"distance":1590,"station_id":"MRI","time":4,"line":2,"i_lat":-6.209883},{"distance":1275,"time":2,"station_name":"Matraman","line":1,"station_id":"MTR","transit":false,"i_lat":-6.212485,"is_transit":false,"i_long":106.858896},{"i_lat":-6.215091,"distance":1377,"station_name":"Jatinegara","i_long":106.86807400000001,"station_id":"JNG","transit":true,"time":8,"line":1,"is_transit":true},{"station_name":"Pondok Jati","i_lat":-6.209188,"i_long":106.861737,"line":11,"time":2,"station_id":"POK","is_transit":false,"distance":1236,"transit":false},{"transit":false,"i_lat":-6.193792,"time":2,"station_id":"KMT","station_name":"Kramat","is_transit":false,"i_long":106.855437,"line":11,"distance":1829},{"i_long":106.850107,"is_transit":false,"time":1,"transit":false,"station_id":"GST","distance":973,"line":11,"station_name":"Gang Sentiong","i_lat":-6.185975},{"transit":false,"line":11,"station_id":"PSE","station_name":"Pasar Senen","distance":1567,"time":8,"is_transit":false,"i_lat":-6.174784,"i_long":106.84368},{"distance":1436,"time":4,"station_id":"KMO","is_transit":false,"transit":false,"i_lat":-6.161728,"i_long":106.839204,"station_name":"Kemayoran","line":11},{"distance":1901,"i_long":106.836569,"time":5,"transit":false,"station_id":"RJW","i_lat":-6.14505,"is_transit":false,"station_name":"Rajawali","line":11},{"line":4,"station_name":"Kampung Bandan","i_long":106.826365,"time":3,"distance":1444,"station_id":"KPB","is_transit":true,"transit":true,"i_lat":-6.132549},{"line":1,"time":9,"i_lat":-6.144674,"station_id":"AK","is_transit":false,"transit":false,"station_name":"Angke","distance":4102,"i_long":106.79867},{"line":1,"distance":1230,"station_id":"DU","i_long":106.800832,"transit":false,"i_lat":-6.155215,"is_transit":false,"time":4,"station_name":"Duri"},{"station_id":"THB","line":1,"distance":3632,"is_transit":false,"i_lat":-6.185545,"transit":false,"station_name":"Tanah Abang","time":8,"i_long":106.811091},{"station_name":"Karet","distance":2029,"time":5,"station_id":"KAT","transit":false,"i_lat":-6.20132,"is_transit":false,"line":1,"i_long":106.816351},{"line":1,"distance":471,"transit":false,"i_long":106.819881,"station_name":"Sudirman Baru","is_transit":false,"i_lat":-6.201433,"station_id":"SUDB","time":1},{"transit":false,"i_lat":-6.202263,"line":1,"is_transit":false,"time":1,"distance":280,"i_long":106.822649,"station_name":"Sudirman","station_id":"SUD"}]]}