{"data":[[{"station_id":"SW","distance":0,"transit":false,"line":2,"i_long":106.827103,"is_transit":false,"station_name":"Sawah Besar","time":0,"i_lat":-6.160725},{"station_id":"JUA","distance":1149,"transit":false,"i_long":106.828284,"is_transit":false,"station_name":"Juanda","time":2,"i_lat":-6.166716,"line":2},{"distance":2015,"station_id":"GDD","station_name":"Gondangdia","transit":false,"i_lat":-6.186295,"time":4,"is_transit":false,"line":2,"i_long":106.832183},{"i_long":106.840169,"i_lat":-6.198556,"distance":1750,"station_id":"CKI","station_name":"Cikini","transit":false,"line":0,"is_transit":false,"time":3},{"is_transit":true,"transit":true,"i_lat":-6.209883,"line":0,"distance":1590,"station_name":"Manggarai","time":4,"station_id":"MRI","i_long":106.84912},{"i_lat":-6.202263,"i_long":106.822649,"line":1,"is_transit":false,"time":4,"station_id":"SUD","transit":false,"station_name":"Sudirman","distance":3186}],[{"station_id":"SW","time":0,"station_name":"Sawah Besar","i_long":106.827103,"distance":0,"i_lat":-6.160725,"transit":false,"is_transit":false,"line":2},{"station_name":"Manggabesar","line":2,"is_transit":false,"station_id":"MGB","i_lat":-6.149769,"time":2,"distance":906,"i_long":106.82482,"transit":false},{"station_name":"Jayakarta","distance":1080,"time":2,"i_lat":-6.141205,"station_id":"JAY","line":7,"is_transit":false,"i_long":106.820901,"transit":false},{"station_name":"Jakarta Kota","distance":1264,"station_id":"JAKK","transit":true,"time":4,"i_long":106.812439,"line":0,"i_lat":-6.137569,"is_transit":true},{"station_id":"KPB","line":0,"i_long":106.826365,"is_transit":true,"station_name":"Kampung Bandan","transit":false,"distance":1364,"i_lat":-6.132549,"time":3},{"i_long":106.79867,"station_id":"AK","i_lat":-6.144674,"station_name":"Angke","is_transit":false,"transit":false,"line":0,"time":9,"distance":4102},{"distance":1230,"time":4,"transit":true,"i_lat":-6.155215,"station_id":"DU","is_transit":true,"i_long":106.800832,"station_name":"Duri","line":1},{"i_long":106.811091,"line":1,"is_transit":true,"station_id":"THB","station_name":"Tanah Abang","time":8,"transit":false,"i_lat":-6.185545,"distance":3632},{"distance":2029,"time":5,"line":1,"station_id":"KAT","i_lat":-6.20132,"is_transit":false,"transit":false,"station_name":"Karet","i_long":106.816351},{"transit":false,"is_transit":false,"i_long":106.819881,"i_lat":-6.201433,"line":1,"distance":471,"time":1,"station_name":"Sudirman Baru","station_id":"SUDB"},{"line":1,"i_long":106.822649,"time":1,"distance":280,"station_id":"SUD","station_name":"Sudirman","is_transit":false,"transit":false,"i_lat":-6.202263}],[{"is_transit":false,"time":0,"i_lat":-6.160725,"transit":false,"i_long":106.827103,"station_id":"SW","station_name":"Sawah Besar","distance":0,"line":2},{"line":2,"station_name":"Manggabesar","i_long":106.82482,"is_transit":false,"time":2,"transit":false,"i_lat":-6.149769,"distance":906,"station_id":"MGB"},{"station_id":"JAY","line":7,"station_name":"Jayakarta","transit":false,"i_lat":-6.141205,"time":2,"i_long":106.820901,"distance":1080,"is_transit":false},{"line":0,"time":4,"distance":1264,"station_id":"JAKK","station_name":"Jakarta Kota","i_long":106.812439,"is_transit":true,"i_lat":-6.137569,"transit":true},{"station_name":"Kampung Bandan","i_long":106.826365,"i_lat":-6.132549,"transit":true,"distance":1364,"station_id":"KPB","is_transit":true,"time":3,"line":0},{"is_transit":false,"distance":1444,"station_id":"RJW","transit":false,"i_lat":-6.14505,"station_name":"Rajawali","i_long":106.836569,"time":3,"line":11},{"distance":1901,"line":11,"transit":false,"station_id":"KMO","time":5,"is_transit":false,"i_lat":-6.161728,"i_long":106.839204,"station_name":"Kemayoran"},{"transit":false,"station_id":"PSE","i_long":106.84368,"station_name":"Pasar Senen","is_transit":false,"distance":1436,"time":4,"line":11,"i_lat":-6.174784},{"distance":1567,"transit":false,"i_lat":-6.185975,"line":11,"station_id":"GST","is_transit":false,"i_long":106.850107,"time":8,"station_name":"Gang Sentiong"},{"station_id":"KMT","station_name":"Kramat","transit":false,"i_long":106.855437,"line":11,"is_transit":false,"i_lat":-6.193792,"time":1,"distance":973},{"time":2,"distance":1829,"is_transit":false,"i_lat":-6.209188,"transit":false,"station_id":"POK","i_long":106.861737,"station_name":"Pondok Jati","line":11},{"station_name":"Jatinegara","time":9,"is_transit":true,"station_id":"JNG","transit":true,"i_lat":-6.215091,"i_long":106.86807400000001,"line":0,"distance":1236},{"transit":false,"time":2,"i_long":106.858896,"station_id":"MTR","is_transit":false,"station_name":"Matraman","i_lat":-6.212485,"distance":1377,"line":1},{"time":2,"line":0,"station_id":"MRI","transit":false,"distance":1275,"i_long":106.84912,"is_transit":true,"i_lat":-6.209883,"station_name":"Manggarai"},{"time":4,"station_id":"SUD","transit":false,"i_long":106.822649,"station_name":"Sudirman","line":1,"is_transit":false,"distance":3186,"i_lat":-6.202263}],[{"transit":false,"station_id":"SW","distance":0,"time":0,"line":2,"is_transit":false,"i_lat":-6.160725,"station_name":"Sawah Besar","i_long":106.827103},{"time":2,"station_id":"JUA","transit":false,"is_transit":false,"station_name":"Juanda","i_long":106.828284,"distance":1149,"i_lat":-6.166716,"line":2},{"transit":false,"i_long":106.832183,"is_transit":false,"i_lat":-6.186295,"line":2,"distance":2015,"station_name":"Gondangdia","time":4,"station_id":"GDD"},{"is_transit":false,"line":0,"i_long":106.840169,"time":3,"transit":false,"station_name":"Cikini","station_id":"CKI","distance":1750,"i_lat":-6.198556},{"i_lat":-6.209883,"line":0,"station_id":"MRI","transit":true,"i_long":106.84912,"is_transit":true,"station_name":"Manggarai","time":4,"distance":1590},{"distance":1275,"station_id":"MTR","station_name":"Matraman","transit":false,"i_lat":-6.212485,"line":1,"i_long":106.858896,"time":2,"is_transit":false},{"distance":1377,"transit":true,"i_lat":-6.215091,"station_name":"Jatinegara","line":0,"station_id":"JNG","i_long":106.86807400000001,"time":8,"is_transit":true},{"time":2,"is_transit":false,"station_id":"POK","transit":false,"line":11,"station_name":"Pondok Jati","i_long":106.861737,"i_lat":-6.209188,"distance":1236},{"i_lat":-6.193792,"station_name":"Kramat","time":2,"i_long":106.855437,"distance":1829,"line":11,"transit":false,"is_transit":false,"station_id":"KMT"},{"time":1,"distance":973,"station_id":"GST","station_name":"Gang Sentiong","is_transit":false,"transit":false,"line":11,"i_lat":-6.185975,"i_long":106.850107},{"i_lat":-6.174784,"i_long":106.84368,"distance":1567,"is_transit":false,"time":8,"station_name":"Pasar Senen","station_id":"PSE","transit":false,"line":11},{"distance":1436,"is_transit":false,"i_long":106.839204,"station_id":"KMO","line":11,"transit":false,"i_lat":-6.161728,"time":4,"station_name":"Kemayoran"},{"i_long":106.836569,"distance":1901,"is_transit":false,"line":11,"transit":false,"station_name":"Rajawali","station_id":"RJW","time":5,"i_lat":-6.14505},{"i_lat":-6.132549,"time":3,"distance":1444,"i_long":106.826365,"is_transit":true,"transit":true,"station_name":"Kampung Bandan","station_id":"KPB","line":0},{"distance":4102,"transit":false,"i_long":106.79867,"station_id":"AK","time":9,"line":0,"station_name":"Angke","i_lat":-6.144674,"is_transit":false},{"station_id":"DU","is_transit":true,"line":1,"transit":true,"i_long":106.800832,"distance":1230,"i_lat":-6.155215,"station_name":"Duri","time":4},{"time":8,"line":1,"distance":3632,"station_id":"THB","i_lat":-6.185545,"is_transit":true,"transit":false,"i_long":106.811091,"station_name":"Tanah Abang"},{"i_long":106.816351,"line":1,"i_lat":-6.20132,"distance":2029,"station_name":"Karet","station_id":"KAT","time":5,"transit":false,"is_transit":false},{"distance":471,"station_name":"Sudirman Baru","i_long":106.819881,"line":1,"transit":false,"is_transit":false,"station_id":"SUDB","time":1,"i_lat":-6.201433},{"line":1,"i_lat":-6.202263,"is_transit":false,"transit":false,"distance":280,"station_name":"Sudirman","time":1,"station_id":"SUD","i_long":106.822649}]]}