{"data":[[{"transit":false,"station_id":"SW","i_long":106.827103,"line":2,"distance":0,"i_lat":-6.160725,"is_transit":false,"time":0,"station_name":"Sawah Besar"},{"station_name":"Manggabesar","station_id":"MGB","distance":906,"transit":false,"i_lat":-6.149769,"is_transit":false,"i_long":106.82482,"line":2,"time":2},{"i_long":106.820901,"is_transit":false,"transit":false,"station_name":"Jayakarta","i_lat":-6.141205,"time":2,"station_id":"JAY","line":7,"distance":1080},{"transit":true,"is_transit":true,"line":0,"station_id":"JAKK","time":4,"i_lat":-6.137569,"distance":1264,"i_long":106.812439,"station_name":"Jakarta Kota"},{"transit":false,"is_transit":true,"station_name":"Kampung Bandan","i_long":106.826365,"distance":1364,"i_lat":-6.132549,"line":0,"time":3,"station_id":"KPB"},{"station_id":"AK","i_long":106.79867,"station_name":"Angke","transit":false,"i_lat":-6.144674,"distance":4102,"is_transit":false,"time":9,"line":0},{"distance":1230,"line":1,"transit":true,"time":4,"station_id":"DU","is_transit":true,"station_name":"Duri","i_lat":-6.155215,"i_long":106.800832},{"time":3,"i_lat":-6.162021,"i_long":106.788277,"station_name":"Grogol","station_id":"GGL","is_transit":false,"transit":false,"line":5,"distance":1700},{"time":2,"i_long":106.771379,"line":5,"distance":2036,"is_transit":false,"station_name":"Pesing","station_id":"PSG","transit":false,"i_lat":-6.161433},{"distance":1614,"i_lat":-6.1587309999999995,"station_id":"TKO","i_long":106.756522,"station_name":"Taman Kota","time":2,"is_transit":false,"transit":false,"line":5},{"line":0,"transit":false,"station_name":"Bojongindah","time":2,"distance":2334,"i_lat":-6.159876,"station_id":"BOI","i_long":106.737035,"is_transit":false},{"distance":1152,"i_lat":-6.162758,"station_name":"Rawa Buaya","line":5,"i_long":106.723064,"is_transit":false,"station_id":"RW","transit":false,"time":4},{"is_transit":false,"station_name":"Kalideres","line":5,"time":3,"transit":false,"i_long":106.701612,"i_lat":-6.166068,"station_id":"KDS","distance":2504},{"i_lat":-6.169933,"line":5,"station_name":"Poris","transit":false,"is_transit":false,"time":3,"distance":2548,"station_id":"PI","i_long":106.679458},{"i_lat":-6.171811,"i_long":106.665036,"station_id":"BPR","transit":false,"time":3,"station_name":"Batuceper","is_transit":false,"line":0,"distance":1834},{"transit":false,"station_name":"Tanah Tinggi","i_long":106.64657,"station_id":"TTI","distance":2028,"is_transit":false,"i_lat":-6.17331,"time":3,"line":5}],[{"i_long":106.827103,"station_id":"SW","transit":false,"i_lat":-6.160725,"distance":0,"station_name":"Sawah Besar","line":2,"is_transit":false,"time":0},{"i_lat":-6.166716,"station_id":"JUA","distance":1149,"time":2,"i_long":106.828284,"station_name":"Juanda","transit":false,"line":2,"is_transit":false},{"station_name":"Gondangdia","distance":2015,"transit":false,"i_long":106.832183,"is_transit":false,"station_id":"GDD","time":4,"i_lat":-6.186295,"line":2},{"transit":false,"is_transit":false,"distance":1750,"time":3,"i_long":106.840169,"station_id":"CKI","station_name":"Cikini","i_lat":-6.198556,"line":0},{"is_transit":true,"distance":1590,"time":4,"station_id":"MRI","station_name":"Manggarai","transit":true,"i_lat":-6.209883,"i_long":106.84912,"line":0},{"i_lat":-6.202263,"line":1,"time":4,"is_transit":false,"station_id":"SUD","i_long":106.822649,"station_name":"Sudirman","transit":false,"distance":3186},{"i_lat":-6.201433,"line":1,"transit":false,"time":1,"is_transit":false,"distance":280,"i_long":106.819881,"station_name":"Sudirman Baru","station_id":"SUDB"},{"distance":471,"i_lat":-6.20132,"is_transit":false,"transit":false,"station_name":"Karet","i_long":106.816351,"time":1,"line":1,"station_id":"KAT"},{"distance":2029,"line":1,"station_name":"Tanah Abang","i_long":106.811091,"transit":false,"station_id":"THB","time":5,"is_transit":true,"i_lat":-6.185545},{"i_lat":-6.155215,"line":1,"transit":true,"time":8,"i_long":106.800832,"is_transit":true,"station_id":"DU","station_name":"Duri","distance":3632},{"time":3,"distance":1700,"is_transit":false,"line":5,"transit":false,"i_lat":-6.162021,"i_long":106.788277,"station_id":"GGL","station_name":"Grogol"},{"i_long":106.771379,"distance":2036,"is_transit":false,"station_id":"PSG","transit":false,"time":2,"line":5,"i_lat":-6.161433,"station_name":"Pesing"},{"i_lat":-6.1587309999999995,"time":2,"line":5,"i_long":106.756522,"station_id":"TKO","distance":1614,"transit":false,"is_transit":false,"station_name":"Taman Kota"},{"distance":2334,"is_transit":false,"station_id":"BOI","i_lat":-6.159876,"i_long":106.737035,"time":2,"line":0,"station_name":"Bojongindah","transit":false},{"time":4,"line":5,"station_name":"Rawa Buaya","station_id":"RW","transit":false,"i_lat":-6.162758,"distance":1152,"is_transit":false,"i_long":106.723064},{"transit":false,"i_lat":-6.166068,"line":5,"i_long":106.701612,"distance":2504,"is_transit":false,"station_name":"Kalideres","time":3,"station_id":"KDS"},{"time":3,"is_transit":false,"station_id":"PI","station_name":"Poris","i_lat":-6.169933,"i_long":106.679458,"line":5,"transit":false,"distance":2548},{"i_lat":-6.171811,"station_id":"BPR","line":0,"distance":1834,"i_long":106.665036,"transit":false,"is_transit":false,"station_name":"Batuceper","time":3},{"station_name":"Tanah Tinggi","i_lat":-6.17331,"transit":false,"time":3,"distance":2028,"station_id":"TTI","i_long":106.64657,"is_transit":false,"line":5}],[{"transit":false,"station_id":"SW","i_lat":-6.160725,"line":2,"time":0,"station_name":"Sawah Besar","is_transit":false,"distance":0,"i_long":106.827103},{"i_long":106.828284,"time":2,"station_name":"Juanda","i_lat":-6.166716,"line":2,"distance":1149,"is_transit":false,"transit":false,"station_id":"JUA"},{"i_lat":-6.186295,"i_long":106.832183,"transit":false,"time":4,"is_transit":false,"line":2,"station_id":"GDD","station_name":"Gondangdia","distance":2015},{"i_lat":-6.198556,"station_id":"CKI","transit":false,"station_name":"Cikini","time":3,"is_transit":false,"i_long":106.840169,"line":0,"distance":1750},{"i_long":106.84912,"line":0,"transit":true,"station_id":"MRI","station_name":"Manggarai","i_lat":-6.209883,"distance":1590,"is_transit":true,"time":4},{"i_long":106.858896,"is_transit":false,"distance":1275,"station_name":"Matraman","line":1,"i_lat":-6.212485,"station_id":"MTR","transit":false,"time":2},{"transit":true,"time":8,"line":0,"station_name":"Jatinegara","station_id":"JNG","is_transit":true,"distance":1377,"i_long":106.86807400000001,"i_lat":-6.215091},{"i_lat":-6.209188,"is_transit":false,"distance":1236,"line":11,"i_long":106.861737,"time":2,"transit":false,"station_id":"POK","station_name":"Pondok Jati"},{"transit":false,"time":2,"i_lat":-6.193792,"line":11,"is_transit":false,"station_name":"Kramat","i_long":106.855437,"station_id":"KMT","distance":1829},{"i_long":106.850107,"i_lat":-6.185975,"station_name":"Gang Sentiong","station_id":"GST","transit":false,"time":1,"line":11,"is_transit":false,"distance":973},{"i_long":106.84368,"is_transit":false,"time":8,"distance":1567,"line":11,"i_lat":-6.174784,"station_id":"PSE","station_name":"Pasar Senen","transit":false},{"station_id":"KMO","distance":1436,"line":11,"time":4,"station_name":"Kemayoran","transit":false,"i_lat":-6.161728,"is_transit":false,"i_long":106.839204},{"transit":false,"is_transit":false,"time":5,"i_lat":-6.14505,"station_id":"RJW","i_long":106.836569,"station_name":"Rajawali","distance":1901,"line":11},{"is_transit":true,"distance":1444,"i_lat":-6.132549,"station_name":"Kampung Bandan","transit":true,"line":0,"i_long":106.826365,"time":3,"station_id":"KPB"},{"station_id":"AK","transit":false,"is_transit":false,"line":0,"distance":4102,"time":9,"i_long":106.79867,"station_name":"Angke","i_lat":-6.144674},{"station_name":"Duri","transit":true,"time":4,"i_lat":-6.155215,"line":1,"distance":1230,"i_long":106.800832,"is_transit":true,"station_id":"DU"},{"i_lat":-6.162021,"is_transit":false,"time":3,"station_name":"Grogol","i_long":106.788277,"station_id":"GGL","transit":false,"distance":1700,"line":5},{"i_long":106.771379,"station_name":"Pesing","distance":2036,"is_transit":false,"station_id":"PSG","time":2,"i_lat":-6.161433,"line":5,"transit":false},{"transit":false,"i_lat":-6.1587309999999995,"distance":1614,"time":2,"line":5,"station_id":"TKO","is_transit":false,"station_name":"Taman Kota","i_long":106.756522},{"i_lat":-6.159876,"i_long":106.737035,"line":0,"station_name":"Bojongindah","is_transit":false,"distance":2334,"time":2,"station_id":"BOI","transit":false},{"line":5,"station_name":"Rawa Buaya","distance":1152,"i_lat":-6.162758,"time":4,"is_transit":false,"station_id":"RW","transit":false,"i_long":106.723064},{"station_name":"Kalideres","i_lat":-6.166068,"line":5,"is_transit":false,"distance":2504,"transit":false,"i_long":106.701612,"time":3,"station_id":"KDS"},{"time":3,"i_lat":-6.169933,"station_id":"PI","i_long":106.679458,"is_transit":false,"distance":2548,"line":5,"station_name":"Poris","transit":false},{"transit":false,"is_transit":false,"distance":1834,"time":3,"i_long":106.665036,"station_id":"BPR","station_name":"Batuceper","line":0,"i_lat":-6.171811},{"station_name":"Tanah Tinggi","distance":2028,"station_id":"TTI","line":5,"time":3,"i_lat":-6.17331,"i_long":106.64657,"transit":false,"is_transit":false}],[{"station_name":"Sawah Besar","time":0,"station_id":"SW","i_long":106.827103,"line":2,"distance":0,"is_transit":false,"i_lat":-6.160725,"transit":false},{"i_lat":-6.149769,"station_name":"Manggabesar","i_long":106.82482,"station_id":"MGB","distance":906,"is_transit":false,"time":2,"line":2,"transit":false},{"i_long":106.820901,"line":7,"transit":false,"i_lat":-6.141205,"is_transit":false,"time":2,"station_name":"Jayakarta","distance":1080,"station_id":"JAY"},{"station_id":"JAKK","distance":1264,"time":4,"i_lat":-6.137569,"is_transit":true,"i_long":106.812439,"line":0,"station_name":"Jakarta Kota","transit":true},{"station_name":"Kampung Bandan","transit":true,"distance":1364,"time":3,"is_transit":true,"i_long":106.826365,"i_lat":-6.132549,"line":0,"station_id":"KPB"},{"station_name":"Rajawali","i_long":106.836569,"distance":1444,"time":3,"station_id":"RJW","i_lat":-6.14505,"is_transit":false,"transit":false,"line":11},{"line":11,"station_name":"Kemayoran","time":5,"station_id":"KMO","is_transit":false,"transit":false,"i_lat":-6.161728,"i_long":106.839204,"distance":1901},{"time":4,"distance":1436,"transit":false,"station_id":"PSE","i_long":106.84368,"station_name":"Pasar Senen","i_lat":-6.174784,"is_transit":false,"line":11},{"station_id":"GST","station_name":"Gang Sentiong","line":11,"transit":false,"is_transit":false,"i_long":106.850107,"distance":1567,"time":8,"i_lat":-6.185975},{"distance":973,"transit":false,"station_id":"KMT","time":1,"i_lat":-6.193792,"line":11,"i_long":106.855437,"is_transit":false,"station_name":"Kramat"},{"station_id":"POK","is_transit":false,"transit":false,"i_lat":-6.209188,"time":2,"station_name":"Pondok Jati","i_long":106.861737,"distance":1829,"line":11},{"distance":1236,"is_transit":true,"station_id":"JNG","transit":true,"time":9,"line":0,"i_lat":-6.215091,"station_name":"Jatinegara","i_long":106.86807400000001},{"line":1,"is_transit":false,"distance":1377,"i_lat":-6.212485,"station_id":"MTR","transit":false,"i_long":106.858896,"station_name":"Matraman","time":2},{"transit":false,"i_lat":-6.209883,"station_id":"MRI","station_name":"Manggarai","time":2,"distance":1275,"is_transit":true,"i_long":106.84912,"line":0},{"transit":false,"distance":3186,"station_id":"SUD","station_name":"Sudirman","i_lat":-6.202263,"is_transit":false,"line":1,"time":4,"i_long":106.822649},{"i_long":106.819881,"station_id":"SUDB","time":1,"transit":false,"is_transit":false,"station_name":"Sudirman Baru","i_lat":-6.201433,"line":1,"distance":280},{"transit":false,"i_long":106.816351,"is_transit":false,"station_id":"KAT","line":1,"distance":471,"time":1,"station_name":"Karet","i_lat":-6.20132},{"is_transit":true,"time":5,"distance":2029,"transit":false,"station_name":"Tanah Abang","i_long":106.811091,"line":1,"i_lat":-6.185545,"station_id":"THB"},{"time":8,"distance":3632,"transit":true,"station_name":"Duri","i_long":106.800832,"line":1,"is_transit":true,"i_lat":-6.155215,"station_id":"DU"},{"is_transit":false,"time":3,"distance":1700,"station_id":"GGL","i_lat":-6.162021,"station_name":"Grogol","line":5,"i_long":106.788277,"transit":false},{"line":5,"transit":false,"time":2,"station_id":"PSG","station_name":"Pesing","distance":2036,"is_transit":false,"i_lat":-6.161433,"i_long":106.771379},{"station_id":"TKO","time":2,"i_lat":-6.1587309999999995,"is_transit":false,"i_long":106.756522,"line":5,"station_name":"Taman Kota","transit":false,"distance":1614},{"distance":2334,"station_id":"BOI","is_transit":false,"transit":false,"i_lat":-6.159876,"line":0,"time":2,"station_name":"Bojongindah","i_long":106.737035},{"transit":false,"time":4,"station_id":"RW","station_name":"Rawa Buaya","line":5,"distance":1152,"is_transit":false,"i_lat":-6.162758,"i_long":106.723064},{"station_id":"KDS","line":5,"station_name":"Kalideres","time":3,"distance":2504,"transit":false,"is_transit":false,"i_lat":-6.166068,"i_long":106.701612},{"station_id":"PI","distance":2548,"i_lat":-6.169933,"transit":false,"station_name":"Poris","i_long":106.679458,"is_transit":false,"line":5,"time":3},{"transit":false,"station_id":"BPR","station_name":"Batuceper","line":0,"is_transit":false,"i_long":106.665036,"i_lat":-6.171811,"distance":1834,"time":3},{"time":3,"i_lat":-6.17331,"is_transit":false,"distance":2028,"station_id":"TTI","line":5,"transit":false,"station_name":"Tanah Tinggi","i_long":106.64657}]]}