{"data":[[{"is_transit":false,"i_lat":-6.160725,"line":2,"i_long":106.827103,"station_name":"Sawah Besar","transit":false,"time":0,"distance":0,"station_id":"SW"},{"station_name":"Manggabesar","time":2,"i_long":106.82482,"transit":false,"i_lat":-6.149769,"is_transit":false,"distance":906,"line":2,"station_id":"MGB"},{"station_name":"Jayakarta","i_lat":-6.141205,"line":2,"is_transit":false,"time":2,"distance":1080,"transit":false,"station_id":"JAY","i_long":106.820901},{"time":4,"i_long":106.812439,"line":2,"transit":true,"distance":1264,"station_name":"Jakarta Kota","station_id":"JAKK","is_transit":true,"i_lat":-6.137569},{"i_lat":-6.132549,"transit":true,"line":4,"time":3,"i_long":106.826365,"station_id":"KPB","station_name":"Kampung Bandan","distance":1364,"is_transit":true},{"station_name":"Angke","station_id":"AK","distance":4102,"i_long":106.79867,"line":1,"i_lat":-6.144674,"is_transit":false,"time":9,"transit":false},{"i_long":106.800832,"station_name":"Duri","is_transit":true,"line":1,"time":4,"transit":true,"distance":1230,"station_id":"DU","i_lat":-6.155215},{"time":3,"i_long":106.788277,"line":5,"distance":1700,"station_name":"Grogol","station_id":"GGL","transit":false,"i_lat":-6.162021,"is_transit":false},{"i_long":106.771379,"station_id":"PSG","station_name":"Pesing","time":2,"transit":false,"distance":2036,"is_transit":false,"i_lat":-6.161433,"line":5},{"distance":1614,"i_lat":-6.1587309999999995,"line":5,"time":2,"is_transit":false,"transit":false,"station_name":"Taman Kota","i_long":106.756522,"station_id":"TKO"},{"i_long":106.737035,"station_id":"BOI","transit":false,"is_transit":false,"time":2,"distance":2334,"station_name":"Bojongindah","i_lat":-6.159876,"line":5},{"transit":false,"is_transit":false,"i_lat":-6.162758,"i_long":106.723064,"line":5,"station_name":"Rawa Buaya","distance":1152,"station_id":"RW","time":4},{"i_long":106.701612,"is_transit":false,"station_id":"KDS","time":3,"transit":false,"station_name":"Kalideres","line":5,"distance":2504,"i_lat":-6.166068},{"distance":2548,"i_lat":-6.169933,"transit":false,"time":3,"is_transit":false,"i_long":106.679458,"line":5,"station_id":"PI","station_name":"Poris"},{"time":3,"i_long":106.665036,"transit":false,"is_transit":false,"distance":1834,"i_lat":-6.171811,"line":5,"station_name":"Batuceper","station_id":"BPR"},{"station_name":"Tanah Tinggi","i_long":106.64657,"distance":2028,"is_transit":false,"line":5,"transit":false,"i_lat":-6.17331,"station_id":"TTI","time":3}],[{"time":0,"line":2,"station_name":"Sawah Besar","i_long":106.827103,"transit":false,"is_transit":false,"station_id":"SW","distance":0,"i_lat":-6.160725},{"line":2,"transit":false,"station_name":"Juanda","i_lat":-6.166716,"i_long":106.828284,"time":2,"station_id":"JUA","is_transit":false,"distance":1149},{"station_name":"Gondangdia","station_id":"GDD","time":4,"i_lat":-6.186295,"distance":2015,"i_long":106.832183,"line":2,"is_transit":false,"transit":false},{"time":3,"transit":false,"i_lat":-6.198556,"i_long":106.840169,"station_id":"CKI","is_transit":false,"line":2,"station_name":"Cikini","distance":1750},{"time":4,"is_transit":true,"i_lat":-6.209883,"i_long":106.84912,"distance":1590,"line":2,"transit":true,"station_id":"MRI","station_name":"Manggarai"},{"is_transit":false,"time":4,"distance":3186,"i_lat":-6.202263,"i_long":106.822649,"transit":false,"line":1,"station_id":"SUD","station_name":"Sudirman"},{"distance":280,"is_transit":false,"transit":false,"station_name":"Sudirman Baru","line":1,"station_id":"SUDB","i_lat":-6.201433,"i_long":106.819881,"time":1},{"line":1,"transit":false,"i_long":106.816351,"station_id":"KAT","is_transit":false,"i_lat":-6.20132,"distance":471,"station_name":"Karet","time":1},{"distance":2029,"transit":false,"is_transit":false,"i_lat":-6.185545,"time":5,"line":1,"station_name":"Tanah Abang","station_id":"THB","i_long":106.811091},{"time":8,"transit":true,"station_id":"DU","is_transit":true,"distance":3632,"station_name":"Duri","i_lat":-6.155215,"i_long":106.800832,"line":1},{"line":5,"time":3,"i_lat":-6.162021,"distance":1700,"station_id":"GGL","transit":false,"i_long":106.788277,"is_transit":false,"station_name":"Grogol"},{"distance":2036,"i_long":106.771379,"station_name":"Pesing","station_id":"PSG","i_lat":-6.161433,"transit":false,"line":5,"is_transit":false,"time":2},{"is_transit":false,"line":5,"distance":1614,"station_id":"TKO","time":2,"transit":false,"i_lat":-6.1587309999999995,"i_long":106.756522,"station_name":"Taman Kota"},{"i_long":106.737035,"is_transit":false,"time":2,"station_name":"Bojongindah","station_id":"BOI","transit":false,"distance":2334,"i_lat":-6.159876,"line":5},{"line":5,"is_transit":false,"time":4,"i_lat":-6.162758,"i_long":106.723064,"transit":false,"station_id":"RW","distance":1152,"station_name":"Rawa Buaya"},{"line":5,"i_long":106.701612,"time":3,"distance":2504,"station_id":"KDS","is_transit":false,"transit":false,"station_name":"Kalideres","i_lat":-6.166068},{"station_id":"PI","time":3,"station_name":"Poris","transit":false,"distance":2548,"is_transit":false,"i_lat":-6.169933,"i_long":106.679458,"line":5},{"transit":false,"station_id":"BPR","time":3,"is_transit":false,"distance":1834,"i_lat":-6.171811,"line":5,"station_name":"Batuceper","i_long":106.665036},{"distance":2028,"line":5,"station_id":"TTI","i_long":106.64657,"station_name":"Tanah Tinggi","i_lat":-6.17331,"is_transit":false,"transit":false,"time":3}],[{"transit":false,"is_transit":false,"time":0,"i_long":106.827103,"station_name":"Sawah Besar","distance":0,"station_id":"SW","i_lat":-6.160725,"line":2},{"is_transit":false,"transit":false,"i_long":106.828284,"station_id":"JUA","i_lat":-6.166716,"station_name":"Juanda","time":2,"line":2,"distance":1149},{"station_name":"Gondangdia","time":4,"i_long":106.832183,"line":2,"transit":false,"is_transit":false,"station_id":"GDD","distance":2015,"i_lat":-6.186295},{"i_long":106.840169,"transit":false,"station_name":"Cikini","time":3,"station_id":"CKI","is_transit":false,"distance":1750,"i_lat":-6.198556,"line":2},{"time":4,"station_id":"MRI","is_transit":true,"distance":1590,"station_name":"Manggarai","i_lat":-6.209883,"line":2,"transit":true,"i_long":106.84912},{"is_transit":false,"station_id":"MTR","distance":1275,"transit":false,"time":2,"i_long":106.858896,"station_name":"Matraman","i_lat":-6.212485,"line":1},{"is_transit":true,"distance":1377,"i_lat":-6.215091,"transit":true,"line":1,"i_long":106.86807400000001,"time":8,"station_id":"JNG","station_name":"Jatinegara"},{"station_name":"Pondok Jati","distance":1236,"i_long":106.861737,"line":11,"time":2,"transit":false,"station_id":"POK","is_transit":false,"i_lat":-6.209188},{"station_name":"Kramat","time":2,"distance":1829,"line":11,"is_transit":false,"station_id":"KMT","transit":false,"i_lat":-6.193792,"i_long":106.855437},{"station_name":"Gang Sentiong","is_transit":false,"distance":973,"line":11,"time":1,"i_lat":-6.185975,"i_long":106.850107,"transit":false,"station_id":"GST"},{"i_lat":-6.174784,"is_transit":false,"station_id":"PSE","line":11,"transit":false,"distance":1567,"time":8,"i_long":106.84368,"station_name":"Pasar Senen"},{"distance":1436,"i_lat":-6.161728,"line":11,"station_name":"Kemayoran","station_id":"KMO","i_long":106.839204,"transit":false,"is_transit":false,"time":4},{"i_long":106.836569,"time":5,"station_name":"Rajawali","station_id":"RJW","i_lat":-6.14505,"line":11,"is_transit":false,"transit":false,"distance":1901},{"transit":true,"is_transit":true,"line":4,"station_id":"KPB","i_lat":-6.132549,"i_long":106.826365,"station_name":"Kampung Bandan","distance":1444,"time":3},{"i_long":106.79867,"line":1,"i_lat":-6.144674,"distance":4102,"transit":false,"station_name":"Angke","station_id":"AK","is_transit":false,"time":9},{"transit":true,"distance":1230,"time":4,"station_name":"Duri","i_lat":-6.155215,"i_long":106.800832,"line":1,"station_id":"DU","is_transit":true},{"station_name":"Grogol","time":3,"line":5,"i_long":106.788277,"station_id":"GGL","i_lat":-6.162021,"is_transit":false,"distance":1700,"transit":false},{"transit":false,"station_name":"Pesing","i_long":106.771379,"i_lat":-6.161433,"line":5,"station_id":"PSG","time":2,"distance":2036,"is_transit":false},{"station_name":"Taman Kota","i_lat":-6.1587309999999995,"line":5,"station_id":"TKO","i_long":106.756522,"transit":false,"is_transit":false,"time":2,"distance":1614},{"distance":2334,"transit":false,"station_name":"Bojongindah","is_transit":false,"line":5,"station_id":"BOI","i_long":106.737035,"i_lat":-6.159876,"time":2},{"station_name":"Rawa Buaya","i_long":106.723064,"distance":1152,"transit":false,"station_id":"RW","time":4,"i_lat":-6.162758,"is_transit":false,"line":5},{"i_lat":-6.166068,"line":5,"station_id":"KDS","is_transit":false,"i_long":106.701612,"station_name":"Kalideres","time":3,"transit":false,"distance":2504},{"transit":false,"is_transit":false,"line":5,"station_id":"PI","time":3,"station_name":"Poris","distance":2548,"i_lat":-6.169933,"i_long":106.679458},{"transit":false,"is_transit":false,"station_id":"BPR","time":3,"station_name":"Batuceper","i_long":106.665036,"line":5,"distance":1834,"i_lat":-6.171811},{"distance":2028,"transit":false,"station_name":"Tanah Tinggi","station_id":"TTI","i_lat":-6.17331,"i_long":106.64657,"line":5,"time":3,"is_transit":false}],[{"i_lat":-6.160725,"time":0,"station_id":"SW","transit":false,"line":2,"i_long":106.827103,"station_name":"Sawah Besar","is_transit":false,"distance":0},{"is_transit":false,"transit":false,"i_long":106.82482,"line":2,"station_name":"Manggabesar","distance":906,"i_lat":-6.149769,"station_id":"MGB","time":2},{"i_long":106.820901,"station_id":"JAY","station_name":"Jayakarta","is_transit":false,"transit":false,"time":2,"i_lat":-6.141205,"line":2,"distance":1080},{"i_long":106.812439,"i_lat":-6.137569,"distance":1264,"transit":true,"is_transit":true,"time":4,"station_name":"Jakarta Kota","line":2,"station_id":"JAKK"},{"transit":true,"is_transit":true,"station_name":"Kampung Bandan","line":4,"time":3,"i_long":106.826365,"i_lat":-6.132549,"station_id":"KPB","distance":1364},{"time":3,"station_id":"RJW","i_lat":-6.14505,"i_long":106.836569,"transit":false,"line":11,"station_name":"Rajawali","is_transit":false,"distance":1444},{"is_transit":false,"distance":1901,"i_lat":-6.161728,"i_long":106.839204,"station_name":"Kemayoran","station_id":"KMO","time":5,"line":11,"transit":false},{"station_id":"PSE","distance":1436,"i_lat":-6.174784,"i_long":106.84368,"transit":false,"station_name":"Pasar Senen","line":11,"is_transit":false,"time":4},{"i_lat":-6.185975,"transit":false,"distance":1567,"station_id":"GST","i_long":106.850107,"station_name":"Gang Sentiong","line":11,"time":8,"is_transit":false},{"time":1,"station_id":"KMT","station_name":"Kramat","is_transit":false,"distance":973,"transit":false,"i_lat":-6.193792,"i_long":106.855437,"line":11},{"station_name":"Pondok Jati","is_transit":false,"time":2,"station_id":"POK","i_lat":-6.209188,"line":11,"distance":1829,"transit":false,"i_long":106.861737},{"i_lat":-6.215091,"distance":1236,"station_id":"JNG","line":1,"i_long":106.86807400000001,"is_transit":true,"time":9,"station_name":"Jatinegara","transit":true},{"transit":false,"station_name":"Matraman","i_lat":-6.212485,"line":1,"is_transit":false,"station_id":"MTR","i_long":106.858896,"time":2,"distance":1377},{"station_name":"Manggarai","line":2,"station_id":"MRI","i_lat":-6.209883,"i_long":106.84912,"transit":false,"is_transit":false,"time":2,"distance":1275},{"station_name":"Sudirman","station_id":"SUD","i_long":106.822649,"is_transit":false,"line":1,"transit":false,"time":4,"i_lat":-6.202263,"distance":3186},{"line":1,"is_transit":false,"station_id":"SUDB","i_long":106.819881,"distance":280,"transit":false,"station_name":"Sudirman Baru","time":1,"i_lat":-6.201433},{"is_transit":false,"time":1,"station_name":"Karet","distance":471,"line":1,"station_id":"KAT","i_long":106.816351,"transit":false,"i_lat":-6.20132},{"is_transit":false,"time":5,"distance":2029,"i_lat":-6.185545,"transit":false,"line":1,"i_long":106.811091,"station_name":"Tanah Abang","station_id":"THB"},{"transit":true,"i_lat":-6.155215,"time":8,"distance":3632,"line":1,"station_name":"Duri","station_id":"DU","is_transit":true,"i_long":106.800832},{"transit":false,"station_name":"Grogol","time":3,"line":5,"station_id":"GGL","is_transit":false,"distance":1700,"i_lat":-6.162021,"i_long":106.788277},{"line":5,"station_name":"Pesing","i_long":106.771379,"distance":2036,"transit":false,"is_transit":false,"time":2,"i_lat":-6.161433,"station_id":"PSG"},{"distance":1614,"station_name":"Taman Kota","is_transit":false,"time":2,"transit":false,"station_id":"TKO","i_long":106.756522,"line":5,"i_lat":-6.1587309999999995},{"distance":2334,"time":2,"i_lat":-6.159876,"station_name":"Bojongindah","is_transit":false,"station_id":"BOI","transit":false,"i_long":106.737035,"line":5},{"station_id":"RW","station_name":"Rawa Buaya","is_transit":false,"i_lat":-6.162758,"time":4,"i_long":106.723064,"transit":false,"line":5,"distance":1152},{"transit":false,"is_transit":false,"station_name":"Kalideres","time":3,"line":5,"distance":2504,"i_lat":-6.166068,"station_id":"KDS","i_long":106.701612},{"transit":false,"station_name":"Poris","time":3,"i_long":106.679458,"line":5,"distance":2548,"i_lat":-6.169933,"station_id":"PI","is_transit":false},{"station_name":"Batuceper","time":3,"distance":1834,"i_lat":-6.171811,"i_long":106.665036,"line":5,"is_transit":false,"station_id":"BPR","transit":false},{"transit":false,"line":5,"distance":2028,"i_long":106.64657,"station_name":"Tanah Tinggi","station_id":"TTI","is_transit":false,"time":3,"i_lat":-6.17331}]]}