{"data":[[{"transit":false,"is_transit":false,"distance":0,"line":2,"station_name":"Sawah Besar","station_id":"SW","i_lat":-6.160725,"time":0,"i_long":106.827103},{"transit":false,"station_name":"Manggabesar","is_transit":false,"station_id":"MGB","i_lat":-6.149769,"distance":906,"i_long":106.82482,"time":2,"line":2},{"transit":false,"is_transit":false,"i_lat":-6.141205,"station_id":"JAY","station_name":"Jayakarta","time":2,"i_long":106.820901,"distance":1080,"line":2},{"transit":true,"i_long":106.812439,"i_lat":-6.137569,"line":2,"distance":1264,"station_id":"JAKK","is_transit":true,"time":4,"station_name":"Jakarta Kota"},{"is_transit":true,"time":3,"i_lat":-6.132549,"station_id":"KPB","line":4,"transit":true,"i_long":106.826365,"station_name":"Kampung Bandan","distance":1364},{"i_long":106.79867,"distance":4102,"line":1,"station_name":"Angke","is_transit":false,"i_lat":-6.144674,"time":9,"transit":false,"station_id":"AK"},{"transit":true,"distance":1230,"i_long":106.800832,"line":1,"i_lat":-6.155215,"time":4,"is_transit":true,"station_id":"DU","station_name":"Duri"},{"line":5,"station_id":"GRG","is_transit":false,"i_long":106.788277,"distance":1700,"time":3,"station_name":"Grogol","transit":false,"i_lat":-6.162021},{"transit":false,"time":2,"station_id":"PSG","distance":2036,"i_lat":-6.161433,"i_long":106.771379,"line":5,"is_transit":false,"station_name":"Pesing"},{"transit":false,"i_long":106.756522,"i_lat":-6.1587309999999995,"time":2,"line":5,"is_transit":false,"distance":1614,"station_id":"TKO","station_name":"Taman Kota"},{"line":5,"transit":false,"is_transit":false,"distance":2334,"i_long":106.737035,"station_name":"Bojongindah","station_id":"BOI","i_lat":-6.159876,"time":2},{"i_long":106.723064,"station_id":"RW","i_lat":-6.162758,"distance":1152,"line":5,"is_transit":false,"transit":false,"station_name":"Rawa Buaya","time":4},{"i_lat":-6.166068,"time":3,"distance":2504,"transit":false,"i_long":106.701612,"station_name":"Kalideres","is_transit":false,"line":5,"station_id":"KDS"},{"i_lat":-6.169933,"transit":false,"line":5,"distance":2548,"station_id":"PI","time":3,"station_name":"Poris","i_long":106.679458,"is_transit":false},{"i_long":106.665036,"transit":false,"time":3,"distance":1834,"station_name":"Batuceper","is_transit":false,"line":5,"station_id":"BPR","i_lat":-6.171811},{"i_long":106.64657,"is_transit":false,"i_lat":-6.17331,"time":3,"transit":false,"line":5,"distance":2028,"station_id":"TTI","station_name":"Tanah Tinggi"}],[{"i_long":106.827103,"line":2,"distance":0,"station_id":"SW","station_name":"Sawah Besar","time":0,"i_lat":-6.160725,"transit":false,"is_transit":false},{"transit":false,"station_name":"Juanda","is_transit":false,"i_long":106.828284,"station_id":"JUA","line":2,"distance":1149,"time":2,"i_lat":-6.166716},{"transit":false,"station_name":"Gondangdia","i_long":106.832183,"station_id":"GDD","line":2,"time":4,"i_lat":-6.186295,"distance":2015,"is_transit":false},{"i_long":106.840169,"distance":1750,"time":3,"line":2,"station_id":"CKI","station_name":"Cikini","is_transit":false,"transit":false,"i_lat":-6.198556},{"time":4,"transit":true,"station_name":"Manggarai","is_transit":true,"distance":1590,"station_id":"MRI","i_long":106.84912,"i_lat":-6.209883,"line":2},{"distance":3186,"station_name":"Sudirman","time":4,"i_long":106.822649,"transit":false,"i_lat":-6.202263,"is_transit":false,"line":1,"station_id":"SUD"},{"i_lat":-6.201433,"station_name":"Sudirman Baru","is_transit":false,"time":1,"station_id":"SUDB","transit":false,"distance":280,"i_long":106.819881,"line":1},{"line":1,"i_long":106.816351,"transit":false,"station_id":"KAT","distance":471,"is_transit":false,"station_name":"Karet","time":1,"i_lat":-6.20132},{"time":5,"transit":false,"station_name":"Tanah Abang","station_id":"THB","distance":2029,"line":1,"i_lat":-6.185545,"is_transit":false,"i_long":106.811091},{"distance":3632,"i_long":106.800832,"transit":true,"station_name":"Duri","line":1,"time":8,"i_lat":-6.155215,"station_id":"DU","is_transit":true},{"station_name":"Grogol","transit":false,"is_transit":false,"i_long":106.788277,"line":5,"distance":1700,"time":3,"station_id":"GRG","i_lat":-6.162021},{"distance":2036,"i_lat":-6.161433,"station_id":"PSG","line":5,"is_transit":false,"transit":false,"i_long":106.771379,"time":2,"station_name":"Pesing"},{"station_id":"TKO","is_transit":false,"i_lat":-6.1587309999999995,"distance":1614,"time":2,"line":5,"transit":false,"station_name":"Taman Kota","i_long":106.756522},{"line":5,"distance":2334,"i_lat":-6.159876,"i_long":106.737035,"station_id":"BOI","is_transit":false,"time":2,"station_name":"Bojongindah","transit":false},{"distance":1152,"line":5,"transit":false,"time":4,"is_transit":false,"i_long":106.723064,"station_id":"RW","station_name":"Rawa Buaya","i_lat":-6.162758},{"i_lat":-6.166068,"station_id":"KDS","line":5,"is_transit":false,"time":3,"transit":false,"station_name":"Kalideres","distance":2504,"i_long":106.701612},{"line":5,"station_name":"Poris","is_transit":false,"transit":false,"station_id":"PI","distance":2548,"time":3,"i_long":106.679458,"i_lat":-6.169933},{"station_id":"BPR","time":3,"i_lat":-6.171811,"transit":false,"is_transit":false,"line":5,"i_long":106.665036,"station_name":"Batuceper","distance":1834},{"distance":2028,"time":3,"station_id":"TTI","transit":false,"station_name":"Tanah Tinggi","is_transit":false,"line":5,"i_long":106.64657,"i_lat":-6.17331}],[{"is_transit":false,"i_lat":-6.160725,"time":0,"distance":0,"station_id":"SW","transit":false,"i_long":106.827103,"line":2,"station_name":"Sawah Besar"},{"time":2,"station_name":"Juanda","i_long":106.828284,"is_transit":false,"i_lat":-6.166716,"line":2,"transit":false,"station_id":"JUA","distance":1149},{"distance":2015,"line":2,"i_long":106.832183,"i_lat":-6.186295,"station_name":"Gondangdia","transit":false,"is_transit":false,"station_id":"GDD","time":4},{"i_long":106.840169,"distance":1750,"station_name":"Cikini","time":3,"is_transit":false,"line":2,"i_lat":-6.198556,"station_id":"CKI","transit":false},{"station_id":"MRI","i_lat":-6.209883,"station_name":"Manggarai","line":2,"time":4,"i_long":106.84912,"transit":true,"distance":1590,"is_transit":true},{"line":1,"transit":false,"station_name":"Matraman","distance":1275,"time":2,"i_long":106.858896,"station_id":"MTR","i_lat":-6.212485,"is_transit":false},{"station_id":"JNG","transit":true,"i_lat":-6.215091,"i_long":106.86807400000001,"is_transit":true,"time":8,"distance":1377,"station_name":"Jatinegara","line":1},{"i_lat":-6.209188,"line":11,"station_name":"Pondok Jati","station_id":"POK","time":2,"distance":1236,"i_long":106.861737,"is_transit":false,"transit":false},{"transit":false,"i_long":106.855437,"distance":1829,"line":11,"time":2,"station_name":"Kramat","i_lat":-6.193792,"is_transit":false,"station_id":"KMT"},{"time":1,"i_long":106.850107,"station_name":"Gang Sentiong","is_transit":false,"line":11,"transit":false,"i_lat":-6.185975,"distance":973,"station_id":"GST"},{"i_lat":-6.174784,"station_id":"PSE","i_long":106.84368,"is_transit":false,"station_name":"Pasar Senen","transit":false,"line":11,"time":8,"distance":1567},{"station_name":"Kemayoran","station_id":"KMO","transit":false,"i_long":106.839204,"time":4,"is_transit":false,"i_lat":-6.161728,"line":11,"distance":1436},{"line":11,"i_long":106.836569,"time":5,"station_name":"Rajawali","distance":1901,"station_id":"RJW","transit":false,"is_transit":false,"i_lat":-6.14505},{"line":4,"station_id":"KPB","is_transit":true,"i_lat":-6.132549,"station_name":"Kampung Bandan","time":3,"i_long":106.826365,"transit":true,"distance":1444},{"time":9,"line":1,"i_long":106.79867,"station_name":"Angke","station_id":"AK","transit":false,"is_transit":false,"distance":4102,"i_lat":-6.144674},{"is_transit":true,"distance":1230,"line":1,"transit":true,"i_long":106.800832,"station_name":"Duri","time":4,"station_id":"DU","i_lat":-6.155215},{"transit":false,"time":3,"distance":1700,"i_lat":-6.162021,"station_name":"Grogol","is_transit":false,"line":5,"i_long":106.788277,"station_id":"GRG"},{"station_name":"Pesing","transit":false,"is_transit":false,"station_id":"PSG","distance":2036,"i_long":106.771379,"line":5,"time":2,"i_lat":-6.161433},{"distance":1614,"station_id":"TKO","i_lat":-6.1587309999999995,"line":5,"transit":false,"time":2,"station_name":"Taman Kota","is_transit":false,"i_long":106.756522},{"time":2,"distance":2334,"transit":false,"station_name":"Bojongindah","i_long":106.737035,"line":5,"station_id":"BOI","is_transit":false,"i_lat":-6.159876},{"station_id":"RW","line":5,"time":4,"transit":false,"i_lat":-6.162758,"distance":1152,"is_transit":false,"i_long":106.723064,"station_name":"Rawa Buaya"},{"station_name":"Kalideres","station_id":"KDS","i_long":106.701612,"time":3,"distance":2504,"is_transit":false,"transit":false,"i_lat":-6.166068,"line":5},{"i_long":106.679458,"station_id":"PI","line":5,"station_name":"Poris","time":3,"is_transit":false,"i_lat":-6.169933,"transit":false,"distance":2548},{"station_id":"BPR","transit":false,"distance":1834,"station_name":"Batuceper","i_long":106.665036,"i_lat":-6.171811,"line":5,"time":3,"is_transit":false},{"i_long":106.64657,"transit":false,"time":3,"line":5,"station_name":"Tanah Tinggi","is_transit":false,"distance":2028,"station_id":"TTI","i_lat":-6.17331}],[{"is_transit":false,"i_long":106.827103,"i_lat":-6.160725,"station_id":"SW","line":2,"station_name":"Sawah Besar","distance":0,"transit":false,"time":0},{"distance":906,"station_id":"MGB","i_lat":-6.149769,"i_long":106.82482,"station_name":"Manggabesar","line":2,"is_transit":false,"transit":false,"time":2},{"transit":false,"time":2,"is_transit":false,"i_lat":-6.141205,"i_long":106.820901,"station_name":"Jayakarta","distance":1080,"line":2,"station_id":"JAY"},{"line":2,"transit":true,"is_transit":true,"station_id":"JAKK","station_name":"Jakarta Kota","distance":1264,"time":4,"i_long":106.812439,"i_lat":-6.137569},{"time":3,"i_long":106.826365,"transit":true,"station_id":"KPB","station_name":"Kampung Bandan","is_transit":true,"i_lat":-6.132549,"distance":1364,"line":4},{"station_name":"Rajawali","i_long":106.836569,"distance":1444,"transit":false,"is_transit":false,"i_lat":-6.14505,"line":11,"station_id":"RJW","time":3},{"transit":false,"station_id":"KMO","is_transit":false,"i_lat":-6.161728,"station_name":"Kemayoran","line":11,"time":5,"i_long":106.839204,"distance":1901},{"is_transit":false,"i_lat":-6.174784,"i_long":106.84368,"station_name":"Pasar Senen","distance":1436,"line":11,"station_id":"PSE","transit":false,"time":4},{"transit":false,"distance":1567,"time":8,"i_long":106.850107,"line":11,"station_name":"Gang Sentiong","i_lat":-6.185975,"is_transit":false,"station_id":"GST"},{"distance":973,"i_long":106.855437,"time":1,"is_transit":false,"i_lat":-6.193792,"station_id":"KMT","line":11,"station_name":"Kramat","transit":false},{"transit":false,"line":11,"i_lat":-6.209188,"is_transit":false,"i_long":106.861737,"station_name":"Pondok Jati","distance":1829,"time":2,"station_id":"POK"},{"station_name":"Jatinegara","time":9,"line":1,"i_lat":-6.215091,"station_id":"JNG","distance":1236,"transit":true,"is_transit":true,"i_long":106.86807400000001},{"is_transit":false,"line":1,"i_lat":-6.212485,"station_id":"MTR","distance":1377,"transit":false,"time":2,"i_long":106.858896,"station_name":"Matraman"},{"station_id":"MRI","time":2,"i_long":106.84912,"distance":1275,"line":2,"station_name":"Manggarai","i_lat":-6.209883,"is_transit":false,"transit":false},{"line":1,"station_name":"Sudirman","station_id":"SUD","time":4,"i_lat":-6.202263,"i_long":106.822649,"is_transit":false,"transit":false,"distance":3186},{"transit":false,"is_transit":false,"station_id":"SUDB","i_long":106.819881,"distance":280,"station_name":"Sudirman Baru","time":1,"i_lat":-6.201433,"line":1},{"i_lat":-6.20132,"line":1,"station_id":"KAT","transit":false,"distance":471,"time":1,"i_long":106.816351,"station_name":"Karet","is_transit":false},{"is_transit":false,"i_long":106.811091,"i_lat":-6.185545,"transit":false,"distance":2029,"time":5,"station_name":"Tanah Abang","station_id":"THB","line":1},{"i_lat":-6.155215,"transit":true,"station_name":"Duri","distance":3632,"station_id":"DU","i_long":106.800832,"time":8,"line":1,"is_transit":true},{"line":5,"station_name":"Grogol","station_id":"GRG","transit":false,"time":3,"is_transit":false,"distance":1700,"i_lat":-6.162021,"i_long":106.788277},{"time":2,"station_name":"Pesing","distance":2036,"i_long":106.771379,"line":5,"station_id":"PSG","transit":false,"is_transit":false,"i_lat":-6.161433},{"station_id":"TKO","i_lat":-6.1587309999999995,"time":2,"station_name":"Taman Kota","is_transit":false,"line":5,"i_long":106.756522,"distance":1614,"transit":false},{"station_name":"Bojongindah","transit":false,"i_lat":-6.159876,"i_long":106.737035,"is_transit":false,"distance":2334,"line":5,"time":2,"station_id":"BOI"},{"is_transit":false,"i_lat":-6.162758,"line":5,"transit":false,"station_id":"RW","station_name":"Rawa Buaya","i_long":106.723064,"distance":1152,"time":4},{"time":3,"is_transit":false,"station_name":"Kalideres","i_lat":-6.166068,"i_long":106.701612,"line":5,"transit":false,"station_id":"KDS","distance":2504},{"is_transit":false,"transit":false,"time":3,"station_name":"Poris","line":5,"station_id":"PI","i_lat":-6.169933,"i_long":106.679458,"distance":2548},{"i_long":106.665036,"station_id":"BPR","line":5,"is_transit":false,"distance":1834,"transit":false,"time":3,"i_lat":-6.171811,"station_name":"Batuceper"},{"distance":2028,"line":5,"time":3,"station_name":"Tanah Tinggi","is_transit":false,"station_id":"TTI","transit":false,"i_long":106.64657,"i_lat":-6.17331}]]}