{"data":[[{"i_lat":-6.160725,"transit":false,"is_transit":false,"distance":0,"station_name":"Sawah Besar","i_long":106.827103,"line":2,"station_id":"SW","time":0},{"i_long":106.82482,"distance":906,"station_name":"Manggabesar","is_transit":false,"time":2,"station_id":"MGB","transit":false,"i_lat":-6.149769,"line":2},{"distance":1080,"is_transit":false,"line":2,"time":2,"i_lat":-6.141205,"station_name":"Jayakarta","i_long":106.820901,"station_id":"JAY","transit":false},{"transit":true,"i_long":106.812439,"line":2,"is_transit":true,"station_id":"JAKK","station_name":"Jakarta Kota","time":4,"i_lat":-6.137569,"distance":1264},{"is_transit":true,"i_long":106.826365,"station_id":"KPB","i_lat":-6.132549,"distance":1364,"time":3,"transit":true,"line":4,"station_name":"Kampung Bandan"},{"station_id":"AK","is_transit":false,"i_long":106.79867,"line":1,"distance":4102,"station_name":"Angke","time":9,"transit":false,"i_lat":-6.144674},{"is_transit":true,"distance":1230,"i_long":106.800832,"station_id":"DU","i_lat":-6.155215,"time":4,"transit":true,"station_name":"Duri","line":1},{"station_name":"Grogol","is_transit":false,"time":3,"station_id":"GGL","transit":false,"line":5,"i_lat":-6.162021,"i_long":106.788277,"distance":1700},{"i_long":106.771379,"station_name":"Pesing","transit":false,"distance":2036,"is_transit":false,"station_id":"PSG","i_lat":-6.161433,"time":2,"line":5},{"line":5,"distance":1614,"i_long":106.756522,"time":2,"transit":false,"is_transit":false,"station_name":"Taman Kota","station_id":"TKO","i_lat":-6.1587309999999995},{"station_name":"Bojongindah","is_transit":false,"i_lat":-6.159876,"time":2,"distance":2334,"i_long":106.737035,"transit":false,"line":5,"station_id":"BOI"},{"transit":false,"i_long":106.723064,"is_transit":false,"time":4,"i_lat":-6.162758,"station_name":"Rawa Buaya","line":5,"distance":1152,"station_id":"RW"},{"line":5,"i_long":106.701612,"station_name":"Kalideres","station_id":"KDS","distance":2504,"time":3,"i_lat":-6.166068,"is_transit":false,"transit":false},{"i_long":106.679458,"is_transit":false,"time":3,"line":5,"station_id":"PI","station_name":"Poris","i_lat":-6.169933,"transit":false,"distance":2548},{"time":3,"distance":1834,"i_long":106.665036,"line":5,"i_lat":-6.171811,"station_name":"Batuceper","is_transit":false,"transit":false,"station_id":"BPR"},{"transit":false,"distance":2028,"line":5,"station_name":"Tanah Tinggi","i_long":106.64657,"time":3,"i_lat":-6.17331,"is_transit":false,"station_id":"TTI"}],[{"line":2,"time":0,"i_lat":-6.160725,"distance":0,"station_name":"Sawah Besar","is_transit":false,"i_long":106.827103,"transit":false,"station_id":"SW"},{"is_transit":false,"i_long":106.828284,"line":2,"i_lat":-6.166716,"distance":1149,"station_id":"JUA","transit":false,"station_name":"Juanda","time":2},{"i_lat":-6.186295,"time":4,"line":2,"station_name":"Gondangdia","is_transit":false,"station_id":"GDD","i_long":106.832183,"distance":2015,"transit":false},{"i_long":106.840169,"line":2,"distance":1750,"transit":false,"time":3,"station_id":"CKI","is_transit":false,"i_lat":-6.198556,"station_name":"Cikini"},{"station_name":"Manggarai","time":4,"station_id":"MRI","i_lat":-6.209883,"distance":1590,"is_transit":true,"transit":true,"i_long":106.84912,"line":2},{"transit":false,"is_transit":false,"i_lat":-6.202263,"i_long":106.822649,"line":1,"station_id":"SUD","distance":3186,"station_name":"Sudirman","time":4},{"station_name":"Sudirman Baru","is_transit":false,"distance":280,"i_lat":-6.201433,"station_id":"SUDB","transit":false,"line":1,"time":1,"i_long":106.819881},{"time":1,"line":1,"transit":false,"distance":471,"is_transit":false,"i_long":106.816351,"i_lat":-6.20132,"station_id":"KAT","station_name":"Karet"},{"distance":2029,"station_id":"THB","i_lat":-6.185545,"time":5,"transit":false,"is_transit":false,"i_long":106.811091,"station_name":"Tanah Abang","line":1},{"time":8,"i_lat":-6.155215,"station_name":"Duri","transit":true,"i_long":106.800832,"distance":3632,"station_id":"DU","is_transit":true,"line":1},{"time":3,"line":5,"i_lat":-6.162021,"i_long":106.788277,"station_name":"Grogol","station_id":"GGL","transit":false,"is_transit":false,"distance":1700},{"distance":2036,"station_id":"PSG","i_long":106.771379,"is_transit":false,"transit":false,"line":5,"time":2,"station_name":"Pesing","i_lat":-6.161433},{"line":5,"station_id":"TKO","transit":false,"i_long":106.756522,"station_name":"Taman Kota","is_transit":false,"time":2,"i_lat":-6.1587309999999995,"distance":1614},{"is_transit":false,"i_long":106.737035,"station_id":"BOI","distance":2334,"time":2,"transit":false,"station_name":"Bojongindah","line":5,"i_lat":-6.159876},{"is_transit":false,"time":4,"transit":false,"line":5,"distance":1152,"station_id":"RW","station_name":"Rawa Buaya","i_lat":-6.162758,"i_long":106.723064},{"station_id":"KDS","distance":2504,"station_name":"Kalideres","i_lat":-6.166068,"time":3,"transit":false,"i_long":106.701612,"is_transit":false,"line":5},{"line":5,"transit":false,"is_transit":false,"distance":2548,"time":3,"i_lat":-6.169933,"i_long":106.679458,"station_name":"Poris","station_id":"PI"},{"station_id":"BPR","i_long":106.665036,"station_name":"Batuceper","is_transit":false,"time":3,"i_lat":-6.171811,"line":5,"distance":1834,"transit":false},{"is_transit":false,"i_long":106.64657,"station_name":"Tanah Tinggi","distance":2028,"transit":false,"station_id":"TTI","time":3,"line":5,"i_lat":-6.17331}],[{"is_transit":false,"transit":false,"line":2,"distance":0,"station_id":"SW","station_name":"Sawah Besar","i_lat":-6.160725,"time":0,"i_long":106.827103},{"time":2,"station_id":"JUA","transit":false,"distance":1149,"i_lat":-6.166716,"line":2,"i_long":106.828284,"is_transit":false,"station_name":"Juanda"},{"time":4,"transit":false,"i_lat":-6.186295,"distance":2015,"station_name":"Gondangdia","line":2,"station_id":"GDD","i_long":106.832183,"is_transit":false},{"i_lat":-6.198556,"i_long":106.840169,"transit":false,"station_id":"CKI","time":3,"distance":1750,"is_transit":false,"line":2,"station_name":"Cikini"},{"station_name":"Manggarai","i_lat":-6.209883,"i_long":106.84912,"transit":true,"station_id":"MRI","is_transit":true,"distance":1590,"line":2,"time":4},{"i_long":106.858896,"line":1,"transit":false,"distance":1275,"station_id":"MTR","is_transit":false,"station_name":"Matraman","time":2,"i_lat":-6.212485},{"station_id":"JNG","time":8,"i_lat":-6.215091,"line":1,"station_name":"Jatinegara","transit":true,"distance":1377,"i_long":106.86807400000001,"is_transit":true},{"line":11,"time":2,"transit":false,"station_id":"POK","is_transit":false,"station_name":"Pondok Jati","distance":1236,"i_lat":-6.209188,"i_long":106.861737},{"is_transit":false,"line":11,"time":2,"transit":false,"i_lat":-6.193792,"station_name":"Kramat","i_long":106.855437,"station_id":"KMT","distance":1829},{"is_transit":false,"i_lat":-6.185975,"line":11,"station_id":"GST","time":1,"distance":973,"station_name":"Gang Sentiong","i_long":106.850107,"transit":false},{"i_long":106.84368,"i_lat":-6.174784,"station_name":"Pasar Senen","time":8,"is_transit":false,"line":11,"transit":false,"station_id":"PSE","distance":1567},{"time":4,"transit":false,"station_id":"KMO","i_long":106.839204,"station_name":"Kemayoran","distance":1436,"i_lat":-6.161728,"is_transit":false,"line":11},{"transit":false,"is_transit":false,"distance":1901,"time":5,"station_name":"Rajawali","i_long":106.836569,"i_lat":-6.14505,"line":11,"station_id":"RJW"},{"transit":true,"i_lat":-6.132549,"time":3,"distance":1444,"i_long":106.826365,"is_transit":true,"station_name":"Kampung Bandan","line":4,"station_id":"KPB"},{"station_name":"Angke","i_long":106.79867,"transit":false,"distance":4102,"i_lat":-6.144674,"is_transit":false,"station_id":"AK","time":9,"line":1},{"transit":true,"distance":1230,"is_transit":true,"station_name":"Duri","station_id":"DU","i_long":106.800832,"i_lat":-6.155215,"line":1,"time":4},{"time":3,"i_lat":-6.162021,"transit":false,"station_id":"GGL","is_transit":false,"distance":1700,"line":5,"i_long":106.788277,"station_name":"Grogol"},{"i_lat":-6.161433,"time":2,"is_transit":false,"i_long":106.771379,"station_id":"PSG","distance":2036,"station_name":"Pesing","transit":false,"line":5},{"i_long":106.756522,"time":2,"station_id":"TKO","i_lat":-6.1587309999999995,"line":5,"is_transit":false,"transit":false,"distance":1614,"station_name":"Taman Kota"},{"distance":2334,"station_id":"BOI","i_long":106.737035,"is_transit":false,"line":5,"station_name":"Bojongindah","i_lat":-6.159876,"transit":false,"time":2},{"is_transit":false,"time":4,"station_id":"RW","station_name":"Rawa Buaya","line":5,"i_lat":-6.162758,"transit":false,"distance":1152,"i_long":106.723064},{"i_long":106.701612,"line":5,"i_lat":-6.166068,"station_name":"Kalideres","transit":false,"station_id":"KDS","is_transit":false,"distance":2504,"time":3},{"i_long":106.679458,"distance":2548,"i_lat":-6.169933,"transit":false,"line":5,"time":3,"station_id":"PI","station_name":"Poris","is_transit":false},{"i_long":106.665036,"transit":false,"line":5,"station_name":"Batuceper","station_id":"BPR","is_transit":false,"distance":1834,"time":3,"i_lat":-6.171811},{"station_name":"Tanah Tinggi","station_id":"TTI","is_transit":false,"time":3,"i_long":106.64657,"i_lat":-6.17331,"transit":false,"distance":2028,"line":5}],[{"distance":0,"line":2,"station_id":"SW","i_long":106.827103,"transit":false,"is_transit":false,"time":0,"i_lat":-6.160725,"station_name":"Sawah Besar"},{"time":2,"station_name":"Manggabesar","transit":false,"distance":906,"i_long":106.82482,"line":2,"is_transit":false,"i_lat":-6.149769,"station_id":"MGB"},{"time":2,"i_lat":-6.141205,"line":2,"station_id":"JAY","transit":false,"is_transit":false,"station_name":"Jayakarta","distance":1080,"i_long":106.820901},{"i_long":106.812439,"transit":true,"line":2,"is_transit":true,"station_name":"Jakarta Kota","distance":1264,"i_lat":-6.137569,"station_id":"JAKK","time":4},{"transit":true,"line":4,"station_id":"KPB","i_long":106.826365,"is_transit":true,"i_lat":-6.132549,"time":3,"distance":1364,"station_name":"Kampung Bandan"},{"i_lat":-6.14505,"station_id":"RJW","transit":false,"distance":1444,"line":11,"is_transit":false,"station_name":"Rajawali","i_long":106.836569,"time":3},{"i_long":106.839204,"i_lat":-6.161728,"station_name":"Kemayoran","transit":false,"distance":1901,"line":11,"time":5,"is_transit":false,"station_id":"KMO"},{"station_id":"PSE","line":11,"distance":1436,"transit":false,"station_name":"Pasar Senen","is_transit":false,"i_long":106.84368,"i_lat":-6.174784,"time":4},{"time":8,"station_id":"GST","distance":1567,"i_lat":-6.185975,"transit":false,"line":11,"is_transit":false,"i_long":106.850107,"station_name":"Gang Sentiong"},{"station_name":"Kramat","time":1,"i_long":106.855437,"is_transit":false,"transit":false,"i_lat":-6.193792,"distance":973,"station_id":"KMT","line":11},{"is_transit":false,"distance":1829,"i_lat":-6.209188,"line":11,"i_long":106.861737,"transit":false,"station_name":"Pondok Jati","time":2,"station_id":"POK"},{"is_transit":true,"station_name":"Jatinegara","station_id":"JNG","i_lat":-6.215091,"transit":true,"i_long":106.86807400000001,"time":9,"line":1,"distance":1236},{"i_long":106.858896,"station_name":"Matraman","distance":1377,"transit":false,"station_id":"MTR","i_lat":-6.212485,"line":1,"time":2,"is_transit":false},{"line":2,"transit":false,"is_transit":false,"time":2,"i_long":106.84912,"station_name":"Manggarai","i_lat":-6.209883,"station_id":"MRI","distance":1275},{"i_lat":-6.202263,"i_long":106.822649,"distance":3186,"station_name":"Sudirman","line":1,"station_id":"SUD","is_transit":false,"time":4,"transit":false},{"distance":280,"is_transit":false,"i_long":106.819881,"line":1,"station_name":"Sudirman Baru","i_lat":-6.201433,"station_id":"SUDB","time":1,"transit":false},{"i_long":106.816351,"time":1,"station_id":"KAT","station_name":"Karet","transit":false,"is_transit":false,"i_lat":-6.20132,"line":1,"distance":471},{"transit":false,"i_lat":-6.185545,"distance":2029,"line":1,"time":5,"i_long":106.811091,"station_id":"THB","is_transit":false,"station_name":"Tanah Abang"},{"station_id":"DU","i_lat":-6.155215,"distance":3632,"i_long":106.800832,"line":1,"is_transit":true,"transit":true,"time":8,"station_name":"Duri"},{"time":3,"i_lat":-6.162021,"line":5,"transit":false,"i_long":106.788277,"is_transit":false,"station_name":"Grogol","distance":1700,"station_id":"GGL"},{"time":2,"station_id":"PSG","transit":false,"line":5,"i_lat":-6.161433,"is_transit":false,"distance":2036,"i_long":106.771379,"station_name":"Pesing"},{"transit":false,"station_id":"TKO","distance":1614,"station_name":"Taman Kota","is_transit":false,"time":2,"i_long":106.756522,"line":5,"i_lat":-6.1587309999999995},{"transit":false,"station_id":"BOI","distance":2334,"station_name":"Bojongindah","i_long":106.737035,"is_transit":false,"time":2,"i_lat":-6.159876,"line":5},{"distance":1152,"station_id":"RW","is_transit":false,"station_name":"Rawa Buaya","i_long":106.723064,"transit":false,"i_lat":-6.162758,"line":5,"time":4},{"line":5,"station_name":"Kalideres","transit":false,"is_transit":false,"distance":2504,"i_lat":-6.166068,"time":3,"station_id":"KDS","i_long":106.701612},{"i_long":106.679458,"station_id":"PI","i_lat":-6.169933,"line":5,"station_name":"Poris","time":3,"is_transit":false,"distance":2548,"transit":false},{"is_transit":false,"time":3,"station_name":"Batuceper","transit":false,"i_lat":-6.171811,"distance":1834,"i_long":106.665036,"line":5,"station_id":"BPR"},{"is_transit":false,"transit":false,"station_id":"TTI","distance":2028,"i_lat":-6.17331,"i_long":106.64657,"line":5,"time":3,"station_name":"Tanah Tinggi"}]]}