{"data":[[{"i_lat":-6.160725,"line":2,"station_name":"Sawah Besar","transit":false,"station_id":"SW","is_transit":false,"time":0,"distance":0,"i_long":106.827103},{"station_name":"Juanda","time":2,"i_long":106.828284,"station_id":"JUA","transit":false,"distance":1149,"i_lat":-6.166716,"line":2,"is_transit":false},{"is_transit":false,"distance":2015,"line":2,"time":4,"station_name":"Gondangdia","i_long":106.832183,"transit":false,"station_id":"GDD","i_lat":-6.186295},{"transit":false,"time":3,"i_long":106.840169,"i_lat":-6.198556,"station_id":"CKI","is_transit":false,"station_name":"Cikini","line":2,"distance":1750},{"is_transit":false,"transit":false,"distance":1590,"station_id":"MRI","line":2,"station_name":"Manggarai","time":4,"i_lat":-6.209883,"i_long":106.84912},{"distance":2610,"is_transit":false,"station_name":"Tebet","transit":false,"time":4,"i_long":106.857948,"station_id":"TEB","i_lat":-6.226659,"line":2},{"distance":1230,"transit":false,"is_transit":false,"i_long":106.856607,"line":2,"station_id":"CW","time":2,"station_name":"Cawang","i_lat":-6.242512},{"transit":false,"is_transit":false,"i_lat":-6.255332,"line":2,"i_long":106.85449,"time":3,"station_id":"DRN","distance":1546,"station_name":"Duren Kalibata"},{"is_transit":false,"station_name":"Pasar Minggu Baru","transit":false,"station_id":"PSMB","time":2,"distance":824,"i_lat":-6.263214,"i_long":106.851577,"line":2},{"time":2,"is_transit":false,"station_id":"PSM","transit":false,"i_long":106.843999,"distance":2380,"i_lat":-6.2842400000000005,"station_name":"Pasar Minggu","line":2},{"station_id":"TNT","line":2,"station_name":"Tanjung Barat","i_long":106.838896,"distance":2820,"i_lat":-6.3080680000000005,"time":4,"is_transit":false,"transit":false},{"station_name":"Lenteng Agung","i_lat":-6.330363,"is_transit":false,"transit":false,"station_id":"LNA","distance":2671,"time":3,"i_long":106.832616,"line":2},{"station_id":"UP","station_name":"Univ. Pancasila","i_lat":-6.339291,"i_long":106.834175,"time":2,"transit":false,"line":2,"is_transit":false,"distance":1029}],[{"is_transit":false,"station_name":"Sawah Besar","i_lat":-6.160725,"time":0,"distance":0,"line":2,"i_long":106.827103,"transit":false,"station_id":"SW"},{"station_name":"Manggabesar","time":2,"i_long":106.82482,"transit":false,"i_lat":-6.149769,"line":2,"station_id":"MGB","is_transit":false,"distance":906},{"distance":1080,"line":2,"transit":false,"i_long":106.820901,"station_id":"JAY","is_transit":false,"i_lat":-6.141205,"time":2,"station_name":"Jayakarta"},{"is_transit":true,"station_id":"JAKK","time":4,"i_long":106.812439,"line":2,"station_name":"Jakarta Kota","transit":true,"distance":1264,"i_lat":-6.137569},{"i_long":106.826365,"time":3,"i_lat":-6.132549,"transit":true,"is_transit":true,"station_id":"KPB","line":4,"station_name":"Kampung Bandan","distance":1364},{"i_long":106.79867,"station_name":"Angke","transit":false,"time":9,"distance":4102,"i_lat":-6.144674,"line":1,"station_id":"AK","is_transit":false},{"i_lat":-6.155215,"line":1,"distance":1230,"transit":false,"i_long":106.800832,"is_transit":false,"station_id":"DU","time":4,"station_name":"Duri"},{"is_transit":false,"transit":false,"time":8,"station_id":"THB","station_name":"Tanah Abang","i_long":106.811091,"distance":3632,"line":1,"i_lat":-6.185545},{"station_id":"KAT","transit":false,"time":5,"i_long":106.816351,"station_name":"Karet","is_transit":false,"line":1,"i_lat":-6.20132,"distance":2029},{"station_name":"Sudirman Baru","distance":471,"line":1,"time":1,"transit":false,"i_lat":-6.201433,"i_long":106.819881,"station_id":"SUDB","is_transit":false},{"i_lat":-6.202263,"transit":false,"station_id":"SUD","distance":280,"is_transit":false,"time":1,"line":1,"station_name":"Sudirman","i_long":106.822649},{"station_name":"Manggarai","time":4,"distance":3186,"transit":true,"line":2,"is_transit":true,"i_long":106.84912,"station_id":"MRI","i_lat":-6.209883},{"i_lat":-6.226659,"line":2,"transit":false,"station_id":"TEB","station_name":"Tebet","time":4,"distance":2610,"is_transit":false,"i_long":106.857948},{"station_name":"Cawang","is_transit":false,"i_long":106.856607,"i_lat":-6.242512,"distance":1230,"line":2,"time":2,"station_id":"CW","transit":false},{"station_id":"DRN","station_name":"Duren Kalibata","is_transit":false,"i_lat":-6.255332,"i_long":106.85449,"distance":1546,"time":3,"line":2,"transit":false},{"time":2,"i_lat":-6.263214,"transit":false,"line":2,"station_name":"Pasar Minggu Baru","station_id":"PSMB","i_long":106.851577,"is_transit":false,"distance":824},{"station_name":"Pasar Minggu","distance":2380,"i_lat":-6.2842400000000005,"line":2,"transit":false,"is_transit":false,"station_id":"PSM","time":2,"i_long":106.843999},{"i_long":106.838896,"distance":2820,"station_name":"Tanjung Barat","transit":false,"is_transit":false,"time":4,"station_id":"TNT","i_lat":-6.3080680000000005,"line":2},{"line":2,"is_transit":false,"distance":2671,"station_name":"Lenteng Agung","transit":false,"time":3,"i_lat":-6.330363,"station_id":"LNA","i_long":106.832616},{"line":2,"distance":1029,"transit":false,"station_name":"Univ. Pancasila","time":2,"i_lat":-6.339291,"i_long":106.834175,"station_id":"UP","is_transit":false}],[{"station_id":"SW","is_transit":false,"station_name":"Sawah Besar","i_long":106.827103,"line":2,"time":0,"i_lat":-6.160725,"distance":0,"transit":false},{"is_transit":false,"line":2,"station_name":"Manggabesar","distance":906,"time":2,"transit":false,"i_long":106.82482,"i_lat":-6.149769,"station_id":"MGB"},{"time":2,"station_id":"JAY","distance":1080,"station_name":"Jayakarta","line":2,"i_long":106.820901,"i_lat":-6.141205,"is_transit":false,"transit":false},{"distance":1264,"is_transit":true,"station_id":"JAKK","i_lat":-6.137569,"time":4,"transit":true,"i_long":106.812439,"station_name":"Jakarta Kota","line":2},{"distance":1364,"i_lat":-6.132549,"i_long":106.826365,"time":3,"is_transit":true,"line":4,"transit":true,"station_name":"Kampung Bandan","station_id":"KPB"},{"i_lat":-6.14505,"transit":false,"station_id":"RJW","i_long":106.836569,"time":3,"is_transit":false,"line":11,"distance":1444,"station_name":"Rajawali"},{"station_name":"Kemayoran","transit":false,"is_transit":false,"station_id":"KMO","distance":1901,"i_lat":-6.161728,"line":11,"i_long":106.839204,"time":5},{"i_long":106.84368,"time":4,"transit":false,"i_lat":-6.174784,"station_id":"PSE","is_transit":false,"distance":1436,"station_name":"Pasar Senen","line":11},{"line":11,"station_id":"GST","is_transit":false,"station_name":"Gang Sentiong","transit":false,"distance":1567,"time":8,"i_long":106.850107,"i_lat":-6.185975},{"station_name":"Kramat","station_id":"KMT","distance":973,"is_transit":false,"transit":false,"line":11,"i_long":106.855437,"i_lat":-6.193792,"time":1},{"station_id":"POK","transit":false,"station_name":"Pondok Jati","i_lat":-6.209188,"distance":1829,"i_long":106.861737,"line":11,"is_transit":false,"time":2},{"transit":true,"i_lat":-6.215091,"i_long":106.86807400000001,"time":9,"is_transit":true,"distance":1236,"line":1,"station_id":"JNG","station_name":"Jatinegara"},{"distance":1377,"line":1,"transit":false,"is_transit":false,"time":2,"station_name":"Matraman","i_lat":-6.212485,"station_id":"MTR","i_long":106.858896},{"i_lat":-6.209883,"station_id":"MRI","time":2,"distance":1275,"station_name":"Manggarai","i_long":106.84912,"transit":true,"line":2,"is_transit":true},{"time":4,"line":2,"station_name":"Tebet","i_lat":-6.226659,"station_id":"TEB","transit":false,"i_long":106.857948,"distance":2610,"is_transit":false},{"i_long":106.856607,"station_id":"CW","transit":false,"time":2,"station_name":"Cawang","distance":1230,"line":2,"is_transit":false,"i_lat":-6.242512},{"transit":false,"i_lat":-6.255332,"i_long":106.85449,"line":2,"station_id":"DRN","is_transit":false,"station_name":"Duren Kalibata","time":3,"distance":1546},{"station_name":"Pasar Minggu Baru","line":2,"is_transit":false,"i_lat":-6.263214,"distance":824,"time":2,"i_long":106.851577,"transit":false,"station_id":"PSMB"},{"distance":2380,"i_lat":-6.2842400000000005,"station_name":"Pasar Minggu","is_transit":false,"time":2,"i_long":106.843999,"line":2,"station_id":"PSM","transit":false},{"station_id":"TNT","is_transit":false,"transit":false,"i_lat":-6.3080680000000005,"distance":2820,"station_name":"Tanjung Barat","time":4,"i_long":106.838896,"line":2},{"i_long":106.832616,"transit":false,"distance":2671,"i_lat":-6.330363,"is_transit":false,"time":3,"station_id":"LNA","station_name":"Lenteng Agung","line":2},{"i_long":106.834175,"time":2,"i_lat":-6.339291,"transit":false,"distance":1029,"station_id":"UP","station_name":"Univ. Pancasila","is_transit":false,"line":2}]]}