{"data":[[{"i_lat":-6.160725,"station_name":"Sawah Besar","i_long":106.827103,"station_id":"SW","distance":0,"is_transit":false,"line":2,"transit":false,"time":0},{"station_name":"Juanda","is_transit":false,"line":2,"i_lat":-6.166716,"transit":false,"time":2,"distance":1149,"station_id":"JUA","i_long":106.828284},{"line":2,"station_id":"GDD","station_name":"Gondangdia","is_transit":false,"i_long":106.832183,"distance":2015,"transit":false,"i_lat":-6.186295,"time":4},{"station_name":"Cikini","station_id":"CKI","time":3,"is_transit":false,"i_long":106.840169,"distance":1750,"transit":false,"line":2,"i_lat":-6.198556},{"i_lat":-6.209883,"is_transit":false,"line":2,"time":4,"distance":1590,"station_name":"Manggarai","station_id":"MRI","i_long":106.84912,"transit":false},{"time":4,"distance":2610,"transit":false,"line":2,"i_long":106.857948,"is_transit":false,"i_lat":-6.226659,"station_id":"TEB","station_name":"Tebet"},{"transit":false,"i_long":106.856607,"is_transit":false,"line":2,"station_name":"Cawang","station_id":"CW","time":2,"distance":1230,"i_lat":-6.242512},{"is_transit":false,"time":3,"distance":1546,"line":2,"transit":false,"i_lat":-6.255332,"i_long":106.85449,"station_id":"DRN","station_name":"Duren Kalibata"},{"is_transit":false,"transit":false,"station_name":"Pasar Minggu Baru","time":2,"distance":824,"i_long":106.851577,"line":2,"i_lat":-6.263214,"station_id":"PSMB"},{"distance":2380,"i_long":106.843999,"is_transit":false,"i_lat":-6.2842400000000005,"line":2,"station_name":"Pasar Minggu","transit":false,"station_id":"PSM","time":2},{"transit":false,"line":2,"i_long":106.838896,"time":4,"is_transit":false,"station_id":"TNT","station_name":"Tanjung Barat","i_lat":-6.3080680000000005,"distance":2820},{"station_id":"LNA","distance":2671,"transit":false,"i_long":106.832616,"line":2,"station_name":"Lenteng Agung","time":3,"is_transit":false,"i_lat":-6.330363},{"distance":1029,"i_lat":-6.339291,"station_name":"Univ. Pancasila","transit":false,"i_long":106.834175,"line":2,"station_id":"UP","is_transit":false,"time":2}],[{"line":2,"transit":false,"is_transit":false,"station_name":"Sawah Besar","station_id":"SW","distance":0,"i_long":106.827103,"time":0,"i_lat":-6.160725},{"station_id":"MGB","is_transit":false,"i_long":106.82482,"station_name":"Manggabesar","line":2,"time":2,"distance":906,"transit":false,"i_lat":-6.149769},{"time":2,"station_id":"JAY","i_long":106.820901,"transit":false,"is_transit":false,"station_name":"Jayakarta","line":2,"i_lat":-6.141205,"distance":1080},{"transit":true,"distance":1264,"i_long":106.812439,"station_name":"Jakarta Kota","station_id":"JAKK","is_transit":true,"line":2,"i_lat":-6.137569,"time":4},{"station_id":"KPB","is_transit":true,"time":3,"station_name":"Kampung Bandan","line":4,"distance":1364,"transit":true,"i_lat":-6.132549,"i_long":106.826365},{"station_name":"Angke","i_lat":-6.144674,"transit":false,"line":1,"time":9,"distance":4102,"i_long":106.79867,"station_id":"AK","is_transit":false},{"station_id":"DU","time":4,"transit":false,"i_long":106.800832,"is_transit":false,"i_lat":-6.155215,"station_name":"Duri","line":1,"distance":1230},{"transit":false,"i_lat":-6.185545,"time":8,"i_long":106.811091,"station_id":"THB","line":1,"station_name":"Tanah Abang","is_transit":false,"distance":3632},{"station_name":"Karet","time":5,"station_id":"KAT","distance":2029,"is_transit":false,"line":1,"i_lat":-6.20132,"transit":false,"i_long":106.816351},{"time":1,"is_transit":false,"station_name":"Sudirman Baru","distance":471,"line":1,"transit":false,"i_lat":-6.201433,"station_id":"SUDB","i_long":106.819881},{"is_transit":false,"i_long":106.822649,"distance":280,"line":1,"i_lat":-6.202263,"transit":false,"time":1,"station_id":"SUD","station_name":"Sudirman"},{"line":2,"station_name":"Manggarai","is_transit":true,"station_id":"MRI","distance":3186,"i_lat":-6.209883,"time":4,"i_long":106.84912,"transit":true},{"is_transit":false,"time":4,"line":2,"transit":false,"i_lat":-6.226659,"station_name":"Tebet","i_long":106.857948,"station_id":"TEB","distance":2610},{"time":2,"station_id":"CW","station_name":"Cawang","distance":1230,"i_lat":-6.242512,"i_long":106.856607,"line":2,"is_transit":false,"transit":false},{"transit":false,"station_id":"DRN","is_transit":false,"i_lat":-6.255332,"i_long":106.85449,"line":2,"station_name":"Duren Kalibata","distance":1546,"time":3},{"is_transit":false,"i_long":106.851577,"line":2,"station_name":"Pasar Minggu Baru","station_id":"PSMB","i_lat":-6.263214,"time":2,"transit":false,"distance":824},{"line":2,"transit":false,"station_name":"Pasar Minggu","distance":2380,"i_lat":-6.2842400000000005,"station_id":"PSM","is_transit":false,"time":2,"i_long":106.843999},{"station_name":"Tanjung Barat","transit":false,"time":4,"station_id":"TNT","i_long":106.838896,"line":2,"distance":2820,"i_lat":-6.3080680000000005,"is_transit":false},{"distance":2671,"i_lat":-6.330363,"i_long":106.832616,"station_id":"LNA","line":2,"is_transit":false,"transit":false,"time":3,"station_name":"Lenteng Agung"},{"is_transit":false,"i_long":106.834175,"line":2,"distance":1029,"time":2,"station_id":"UP","transit":false,"station_name":"Univ. Pancasila","i_lat":-6.339291}],[{"i_lat":-6.160725,"line":2,"station_name":"Sawah Besar","station_id":"SW","transit":false,"is_transit":false,"i_long":106.827103,"time":0,"distance":0},{"i_lat":-6.149769,"time":2,"i_long":106.82482,"station_name":"Manggabesar","transit":false,"line":2,"is_transit":false,"station_id":"MGB","distance":906},{"line":2,"i_lat":-6.141205,"time":2,"is_transit":false,"station_name":"Jayakarta","i_long":106.820901,"distance":1080,"station_id":"JAY","transit":false},{"station_name":"Jakarta Kota","distance":1264,"i_lat":-6.137569,"station_id":"JAKK","line":2,"i_long":106.812439,"time":4,"transit":true,"is_transit":true},{"i_lat":-6.132549,"time":3,"transit":true,"station_name":"Kampung Bandan","line":4,"distance":1364,"i_long":106.826365,"is_transit":true,"station_id":"KPB"},{"station_name":"Rajawali","transit":false,"line":11,"is_transit":false,"time":3,"distance":1444,"station_id":"RJW","i_long":106.836569,"i_lat":-6.14505},{"line":11,"station_name":"Kemayoran","transit":false,"station_id":"KMO","time":5,"distance":1901,"i_long":106.839204,"is_transit":false,"i_lat":-6.161728},{"transit":false,"station_name":"Pasar Senen","time":4,"is_transit":false,"line":11,"station_id":"PSE","distance":1436,"i_lat":-6.174784,"i_long":106.84368},{"time":8,"i_long":106.850107,"distance":1567,"line":11,"i_lat":-6.185975,"station_id":"GST","is_transit":false,"transit":false,"station_name":"Gang Sentiong"},{"station_id":"KMT","is_transit":false,"i_lat":-6.193792,"distance":973,"i_long":106.855437,"line":11,"time":1,"station_name":"Kramat","transit":false},{"transit":false,"distance":1829,"time":2,"line":11,"i_long":106.861737,"station_id":"POK","is_transit":false,"station_name":"Pondok Jati","i_lat":-6.209188},{"i_lat":-6.215091,"time":9,"station_name":"Jatinegara","distance":1236,"transit":true,"line":1,"station_id":"JNG","i_long":106.86807400000001,"is_transit":true},{"station_name":"Matraman","time":2,"station_id":"MTR","i_long":106.858896,"line":1,"transit":false,"is_transit":false,"i_lat":-6.212485,"distance":1377},{"station_id":"MRI","is_transit":true,"i_lat":-6.209883,"transit":true,"i_long":106.84912,"line":2,"time":2,"distance":1275,"station_name":"Manggarai"},{"station_id":"TEB","i_long":106.857948,"distance":2610,"is_transit":false,"transit":false,"station_name":"Tebet","time":4,"line":2,"i_lat":-6.226659},{"is_transit":false,"station_id":"CW","i_lat":-6.242512,"i_long":106.856607,"line":2,"time":2,"transit":false,"station_name":"Cawang","distance":1230},{"line":2,"i_lat":-6.255332,"station_id":"DRN","time":3,"distance":1546,"station_name":"Duren Kalibata","is_transit":false,"i_long":106.85449,"transit":false},{"is_transit":false,"i_long":106.851577,"line":2,"i_lat":-6.263214,"station_name":"Pasar Minggu Baru","station_id":"PSMB","transit":false,"time":2,"distance":824},{"line":2,"station_id":"PSM","transit":false,"station_name":"Pasar Minggu","distance":2380,"i_long":106.843999,"is_transit":false,"time":2,"i_lat":-6.2842400000000005},{"station_id":"TNT","distance":2820,"i_lat":-6.3080680000000005,"i_long":106.838896,"is_transit":false,"transit":false,"time":4,"station_name":"Tanjung Barat","line":2},{"distance":2671,"station_name":"Lenteng Agung","transit":false,"time":3,"i_long":106.832616,"i_lat":-6.330363,"line":2,"station_id":"LNA","is_transit":false},{"distance":1029,"i_long":106.834175,"station_name":"Univ. Pancasila","is_transit":false,"time":2,"line":2,"station_id":"UP","i_lat":-6.339291,"transit":false}]]}