{"data":[[{"is_transit":false,"station_name":"Sawah Besar","distance":0,"station_id":"SW","transit":false,"i_long":106.827103,"time":0,"line":2,"i_lat":-6.160725},{"i_long":106.828284,"distance":1149,"i_lat":-6.166716,"transit":false,"is_transit":false,"time":2,"line":2,"station_id":"JUA","station_name":"Juanda"},{"station_id":"GDD","i_lat":-6.186295,"i_long":106.832183,"distance":2015,"station_name":"Gondangdia","transit":false,"time":4,"line":2,"is_transit":false},{"transit":false,"i_lat":-6.198556,"is_transit":false,"line":0,"distance":1750,"station_id":"CKI","station_name":"Cikini","time":3,"i_long":106.840169},{"is_transit":true,"station_name":"Manggarai","transit":true,"time":4,"i_lat":-6.209883,"distance":1590,"i_long":106.84912,"line":0,"station_id":"MRI"},{"i_long":106.857948,"transit":false,"line":2,"distance":2610,"time":4,"is_transit":false,"station_name":"Tebet","station_id":"TEB","i_lat":-6.226659},{"i_lat":-6.242512,"distance":1230,"i_long":106.856607,"transit":false,"line":0,"station_name":"Cawang","time":2,"is_transit":false,"station_id":"CW"},{"station_name":"Duren Kalibata","time":3,"i_lat":-6.255332,"station_id":"DRN","is_transit":false,"i_long":106.85449,"line":0,"transit":false,"distance":1546},{"i_long":106.851577,"is_transit":false,"i_lat":-6.263214,"time":2,"transit":false,"distance":824,"station_id":"PSMB","station_name":"Pasar Minggu Baru","line":2},{"transit":false,"station_id":"PSM","distance":2380,"i_long":106.843999,"station_name":"Pasar Minggu","i_lat":-6.2842400000000005,"time":2,"is_transit":false,"line":2},{"is_transit":false,"station_name":"Tanjung Barat","line":2,"distance":2820,"transit":false,"i_lat":-6.3080680000000005,"i_long":106.838896,"station_id":"TNT","time":4},{"i_long":106.832616,"is_transit":false,"i_lat":-6.330363,"distance":2671,"station_name":"Lenteng Agung","station_id":"LNA","transit":false,"line":2,"time":3},{"is_transit":false,"distance":1029,"time":2,"i_lat":-6.339291,"i_long":106.834175,"station_name":"Univ. Pancasila","transit":false,"line":2,"station_id":"UP"}],[{"station_id":"SW","station_name":"Sawah Besar","i_long":106.827103,"is_transit":false,"line":2,"time":0,"i_lat":-6.160725,"transit":false,"distance":0},{"line":2,"station_id":"MGB","distance":906,"station_name":"Manggabesar","is_transit":false,"transit":false,"time":2,"i_lat":-6.149769,"i_long":106.82482},{"is_transit":false,"distance":1080,"station_name":"Jayakarta","line":7,"station_id":"JAY","transit":false,"time":2,"i_lat":-6.141205,"i_long":106.820901},{"station_id":"JAKK","line":0,"is_transit":true,"time":4,"distance":1264,"transit":true,"station_name":"Jakarta Kota","i_lat":-6.137569,"i_long":106.812439},{"station_id":"KPB","is_transit":true,"station_name":"Kampung Bandan","transit":false,"i_lat":-6.132549,"line":0,"distance":1364,"i_long":106.826365,"time":3},{"station_id":"AK","transit":false,"i_long":106.79867,"line":0,"station_name":"Angke","i_lat":-6.144674,"distance":4102,"time":9,"is_transit":false},{"line":1,"transit":true,"distance":1230,"i_lat":-6.155215,"i_long":106.800832,"station_id":"DU","time":4,"is_transit":true,"station_name":"Duri"},{"time":8,"station_name":"Tanah Abang","station_id":"THB","i_lat":-6.185545,"distance":3632,"is_transit":true,"transit":false,"line":1,"i_long":106.811091},{"distance":2029,"line":1,"is_transit":false,"i_long":106.816351,"transit":false,"station_name":"Karet","i_lat":-6.20132,"time":5,"station_id":"KAT"},{"transit":false,"i_lat":-6.201433,"station_name":"Sudirman Baru","is_transit":false,"time":1,"i_long":106.819881,"station_id":"SUDB","distance":471,"line":1},{"transit":false,"station_id":"SUD","time":1,"i_lat":-6.202263,"distance":280,"i_long":106.822649,"line":1,"is_transit":false,"station_name":"Sudirman"},{"distance":3186,"station_id":"MRI","i_lat":-6.209883,"is_transit":true,"transit":true,"time":4,"i_long":106.84912,"station_name":"Manggarai","line":0},{"line":2,"station_name":"Tebet","station_id":"TEB","i_lat":-6.226659,"is_transit":false,"transit":false,"i_long":106.857948,"time":4,"distance":2610},{"line":0,"station_id":"CW","i_lat":-6.242512,"time":2,"transit":false,"is_transit":false,"i_long":106.856607,"distance":1230,"station_name":"Cawang"},{"line":0,"is_transit":false,"transit":false,"i_lat":-6.255332,"i_long":106.85449,"station_id":"DRN","station_name":"Duren Kalibata","distance":1546,"time":3},{"transit":false,"i_lat":-6.263214,"i_long":106.851577,"time":2,"station_name":"Pasar Minggu Baru","line":2,"station_id":"PSMB","distance":824,"is_transit":false},{"i_long":106.843999,"i_lat":-6.2842400000000005,"station_name":"Pasar Minggu","is_transit":false,"distance":2380,"station_id":"PSM","line":2,"transit":false,"time":2},{"station_id":"TNT","is_transit":false,"i_lat":-6.3080680000000005,"station_name":"Tanjung Barat","i_long":106.838896,"transit":false,"line":2,"time":4,"distance":2820},{"is_transit":false,"distance":2671,"station_id":"LNA","i_long":106.832616,"i_lat":-6.330363,"transit":false,"station_name":"Lenteng Agung","time":3,"line":2},{"station_name":"Univ. Pancasila","line":2,"station_id":"UP","i_lat":-6.339291,"i_long":106.834175,"time":2,"is_transit":false,"transit":false,"distance":1029}],[{"station_id":"SW","i_lat":-6.160725,"transit":false,"i_long":106.827103,"is_transit":false,"distance":0,"station_name":"Sawah Besar","time":0,"line":2},{"distance":906,"is_transit":false,"station_id":"MGB","i_lat":-6.149769,"transit":false,"line":2,"i_long":106.82482,"time":2,"station_name":"Manggabesar"},{"transit":false,"is_transit":false,"time":2,"i_lat":-6.141205,"i_long":106.820901,"line":7,"distance":1080,"station_name":"Jayakarta","station_id":"JAY"},{"distance":1264,"is_transit":true,"i_lat":-6.137569,"station_name":"Jakarta Kota","time":4,"line":0,"station_id":"JAKK","transit":true,"i_long":106.812439},{"time":3,"is_transit":true,"i_long":106.826365,"line":0,"distance":1364,"i_lat":-6.132549,"station_id":"KPB","station_name":"Kampung Bandan","transit":true},{"is_transit":false,"i_long":106.836569,"time":3,"line":11,"distance":1444,"station_name":"Rajawali","station_id":"RJW","transit":false,"i_lat":-6.14505},{"is_transit":false,"line":11,"station_id":"KMO","distance":1901,"transit":false,"time":5,"i_lat":-6.161728,"i_long":106.839204,"station_name":"Kemayoran"},{"i_lat":-6.174784,"i_long":106.84368,"distance":1436,"station_id":"PSE","station_name":"Pasar Senen","time":4,"line":11,"transit":false,"is_transit":false},{"i_long":106.850107,"is_transit":false,"station_id":"GST","station_name":"Gang Sentiong","transit":false,"time":8,"i_lat":-6.185975,"distance":1567,"line":11},{"station_id":"KMT","i_lat":-6.193792,"line":11,"i_long":106.855437,"transit":false,"is_transit":false,"time":1,"distance":973,"station_name":"Kramat"},{"station_name":"Pondok Jati","is_transit":false,"line":11,"station_id":"POK","i_long":106.861737,"transit":false,"distance":1829,"i_lat":-6.209188,"time":2},{"transit":true,"station_id":"JNG","station_name":"Jatinegara","i_long":106.86807400000001,"line":0,"distance":1236,"time":9,"is_transit":true,"i_lat":-6.215091},{"line":1,"distance":1377,"station_id":"MTR","i_long":106.858896,"time":2,"i_lat":-6.212485,"station_name":"Matraman","is_transit":false,"transit":false},{"transit":true,"time":2,"i_long":106.84912,"line":0,"station_id":"MRI","station_name":"Manggarai","i_lat":-6.209883,"is_transit":true,"distance":1275},{"station_id":"TEB","transit":false,"i_lat":-6.226659,"line":2,"is_transit":false,"time":4,"i_long":106.857948,"station_name":"Tebet","distance":2610},{"station_id":"CW","time":2,"i_long":106.856607,"line":0,"i_lat":-6.242512,"is_transit":false,"station_name":"Cawang","transit":false,"distance":1230},{"distance":1546,"is_transit":false,"line":0,"station_id":"DRN","i_long":106.85449,"time":3,"transit":false,"i_lat":-6.255332,"station_name":"Duren Kalibata"},{"station_name":"Pasar Minggu Baru","i_long":106.851577,"distance":824,"line":2,"time":2,"station_id":"PSMB","transit":false,"i_lat":-6.263214,"is_transit":false},{"time":2,"line":2,"station_name":"Pasar Minggu","i_long":106.843999,"transit":false,"i_lat":-6.2842400000000005,"is_transit":false,"station_id":"PSM","distance":2380},{"distance":2820,"transit":false,"time":4,"i_lat":-6.3080680000000005,"station_id":"TNT","is_transit":false,"line":2,"i_long":106.838896,"station_name":"Tanjung Barat"},{"transit":false,"distance":2671,"line":2,"station_name":"Lenteng Agung","i_lat":-6.330363,"is_transit":false,"station_id":"LNA","time":3,"i_long":106.832616},{"time":2,"i_long":106.834175,"is_transit":false,"line":2,"station_id":"UP","transit":false,"station_name":"Univ. Pancasila","distance":1029,"i_lat":-6.339291}]]}