{"data":[[{"time":0,"station_name":"Srowot","distance":0,"is_transit":false,"i_long":110.548972,"line":7,"i_lat":-7.74111,"transit":false,"station_id":"SWT"},{"time":7,"station_name":"Brambanan","line":0,"i_long":110.500451,"transit":false,"station_id":"BBN","is_transit":false,"i_lat":-7.756284,"distance":5850},{"distance":7905,"is_transit":false,"station_id":"MGW","time":8,"transit":false,"station_name":"Maguwo","i_long":110.436791,"line":7,"i_lat":-7.784476},{"distance":6799,"station_name":"Lempuyangan","station_id":"LPN","line":7,"transit":false,"time":7,"is_transit":false,"i_lat":-7.790018,"i_long":110.375434},{"distance":1307,"time":6,"station_id":"YK","station_name":"Yogyakarta","i_lat":-7.788961,"i_long":110.36345,"is_transit":false,"line":7,"transit":false},{"station_id":"PTN","transit":false,"i_lat":-7.790605,"i_long":110.32542,"distance":4241,"time":5,"is_transit":false,"station_name":"Patukan","line":7},{"line":7,"transit":false,"station_name":"Rewulu","station_id":"RWL","i_lat":-7.797702,"i_long":110.279205,"distance":4579,"time":4,"is_transit":false},{"station_id":"STL","i_lat":-7.832939,"distance":9041,"is_transit":false,"time":8,"station_name":"Sentolo","line":0,"transit":false,"i_long":110.220122},{"is_transit":false,"transit":false,"station_name":"Wates","i_long":110.158003,"time":25,"station_id":"WT","i_lat":-7.859237,"line":7,"distance":10145},{"is_transit":false,"station_id":"WJ","i_long":110.040449,"time":15,"transit":false,"station_name":"Wojo","distance":13652,"i_lat":-7.861626,"line":7}]]}