{"data":[[{"distance":0,"station_name":"Srowot","is_transit":false,"transit":false,"station_id":"SWT","time":0,"i_lat":-7.74111,"i_long":110.548972,"line":7},{"time":7,"i_long":110.500451,"i_lat":-7.756284,"station_name":"Brambanan","is_transit":false,"transit":false,"station_id":"BBN","distance":5850,"line":0},{"time":8,"station_id":"MGW","i_long":110.436791,"station_name":"Maguwo","transit":false,"distance":7905,"i_lat":-7.784476,"is_transit":false,"line":7},{"i_long":110.375434,"distance":6799,"line":7,"is_transit":false,"station_id":"LPN","time":7,"i_lat":-7.790018,"transit":false,"station_name":"Lempuyangan"},{"i_lat":-7.788961,"distance":1307,"station_name":"Yogyakarta","i_long":110.36345,"time":6,"line":7,"transit":false,"is_transit":false,"station_id":"YK"},{"is_transit":false,"i_long":110.32542,"time":5,"i_lat":-7.790605,"station_name":"Patukan","transit":false,"station_id":"PTN","distance":4241,"line":7},{"distance":4579,"station_name":"Rewulu","i_long":110.279205,"i_lat":-7.797702,"line":7,"is_transit":false,"transit":false,"station_id":"RWL","time":4},{"transit":false,"is_transit":false,"station_name":"Sentolo","station_id":"STL","distance":9041,"i_lat":-7.832939,"time":8,"line":0,"i_long":110.220122},{"i_lat":-7.859237,"line":7,"time":25,"i_long":110.158003,"transit":false,"station_id":"WT","station_name":"Wates","is_transit":false,"distance":10145},{"line":7,"station_name":"Wojo","station_id":"WJ","transit":false,"i_lat":-7.861626,"time":15,"i_long":110.040449,"is_transit":false,"distance":13652}]]}