{"data":[[{"station_name":"Srowot","line":7,"distance":0,"transit":false,"i_lat":-7.74111,"time":0,"station_id":"SWT","is_transit":false,"i_long":110.548972},{"distance":6738,"is_transit":false,"line":7,"station_name":"Klaten","i_lat":-7.712087,"transit":false,"i_long":110.602981,"station_id":"KT","time":8},{"distance":9279,"line":7,"i_long":110.674861,"transit":false,"station_id":"CE","i_lat":-7.668597,"time":9,"is_transit":false,"station_name":"Ceper"},{"time":7,"distance":6271,"i_long":110.706679,"station_name":"Delanggu","transit":false,"i_lat":-7.62181,"line":7,"is_transit":false,"station_id":"DL"},{"line":7,"time":6,"distance":5543,"station_id":"GW","station_name":"Gawok","is_transit":false,"i_lat":-7.589036,"i_long":110.744432,"transit":false},{"distance":6639,"line":7,"is_transit":false,"i_lat":-7.561362,"station_id":"PWS","transit":false,"station_name":"Purwosari","i_long":110.796655,"time":7},{"time":6,"is_transit":false,"i_lat":-7.556783,"i_long":110.821471,"distance":2936,"line":7,"transit":false,"station_name":"Solo Balapan","station_id":"SLO"},{"line":7,"is_transit":false,"i_long":110.839459,"time":10,"station_id":"SK","transit":false,"i_lat":-7.56197,"station_name":"Solo Jebres","distance":2141}]]}