{"data":[[{"station_id":"SWT","i_lat":-7.74111,"time":0,"station_name":"Srowot","transit":false,"i_long":110.548972,"line":7,"is_transit":false,"distance":0},{"distance":5850,"i_long":110.500451,"time":7,"transit":false,"station_id":"BBN","i_lat":-7.756284,"station_name":"Brambanan","line":0,"is_transit":false},{"time":8,"station_name":"Maguwo","station_id":"MGW","i_lat":-7.784476,"transit":false,"line":7,"is_transit":false,"distance":7905,"i_long":110.436791},{"line":7,"station_id":"LPN","transit":false,"time":7,"is_transit":false,"i_lat":-7.790018,"i_long":110.375434,"distance":6799,"station_name":"Lempuyangan"},{"i_long":110.36345,"transit":false,"time":6,"station_name":"Yogyakarta","i_lat":-7.788961,"station_id":"YK","distance":1307,"line":7,"is_transit":false},{"time":5,"station_id":"PTN","i_lat":-7.790605,"transit":false,"is_transit":false,"distance":4241,"i_long":110.32542,"line":7,"station_name":"Patukan"},{"is_transit":false,"transit":false,"time":4,"station_id":"RWL","i_long":110.279205,"station_name":"Rewulu","line":7,"distance":4579,"i_lat":-7.797702},{"distance":9041,"station_id":"STL","time":8,"transit":false,"is_transit":false,"i_long":110.220122,"station_name":"Sentolo","i_lat":-7.832939,"line":0},{"time":25,"station_name":"Wates","i_lat":-7.859237,"i_long":110.158003,"line":7,"is_transit":false,"station_id":"WT","distance":10145,"transit":false},{"distance":13652,"station_name":"Wojo","time":15,"station_id":"WJ","is_transit":false,"transit":false,"i_long":110.040449,"line":7,"i_lat":-7.861626},{"station_id":"JN","i_long":110.000548,"is_transit":false,"distance":8393,"line":0,"station_name":"Jenar","i_lat":-7.801845,"transit":false,"time":10}]]}