{"data":[[{"station_id":"SWT","station_name":"Srowot","transit":false,"is_transit":false,"line":7,"time":0,"i_long":110.548972,"distance":0,"i_lat":-7.74111},{"transit":false,"time":8,"line":7,"is_transit":false,"distance":6738,"station_id":"KT","i_long":110.602981,"i_lat":-7.712087,"station_name":"Klaten"},{"distance":9279,"is_transit":false,"i_long":110.674861,"line":7,"time":9,"station_name":"Ceper","station_id":"CE","i_lat":-7.668597,"transit":false},{"time":7,"line":7,"i_long":110.706679,"station_name":"Delanggu","station_id":"DL","distance":6271,"is_transit":false,"i_lat":-7.62181,"transit":false},{"transit":false,"is_transit":false,"i_lat":-7.589036,"time":6,"distance":5543,"station_id":"GW","i_long":110.744432,"station_name":"Gawok","line":7},{"station_id":"PWS","time":7,"i_long":110.796655,"i_lat":-7.561362,"transit":false,"is_transit":false,"distance":6639,"station_name":"Purwosari","line":7},{"i_long":110.821471,"line":7,"station_name":"Solo Balapan","i_lat":-7.556783,"transit":false,"time":6,"is_transit":false,"distance":2936,"station_id":"SLO"},{"transit":false,"station_id":"SK","is_transit":false,"line":7,"time":10,"i_long":110.839459,"distance":2141,"station_name":"Solo Jebres","i_lat":-7.56197}]]}