{"data":[[{"line":7,"distance":0,"i_long":110.548972,"station_name":"Srowot","station_id":"SWT","is_transit":false,"i_lat":-7.74111,"time":0,"transit":false},{"line":7,"i_lat":-7.712087,"time":8,"station_id":"KT","distance":6738,"station_name":"Klaten","is_transit":false,"transit":false,"i_long":110.602981},{"i_lat":-7.668597,"distance":9279,"time":9,"station_id":"CE","transit":false,"line":0,"is_transit":false,"station_name":"Ceper","i_long":110.674861},{"time":7,"transit":false,"station_id":"DL","distance":6271,"i_lat":-7.62181,"i_long":110.706679,"line":0,"is_transit":false,"station_name":"Delanggu"},{"is_transit":false,"i_long":110.744432,"transit":false,"line":7,"station_id":"GW","station_name":"Gawok","i_lat":-7.589036,"distance":5543,"time":6},{"station_name":"Purwosari","is_transit":false,"station_id":"PWS","line":7,"distance":6639,"i_long":110.796655,"i_lat":-7.561362,"transit":false,"time":7},{"i_lat":-7.556783,"station_name":"Solo Balapan","transit":false,"line":7,"time":6,"distance":2936,"i_long":110.821471,"station_id":"SLO","is_transit":false},{"is_transit":false,"distance":2141,"time":10,"i_long":110.839459,"station_name":"Solo Jebres","i_lat":-7.56197,"line":7,"station_id":"SK","transit":false}]]}