{"data":[[{"station_id":"SWT","distance":0,"line":7,"is_transit":false,"transit":false,"i_lat":-7.74111,"time":0,"i_long":110.548972,"station_name":"Srowot"},{"line":0,"i_long":110.500451,"station_name":"Brambanan","is_transit":false,"time":7,"distance":5850,"station_id":"BBN","transit":false,"i_lat":-7.756284},{"station_name":"Maguwo","is_transit":false,"i_long":110.436791,"time":8,"transit":false,"station_id":"MGW","distance":7905,"i_lat":-7.784476,"line":7},{"transit":false,"i_lat":-7.790018,"station_name":"Lempuyangan","is_transit":false,"station_id":"LPN","time":7,"line":7,"distance":6799,"i_long":110.375434},{"time":6,"distance":1307,"transit":false,"station_id":"YK","station_name":"Yogyakarta","i_lat":-7.788961,"i_long":110.36345,"is_transit":false,"line":7},{"station_name":"Patukan","i_lat":-7.790605,"distance":4241,"time":5,"transit":false,"is_transit":false,"station_id":"PTN","i_long":110.32542,"line":7},{"distance":4579,"i_long":110.279205,"line":7,"i_lat":-7.797702,"station_id":"RWL","is_transit":false,"transit":false,"station_name":"Rewulu","time":4},{"station_id":"STL","time":8,"line":0,"i_lat":-7.832939,"distance":9041,"station_name":"Sentolo","i_long":110.220122,"transit":false,"is_transit":false},{"station_name":"Wates","i_lat":-7.859237,"station_id":"WT","time":25,"distance":10145,"is_transit":false,"line":7,"i_long":110.158003,"transit":false},{"is_transit":false,"distance":13652,"time":15,"i_long":110.040449,"station_name":"Wojo","i_lat":-7.861626,"station_id":"WJ","line":7,"transit":false}]]}