{"data":[[{"station_name":"Srowot","transit":false,"i_long":110.548972,"distance":0,"is_transit":false,"time":0,"i_lat":-7.74111,"line":7,"station_id":"SWT"},{"station_name":"Brambanan","i_long":110.500451,"station_id":"BBN","is_transit":false,"time":7,"transit":false,"distance":5850,"i_lat":-7.756284,"line":0},{"line":7,"transit":false,"distance":7905,"i_lat":-7.784476,"station_id":"MGW","is_transit":false,"i_long":110.436791,"station_name":"Maguwo","time":8},{"i_lat":-7.790018,"station_id":"LPN","i_long":110.375434,"transit":false,"line":7,"time":7,"is_transit":false,"distance":6799,"station_name":"Lempuyangan"},{"time":6,"station_name":"Yogyakarta","line":7,"transit":false,"distance":1307,"station_id":"YK","is_transit":false,"i_lat":-7.788961,"i_long":110.36345},{"station_name":"Patukan","transit":false,"station_id":"PTN","is_transit":false,"i_lat":-7.790605,"distance":4241,"line":7,"time":5,"i_long":110.32542},{"distance":4579,"transit":false,"i_long":110.279205,"line":7,"station_id":"RWL","is_transit":false,"i_lat":-7.797702,"time":4,"station_name":"Rewulu"},{"is_transit":false,"time":8,"i_lat":-7.832939,"station_name":"Sentolo","distance":9041,"transit":false,"line":0,"station_id":"STL","i_long":110.220122},{"time":25,"transit":false,"station_id":"WT","station_name":"Wates","is_transit":false,"i_lat":-7.859237,"line":7,"distance":10145,"i_long":110.158003},{"time":15,"station_id":"WJ","transit":false,"is_transit":false,"station_name":"Wojo","distance":13652,"i_lat":-7.861626,"i_long":110.040449,"line":7},{"is_transit":false,"transit":false,"i_lat":-7.801845,"time":10,"station_id":"JN","distance":8393,"station_name":"Jenar","i_long":110.000548,"line":0}]]}