{"data":[[{"distance":0,"time":0,"station_id":"SWT","transit":false,"line":7,"i_lat":-7.74111,"station_name":"Srowot","is_transit":false,"i_long":110.548972},{"station_id":"BBN","distance":5850,"is_transit":false,"i_long":110.500451,"station_name":"Brambanan","line":0,"i_lat":-7.756284,"transit":false,"time":7},{"is_transit":false,"transit":false,"time":8,"station_id":"MGW","i_long":110.436791,"station_name":"Maguwo","distance":7905,"i_lat":-7.784476,"line":7},{"distance":6799,"is_transit":false,"i_lat":-7.790018,"station_id":"LPN","transit":false,"time":7,"station_name":"Lempuyangan","i_long":110.375434,"line":7},{"is_transit":false,"i_long":110.36345,"transit":false,"line":7,"station_name":"Yogyakarta","time":6,"i_lat":-7.788961,"distance":1307,"station_id":"YK"},{"station_id":"PTN","station_name":"Patukan","i_long":110.32542,"line":7,"is_transit":false,"time":5,"distance":4241,"transit":false,"i_lat":-7.790605},{"distance":4579,"i_long":110.279205,"line":7,"station_id":"RWL","station_name":"Rewulu","is_transit":false,"time":4,"i_lat":-7.797702,"transit":false},{"station_name":"Sentolo","station_id":"STL","is_transit":false,"i_lat":-7.832939,"i_long":110.220122,"time":8,"line":7,"transit":false,"distance":9041},{"i_lat":-7.859237,"line":7,"is_transit":false,"distance":10145,"i_long":110.158003,"transit":false,"station_id":"WT","station_name":"Wates","time":25},{"is_transit":false,"i_lat":-7.861626,"line":7,"transit":false,"i_long":110.040449,"time":15,"station_name":"Wojo","distance":13652,"station_id":"WJ"}]]}