{"data":[[{"transit":false,"time":0,"line":7,"station_name":"Srowot","distance":0,"station_id":"SWT","i_lat":-7.74111,"i_long":110.548972,"is_transit":false},{"station_name":"Brambanan","is_transit":false,"time":7,"i_long":110.500451,"transit":false,"line":0,"distance":5850,"i_lat":-7.756284,"station_id":"BBN"},{"station_name":"Maguwo","i_long":110.436791,"line":7,"distance":7905,"transit":false,"station_id":"MGW","time":8,"i_lat":-7.784476,"is_transit":false},{"i_lat":-7.790018,"i_long":110.375434,"time":7,"distance":6799,"transit":false,"line":7,"station_id":"LPN","is_transit":false,"station_name":"Lempuyangan"},{"i_long":110.36345,"station_id":"YK","line":7,"distance":1307,"station_name":"Yogyakarta","time":6,"transit":false,"is_transit":false,"i_lat":-7.788961},{"transit":false,"is_transit":false,"station_id":"PTN","i_lat":-7.790605,"i_long":110.32542,"line":7,"station_name":"Patukan","time":5,"distance":4241},{"distance":4579,"line":7,"station_name":"Rewulu","station_id":"RWL","is_transit":false,"i_lat":-7.797702,"transit":false,"i_long":110.279205,"time":4},{"transit":false,"station_name":"Sentolo","is_transit":false,"line":0,"station_id":"STL","i_long":110.220122,"distance":9041,"i_lat":-7.832939,"time":8},{"station_id":"WT","distance":10145,"i_lat":-7.859237,"transit":false,"line":7,"i_long":110.158003,"is_transit":false,"station_name":"Wates","time":25},{"time":15,"line":7,"i_long":110.040449,"station_id":"WJ","is_transit":false,"station_name":"Wojo","distance":13652,"i_lat":-7.861626,"transit":false},{"station_name":"Jenar","i_lat":-7.801845,"i_long":110.000548,"transit":false,"time":10,"distance":8393,"line":0,"station_id":"JN","is_transit":false}]]}