{"data":[[{"i_lat":-7.74111,"station_id":"SWT","is_transit":false,"i_long":110.548972,"line":7,"station_name":"Srowot","transit":false,"time":0,"distance":0},{"station_name":"Klaten","is_transit":false,"distance":6738,"i_lat":-7.712087,"i_long":110.602981,"line":7,"time":8,"transit":false,"station_id":"KT"},{"i_lat":-7.668597,"line":7,"is_transit":false,"transit":false,"distance":9279,"i_long":110.674861,"station_name":"Ceper","station_id":"CE","time":9},{"time":7,"transit":false,"i_lat":-7.62181,"line":7,"distance":6271,"i_long":110.706679,"station_name":"Delanggu","station_id":"DL","is_transit":false},{"station_id":"GW","line":7,"i_lat":-7.589036,"time":6,"transit":false,"distance":5543,"i_long":110.744432,"is_transit":false,"station_name":"Gawok"},{"i_lat":-7.561362,"station_name":"Purwosari","time":7,"station_id":"PWS","is_transit":false,"i_long":110.796655,"line":7,"distance":6639,"transit":false},{"distance":2936,"line":7,"i_lat":-7.556783,"i_long":110.821471,"station_id":"SLO","transit":false,"station_name":"Solo Balapan","is_transit":false,"time":6},{"station_name":"Solo Jebres","distance":2141,"time":10,"is_transit":false,"station_id":"SK","i_long":110.839459,"transit":false,"line":7,"i_lat":-7.56197}]]}