{"data":[[{"station_id":"SWT","i_lat":-7.74111,"station_name":"Srowot","transit":false,"time":0,"i_long":110.548972,"line":7,"distance":0,"is_transit":false},{"time":7,"i_lat":-7.756284,"line":0,"station_name":"Brambanan","distance":5850,"transit":false,"station_id":"BBN","i_long":110.500451,"is_transit":false},{"station_name":"Maguwo","i_long":110.436791,"station_id":"MGW","transit":false,"is_transit":false,"i_lat":-7.784476,"distance":7905,"line":7,"time":8},{"is_transit":false,"station_id":"LPN","station_name":"Lempuyangan","transit":false,"i_lat":-7.790018,"i_long":110.375434,"time":7,"distance":6799,"line":7},{"distance":1307,"i_long":110.36345,"line":7,"time":6,"i_lat":-7.788961,"station_id":"YK","is_transit":false,"station_name":"Yogyakarta","transit":false},{"time":5,"distance":4241,"i_long":110.32542,"transit":false,"station_name":"Patukan","station_id":"PTN","line":7,"is_transit":false,"i_lat":-7.790605},{"line":7,"time":4,"i_long":110.279205,"station_id":"RWL","station_name":"Rewulu","distance":4579,"transit":false,"is_transit":false,"i_lat":-7.797702},{"line":7,"time":8,"distance":9041,"is_transit":false,"station_name":"Sentolo","transit":false,"i_long":110.220122,"station_id":"STL","i_lat":-7.832939},{"line":7,"time":25,"transit":false,"distance":10145,"station_id":"WT","station_name":"Wates","i_lat":-7.859237,"is_transit":false,"i_long":110.158003},{"station_id":"WJ","transit":false,"is_transit":false,"station_name":"Wojo","time":15,"i_long":110.040449,"line":7,"i_lat":-7.861626,"distance":13652},{"distance":8393,"station_name":"Jenar","transit":false,"is_transit":false,"time":10,"i_lat":-7.801845,"i_long":110.000548,"station_id":"JN","line":7}]]}