{"data":[[{"distance":0,"is_transit":false,"line":1,"station_id":"TB","station_name":"Tambun","transit":false,"i_lat":-6.258864,"time":0,"i_long":107.055722},{"i_lat":-6.248029,"i_long":107.016735,"transit":false,"station_id":"BKST","time":7,"station_name":"Bekasi Timur","line":0,"distance":4460,"is_transit":false},{"is_transit":false,"line":0,"i_lat":-6.236616,"distance":2368,"station_name":"Bekasi","i_long":106.997013,"transit":false,"station_id":"BKS","time":2},{"station_name":"Kranji","distance":2520,"time":4,"line":1,"transit":false,"i_lat":-6.224515,"station_id":"KRI","is_transit":false,"i_long":106.977657},{"is_transit":false,"time":3,"line":0,"station_id":"CUK","distance":3097,"station_name":"Cakung","i_lat":-6.219053,"transit":false,"i_long":106.951283},{"i_long":106.939679,"line":1,"distance":1385,"time":8,"is_transit":false,"station_name":"Klenderbaru","transit":false,"station_id":"KLDB","i_lat":-6.217455},{"is_transit":false,"transit":false,"line":0,"i_lat":-6.215568,"i_long":106.922662,"station_id":"BUA","distance":1305,"station_name":"Buaran","time":1},{"transit":false,"is_transit":false,"station_name":"Klender","distance":3100,"station_id":"KLD","i_long":106.899548,"line":1,"i_lat":-6.2135,"time":2},{"station_id":"JNG","line":0,"station_name":"Jatinegara","i_lat":-6.215091,"distance":3395,"transit":false,"time":3,"i_long":106.86807400000001,"is_transit":true},{"time":2,"i_lat":-6.212485,"distance":1377,"is_transit":false,"i_long":106.858896,"transit":false,"station_name":"Matraman","line":1,"station_id":"MTR"},{"i_lat":-6.209883,"distance":1275,"station_name":"Manggarai","transit":false,"line":0,"is_transit":true,"i_long":106.84912,"station_id":"MRI","time":2},{"line":1,"time":4,"i_long":106.822649,"station_id":"SUD","station_name":"Sudirman","distance":3186,"transit":false,"is_transit":false,"i_lat":-6.202263},{"transit":false,"i_lat":-6.201433,"i_long":106.819881,"distance":280,"time":1,"station_name":"Sudirman Baru","line":1,"station_id":"SUDB","is_transit":false},{"station_name":"Karet","time":1,"i_long":106.816351,"transit":false,"i_lat":-6.20132,"line":1,"distance":471,"is_transit":false,"station_id":"KAT"},{"is_transit":true,"distance":2029,"station_name":"Tanah Abang","station_id":"THB","time":5,"i_long":106.811091,"transit":false,"i_lat":-6.185545,"line":1},{"transit":true,"is_transit":true,"distance":3632,"station_id":"DU","i_lat":-6.155215,"time":8,"i_long":106.800832,"station_name":"Duri","line":1},{"line":5,"is_transit":false,"distance":1700,"i_lat":-6.162021,"station_name":"Grogol","i_long":106.788277,"station_id":"GGL","transit":false,"time":3},{"station_name":"Pesing","i_long":106.771379,"time":2,"distance":2036,"transit":false,"line":5,"station_id":"PSG","is_transit":false,"i_lat":-6.161433},{"i_long":106.756522,"distance":1614,"is_transit":false,"time":2,"station_id":"TKO","i_lat":-6.1587309999999995,"transit":false,"station_name":"Taman Kota","line":5},{"distance":2334,"i_long":106.737035,"line":0,"station_name":"Bojongindah","i_lat":-6.159876,"station_id":"BOI","is_transit":false,"transit":false,"time":2}],[{"station_name":"Tambun","line":1,"distance":0,"i_long":107.055722,"station_id":"TB","i_lat":-6.258864,"is_transit":false,"time":0,"transit":false},{"i_lat":-6.248029,"time":7,"line":0,"i_long":107.016735,"transit":false,"is_transit":false,"station_id":"BKST","station_name":"Bekasi Timur","distance":4460},{"distance":2368,"i_long":106.997013,"time":2,"is_transit":false,"station_id":"BKS","transit":false,"i_lat":-6.236616,"line":0,"station_name":"Bekasi"},{"transit":false,"time":4,"station_name":"Kranji","i_lat":-6.224515,"i_long":106.977657,"line":1,"station_id":"KRI","distance":2520,"is_transit":false},{"distance":3097,"time":3,"i_lat":-6.219053,"transit":false,"is_transit":false,"i_long":106.951283,"line":0,"station_id":"CUK","station_name":"Cakung"},{"time":8,"i_lat":-6.217455,"i_long":106.939679,"distance":1385,"station_id":"KLDB","is_transit":false,"station_name":"Klenderbaru","line":1,"transit":false},{"is_transit":false,"transit":false,"i_long":106.922662,"station_id":"BUA","line":0,"i_lat":-6.215568,"distance":1305,"station_name":"Buaran","time":1},{"station_name":"Klender","i_long":106.899548,"transit":false,"time":2,"station_id":"KLD","i_lat":-6.2135,"line":1,"is_transit":false,"distance":3100},{"is_transit":true,"i_lat":-6.215091,"station_name":"Jatinegara","time":3,"i_long":106.86807400000001,"distance":3395,"line":0,"transit":true,"station_id":"JNG"},{"station_id":"POK","time":2,"distance":1236,"transit":false,"i_lat":-6.209188,"i_long":106.861737,"line":11,"is_transit":false,"station_name":"Pondok Jati"},{"station_name":"Kramat","line":11,"time":2,"station_id":"KMT","transit":false,"i_long":106.855437,"distance":1829,"is_transit":false,"i_lat":-6.193792},{"station_id":"GST","line":11,"distance":973,"station_name":"Gang Sentiong","is_transit":false,"transit":false,"i_lat":-6.185975,"i_long":106.850107,"time":1},{"is_transit":false,"time":8,"i_long":106.84368,"line":11,"station_id":"PSE","transit":false,"i_lat":-6.174784,"station_name":"Pasar Senen","distance":1567},{"is_transit":false,"time":4,"i_lat":-6.161728,"line":11,"i_long":106.839204,"station_name":"Kemayoran","station_id":"KMO","transit":false,"distance":1436},{"transit":false,"time":5,"line":11,"station_name":"Rajawali","i_lat":-6.14505,"i_long":106.836569,"station_id":"RJW","is_transit":false,"distance":1901},{"station_name":"Kampung Bandan","is_transit":true,"station_id":"KPB","transit":true,"distance":1444,"i_lat":-6.132549,"line":0,"time":3,"i_long":106.826365},{"is_transit":false,"station_id":"AK","transit":false,"i_lat":-6.144674,"distance":4102,"line":0,"i_long":106.79867,"station_name":"Angke","time":9},{"distance":1230,"station_name":"Duri","i_long":106.800832,"transit":true,"is_transit":true,"station_id":"DU","time":4,"line":1,"i_lat":-6.155215},{"line":5,"transit":false,"i_long":106.788277,"is_transit":false,"i_lat":-6.162021,"station_id":"GGL","distance":1700,"time":3,"station_name":"Grogol"},{"i_long":106.771379,"station_name":"Pesing","station_id":"PSG","time":2,"i_lat":-6.161433,"is_transit":false,"transit":false,"distance":2036,"line":5},{"line":5,"distance":1614,"station_id":"TKO","station_name":"Taman Kota","transit":false,"time":2,"i_lat":-6.1587309999999995,"i_long":106.756522,"is_transit":false},{"distance":2334,"line":0,"transit":false,"station_name":"Bojongindah","i_long":106.737035,"time":2,"i_lat":-6.159876,"is_transit":false,"station_id":"BOI"}],[{"distance":0,"station_id":"TB","i_lat":-6.258864,"is_transit":false,"station_name":"Tambun","i_long":107.055722,"transit":false,"line":1,"time":0},{"distance":4460,"station_name":"Bekasi Timur","station_id":"BKST","time":7,"is_transit":false,"transit":false,"i_long":107.016735,"line":0,"i_lat":-6.248029},{"is_transit":false,"station_id":"BKS","time":2,"distance":2368,"i_long":106.997013,"i_lat":-6.236616,"transit":false,"station_name":"Bekasi","line":0},{"station_name":"Kranji","line":1,"time":4,"i_long":106.977657,"is_transit":false,"i_lat":-6.224515,"station_id":"KRI","distance":2520,"transit":false},{"line":0,"distance":3097,"i_lat":-6.219053,"i_long":106.951283,"time":3,"transit":false,"station_id":"CUK","is_transit":false,"station_name":"Cakung"},{"is_transit":false,"transit":false,"time":8,"station_id":"KLDB","station_name":"Klenderbaru","distance":1385,"i_long":106.939679,"line":1,"i_lat":-6.217455},{"time":1,"line":0,"station_name":"Buaran","station_id":"BUA","transit":false,"i_long":106.922662,"i_lat":-6.215568,"distance":1305,"is_transit":false},{"transit":false,"time":2,"station_id":"KLD","is_transit":false,"i_long":106.899548,"station_name":"Klender","line":1,"i_lat":-6.2135,"distance":3100},{"station_id":"JNG","line":0,"is_transit":true,"i_lat":-6.215091,"station_name":"Jatinegara","transit":false,"i_long":106.86807400000001,"distance":3395,"time":3},{"is_transit":false,"time":2,"line":1,"station_id":"MTR","i_long":106.858896,"distance":1377,"station_name":"Matraman","i_lat":-6.212485,"transit":false},{"distance":1275,"station_id":"MRI","time":2,"i_lat":-6.209883,"is_transit":true,"station_name":"Manggarai","transit":true,"line":0,"i_long":106.84912},{"i_long":106.840169,"is_transit":false,"station_id":"CKI","line":0,"station_name":"Cikini","transit":false,"i_lat":-6.198556,"time":4,"distance":1590},{"station_name":"Gondangdia","line":2,"station_id":"GDD","distance":1750,"transit":false,"is_transit":false,"time":3,"i_lat":-6.186295,"i_long":106.832183},{"station_id":"JUA","time":4,"is_transit":false,"i_long":106.828284,"station_name":"Juanda","i_lat":-6.166716,"distance":2015,"transit":false,"line":2},{"line":2,"station_id":"SW","is_transit":false,"distance":1149,"station_name":"Sawah Besar","i_long":106.827103,"transit":false,"i_lat":-6.160725,"time":2},{"i_long":106.82482,"station_name":"Manggabesar","line":2,"transit":false,"distance":906,"i_lat":-6.149769,"station_id":"MGB","is_transit":false,"time":2},{"station_id":"JAY","is_transit":false,"station_name":"Jayakarta","transit":false,"time":2,"distance":1080,"i_long":106.820901,"line":7,"i_lat":-6.141205},{"is_transit":true,"station_name":"Jakarta Kota","distance":1264,"transit":true,"i_lat":-6.137569,"line":0,"station_id":"JAKK","time":4,"i_long":106.812439},{"is_transit":true,"i_lat":-6.132549,"time":3,"station_id":"KPB","line":0,"i_long":106.826365,"station_name":"Kampung Bandan","transit":false,"distance":1364},{"i_long":106.79867,"transit":false,"i_lat":-6.144674,"is_transit":false,"line":0,"distance":4102,"station_name":"Angke","station_id":"AK","time":9},{"station_id":"DU","i_lat":-6.155215,"time":4,"transit":true,"is_transit":true,"station_name":"Duri","i_long":106.800832,"distance":1230,"line":1},{"time":3,"is_transit":false,"i_long":106.788277,"station_id":"GGL","transit":false,"line":5,"distance":1700,"station_name":"Grogol","i_lat":-6.162021},{"line":5,"station_id":"PSG","station_name":"Pesing","time":2,"is_transit":false,"i_lat":-6.161433,"i_long":106.771379,"transit":false,"distance":2036},{"transit":false,"i_lat":-6.1587309999999995,"time":2,"distance":1614,"station_id":"TKO","is_transit":false,"station_name":"Taman Kota","i_long":106.756522,"line":5},{"transit":false,"time":2,"i_lat":-6.159876,"station_id":"BOI","distance":2334,"is_transit":false,"line":0,"i_long":106.737035,"station_name":"Bojongindah"}],[{"i_long":107.055722,"line":1,"station_name":"Tambun","time":0,"distance":0,"i_lat":-6.258864,"station_id":"TB","is_transit":false,"transit":false},{"i_lat":-6.248029,"station_name":"Bekasi Timur","distance":4460,"time":7,"line":0,"station_id":"BKST","transit":false,"i_long":107.016735,"is_transit":false},{"i_long":106.997013,"is_transit":false,"station_name":"Bekasi","distance":2368,"transit":false,"i_lat":-6.236616,"line":0,"station_id":"BKS","time":2},{"is_transit":false,"distance":2520,"i_lat":-6.224515,"transit":false,"station_id":"KRI","station_name":"Kranji","time":4,"i_long":106.977657,"line":1},{"i_long":106.951283,"distance":3097,"transit":false,"time":3,"station_id":"CUK","is_transit":false,"station_name":"Cakung","i_lat":-6.219053,"line":0},{"time":8,"distance":1385,"is_transit":false,"station_name":"Klenderbaru","line":1,"i_lat":-6.217455,"i_long":106.939679,"station_id":"KLDB","transit":false},{"station_name":"Buaran","transit":false,"time":1,"is_transit":false,"i_long":106.922662,"distance":1305,"station_id":"BUA","i_lat":-6.215568,"line":0},{"line":1,"station_name":"Klender","time":2,"is_transit":false,"i_lat":-6.2135,"transit":false,"distance":3100,"i_long":106.899548,"station_id":"KLD"},{"station_name":"Jatinegara","i_lat":-6.215091,"transit":true,"station_id":"JNG","time":3,"is_transit":true,"distance":3395,"line":0,"i_long":106.86807400000001},{"time":2,"i_long":106.861737,"is_transit":false,"line":11,"i_lat":-6.209188,"station_id":"POK","transit":false,"distance":1236,"station_name":"Pondok Jati"},{"distance":1829,"station_name":"Kramat","i_long":106.855437,"station_id":"KMT","transit":false,"line":11,"time":2,"is_transit":false,"i_lat":-6.193792},{"distance":973,"station_name":"Gang Sentiong","line":11,"transit":false,"is_transit":false,"station_id":"GST","i_lat":-6.185975,"time":1,"i_long":106.850107},{"time":8,"distance":1567,"i_lat":-6.174784,"line":11,"is_transit":false,"station_id":"PSE","station_name":"Pasar Senen","transit":false,"i_long":106.84368},{"i_lat":-6.161728,"distance":1436,"time":4,"i_long":106.839204,"transit":false,"is_transit":false,"station_name":"Kemayoran","station_id":"KMO","line":11},{"station_id":"RJW","station_name":"Rajawali","transit":false,"i_lat":-6.14505,"is_transit":false,"distance":1901,"time":5,"i_long":106.836569,"line":11},{"is_transit":true,"i_long":106.826365,"distance":1444,"transit":true,"line":0,"station_name":"Kampung Bandan","station_id":"KPB","i_lat":-6.132549,"time":3},{"is_transit":true,"station_id":"JAKK","i_lat":-6.137569,"transit":true,"line":0,"distance":1364,"station_name":"Jakarta Kota","i_long":106.812439,"time":3},{"time":4,"station_name":"Jayakarta","i_long":106.820901,"transit":false,"line":7,"station_id":"JAY","i_lat":-6.141205,"distance":1264,"is_transit":false},{"station_name":"Manggabesar","time":2,"i_long":106.82482,"station_id":"MGB","distance":1080,"transit":false,"line":2,"i_lat":-6.149769,"is_transit":false},{"time":2,"i_long":106.827103,"line":2,"station_name":"Sawah Besar","is_transit":false,"station_id":"SW","transit":false,"distance":906,"i_lat":-6.160725},{"i_lat":-6.166716,"i_long":106.828284,"time":2,"station_id":"JUA","distance":1149,"line":2,"transit":false,"is_transit":false,"station_name":"Juanda"},{"i_long":106.832183,"i_lat":-6.186295,"station_id":"GDD","line":2,"time":4,"is_transit":false,"station_name":"Gondangdia","transit":false,"distance":2015},{"line":0,"station_id":"CKI","time":3,"i_lat":-6.198556,"distance":1750,"station_name":"Cikini","i_long":106.840169,"transit":false,"is_transit":false},{"time":4,"line":0,"i_long":106.84912,"distance":1590,"i_lat":-6.209883,"transit":true,"station_id":"MRI","is_transit":true,"station_name":"Manggarai"},{"time":4,"transit":false,"i_lat":-6.202263,"i_long":106.822649,"line":1,"station_name":"Sudirman","is_transit":false,"distance":3186,"station_id":"SUD"},{"time":1,"line":1,"station_id":"SUDB","distance":280,"is_transit":false,"i_lat":-6.201433,"station_name":"Sudirman Baru","transit":false,"i_long":106.819881},{"time":1,"i_long":106.816351,"line":1,"i_lat":-6.20132,"transit":false,"is_transit":false,"distance":471,"station_id":"KAT","station_name":"Karet"},{"station_name":"Tanah Abang","time":5,"i_lat":-6.185545,"line":1,"is_transit":true,"i_long":106.811091,"station_id":"THB","transit":false,"distance":2029},{"time":8,"transit":true,"line":1,"is_transit":true,"distance":3632,"i_lat":-6.155215,"i_long":106.800832,"station_name":"Duri","station_id":"DU"},{"i_lat":-6.162021,"is_transit":false,"i_long":106.788277,"time":3,"line":5,"distance":1700,"transit":false,"station_name":"Grogol","station_id":"GGL"},{"station_name":"Pesing","is_transit":false,"station_id":"PSG","i_lat":-6.161433,"i_long":106.771379,"distance":2036,"line":5,"time":2,"transit":false},{"line":5,"i_lat":-6.1587309999999995,"distance":1614,"time":2,"i_long":106.756522,"station_name":"Taman Kota","transit":false,"is_transit":false,"station_id":"TKO"},{"station_id":"BOI","time":2,"i_long":106.737035,"i_lat":-6.159876,"transit":false,"distance":2334,"is_transit":false,"line":0,"station_name":"Bojongindah"}]]}