{"data":[[{"station_name":"Tambun","i_lat":-6.258864,"station_id":"TB","is_transit":false,"time":0,"distance":0,"i_long":107.055722,"line":1,"transit":false},{"station_id":"BKST","distance":4460,"is_transit":false,"line":1,"station_name":"Bekasi Timur","transit":false,"time":7,"i_long":107.016735,"i_lat":-6.248029},{"distance":2368,"i_lat":-6.236616,"i_long":106.997013,"station_id":"BKS","station_name":"Bekasi","line":1,"time":2,"transit":false,"is_transit":false},{"distance":2520,"i_lat":-6.224515,"transit":false,"station_name":"Kranji","is_transit":false,"time":4,"i_long":106.977657,"line":1,"station_id":"KRI"},{"is_transit":false,"distance":3097,"station_id":"CUK","transit":false,"station_name":"Cakung","time":3,"i_lat":-6.219053,"i_long":106.951283,"line":1},{"transit":false,"time":8,"distance":1385,"i_lat":-6.217455,"i_long":106.939679,"station_id":"KLDB","line":1,"station_name":"Klenderbaru","is_transit":false},{"i_long":106.922662,"i_lat":-6.215568,"transit":false,"distance":1305,"station_name":"Buaran","time":1,"line":1,"station_id":"BUA","is_transit":false},{"station_name":"Klender","i_long":106.899548,"transit":false,"line":1,"distance":3100,"time":2,"station_id":"KLD","is_transit":false,"i_lat":-6.2135},{"station_name":"Jatinegara","transit":false,"station_id":"JNG","distance":3395,"is_transit":false,"time":3,"i_long":106.86807400000001,"i_lat":-6.215091,"line":1},{"station_name":"Matraman","transit":false,"time":2,"station_id":"MTR","i_lat":-6.212485,"i_long":106.858896,"distance":1377,"is_transit":false,"line":1},{"station_name":"Manggarai","distance":1275,"line":2,"station_id":"MRI","i_lat":-6.209883,"time":2,"is_transit":true,"transit":true,"i_long":106.84912},{"i_lat":-6.226659,"line":2,"transit":false,"i_long":106.857948,"station_id":"TEB","time":4,"station_name":"Tebet","is_transit":false,"distance":2610},{"station_name":"Cawang","distance":1230,"is_transit":false,"time":2,"i_lat":-6.242512,"transit":false,"station_id":"CW","i_long":106.856607,"line":2},{"transit":false,"station_name":"Duren Kalibata","is_transit":false,"i_lat":-6.255332,"line":2,"i_long":106.85449,"station_id":"DRN","time":3,"distance":1546},{"station_name":"Pasar Minggu Baru","i_lat":-6.263214,"i_long":106.851577,"time":2,"station_id":"PSMB","distance":824,"transit":false,"is_transit":false,"line":2},{"time":2,"transit":false,"station_id":"PSM","station_name":"Pasar Minggu","i_lat":-6.2842400000000005,"is_transit":false,"i_long":106.843999,"line":2,"distance":2380},{"is_transit":false,"station_name":"Tanjung Barat","i_lat":-6.3080680000000005,"time":4,"distance":2820,"i_long":106.838896,"station_id":"TNT","line":2,"transit":false},{"line":2,"distance":2671,"is_transit":false,"i_long":106.832616,"station_id":"LNA","transit":false,"station_name":"Lenteng Agung","i_lat":-6.330363,"time":3},{"time":2,"is_transit":false,"distance":1029,"transit":false,"station_name":"Univ. Pancasila","line":2,"i_lat":-6.339291,"i_long":106.834175,"station_id":"UP"},{"distance":2264,"time":3,"i_lat":-6.360749,"transit":false,"is_transit":false,"line":2,"station_name":"Univ. Indonesia","station_id":"UI","i_long":106.831474},{"station_name":"Pondok Cina","i_long":106.831114,"is_transit":false,"line":2,"i_lat":-6.369073,"distance":1109,"time":2,"station_id":"POC","transit":false},{"i_long":106.819451,"station_name":"Depokbaru","transit":false,"time":4,"i_lat":-6.391065,"station_id":"DPB","line":2,"distance":2727,"is_transit":false},{"time":3,"i_long":106.816926,"transit":false,"station_id":"DP","is_transit":false,"i_lat":-6.405256,"distance":1584,"station_name":"Depok","line":2},{"transit":false,"is_transit":false,"station_name":"Citayam","distance":5084,"i_lat":-6.448811,"line":2,"time":6,"i_long":106.800298,"station_id":"CTA"},{"station_name":"Bojonggede","line":2,"distance":5197,"transit":false,"i_long":106.792719,"time":5,"station_id":"BJD","is_transit":false,"i_lat":-6.493243},{"distance":4331,"time":5,"station_id":"CLT","i_long":106.800016,"is_transit":false,"station_name":"Cilebut","i_lat":-6.530544,"line":2,"transit":false},{"i_long":106.790574,"transit":false,"distance":7514,"i_lat":-6.594596,"line":2,"station_id":"BOO","station_name":"Bogor","time":9,"is_transit":false}],[{"time":0,"station_name":"Tambun","i_lat":-6.258864,"distance":0,"line":1,"station_id":"TB","transit":false,"is_transit":false,"i_long":107.055722},{"time":7,"distance":4460,"station_name":"Bekasi Timur","station_id":"BKST","i_lat":-6.248029,"is_transit":false,"transit":false,"i_long":107.016735,"line":1},{"station_name":"Bekasi","time":2,"i_long":106.997013,"transit":false,"i_lat":-6.236616,"is_transit":false,"line":1,"distance":2368,"station_id":"BKS"},{"i_long":106.977657,"transit":false,"is_transit":false,"station_name":"Kranji","line":1,"time":4,"station_id":"KRI","distance":2520,"i_lat":-6.224515},{"station_name":"Cakung","time":3,"i_long":106.951283,"station_id":"CUK","transit":false,"distance":3097,"i_lat":-6.219053,"line":1,"is_transit":false},{"is_transit":false,"station_name":"Klenderbaru","line":1,"time":8,"transit":false,"station_id":"KLDB","i_long":106.939679,"i_lat":-6.217455,"distance":1385},{"i_long":106.922662,"line":1,"is_transit":false,"transit":false,"station_name":"Buaran","time":1,"station_id":"BUA","i_lat":-6.215568,"distance":1305},{"is_transit":false,"i_lat":-6.2135,"line":1,"station_name":"Klender","station_id":"KLD","transit":false,"i_long":106.899548,"time":2,"distance":3100},{"line":1,"transit":true,"i_lat":-6.215091,"is_transit":true,"i_long":106.86807400000001,"station_name":"Jatinegara","distance":3395,"time":3,"station_id":"JNG"},{"line":11,"station_id":"POK","transit":false,"distance":1236,"i_lat":-6.209188,"time":2,"is_transit":false,"station_name":"Pondok Jati","i_long":106.861737},{"time":2,"station_id":"KMT","i_lat":-6.193792,"is_transit":false,"distance":1829,"transit":false,"station_name":"Kramat","line":11,"i_long":106.855437},{"i_lat":-6.185975,"time":1,"is_transit":false,"line":11,"i_long":106.850107,"station_id":"GST","station_name":"Gang Sentiong","transit":false,"distance":973},{"is_transit":false,"station_name":"Pasar Senen","i_lat":-6.174784,"distance":1567,"transit":false,"line":11,"station_id":"PSE","time":8,"i_long":106.84368},{"i_long":106.839204,"time":4,"transit":false,"station_name":"Kemayoran","station_id":"KMO","i_lat":-6.161728,"distance":1436,"is_transit":false,"line":11},{"line":11,"transit":false,"distance":1901,"is_transit":false,"station_id":"RJW","time":5,"i_lat":-6.14505,"station_name":"Rajawali","i_long":106.836569},{"is_transit":true,"station_id":"KPB","line":4,"i_long":106.826365,"distance":1444,"transit":true,"station_name":"Kampung Bandan","i_lat":-6.132549,"time":3},{"transit":false,"station_id":"AK","is_transit":false,"i_lat":-6.144674,"i_long":106.79867,"time":9,"station_name":"Angke","distance":4102,"line":1},{"line":1,"distance":1230,"transit":false,"i_lat":-6.155215,"is_transit":false,"station_name":"Duri","i_long":106.800832,"time":4,"station_id":"DU"},{"transit":false,"line":1,"time":8,"i_long":106.811091,"distance":3632,"is_transit":false,"station_name":"Tanah Abang","station_id":"THB","i_lat":-6.185545},{"transit":false,"i_lat":-6.20132,"is_transit":false,"time":5,"line":1,"station_id":"KAT","i_long":106.816351,"distance":2029,"station_name":"Karet"},{"transit":false,"time":1,"i_lat":-6.201433,"i_long":106.819881,"station_name":"Sudirman Baru","station_id":"SUDB","distance":471,"line":1,"is_transit":false},{"i_lat":-6.202263,"time":1,"distance":280,"station_name":"Sudirman","transit":false,"is_transit":false,"line":1,"station_id":"SUD","i_long":106.822649},{"distance":3186,"i_long":106.84912,"is_transit":true,"station_id":"MRI","i_lat":-6.209883,"time":4,"line":2,"transit":true,"station_name":"Manggarai"},{"time":4,"is_transit":false,"station_name":"Tebet","line":2,"distance":2610,"station_id":"TEB","i_lat":-6.226659,"transit":false,"i_long":106.857948},{"distance":1230,"time":2,"station_name":"Cawang","i_lat":-6.242512,"station_id":"CW","line":2,"transit":false,"is_transit":false,"i_long":106.856607},{"is_transit":false,"distance":1546,"time":3,"station_name":"Duren Kalibata","i_lat":-6.255332,"transit":false,"station_id":"DRN","i_long":106.85449,"line":2},{"time":2,"line":2,"transit":false,"station_name":"Pasar Minggu Baru","is_transit":false,"distance":824,"station_id":"PSMB","i_lat":-6.263214,"i_long":106.851577},{"station_id":"PSM","transit":false,"i_long":106.843999,"distance":2380,"time":2,"is_transit":false,"station_name":"Pasar Minggu","i_lat":-6.2842400000000005,"line":2},{"transit":false,"station_name":"Tanjung Barat","i_lat":-6.3080680000000005,"i_long":106.838896,"is_transit":false,"station_id":"TNT","line":2,"distance":2820,"time":4},{"is_transit":false,"station_name":"Lenteng Agung","i_long":106.832616,"transit":false,"line":2,"i_lat":-6.330363,"time":3,"distance":2671,"station_id":"LNA"},{"station_id":"UP","time":2,"i_lat":-6.339291,"transit":false,"is_transit":false,"station_name":"Univ. Pancasila","i_long":106.834175,"distance":1029,"line":2},{"station_id":"UI","i_long":106.831474,"time":3,"transit":false,"distance":2264,"is_transit":false,"station_name":"Univ. Indonesia","i_lat":-6.360749,"line":2},{"line":2,"station_id":"POC","distance":1109,"station_name":"Pondok Cina","i_lat":-6.369073,"time":2,"transit":false,"is_transit":false,"i_long":106.831114},{"transit":false,"station_name":"Depokbaru","station_id":"DPB","is_transit":false,"i_long":106.819451,"time":4,"distance":2727,"i_lat":-6.391065,"line":2},{"line":2,"distance":1584,"time":3,"station_name":"Depok","station_id":"DP","i_long":106.816926,"i_lat":-6.405256,"transit":false,"is_transit":false},{"distance":5084,"time":6,"station_id":"CTA","i_long":106.800298,"line":2,"transit":false,"station_name":"Citayam","is_transit":false,"i_lat":-6.448811},{"i_long":106.792719,"i_lat":-6.493243,"station_name":"Bojonggede","is_transit":false,"distance":5197,"line":2,"time":5,"station_id":"BJD","transit":false},{"is_transit":false,"transit":false,"station_name":"Cilebut","station_id":"CLT","i_lat":-6.530544,"line":2,"distance":4331,"i_long":106.800016,"time":5},{"station_id":"BOO","time":9,"is_transit":false,"transit":false,"station_name":"Bogor","i_lat":-6.594596,"i_long":106.790574,"line":2,"distance":7514}],[{"i_lat":-6.258864,"transit":false,"is_transit":false,"time":0,"distance":0,"station_id":"TB","i_long":107.055722,"station_name":"Tambun","line":1},{"station_name":"Bekasi Timur","station_id":"BKST","distance":4460,"line":1,"transit":false,"time":7,"i_long":107.016735,"is_transit":false,"i_lat":-6.248029},{"distance":2368,"time":2,"station_id":"BKS","station_name":"Bekasi","line":1,"transit":false,"i_long":106.997013,"i_lat":-6.236616,"is_transit":false},{"line":1,"station_name":"Kranji","is_transit":false,"station_id":"KRI","i_lat":-6.224515,"transit":false,"distance":2520,"time":4,"i_long":106.977657},{"i_long":106.951283,"transit":false,"time":3,"is_transit":false,"station_id":"CUK","station_name":"Cakung","i_lat":-6.219053,"distance":3097,"line":1},{"distance":1385,"station_name":"Klenderbaru","i_lat":-6.217455,"station_id":"KLDB","i_long":106.939679,"line":1,"time":8,"transit":false,"is_transit":false},{"i_lat":-6.215568,"line":1,"station_id":"BUA","time":1,"is_transit":false,"i_long":106.922662,"distance":1305,"transit":false,"station_name":"Buaran"},{"i_long":106.899548,"station_id":"KLD","time":2,"station_name":"Klender","is_transit":false,"line":1,"transit":false,"distance":3100,"i_lat":-6.2135},{"i_lat":-6.215091,"line":1,"distance":3395,"is_transit":true,"station_name":"Jatinegara","i_long":106.86807400000001,"transit":true,"time":3,"station_id":"JNG"},{"transit":false,"time":2,"line":11,"i_lat":-6.209188,"station_name":"Pondok Jati","is_transit":false,"i_long":106.861737,"station_id":"POK","distance":1236},{"time":2,"station_id":"KMT","transit":false,"i_lat":-6.193792,"distance":1829,"i_long":106.855437,"station_name":"Kramat","line":11,"is_transit":false},{"i_long":106.850107,"is_transit":false,"distance":973,"station_name":"Gang Sentiong","i_lat":-6.185975,"transit":false,"station_id":"GST","line":11,"time":1},{"i_long":106.84368,"distance":1567,"station_id":"PSE","line":11,"i_lat":-6.174784,"station_name":"Pasar Senen","transit":false,"time":8,"is_transit":false},{"transit":false,"station_id":"KMO","distance":1436,"i_lat":-6.161728,"station_name":"Kemayoran","i_long":106.839204,"is_transit":false,"time":4,"line":11},{"distance":1901,"i_long":106.836569,"is_transit":false,"station_id":"RJW","time":5,"transit":false,"i_lat":-6.14505,"station_name":"Rajawali","line":11},{"i_lat":-6.132549,"station_name":"Kampung Bandan","i_long":106.826365,"station_id":"KPB","line":4,"distance":1444,"time":3,"transit":true,"is_transit":true},{"transit":true,"i_lat":-6.137569,"distance":1364,"line":2,"time":3,"is_transit":true,"station_name":"Jakarta Kota","i_long":106.812439,"station_id":"JAKK"},{"is_transit":false,"station_name":"Jayakarta","line":2,"station_id":"JAY","i_lat":-6.141205,"transit":false,"time":4,"distance":1264,"i_long":106.820901},{"i_long":106.82482,"station_id":"MGB","time":2,"station_name":"Manggabesar","transit":false,"is_transit":false,"i_lat":-6.149769,"line":2,"distance":1080},{"transit":false,"i_lat":-6.160725,"station_id":"SW","station_name":"Sawah Besar","time":2,"is_transit":false,"i_long":106.827103,"line":2,"distance":906},{"station_id":"JUA","i_long":106.828284,"time":2,"transit":false,"is_transit":false,"distance":1149,"station_name":"Juanda","i_lat":-6.166716,"line":2},{"transit":false,"line":2,"i_lat":-6.186295,"station_id":"GDD","station_name":"Gondangdia","is_transit":false,"time":4,"distance":2015,"i_long":106.832183},{"line":2,"distance":1750,"i_lat":-6.198556,"station_name":"Cikini","station_id":"CKI","transit":false,"time":3,"i_long":106.840169,"is_transit":false},{"i_long":106.84912,"is_transit":false,"i_lat":-6.209883,"line":2,"distance":1590,"station_name":"Manggarai","time":4,"transit":false,"station_id":"MRI"},{"station_name":"Tebet","distance":2610,"is_transit":false,"transit":false,"line":2,"station_id":"TEB","time":4,"i_lat":-6.226659,"i_long":106.857948},{"line":2,"time":2,"transit":false,"i_long":106.856607,"station_name":"Cawang","station_id":"CW","i_lat":-6.242512,"distance":1230,"is_transit":false},{"is_transit":false,"i_lat":-6.255332,"i_long":106.85449,"time":3,"distance":1546,"transit":false,"station_id":"DRN","station_name":"Duren Kalibata","line":2},{"i_lat":-6.263214,"line":2,"distance":824,"i_long":106.851577,"time":2,"is_transit":false,"transit":false,"station_name":"Pasar Minggu Baru","station_id":"PSMB"},{"distance":2380,"station_name":"Pasar Minggu","station_id":"PSM","transit":false,"i_lat":-6.2842400000000005,"i_long":106.843999,"is_transit":false,"time":2,"line":2},{"distance":2820,"time":4,"is_transit":false,"transit":false,"i_long":106.838896,"line":2,"i_lat":-6.3080680000000005,"station_name":"Tanjung Barat","station_id":"TNT"},{"distance":2671,"time":3,"station_id":"LNA","line":2,"transit":false,"is_transit":false,"station_name":"Lenteng Agung","i_lat":-6.330363,"i_long":106.832616},{"time":2,"i_long":106.834175,"line":2,"transit":false,"station_id":"UP","is_transit":false,"station_name":"Univ. Pancasila","i_lat":-6.339291,"distance":1029},{"is_transit":false,"i_lat":-6.360749,"time":3,"line":2,"i_long":106.831474,"transit":false,"distance":2264,"station_id":"UI","station_name":"Univ. Indonesia"},{"distance":1109,"is_transit":false,"i_lat":-6.369073,"station_name":"Pondok Cina","time":2,"line":2,"station_id":"POC","transit":false,"i_long":106.831114},{"distance":2727,"transit":false,"i_lat":-6.391065,"line":2,"time":4,"station_id":"DPB","station_name":"Depokbaru","i_long":106.819451,"is_transit":false},{"line":2,"time":3,"i_long":106.816926,"station_name":"Depok","station_id":"DP","is_transit":false,"distance":1584,"transit":false,"i_lat":-6.405256},{"transit":false,"station_name":"Citayam","i_lat":-6.448811,"time":6,"i_long":106.800298,"station_id":"CTA","distance":5084,"is_transit":false,"line":2},{"transit":false,"station_id":"BJD","i_lat":-6.493243,"is_transit":false,"i_long":106.792719,"station_name":"Bojonggede","line":2,"distance":5197,"time":5},{"distance":4331,"i_lat":-6.530544,"is_transit":false,"i_long":106.800016,"transit":false,"station_id":"CLT","time":5,"station_name":"Cilebut","line":2},{"i_long":106.790574,"i_lat":-6.594596,"is_transit":false,"distance":7514,"transit":false,"station_name":"Bogor","station_id":"BOO","line":2,"time":9}]]}