{"data":[[{"transit":false,"i_long":107.055722,"is_transit":false,"station_id":"TB","distance":0,"station_name":"Tambun","time":0,"line":1,"i_lat":-6.258864},{"i_long":107.016735,"distance":4460,"station_name":"Bekasi Timur","time":7,"station_id":"BKST","i_lat":-6.248029,"line":1,"transit":false,"is_transit":false},{"is_transit":false,"time":2,"i_long":106.997013,"transit":false,"i_lat":-6.236616,"distance":2368,"station_name":"Bekasi","line":1,"station_id":"BKS"},{"transit":false,"i_long":106.977657,"i_lat":-6.224515,"station_id":"KRI","is_transit":false,"time":4,"line":1,"station_name":"Kranji","distance":2520},{"time":3,"i_lat":-6.219053,"is_transit":false,"i_long":106.951283,"station_name":"Cakung","line":1,"station_id":"CUK","transit":false,"distance":3097},{"station_id":"KLDB","transit":false,"station_name":"Klenderbaru","time":8,"i_lat":-6.217455,"i_long":106.939679,"distance":1385,"is_transit":false,"line":1},{"station_id":"BUA","time":1,"line":1,"station_name":"Buaran","i_long":106.922662,"is_transit":false,"i_lat":-6.215568,"distance":1305,"transit":false},{"station_id":"KLD","i_lat":-6.2135,"line":1,"distance":3100,"transit":false,"station_name":"Klender","i_long":106.899548,"time":2,"is_transit":false},{"is_transit":false,"station_name":"Jatinegara","time":3,"line":1,"distance":3395,"i_lat":-6.215091,"station_id":"JNG","i_long":106.86807400000001,"transit":false},{"transit":false,"distance":1377,"line":1,"station_id":"MTR","station_name":"Matraman","i_lat":-6.212485,"is_transit":false,"time":2,"i_long":106.858896},{"station_name":"Manggarai","station_id":"MRI","distance":1275,"transit":false,"i_long":106.84912,"is_transit":false,"time":2,"i_lat":-6.209883,"line":2},{"i_lat":-6.202263,"line":1,"station_name":"Sudirman","transit":false,"i_long":106.822649,"distance":3186,"station_id":"SUD","is_transit":false,"time":4},{"i_long":106.819881,"distance":280,"station_id":"SUDB","station_name":"Sudirman Baru","i_lat":-6.201433,"time":1,"transit":false,"is_transit":false,"line":1},{"i_lat":-6.20132,"is_transit":false,"station_id":"KAT","i_long":106.816351,"transit":false,"line":1,"distance":471,"time":1,"station_name":"Karet"},{"station_id":"THB","is_transit":false,"distance":2029,"station_name":"Tanah Abang","transit":false,"i_long":106.811091,"time":5,"i_lat":-6.185545,"line":1},{"i_lat":-6.155215,"line":1,"transit":true,"station_id":"DU","i_long":106.800832,"is_transit":true,"station_name":"Duri","time":8,"distance":3632},{"i_long":106.788277,"time":3,"line":5,"station_name":"Grogol","distance":1700,"station_id":"GGL","is_transit":false,"i_lat":-6.162021,"transit":false},{"distance":2036,"is_transit":false,"time":2,"station_name":"Pesing","line":5,"i_lat":-6.161433,"station_id":"PSG","i_long":106.771379,"transit":false},{"time":2,"i_lat":-6.1587309999999995,"station_name":"Taman Kota","i_long":106.756522,"line":5,"distance":1614,"station_id":"TKO","transit":false,"is_transit":false},{"station_name":"Bojongindah","distance":2334,"transit":false,"time":2,"i_long":106.737035,"station_id":"BOI","line":5,"is_transit":false,"i_lat":-6.159876}],[{"i_long":107.055722,"i_lat":-6.258864,"line":1,"distance":0,"station_id":"TB","time":0,"is_transit":false,"station_name":"Tambun","transit":false},{"i_lat":-6.248029,"is_transit":false,"station_id":"BKST","i_long":107.016735,"distance":4460,"line":1,"station_name":"Bekasi Timur","time":7,"transit":false},{"time":2,"station_id":"BKS","is_transit":false,"distance":2368,"i_lat":-6.236616,"i_long":106.997013,"line":1,"transit":false,"station_name":"Bekasi"},{"i_lat":-6.224515,"station_name":"Kranji","station_id":"KRI","is_transit":false,"transit":false,"distance":2520,"line":1,"i_long":106.977657,"time":4},{"station_id":"CUK","time":3,"i_long":106.951283,"is_transit":false,"transit":false,"i_lat":-6.219053,"line":1,"station_name":"Cakung","distance":3097},{"station_name":"Klenderbaru","transit":false,"is_transit":false,"distance":1385,"time":8,"i_long":106.939679,"line":1,"i_lat":-6.217455,"station_id":"KLDB"},{"station_id":"BUA","is_transit":false,"time":1,"i_lat":-6.215568,"transit":false,"line":1,"station_name":"Buaran","distance":1305,"i_long":106.922662},{"i_lat":-6.2135,"is_transit":false,"i_long":106.899548,"distance":3100,"station_id":"KLD","time":2,"station_name":"Klender","transit":false,"line":1},{"i_lat":-6.215091,"station_name":"Jatinegara","i_long":106.86807400000001,"transit":true,"time":3,"is_transit":true,"line":1,"distance":3395,"station_id":"JNG"},{"i_long":106.861737,"station_id":"POK","i_lat":-6.209188,"line":11,"is_transit":false,"time":2,"transit":false,"distance":1236,"station_name":"Pondok Jati"},{"distance":1829,"i_long":106.855437,"i_lat":-6.193792,"is_transit":false,"station_name":"Kramat","line":11,"station_id":"KMT","time":2,"transit":false},{"distance":973,"i_lat":-6.185975,"line":11,"transit":false,"i_long":106.850107,"station_id":"GST","is_transit":false,"station_name":"Gang Sentiong","time":1},{"line":11,"distance":1567,"i_long":106.84368,"station_id":"PSE","transit":false,"station_name":"Pasar Senen","time":8,"i_lat":-6.174784,"is_transit":false},{"i_long":106.839204,"time":4,"line":11,"i_lat":-6.161728,"station_id":"KMO","station_name":"Kemayoran","is_transit":false,"transit":false,"distance":1436},{"station_name":"Rajawali","transit":false,"is_transit":false,"station_id":"RJW","distance":1901,"i_long":106.836569,"line":11,"time":5,"i_lat":-6.14505},{"distance":1444,"station_id":"KPB","i_lat":-6.132549,"line":4,"time":3,"transit":true,"station_name":"Kampung Bandan","is_transit":true,"i_long":106.826365},{"time":9,"distance":4102,"transit":false,"station_name":"Angke","i_long":106.79867,"line":1,"station_id":"AK","is_transit":false,"i_lat":-6.144674},{"line":1,"is_transit":true,"i_lat":-6.155215,"time":4,"station_name":"Duri","distance":1230,"station_id":"DU","transit":true,"i_long":106.800832},{"station_id":"GGL","distance":1700,"is_transit":false,"transit":false,"time":3,"i_long":106.788277,"station_name":"Grogol","i_lat":-6.162021,"line":5},{"distance":2036,"station_name":"Pesing","time":2,"transit":false,"is_transit":false,"i_lat":-6.161433,"station_id":"PSG","i_long":106.771379,"line":5},{"line":5,"station_name":"Taman Kota","is_transit":false,"distance":1614,"station_id":"TKO","time":2,"i_lat":-6.1587309999999995,"transit":false,"i_long":106.756522},{"i_lat":-6.159876,"station_name":"Bojongindah","transit":false,"is_transit":false,"i_long":106.737035,"distance":2334,"station_id":"BOI","time":2,"line":5}],[{"transit":false,"station_id":"TB","station_name":"Tambun","time":0,"distance":0,"line":1,"i_lat":-6.258864,"i_long":107.055722,"is_transit":false},{"station_id":"BKST","is_transit":false,"time":7,"transit":false,"distance":4460,"i_lat":-6.248029,"i_long":107.016735,"station_name":"Bekasi Timur","line":1},{"line":1,"time":2,"distance":2368,"i_lat":-6.236616,"station_id":"BKS","transit":false,"i_long":106.997013,"is_transit":false,"station_name":"Bekasi"},{"station_id":"KRI","station_name":"Kranji","time":4,"i_lat":-6.224515,"line":1,"is_transit":false,"i_long":106.977657,"transit":false,"distance":2520},{"line":1,"i_lat":-6.219053,"i_long":106.951283,"time":3,"is_transit":false,"station_name":"Cakung","transit":false,"station_id":"CUK","distance":3097},{"i_long":106.939679,"transit":false,"is_transit":false,"station_id":"KLDB","line":1,"i_lat":-6.217455,"time":8,"distance":1385,"station_name":"Klenderbaru"},{"station_name":"Buaran","time":1,"i_lat":-6.215568,"line":1,"transit":false,"i_long":106.922662,"is_transit":false,"distance":1305,"station_id":"BUA"},{"i_lat":-6.2135,"line":1,"station_name":"Klender","transit":false,"station_id":"KLD","distance":3100,"is_transit":false,"i_long":106.899548,"time":2},{"distance":3395,"station_id":"JNG","is_transit":false,"time":3,"i_long":106.86807400000001,"transit":false,"station_name":"Jatinegara","i_lat":-6.215091,"line":1},{"time":2,"i_long":106.858896,"line":1,"distance":1377,"is_transit":false,"station_name":"Matraman","transit":false,"i_lat":-6.212485,"station_id":"MTR"},{"time":2,"transit":true,"i_long":106.84912,"station_id":"MRI","is_transit":true,"i_lat":-6.209883,"line":2,"station_name":"Manggarai","distance":1275},{"transit":false,"station_name":"Cikini","i_lat":-6.198556,"line":2,"station_id":"CKI","is_transit":false,"i_long":106.840169,"time":4,"distance":1590},{"line":2,"transit":false,"station_id":"GDD","station_name":"Gondangdia","time":3,"i_long":106.832183,"i_lat":-6.186295,"is_transit":false,"distance":1750},{"time":4,"is_transit":false,"distance":2015,"transit":false,"i_lat":-6.166716,"i_long":106.828284,"station_id":"JUA","line":2,"station_name":"Juanda"},{"distance":1149,"station_name":"Sawah Besar","time":2,"line":2,"i_lat":-6.160725,"transit":false,"station_id":"SW","is_transit":false,"i_long":106.827103},{"time":2,"line":2,"station_name":"Manggabesar","i_long":106.82482,"station_id":"MGB","i_lat":-6.149769,"distance":906,"transit":false,"is_transit":false},{"line":2,"distance":1080,"station_name":"Jayakarta","is_transit":false,"time":2,"i_lat":-6.141205,"transit":false,"i_long":106.820901,"station_id":"JAY"},{"time":4,"station_id":"JAKK","station_name":"Jakarta Kota","distance":1264,"i_lat":-6.137569,"i_long":106.812439,"is_transit":true,"transit":true,"line":2},{"i_lat":-6.132549,"station_id":"KPB","distance":1364,"time":3,"transit":true,"is_transit":true,"station_name":"Kampung Bandan","i_long":106.826365,"line":4},{"line":1,"distance":4102,"transit":false,"i_long":106.79867,"station_id":"AK","is_transit":false,"time":9,"i_lat":-6.144674,"station_name":"Angke"},{"is_transit":true,"station_name":"Duri","station_id":"DU","distance":1230,"transit":true,"time":4,"i_lat":-6.155215,"i_long":106.800832,"line":1},{"transit":false,"station_name":"Grogol","time":3,"i_lat":-6.162021,"i_long":106.788277,"line":5,"station_id":"GGL","distance":1700,"is_transit":false},{"transit":false,"line":5,"is_transit":false,"distance":2036,"station_id":"PSG","i_lat":-6.161433,"station_name":"Pesing","time":2,"i_long":106.771379},{"i_lat":-6.1587309999999995,"distance":1614,"transit":false,"station_name":"Taman Kota","line":5,"station_id":"TKO","time":2,"i_long":106.756522,"is_transit":false},{"line":5,"station_name":"Bojongindah","i_long":106.737035,"distance":2334,"transit":false,"is_transit":false,"station_id":"BOI","time":2,"i_lat":-6.159876}],[{"station_id":"TB","time":0,"i_lat":-6.258864,"transit":false,"i_long":107.055722,"line":1,"station_name":"Tambun","distance":0,"is_transit":false},{"i_lat":-6.248029,"line":1,"is_transit":false,"station_id":"BKST","time":7,"station_name":"Bekasi Timur","distance":4460,"transit":false,"i_long":107.016735},{"distance":2368,"is_transit":false,"line":1,"transit":false,"station_id":"BKS","i_long":106.997013,"i_lat":-6.236616,"station_name":"Bekasi","time":2},{"i_lat":-6.224515,"station_name":"Kranji","is_transit":false,"line":1,"distance":2520,"station_id":"KRI","time":4,"i_long":106.977657,"transit":false},{"station_id":"CUK","transit":false,"line":1,"is_transit":false,"i_lat":-6.219053,"time":3,"station_name":"Cakung","distance":3097,"i_long":106.951283},{"i_long":106.939679,"i_lat":-6.217455,"station_name":"Klenderbaru","transit":false,"is_transit":false,"line":1,"distance":1385,"time":8,"station_id":"KLDB"},{"i_lat":-6.215568,"station_name":"Buaran","station_id":"BUA","line":1,"is_transit":false,"i_long":106.922662,"distance":1305,"transit":false,"time":1},{"time":2,"transit":false,"station_id":"KLD","station_name":"Klender","line":1,"distance":3100,"i_long":106.899548,"i_lat":-6.2135,"is_transit":false},{"station_name":"Jatinegara","station_id":"JNG","i_lat":-6.215091,"is_transit":true,"i_long":106.86807400000001,"transit":true,"line":1,"time":3,"distance":3395},{"line":11,"time":2,"station_name":"Pondok Jati","is_transit":false,"station_id":"POK","i_lat":-6.209188,"transit":false,"distance":1236,"i_long":106.861737},{"distance":1829,"is_transit":false,"station_name":"Kramat","i_lat":-6.193792,"line":11,"station_id":"KMT","transit":false,"i_long":106.855437,"time":2},{"is_transit":false,"station_id":"GST","distance":973,"line":11,"transit":false,"time":1,"station_name":"Gang Sentiong","i_long":106.850107,"i_lat":-6.185975},{"station_name":"Pasar Senen","time":8,"transit":false,"line":11,"is_transit":false,"i_lat":-6.174784,"i_long":106.84368,"station_id":"PSE","distance":1567},{"is_transit":false,"distance":1436,"station_name":"Kemayoran","transit":false,"line":11,"station_id":"KMO","time":4,"i_lat":-6.161728,"i_long":106.839204},{"distance":1901,"station_name":"Rajawali","i_long":106.836569,"transit":false,"is_transit":false,"time":5,"i_lat":-6.14505,"line":11,"station_id":"RJW"},{"station_id":"KPB","station_name":"Kampung Bandan","i_lat":-6.132549,"i_long":106.826365,"line":4,"distance":1444,"time":3,"is_transit":true,"transit":true},{"line":2,"is_transit":true,"station_id":"JAKK","time":3,"distance":1364,"i_lat":-6.137569,"i_long":106.812439,"station_name":"Jakarta Kota","transit":true},{"transit":false,"i_long":106.820901,"station_id":"JAY","i_lat":-6.141205,"distance":1264,"is_transit":false,"line":2,"station_name":"Jayakarta","time":4},{"i_long":106.82482,"station_name":"Manggabesar","time":2,"is_transit":false,"distance":1080,"i_lat":-6.149769,"transit":false,"line":2,"station_id":"MGB"},{"is_transit":false,"distance":906,"transit":false,"station_id":"SW","line":2,"time":2,"i_lat":-6.160725,"i_long":106.827103,"station_name":"Sawah Besar"},{"is_transit":false,"i_lat":-6.166716,"transit":false,"distance":1149,"i_long":106.828284,"time":2,"station_id":"JUA","line":2,"station_name":"Juanda"},{"i_lat":-6.186295,"time":4,"transit":false,"line":2,"station_name":"Gondangdia","station_id":"GDD","i_long":106.832183,"is_transit":false,"distance":2015},{"station_id":"CKI","i_lat":-6.198556,"transit":false,"distance":1750,"i_long":106.840169,"line":2,"is_transit":false,"time":3,"station_name":"Cikini"},{"line":2,"station_name":"Manggarai","is_transit":true,"transit":true,"i_lat":-6.209883,"station_id":"MRI","time":4,"distance":1590,"i_long":106.84912},{"is_transit":false,"station_id":"SUD","time":4,"distance":3186,"i_lat":-6.202263,"i_long":106.822649,"line":1,"station_name":"Sudirman","transit":false},{"is_transit":false,"station_id":"SUDB","distance":280,"time":1,"transit":false,"i_long":106.819881,"line":1,"i_lat":-6.201433,"station_name":"Sudirman Baru"},{"line":1,"is_transit":false,"distance":471,"i_lat":-6.20132,"transit":false,"station_name":"Karet","time":1,"i_long":106.816351,"station_id":"KAT"},{"line":1,"is_transit":false,"time":5,"distance":2029,"station_name":"Tanah Abang","station_id":"THB","i_long":106.811091,"transit":false,"i_lat":-6.185545},{"station_name":"Duri","is_transit":true,"station_id":"DU","distance":3632,"i_lat":-6.155215,"time":8,"i_long":106.800832,"line":1,"transit":true},{"time":3,"station_id":"GGL","distance":1700,"station_name":"Grogol","is_transit":false,"i_long":106.788277,"line":5,"i_lat":-6.162021,"transit":false},{"line":5,"is_transit":false,"time":2,"station_name":"Pesing","i_lat":-6.161433,"station_id":"PSG","transit":false,"i_long":106.771379,"distance":2036},{"transit":false,"time":2,"station_id":"TKO","i_lat":-6.1587309999999995,"i_long":106.756522,"line":5,"is_transit":false,"distance":1614,"station_name":"Taman Kota"},{"station_id":"BOI","i_long":106.737035,"line":5,"is_transit":false,"distance":2334,"transit":false,"station_name":"Bojongindah","time":2,"i_lat":-6.159876}]]}