{"data":[[{"i_lat":-6.258864,"transit":false,"time":0,"distance":0,"i_long":107.055722,"line":1,"station_id":"TB","station_name":"Tambun","is_transit":false},{"is_transit":false,"station_name":"Bekasi Timur","line":1,"station_id":"BKST","time":7,"i_long":107.016735,"distance":4460,"transit":false,"i_lat":-6.248029},{"station_id":"BKS","distance":2368,"station_name":"Bekasi","i_lat":-6.236616,"line":1,"time":2,"is_transit":false,"i_long":106.997013,"transit":false},{"transit":false,"i_lat":-6.224515,"i_long":106.977657,"station_id":"KRI","station_name":"Kranji","is_transit":false,"line":1,"time":4,"distance":2520},{"line":1,"i_lat":-6.219053,"distance":3097,"station_id":"CUK","i_long":106.951283,"transit":false,"station_name":"Cakung","is_transit":false,"time":3},{"i_lat":-6.217455,"transit":false,"is_transit":false,"line":1,"station_name":"Klenderbaru","time":8,"distance":1385,"station_id":"KLDB","i_long":106.939679},{"line":1,"time":1,"i_long":106.922662,"station_name":"Buaran","i_lat":-6.215568,"is_transit":false,"distance":1305,"station_id":"BUA","transit":false},{"time":2,"line":1,"station_id":"KLD","station_name":"Klender","is_transit":false,"transit":false,"i_long":106.899548,"distance":3100,"i_lat":-6.2135},{"distance":3395,"station_name":"Jatinegara","time":3,"transit":false,"is_transit":false,"station_id":"JNG","i_lat":-6.215091,"i_long":106.86807400000001,"line":1},{"time":2,"station_id":"MTR","transit":false,"i_lat":-6.212485,"i_long":106.858896,"is_transit":false,"line":1,"distance":1377,"station_name":"Matraman"},{"is_transit":true,"station_id":"MRI","time":2,"transit":true,"line":2,"i_lat":-6.209883,"i_long":106.84912,"distance":1275,"station_name":"Manggarai"},{"line":2,"distance":2610,"i_long":106.857948,"is_transit":false,"transit":false,"i_lat":-6.226659,"station_name":"Tebet","time":4,"station_id":"TEB"},{"transit":false,"i_lat":-6.242512,"station_name":"Cawang","station_id":"CW","line":2,"is_transit":false,"i_long":106.856607,"distance":1230,"time":2},{"station_name":"Duren Kalibata","is_transit":false,"transit":false,"i_long":106.85449,"i_lat":-6.255332,"station_id":"DRN","time":3,"distance":1546,"line":2},{"distance":824,"line":2,"time":2,"is_transit":false,"station_id":"PSMB","station_name":"Pasar Minggu Baru","transit":false,"i_long":106.851577,"i_lat":-6.263214},{"distance":2380,"time":2,"line":2,"station_id":"PSM","transit":false,"i_lat":-6.2842400000000005,"station_name":"Pasar Minggu","i_long":106.843999,"is_transit":false},{"i_lat":-6.3080680000000005,"is_transit":false,"time":4,"station_name":"Tanjung Barat","station_id":"TNT","distance":2820,"line":2,"transit":false,"i_long":106.838896},{"station_name":"Lenteng Agung","i_long":106.832616,"transit":false,"time":3,"station_id":"LNA","i_lat":-6.330363,"line":2,"distance":2671,"is_transit":false},{"line":2,"station_name":"Univ. Pancasila","station_id":"UP","distance":1029,"i_long":106.834175,"is_transit":false,"time":2,"transit":false,"i_lat":-6.339291},{"time":3,"i_long":106.831474,"is_transit":false,"line":2,"distance":2264,"station_id":"UI","transit":false,"station_name":"Univ. Indonesia","i_lat":-6.360749},{"distance":1109,"is_transit":false,"i_long":106.831114,"time":2,"station_name":"Pondok Cina","station_id":"POC","line":2,"transit":false,"i_lat":-6.369073},{"line":2,"time":4,"station_name":"Depokbaru","distance":2727,"station_id":"DPB","is_transit":false,"transit":false,"i_long":106.819451,"i_lat":-6.391065},{"i_lat":-6.405256,"distance":1584,"i_long":106.816926,"is_transit":false,"line":2,"station_id":"DP","transit":false,"station_name":"Depok","time":3},{"is_transit":false,"station_id":"CTA","i_lat":-6.448811,"station_name":"Citayam","i_long":106.800298,"line":2,"time":6,"distance":5084,"transit":false},{"station_id":"BJD","station_name":"Bojonggede","line":2,"time":5,"transit":false,"distance":5197,"is_transit":false,"i_lat":-6.493243,"i_long":106.792719},{"distance":4331,"i_long":106.800016,"i_lat":-6.530544,"is_transit":false,"station_name":"Cilebut","transit":false,"station_id":"CLT","time":5,"line":2},{"is_transit":false,"time":9,"transit":false,"station_name":"Bogor","i_lat":-6.594596,"line":2,"distance":7514,"station_id":"BOO","i_long":106.790574}],[{"i_long":107.055722,"station_name":"Tambun","i_lat":-6.258864,"line":1,"station_id":"TB","transit":false,"distance":0,"is_transit":false,"time":0},{"station_name":"Bekasi Timur","distance":4460,"time":7,"station_id":"BKST","is_transit":false,"i_lat":-6.248029,"i_long":107.016735,"transit":false,"line":1},{"is_transit":false,"i_lat":-6.236616,"station_id":"BKS","transit":false,"distance":2368,"time":2,"station_name":"Bekasi","i_long":106.997013,"line":1},{"is_transit":false,"transit":false,"i_long":106.977657,"distance":2520,"time":4,"i_lat":-6.224515,"line":1,"station_id":"KRI","station_name":"Kranji"},{"i_long":106.951283,"time":3,"i_lat":-6.219053,"distance":3097,"station_name":"Cakung","line":1,"transit":false,"is_transit":false,"station_id":"CUK"},{"station_name":"Klenderbaru","i_long":106.939679,"line":1,"time":8,"transit":false,"distance":1385,"i_lat":-6.217455,"is_transit":false,"station_id":"KLDB"},{"is_transit":false,"station_id":"BUA","station_name":"Buaran","i_long":106.922662,"line":1,"transit":false,"distance":1305,"time":1,"i_lat":-6.215568},{"station_id":"KLD","transit":false,"distance":3100,"line":1,"i_lat":-6.2135,"time":2,"i_long":106.899548,"is_transit":false,"station_name":"Klender"},{"station_name":"Jatinegara","i_lat":-6.215091,"station_id":"JNG","distance":3395,"line":1,"transit":true,"is_transit":true,"i_long":106.86807400000001,"time":3},{"i_lat":-6.209188,"line":11,"distance":1236,"station_id":"POK","transit":false,"time":2,"i_long":106.861737,"is_transit":false,"station_name":"Pondok Jati"},{"i_long":106.855437,"station_id":"KMT","is_transit":false,"time":2,"distance":1829,"transit":false,"i_lat":-6.193792,"station_name":"Kramat","line":11},{"station_id":"GST","station_name":"Gang Sentiong","transit":false,"i_long":106.850107,"time":1,"is_transit":false,"distance":973,"i_lat":-6.185975,"line":11},{"time":8,"station_id":"PSE","i_lat":-6.174784,"distance":1567,"is_transit":false,"i_long":106.84368,"station_name":"Pasar Senen","line":11,"transit":false},{"distance":1436,"time":4,"is_transit":false,"transit":false,"i_lat":-6.161728,"i_long":106.839204,"station_name":"Kemayoran","line":11,"station_id":"KMO"},{"transit":false,"line":11,"is_transit":false,"distance":1901,"station_id":"RJW","time":5,"station_name":"Rajawali","i_lat":-6.14505,"i_long":106.836569},{"transit":true,"distance":1444,"station_id":"KPB","i_lat":-6.132549,"time":3,"i_long":106.826365,"is_transit":true,"line":4,"station_name":"Kampung Bandan"},{"distance":4102,"line":1,"is_transit":false,"transit":false,"station_name":"Angke","i_lat":-6.144674,"station_id":"AK","time":9,"i_long":106.79867},{"i_long":106.800832,"i_lat":-6.155215,"line":1,"distance":1230,"transit":false,"station_name":"Duri","station_id":"DU","is_transit":false,"time":4},{"time":8,"transit":false,"line":1,"i_lat":-6.185545,"is_transit":false,"station_name":"Tanah Abang","distance":3632,"i_long":106.811091,"station_id":"THB"},{"line":1,"is_transit":false,"station_id":"KAT","station_name":"Karet","i_lat":-6.20132,"time":5,"distance":2029,"transit":false,"i_long":106.816351},{"line":1,"transit":false,"time":1,"station_name":"Sudirman Baru","station_id":"SUDB","distance":471,"i_lat":-6.201433,"is_transit":false,"i_long":106.819881},{"transit":false,"distance":280,"is_transit":false,"time":1,"station_name":"Sudirman","i_long":106.822649,"i_lat":-6.202263,"line":1,"station_id":"SUD"},{"is_transit":true,"distance":3186,"station_id":"MRI","i_lat":-6.209883,"station_name":"Manggarai","transit":true,"line":2,"time":4,"i_long":106.84912},{"time":4,"line":2,"i_lat":-6.226659,"i_long":106.857948,"is_transit":false,"station_name":"Tebet","station_id":"TEB","transit":false,"distance":2610},{"distance":1230,"station_name":"Cawang","time":2,"is_transit":false,"transit":false,"i_long":106.856607,"station_id":"CW","line":2,"i_lat":-6.242512},{"i_long":106.85449,"station_id":"DRN","time":3,"station_name":"Duren Kalibata","i_lat":-6.255332,"transit":false,"line":2,"is_transit":false,"distance":1546},{"i_long":106.851577,"time":2,"i_lat":-6.263214,"distance":824,"transit":false,"line":2,"station_id":"PSMB","station_name":"Pasar Minggu Baru","is_transit":false},{"station_name":"Pasar Minggu","distance":2380,"i_long":106.843999,"transit":false,"time":2,"is_transit":false,"line":2,"station_id":"PSM","i_lat":-6.2842400000000005},{"distance":2820,"time":4,"i_lat":-6.3080680000000005,"station_name":"Tanjung Barat","station_id":"TNT","i_long":106.838896,"is_transit":false,"transit":false,"line":2},{"transit":false,"time":3,"i_lat":-6.330363,"station_name":"Lenteng Agung","i_long":106.832616,"line":2,"is_transit":false,"station_id":"LNA","distance":2671},{"distance":1029,"i_lat":-6.339291,"i_long":106.834175,"station_id":"UP","is_transit":false,"time":2,"transit":false,"station_name":"Univ. Pancasila","line":2},{"i_lat":-6.360749,"i_long":106.831474,"line":2,"distance":2264,"transit":false,"station_id":"UI","time":3,"is_transit":false,"station_name":"Univ. Indonesia"},{"distance":1109,"time":2,"station_name":"Pondok Cina","i_lat":-6.369073,"i_long":106.831114,"line":2,"station_id":"POC","transit":false,"is_transit":false},{"station_id":"DPB","time":4,"transit":false,"is_transit":false,"i_long":106.819451,"i_lat":-6.391065,"distance":2727,"station_name":"Depokbaru","line":2},{"is_transit":false,"transit":false,"i_long":106.816926,"station_name":"Depok","time":3,"station_id":"DP","line":2,"distance":1584,"i_lat":-6.405256},{"transit":false,"line":2,"i_long":106.800298,"time":6,"i_lat":-6.448811,"distance":5084,"station_name":"Citayam","is_transit":false,"station_id":"CTA"},{"is_transit":false,"distance":5197,"time":5,"station_id":"BJD","transit":false,"i_lat":-6.493243,"station_name":"Bojonggede","i_long":106.792719,"line":2},{"is_transit":false,"distance":4331,"time":5,"station_name":"Cilebut","i_long":106.800016,"station_id":"CLT","i_lat":-6.530544,"transit":false,"line":2},{"station_name":"Bogor","distance":7514,"time":9,"line":2,"i_lat":-6.594596,"transit":false,"i_long":106.790574,"is_transit":false,"station_id":"BOO"}],[{"i_long":107.055722,"time":0,"transit":false,"line":1,"station_id":"TB","i_lat":-6.258864,"station_name":"Tambun","distance":0,"is_transit":false},{"i_lat":-6.248029,"is_transit":false,"line":1,"i_long":107.016735,"station_id":"BKST","station_name":"Bekasi Timur","time":7,"distance":4460,"transit":false},{"i_lat":-6.236616,"distance":2368,"transit":false,"is_transit":false,"station_id":"BKS","station_name":"Bekasi","i_long":106.997013,"time":2,"line":1},{"time":4,"station_id":"KRI","i_lat":-6.224515,"i_long":106.977657,"transit":false,"station_name":"Kranji","line":1,"is_transit":false,"distance":2520},{"i_lat":-6.219053,"time":3,"station_id":"CUK","station_name":"Cakung","transit":false,"is_transit":false,"i_long":106.951283,"line":1,"distance":3097},{"station_id":"KLDB","time":8,"station_name":"Klenderbaru","i_long":106.939679,"distance":1385,"transit":false,"is_transit":false,"i_lat":-6.217455,"line":1},{"station_id":"BUA","distance":1305,"i_long":106.922662,"line":1,"is_transit":false,"transit":false,"time":1,"station_name":"Buaran","i_lat":-6.215568},{"distance":3100,"station_name":"Klender","line":1,"station_id":"KLD","is_transit":false,"i_lat":-6.2135,"transit":false,"time":2,"i_long":106.899548},{"line":1,"station_id":"JNG","time":3,"i_lat":-6.215091,"is_transit":true,"transit":true,"station_name":"Jatinegara","distance":3395,"i_long":106.86807400000001},{"time":2,"transit":false,"distance":1236,"is_transit":false,"station_id":"POK","station_name":"Pondok Jati","i_long":106.861737,"line":11,"i_lat":-6.209188},{"transit":false,"i_long":106.855437,"distance":1829,"line":11,"time":2,"is_transit":false,"i_lat":-6.193792,"station_id":"KMT","station_name":"Kramat"},{"transit":false,"line":11,"distance":973,"is_transit":false,"time":1,"i_long":106.850107,"station_name":"Gang Sentiong","i_lat":-6.185975,"station_id":"GST"},{"is_transit":false,"transit":false,"i_lat":-6.174784,"station_id":"PSE","time":8,"i_long":106.84368,"line":11,"distance":1567,"station_name":"Pasar Senen"},{"is_transit":false,"line":11,"i_lat":-6.161728,"station_id":"KMO","i_long":106.839204,"station_name":"Kemayoran","distance":1436,"transit":false,"time":4},{"time":5,"i_long":106.836569,"transit":false,"station_id":"RJW","station_name":"Rajawali","is_transit":false,"line":11,"i_lat":-6.14505,"distance":1901},{"i_long":106.826365,"time":3,"transit":true,"line":4,"station_id":"KPB","station_name":"Kampung Bandan","distance":1444,"is_transit":true,"i_lat":-6.132549},{"line":2,"is_transit":true,"time":3,"distance":1364,"station_name":"Jakarta Kota","i_lat":-6.137569,"i_long":106.812439,"transit":true,"station_id":"JAKK"},{"line":2,"distance":1264,"i_lat":-6.141205,"station_name":"Jayakarta","i_long":106.820901,"is_transit":false,"transit":false,"time":4,"station_id":"JAY"},{"distance":1080,"is_transit":false,"transit":false,"i_lat":-6.149769,"station_id":"MGB","line":2,"time":2,"station_name":"Manggabesar","i_long":106.82482},{"transit":false,"i_lat":-6.160725,"station_id":"SW","station_name":"Sawah Besar","time":2,"is_transit":false,"i_long":106.827103,"distance":906,"line":2},{"time":2,"is_transit":false,"line":2,"i_lat":-6.166716,"transit":false,"distance":1149,"i_long":106.828284,"station_name":"Juanda","station_id":"JUA"},{"distance":2015,"is_transit":false,"line":2,"i_lat":-6.186295,"time":4,"station_id":"GDD","transit":false,"i_long":106.832183,"station_name":"Gondangdia"},{"time":3,"station_name":"Cikini","line":2,"distance":1750,"station_id":"CKI","i_lat":-6.198556,"is_transit":false,"transit":false,"i_long":106.840169},{"i_long":106.84912,"station_id":"MRI","distance":1590,"i_lat":-6.209883,"is_transit":false,"time":4,"transit":false,"line":2,"station_name":"Manggarai"},{"station_id":"TEB","time":4,"station_name":"Tebet","i_long":106.857948,"line":2,"transit":false,"i_lat":-6.226659,"distance":2610,"is_transit":false},{"distance":1230,"is_transit":false,"i_long":106.856607,"time":2,"transit":false,"station_name":"Cawang","station_id":"CW","i_lat":-6.242512,"line":2},{"i_long":106.85449,"line":2,"is_transit":false,"station_name":"Duren Kalibata","i_lat":-6.255332,"distance":1546,"transit":false,"time":3,"station_id":"DRN"},{"line":2,"i_lat":-6.263214,"i_long":106.851577,"is_transit":false,"station_name":"Pasar Minggu Baru","station_id":"PSMB","distance":824,"time":2,"transit":false},{"transit":false,"i_lat":-6.2842400000000005,"station_id":"PSM","i_long":106.843999,"is_transit":false,"station_name":"Pasar Minggu","line":2,"distance":2380,"time":2},{"station_name":"Tanjung Barat","time":4,"distance":2820,"i_lat":-6.3080680000000005,"i_long":106.838896,"is_transit":false,"station_id":"TNT","transit":false,"line":2},{"distance":2671,"is_transit":false,"time":3,"line":2,"station_name":"Lenteng Agung","i_lat":-6.330363,"station_id":"LNA","i_long":106.832616,"transit":false},{"distance":1029,"line":2,"i_long":106.834175,"time":2,"i_lat":-6.339291,"is_transit":false,"transit":false,"station_id":"UP","station_name":"Univ. Pancasila"},{"station_name":"Univ. Indonesia","i_lat":-6.360749,"time":3,"distance":2264,"station_id":"UI","i_long":106.831474,"transit":false,"line":2,"is_transit":false},{"transit":false,"station_name":"Pondok Cina","time":2,"is_transit":false,"i_lat":-6.369073,"i_long":106.831114,"line":2,"distance":1109,"station_id":"POC"},{"station_name":"Depokbaru","station_id":"DPB","transit":false,"i_long":106.819451,"distance":2727,"is_transit":false,"line":2,"time":4,"i_lat":-6.391065},{"distance":1584,"station_id":"DP","i_lat":-6.405256,"i_long":106.816926,"station_name":"Depok","is_transit":false,"time":3,"line":2,"transit":false},{"distance":5084,"line":2,"station_name":"Citayam","i_lat":-6.448811,"i_long":106.800298,"time":6,"transit":false,"is_transit":false,"station_id":"CTA"},{"i_lat":-6.493243,"i_long":106.792719,"station_name":"Bojonggede","is_transit":false,"station_id":"BJD","line":2,"distance":5197,"time":5,"transit":false},{"time":5,"is_transit":false,"distance":4331,"i_lat":-6.530544,"station_id":"CLT","transit":false,"i_long":106.800016,"station_name":"Cilebut","line":2},{"time":9,"station_name":"Bogor","station_id":"BOO","transit":false,"distance":7514,"is_transit":false,"i_lat":-6.594596,"line":2,"i_long":106.790574}]]}