{"data":[[{"i_lat":-6.258864,"i_long":107.055722,"distance":0,"transit":false,"line":1,"is_transit":false,"station_id":"TB","time":0,"station_name":"Tambun"},{"i_lat":-6.248029,"line":0,"transit":false,"distance":4460,"i_long":107.016735,"time":7,"is_transit":false,"station_id":"BKST","station_name":"Bekasi Timur"},{"i_lat":-6.236616,"station_id":"BKS","i_long":106.997013,"distance":2368,"time":2,"is_transit":false,"transit":false,"line":0,"station_name":"Bekasi"},{"i_lat":-6.224515,"station_name":"Kranji","is_transit":false,"transit":false,"i_long":106.977657,"station_id":"KRI","time":4,"distance":2520,"line":1},{"distance":3097,"i_lat":-6.219053,"line":0,"station_id":"CUK","is_transit":false,"transit":false,"i_long":106.951283,"station_name":"Cakung","time":3},{"i_lat":-6.217455,"line":1,"distance":1385,"station_id":"KLDB","time":8,"i_long":106.939679,"station_name":"Klenderbaru","transit":false,"is_transit":false},{"transit":false,"station_id":"BUA","line":0,"station_name":"Buaran","i_lat":-6.215568,"is_transit":false,"distance":1305,"i_long":106.922662,"time":1},{"i_long":106.899548,"is_transit":false,"station_id":"KLD","transit":false,"station_name":"Klender","line":1,"distance":3100,"time":2,"i_lat":-6.2135},{"time":3,"line":0,"distance":3395,"station_name":"Jatinegara","i_lat":-6.215091,"i_long":106.86807400000001,"transit":false,"is_transit":true,"station_id":"JNG"},{"i_long":106.858896,"is_transit":false,"i_lat":-6.212485,"transit":false,"station_name":"Matraman","time":2,"line":1,"distance":1377,"station_id":"MTR"},{"transit":true,"station_name":"Manggarai","line":0,"i_lat":-6.209883,"station_id":"MRI","i_long":106.84912,"time":2,"distance":1275,"is_transit":true},{"distance":2610,"transit":false,"time":4,"is_transit":false,"i_long":106.857948,"line":2,"station_name":"Tebet","i_lat":-6.226659,"station_id":"TEB"},{"time":2,"i_long":106.856607,"i_lat":-6.242512,"distance":1230,"line":0,"transit":false,"is_transit":false,"station_id":"CW","station_name":"Cawang"},{"i_long":106.85449,"transit":false,"i_lat":-6.255332,"distance":1546,"station_id":"DRN","station_name":"Duren Kalibata","time":3,"line":0,"is_transit":false},{"station_id":"PSMB","i_long":106.851577,"station_name":"Pasar Minggu Baru","transit":false,"time":2,"is_transit":false,"i_lat":-6.263214,"distance":824,"line":2},{"i_long":106.843999,"station_name":"Pasar Minggu","transit":false,"station_id":"PSM","distance":2380,"is_transit":false,"time":2,"i_lat":-6.2842400000000005,"line":2},{"line":2,"i_long":106.838896,"station_id":"TNT","distance":2820,"is_transit":false,"station_name":"Tanjung Barat","time":4,"i_lat":-6.3080680000000005,"transit":false},{"line":2,"station_id":"LNA","i_long":106.832616,"station_name":"Lenteng Agung","distance":2671,"time":3,"is_transit":false,"i_lat":-6.330363,"transit":false},{"station_id":"UP","line":2,"time":2,"i_lat":-6.339291,"i_long":106.834175,"distance":1029,"is_transit":false,"station_name":"Univ. Pancasila","transit":false},{"is_transit":false,"transit":false,"time":3,"distance":2264,"i_lat":-6.360749,"i_long":106.831474,"station_id":"UI","station_name":"Univ. Indonesia","line":2},{"is_transit":false,"i_long":106.831114,"station_name":"Pondok Cina","time":2,"i_lat":-6.369073,"station_id":"POC","line":2,"transit":false,"distance":1109},{"i_long":106.819451,"transit":false,"distance":2727,"time":4,"station_name":"Depokbaru","line":0,"is_transit":false,"station_id":"DPB","i_lat":-6.391065},{"station_id":"DP","station_name":"Depok","time":3,"i_long":106.816926,"i_lat":-6.405256,"transit":false,"distance":1584,"is_transit":false,"line":0},{"transit":false,"distance":5084,"station_id":"CTA","time":6,"i_lat":-6.448811,"is_transit":true,"i_long":106.800298,"line":1,"station_name":"Citayam"},{"station_name":"Bojonggede","is_transit":false,"i_lat":-6.493243,"line":0,"distance":5197,"transit":false,"station_id":"BJD","time":5,"i_long":106.792719},{"station_id":"CLT","i_lat":-6.530544,"transit":false,"line":0,"i_long":106.800016,"station_name":"Cilebut","time":5,"distance":4331,"is_transit":false},{"transit":false,"i_lat":-6.594596,"line":1,"is_transit":true,"time":9,"i_long":106.790574,"distance":7514,"station_id":"BOO","station_name":"Bogor"}],[{"is_transit":false,"transit":false,"station_id":"TB","line":1,"station_name":"Tambun","time":0,"distance":0,"i_long":107.055722,"i_lat":-6.258864},{"distance":4460,"line":0,"is_transit":false,"transit":false,"time":7,"station_id":"BKST","station_name":"Bekasi Timur","i_lat":-6.248029,"i_long":107.016735},{"station_id":"BKS","is_transit":false,"i_lat":-6.236616,"line":0,"i_long":106.997013,"distance":2368,"station_name":"Bekasi","transit":false,"time":2},{"time":4,"station_id":"KRI","distance":2520,"is_transit":false,"transit":false,"i_lat":-6.224515,"line":1,"station_name":"Kranji","i_long":106.977657},{"i_lat":-6.219053,"distance":3097,"station_id":"CUK","i_long":106.951283,"transit":false,"station_name":"Cakung","line":0,"is_transit":false,"time":3},{"station_name":"Klenderbaru","time":8,"is_transit":false,"transit":false,"line":1,"distance":1385,"i_long":106.939679,"i_lat":-6.217455,"station_id":"KLDB"},{"i_lat":-6.215568,"is_transit":false,"station_id":"BUA","i_long":106.922662,"time":1,"station_name":"Buaran","line":0,"distance":1305,"transit":false},{"is_transit":false,"station_name":"Klender","i_long":106.899548,"station_id":"KLD","transit":false,"i_lat":-6.2135,"line":1,"time":2,"distance":3100},{"i_long":106.86807400000001,"station_name":"Jatinegara","transit":true,"distance":3395,"station_id":"JNG","is_transit":true,"time":3,"i_lat":-6.215091,"line":0},{"transit":false,"time":2,"i_lat":-6.209188,"i_long":106.861737,"station_id":"POK","line":11,"station_name":"Pondok Jati","distance":1236,"is_transit":false},{"station_name":"Kramat","time":2,"line":11,"i_long":106.855437,"distance":1829,"i_lat":-6.193792,"transit":false,"station_id":"KMT","is_transit":false},{"station_id":"GST","distance":973,"i_long":106.850107,"is_transit":false,"station_name":"Gang Sentiong","i_lat":-6.185975,"line":11,"transit":false,"time":1},{"line":11,"i_lat":-6.174784,"station_id":"PSE","time":8,"i_long":106.84368,"is_transit":false,"distance":1567,"station_name":"Pasar Senen","transit":false},{"i_lat":-6.161728,"time":4,"station_id":"KMO","distance":1436,"i_long":106.839204,"station_name":"Kemayoran","line":11,"transit":false,"is_transit":false},{"i_long":106.836569,"line":11,"distance":1901,"station_id":"RJW","transit":false,"i_lat":-6.14505,"station_name":"Rajawali","is_transit":false,"time":5},{"station_id":"KPB","station_name":"Kampung Bandan","time":3,"i_lat":-6.132549,"i_long":106.826365,"line":0,"transit":true,"distance":1444,"is_transit":true},{"line":0,"transit":false,"time":9,"i_lat":-6.144674,"station_id":"AK","station_name":"Angke","is_transit":false,"distance":4102,"i_long":106.79867},{"station_id":"DU","is_transit":true,"transit":true,"i_lat":-6.155215,"i_long":106.800832,"line":1,"station_name":"Duri","distance":1230,"time":4},{"station_name":"Tanah Abang","transit":false,"i_lat":-6.185545,"i_long":106.811091,"line":1,"is_transit":true,"distance":3632,"station_id":"THB","time":8},{"i_lat":-6.20132,"distance":2029,"line":1,"transit":false,"station_name":"Karet","is_transit":false,"time":5,"station_id":"KAT","i_long":106.816351},{"station_id":"SUDB","time":1,"line":1,"station_name":"Sudirman Baru","i_long":106.819881,"transit":false,"i_lat":-6.201433,"is_transit":false,"distance":471},{"i_lat":-6.202263,"line":1,"transit":false,"station_name":"Sudirman","time":1,"i_long":106.822649,"is_transit":false,"distance":280,"station_id":"SUD"},{"line":0,"i_long":106.84912,"station_id":"MRI","station_name":"Manggarai","transit":true,"i_lat":-6.209883,"is_transit":true,"time":4,"distance":3186},{"station_name":"Tebet","i_long":106.857948,"transit":false,"is_transit":false,"line":2,"station_id":"TEB","time":4,"distance":2610,"i_lat":-6.226659},{"i_long":106.856607,"line":0,"station_id":"CW","transit":false,"distance":1230,"station_name":"Cawang","i_lat":-6.242512,"is_transit":false,"time":2},{"distance":1546,"i_lat":-6.255332,"station_id":"DRN","i_long":106.85449,"line":0,"transit":false,"is_transit":false,"time":3,"station_name":"Duren Kalibata"},{"line":2,"station_name":"Pasar Minggu Baru","i_lat":-6.263214,"transit":false,"is_transit":false,"distance":824,"station_id":"PSMB","time":2,"i_long":106.851577},{"distance":2380,"time":2,"station_id":"PSM","transit":false,"station_name":"Pasar Minggu","i_long":106.843999,"line":2,"is_transit":false,"i_lat":-6.2842400000000005},{"i_lat":-6.3080680000000005,"is_transit":false,"station_id":"TNT","station_name":"Tanjung Barat","time":4,"i_long":106.838896,"transit":false,"line":2,"distance":2820},{"i_lat":-6.330363,"station_id":"LNA","transit":false,"is_transit":false,"i_long":106.832616,"line":2,"distance":2671,"station_name":"Lenteng Agung","time":3},{"i_lat":-6.339291,"line":2,"time":2,"station_id":"UP","transit":false,"is_transit":false,"i_long":106.834175,"station_name":"Univ. Pancasila","distance":1029},{"distance":2264,"is_transit":false,"station_id":"UI","station_name":"Univ. Indonesia","transit":false,"time":3,"i_lat":-6.360749,"line":2,"i_long":106.831474},{"transit":false,"i_lat":-6.369073,"i_long":106.831114,"distance":1109,"time":2,"station_name":"Pondok Cina","station_id":"POC","line":2,"is_transit":false},{"i_lat":-6.391065,"transit":false,"i_long":106.819451,"distance":2727,"is_transit":false,"station_id":"DPB","station_name":"Depokbaru","line":0,"time":4},{"line":0,"i_long":106.816926,"distance":1584,"time":3,"is_transit":false,"transit":false,"station_id":"DP","station_name":"Depok","i_lat":-6.405256},{"time":6,"i_long":106.800298,"distance":5084,"i_lat":-6.448811,"transit":false,"is_transit":true,"station_name":"Citayam","station_id":"CTA","line":1},{"transit":false,"line":0,"i_long":106.792719,"time":5,"station_name":"Bojonggede","distance":5197,"is_transit":false,"i_lat":-6.493243,"station_id":"BJD"},{"distance":4331,"time":5,"i_lat":-6.530544,"transit":false,"i_long":106.800016,"is_transit":false,"line":0,"station_id":"CLT","station_name":"Cilebut"},{"transit":false,"station_id":"BOO","station_name":"Bogor","is_transit":true,"time":9,"i_lat":-6.594596,"line":1,"i_long":106.790574,"distance":7514}],[{"station_name":"Tambun","i_lat":-6.258864,"station_id":"TB","is_transit":false,"transit":false,"distance":0,"time":0,"line":1,"i_long":107.055722},{"i_lat":-6.248029,"time":7,"is_transit":false,"station_id":"BKST","line":0,"transit":false,"station_name":"Bekasi Timur","distance":4460,"i_long":107.016735},{"station_id":"BKS","is_transit":false,"i_long":106.997013,"distance":2368,"station_name":"Bekasi","transit":false,"line":0,"time":2,"i_lat":-6.236616},{"i_lat":-6.224515,"is_transit":false,"transit":false,"station_name":"Kranji","station_id":"KRI","i_long":106.977657,"line":1,"time":4,"distance":2520},{"transit":false,"distance":3097,"station_name":"Cakung","line":0,"station_id":"CUK","time":3,"i_long":106.951283,"is_transit":false,"i_lat":-6.219053},{"time":8,"i_lat":-6.217455,"line":1,"station_id":"KLDB","is_transit":false,"distance":1385,"station_name":"Klenderbaru","transit":false,"i_long":106.939679},{"station_id":"BUA","line":0,"transit":false,"distance":1305,"time":1,"is_transit":false,"station_name":"Buaran","i_lat":-6.215568,"i_long":106.922662},{"line":1,"time":2,"i_long":106.899548,"i_lat":-6.2135,"distance":3100,"is_transit":false,"station_id":"KLD","transit":false,"station_name":"Klender"},{"station_id":"JNG","station_name":"Jatinegara","time":3,"i_lat":-6.215091,"transit":true,"distance":3395,"i_long":106.86807400000001,"line":0,"is_transit":true},{"distance":1236,"time":2,"line":11,"station_name":"Pondok Jati","station_id":"POK","i_lat":-6.209188,"transit":false,"i_long":106.861737,"is_transit":false},{"station_id":"KMT","i_lat":-6.193792,"is_transit":false,"transit":false,"time":2,"line":11,"station_name":"Kramat","distance":1829,"i_long":106.855437},{"distance":973,"station_name":"Gang Sentiong","station_id":"GST","i_lat":-6.185975,"i_long":106.850107,"is_transit":false,"time":1,"line":11,"transit":false},{"is_transit":false,"line":11,"time":8,"station_name":"Pasar Senen","transit":false,"distance":1567,"i_long":106.84368,"station_id":"PSE","i_lat":-6.174784},{"i_lat":-6.161728,"station_id":"KMO","distance":1436,"transit":false,"time":4,"i_long":106.839204,"is_transit":false,"station_name":"Kemayoran","line":11},{"is_transit":false,"line":11,"time":5,"i_lat":-6.14505,"distance":1901,"station_id":"RJW","station_name":"Rajawali","transit":false,"i_long":106.836569},{"i_lat":-6.132549,"station_id":"KPB","time":3,"is_transit":true,"station_name":"Kampung Bandan","i_long":106.826365,"line":0,"distance":1444,"transit":true},{"line":0,"station_name":"Jakarta Kota","time":3,"distance":1364,"transit":true,"i_long":106.812439,"is_transit":true,"station_id":"JAKK","i_lat":-6.137569},{"line":7,"distance":1264,"i_lat":-6.141205,"transit":false,"station_id":"JAY","is_transit":false,"station_name":"Jayakarta","time":4,"i_long":106.820901},{"station_name":"Manggabesar","transit":false,"time":2,"line":2,"station_id":"MGB","i_lat":-6.149769,"i_long":106.82482,"distance":1080,"is_transit":false},{"is_transit":false,"line":2,"i_long":106.827103,"i_lat":-6.160725,"station_name":"Sawah Besar","distance":906,"transit":false,"time":2,"station_id":"SW"},{"i_long":106.828284,"transit":false,"station_name":"Juanda","is_transit":false,"line":2,"time":2,"i_lat":-6.166716,"station_id":"JUA","distance":1149},{"station_name":"Gondangdia","station_id":"GDD","time":4,"i_long":106.832183,"i_lat":-6.186295,"line":2,"transit":false,"distance":2015,"is_transit":false},{"distance":1750,"time":3,"transit":false,"i_long":106.840169,"line":0,"station_id":"CKI","i_lat":-6.198556,"is_transit":false,"station_name":"Cikini"},{"i_long":106.84912,"station_name":"Manggarai","time":4,"transit":true,"i_lat":-6.209883,"line":0,"distance":1590,"station_id":"MRI","is_transit":true},{"i_long":106.857948,"is_transit":false,"station_id":"TEB","station_name":"Tebet","distance":2610,"time":4,"line":2,"transit":false,"i_lat":-6.226659},{"i_lat":-6.242512,"i_long":106.856607,"station_id":"CW","line":0,"transit":false,"time":2,"is_transit":false,"station_name":"Cawang","distance":1230},{"distance":1546,"is_transit":false,"transit":false,"station_name":"Duren Kalibata","line":0,"station_id":"DRN","time":3,"i_lat":-6.255332,"i_long":106.85449},{"distance":824,"is_transit":false,"transit":false,"line":2,"time":2,"i_lat":-6.263214,"i_long":106.851577,"station_id":"PSMB","station_name":"Pasar Minggu Baru"},{"i_long":106.843999,"is_transit":false,"station_name":"Pasar Minggu","distance":2380,"station_id":"PSM","transit":false,"time":2,"line":2,"i_lat":-6.2842400000000005},{"time":4,"distance":2820,"i_lat":-6.3080680000000005,"line":2,"station_name":"Tanjung Barat","station_id":"TNT","is_transit":false,"transit":false,"i_long":106.838896},{"line":2,"distance":2671,"transit":false,"is_transit":false,"time":3,"station_id":"LNA","station_name":"Lenteng Agung","i_lat":-6.330363,"i_long":106.832616},{"is_transit":false,"i_lat":-6.339291,"time":2,"transit":false,"station_id":"UP","distance":1029,"i_long":106.834175,"line":2,"station_name":"Univ. Pancasila"},{"is_transit":false,"station_name":"Univ. Indonesia","line":2,"transit":false,"distance":2264,"time":3,"i_lat":-6.360749,"i_long":106.831474,"station_id":"UI"},{"station_id":"POC","distance":1109,"transit":false,"is_transit":false,"i_lat":-6.369073,"station_name":"Pondok Cina","i_long":106.831114,"line":2,"time":2},{"distance":2727,"station_id":"DPB","transit":false,"time":4,"station_name":"Depokbaru","i_lat":-6.391065,"is_transit":false,"i_long":106.819451,"line":0},{"transit":false,"line":0,"i_lat":-6.405256,"is_transit":false,"distance":1584,"time":3,"station_name":"Depok","station_id":"DP","i_long":106.816926},{"station_id":"CTA","line":1,"is_transit":true,"station_name":"Citayam","i_lat":-6.448811,"transit":false,"time":6,"i_long":106.800298,"distance":5084},{"distance":5197,"line":0,"is_transit":false,"i_long":106.792719,"transit":false,"i_lat":-6.493243,"time":5,"station_name":"Bojonggede","station_id":"BJD"},{"transit":false,"time":5,"i_lat":-6.530544,"line":0,"distance":4331,"station_id":"CLT","i_long":106.800016,"is_transit":false,"station_name":"Cilebut"},{"is_transit":true,"i_long":106.790574,"station_name":"Bogor","distance":7514,"i_lat":-6.594596,"transit":false,"station_id":"BOO","line":1,"time":9}]]}