{"data":[[{"i_lat":-6.258864,"line":1,"time":0,"distance":0,"i_long":107.055722,"is_transit":false,"station_id":"TB","transit":false,"station_name":"Tambun"},{"is_transit":false,"line":1,"station_name":"Bekasi Timur","distance":4460,"station_id":"BKST","i_lat":-6.248029,"i_long":107.016735,"time":7,"transit":false},{"is_transit":false,"distance":2368,"i_lat":-6.236616,"time":2,"station_id":"BKS","station_name":"Bekasi","i_long":106.997013,"transit":false,"line":1},{"transit":false,"distance":2520,"is_transit":false,"station_id":"KRI","station_name":"Kranji","i_lat":-6.224515,"line":1,"time":4,"i_long":106.977657},{"line":1,"time":3,"station_id":"CUK","station_name":"Cakung","i_lat":-6.219053,"distance":3097,"is_transit":false,"transit":false,"i_long":106.951283},{"distance":1385,"time":8,"is_transit":false,"i_lat":-6.217455,"station_name":"Klenderbaru","station_id":"KLDB","line":1,"transit":false,"i_long":106.939679},{"line":1,"is_transit":false,"station_id":"BUA","i_long":106.922662,"transit":false,"i_lat":-6.215568,"time":1,"station_name":"Buaran","distance":1305},{"i_lat":-6.2135,"is_transit":false,"transit":false,"i_long":106.899548,"distance":3100,"time":2,"line":1,"station_name":"Klender","station_id":"KLD"},{"i_lat":-6.215091,"i_long":106.86807400000001,"distance":3395,"time":3,"station_id":"JNG","is_transit":false,"transit":false,"station_name":"Jatinegara","line":1},{"transit":false,"i_lat":-6.212485,"time":2,"distance":1377,"station_id":"MTR","i_long":106.858896,"is_transit":false,"station_name":"Matraman","line":1},{"transit":false,"station_name":"Manggarai","station_id":"MRI","distance":1275,"i_lat":-6.209883,"time":2,"is_transit":false,"line":2,"i_long":106.84912},{"transit":false,"i_long":106.822649,"station_id":"SUD","distance":3186,"line":1,"time":4,"station_name":"Sudirman","i_lat":-6.202263,"is_transit":false},{"time":1,"station_name":"Sudirman Baru","i_lat":-6.201433,"i_long":106.819881,"line":1,"distance":280,"is_transit":false,"station_id":"SUDB","transit":false},{"i_lat":-6.20132,"line":1,"time":1,"is_transit":false,"i_long":106.816351,"transit":false,"station_id":"KAT","distance":471,"station_name":"Karet"},{"i_lat":-6.185545,"transit":false,"station_name":"Tanah Abang","is_transit":false,"line":1,"i_long":106.811091,"distance":2029,"time":5,"station_id":"THB"},{"i_long":106.800832,"station_id":"DU","is_transit":true,"station_name":"Duri","i_lat":-6.155215,"distance":3632,"time":8,"line":1,"transit":true},{"distance":1700,"i_long":106.788277,"time":3,"transit":false,"is_transit":false,"station_name":"Grogol","line":5,"station_id":"GGL","i_lat":-6.162021},{"time":2,"station_id":"PSG","distance":2036,"i_lat":-6.161433,"i_long":106.771379,"is_transit":false,"transit":false,"line":5,"station_name":"Pesing"},{"station_id":"TKO","i_lat":-6.1587309999999995,"line":5,"i_long":106.756522,"is_transit":false,"distance":1614,"transit":false,"station_name":"Taman Kota","time":2},{"i_long":106.737035,"line":5,"time":2,"transit":false,"distance":2334,"station_id":"BOI","station_name":"Bojongindah","is_transit":false,"i_lat":-6.159876}],[{"station_name":"Tambun","station_id":"TB","line":1,"i_long":107.055722,"i_lat":-6.258864,"is_transit":false,"distance":0,"transit":false,"time":0},{"is_transit":false,"station_id":"BKST","i_lat":-6.248029,"transit":false,"i_long":107.016735,"distance":4460,"station_name":"Bekasi Timur","time":7,"line":1},{"station_name":"Bekasi","i_lat":-6.236616,"distance":2368,"i_long":106.997013,"station_id":"BKS","is_transit":false,"line":1,"time":2,"transit":false},{"time":4,"is_transit":false,"transit":false,"distance":2520,"i_long":106.977657,"station_name":"Kranji","station_id":"KRI","line":1,"i_lat":-6.224515},{"time":3,"line":1,"station_id":"CUK","i_long":106.951283,"is_transit":false,"distance":3097,"i_lat":-6.219053,"station_name":"Cakung","transit":false},{"line":1,"station_id":"KLDB","i_long":106.939679,"time":8,"transit":false,"is_transit":false,"i_lat":-6.217455,"station_name":"Klenderbaru","distance":1385},{"time":1,"station_name":"Buaran","line":1,"distance":1305,"is_transit":false,"station_id":"BUA","i_lat":-6.215568,"i_long":106.922662,"transit":false},{"station_name":"Klender","distance":3100,"transit":false,"i_lat":-6.2135,"station_id":"KLD","time":2,"is_transit":false,"i_long":106.899548,"line":1},{"distance":3395,"i_lat":-6.215091,"time":3,"is_transit":true,"line":1,"transit":true,"station_name":"Jatinegara","station_id":"JNG","i_long":106.86807400000001},{"is_transit":false,"transit":false,"i_long":106.861737,"time":2,"station_name":"Pondok Jati","distance":1236,"station_id":"POK","i_lat":-6.209188,"line":11},{"distance":1829,"line":11,"station_name":"Kramat","is_transit":false,"time":2,"station_id":"KMT","i_long":106.855437,"i_lat":-6.193792,"transit":false},{"time":1,"line":11,"transit":false,"is_transit":false,"i_lat":-6.185975,"station_name":"Gang Sentiong","i_long":106.850107,"distance":973,"station_id":"GST"},{"transit":false,"station_name":"Pasar Senen","time":8,"is_transit":false,"i_lat":-6.174784,"i_long":106.84368,"distance":1567,"station_id":"PSE","line":11},{"is_transit":false,"i_long":106.839204,"time":4,"i_lat":-6.161728,"line":11,"station_name":"Kemayoran","transit":false,"distance":1436,"station_id":"KMO"},{"distance":1901,"is_transit":false,"i_long":106.836569,"line":11,"i_lat":-6.14505,"station_name":"Rajawali","time":5,"station_id":"RJW","transit":false},{"is_transit":true,"i_lat":-6.132549,"time":3,"station_id":"KPB","distance":1444,"i_long":106.826365,"line":4,"station_name":"Kampung Bandan","transit":true},{"station_id":"AK","i_lat":-6.144674,"line":1,"distance":4102,"is_transit":false,"transit":false,"station_name":"Angke","time":9,"i_long":106.79867},{"station_name":"Duri","transit":true,"time":4,"station_id":"DU","distance":1230,"i_lat":-6.155215,"i_long":106.800832,"line":1,"is_transit":true},{"i_long":106.788277,"is_transit":false,"station_id":"GGL","time":3,"distance":1700,"station_name":"Grogol","i_lat":-6.162021,"line":5,"transit":false},{"is_transit":false,"i_lat":-6.161433,"station_name":"Pesing","distance":2036,"transit":false,"i_long":106.771379,"line":5,"station_id":"PSG","time":2},{"distance":1614,"time":2,"station_id":"TKO","i_long":106.756522,"transit":false,"is_transit":false,"line":5,"station_name":"Taman Kota","i_lat":-6.1587309999999995},{"is_transit":false,"time":2,"distance":2334,"i_long":106.737035,"line":5,"transit":false,"station_id":"BOI","i_lat":-6.159876,"station_name":"Bojongindah"}],[{"station_id":"TB","transit":false,"i_lat":-6.258864,"line":1,"station_name":"Tambun","distance":0,"i_long":107.055722,"time":0,"is_transit":false},{"i_long":107.016735,"distance":4460,"transit":false,"is_transit":false,"station_id":"BKST","station_name":"Bekasi Timur","i_lat":-6.248029,"time":7,"line":1},{"time":2,"i_long":106.997013,"is_transit":false,"station_id":"BKS","station_name":"Bekasi","i_lat":-6.236616,"distance":2368,"transit":false,"line":1},{"station_id":"KRI","i_lat":-6.224515,"is_transit":false,"station_name":"Kranji","time":4,"i_long":106.977657,"line":1,"transit":false,"distance":2520},{"time":3,"i_lat":-6.219053,"i_long":106.951283,"transit":false,"station_name":"Cakung","distance":3097,"station_id":"CUK","is_transit":false,"line":1},{"i_long":106.939679,"line":1,"distance":1385,"transit":false,"station_name":"Klenderbaru","is_transit":false,"time":8,"station_id":"KLDB","i_lat":-6.217455},{"is_transit":false,"transit":false,"time":1,"station_id":"BUA","station_name":"Buaran","i_lat":-6.215568,"line":1,"distance":1305,"i_long":106.922662},{"transit":false,"time":2,"i_lat":-6.2135,"line":1,"distance":3100,"station_id":"KLD","i_long":106.899548,"station_name":"Klender","is_transit":false},{"station_name":"Jatinegara","station_id":"JNG","time":3,"distance":3395,"i_lat":-6.215091,"i_long":106.86807400000001,"line":1,"transit":false,"is_transit":false},{"time":2,"station_name":"Matraman","station_id":"MTR","distance":1377,"i_long":106.858896,"i_lat":-6.212485,"transit":false,"is_transit":false,"line":1},{"is_transit":true,"line":2,"i_long":106.84912,"time":2,"station_id":"MRI","station_name":"Manggarai","distance":1275,"i_lat":-6.209883,"transit":true},{"station_name":"Cikini","distance":1590,"i_long":106.840169,"time":4,"transit":false,"station_id":"CKI","i_lat":-6.198556,"is_transit":false,"line":2},{"transit":false,"time":3,"station_id":"GDD","distance":1750,"is_transit":false,"station_name":"Gondangdia","i_lat":-6.186295,"i_long":106.832183,"line":2},{"line":2,"station_name":"Juanda","station_id":"JUA","is_transit":false,"time":4,"transit":false,"distance":2015,"i_lat":-6.166716,"i_long":106.828284},{"i_long":106.827103,"station_name":"Sawah Besar","transit":false,"time":2,"i_lat":-6.160725,"is_transit":false,"distance":1149,"line":2,"station_id":"SW"},{"time":2,"station_name":"Manggabesar","distance":906,"is_transit":false,"i_long":106.82482,"station_id":"MGB","transit":false,"line":2,"i_lat":-6.149769},{"station_id":"JAY","is_transit":false,"i_long":106.820901,"i_lat":-6.141205,"time":2,"distance":1080,"transit":false,"line":2,"station_name":"Jayakarta"},{"line":2,"transit":true,"station_id":"JAKK","time":4,"is_transit":true,"i_lat":-6.137569,"station_name":"Jakarta Kota","distance":1264,"i_long":106.812439},{"station_name":"Kampung Bandan","station_id":"KPB","i_long":106.826365,"transit":true,"is_transit":true,"i_lat":-6.132549,"line":4,"distance":1364,"time":3},{"station_id":"AK","is_transit":false,"i_lat":-6.144674,"line":1,"station_name":"Angke","distance":4102,"transit":false,"i_long":106.79867,"time":9},{"station_id":"DU","distance":1230,"station_name":"Duri","is_transit":true,"i_lat":-6.155215,"i_long":106.800832,"transit":true,"time":4,"line":1},{"distance":1700,"is_transit":false,"station_id":"GGL","i_lat":-6.162021,"transit":false,"line":5,"time":3,"station_name":"Grogol","i_long":106.788277},{"transit":false,"distance":2036,"i_long":106.771379,"line":5,"is_transit":false,"station_id":"PSG","i_lat":-6.161433,"station_name":"Pesing","time":2},{"station_id":"TKO","i_lat":-6.1587309999999995,"i_long":106.756522,"distance":1614,"time":2,"station_name":"Taman Kota","is_transit":false,"line":5,"transit":false},{"transit":false,"station_name":"Bojongindah","is_transit":false,"time":2,"station_id":"BOI","i_lat":-6.159876,"distance":2334,"line":5,"i_long":106.737035}],[{"line":1,"is_transit":false,"distance":0,"station_name":"Tambun","transit":false,"i_lat":-6.258864,"i_long":107.055722,"time":0,"station_id":"TB"},{"i_lat":-6.248029,"is_transit":false,"station_id":"BKST","time":7,"transit":false,"distance":4460,"line":1,"station_name":"Bekasi Timur","i_long":107.016735},{"time":2,"transit":false,"i_long":106.997013,"station_id":"BKS","distance":2368,"is_transit":false,"station_name":"Bekasi","i_lat":-6.236616,"line":1},{"distance":2520,"i_lat":-6.224515,"station_name":"Kranji","i_long":106.977657,"line":1,"is_transit":false,"transit":false,"station_id":"KRI","time":4},{"time":3,"station_name":"Cakung","is_transit":false,"i_lat":-6.219053,"line":1,"station_id":"CUK","distance":3097,"i_long":106.951283,"transit":false},{"station_name":"Klenderbaru","i_long":106.939679,"distance":1385,"is_transit":false,"line":1,"transit":false,"time":8,"station_id":"KLDB","i_lat":-6.217455},{"transit":false,"time":1,"is_transit":false,"station_name":"Buaran","station_id":"BUA","i_lat":-6.215568,"distance":1305,"line":1,"i_long":106.922662},{"transit":false,"time":2,"station_name":"Klender","is_transit":false,"i_lat":-6.2135,"line":1,"i_long":106.899548,"distance":3100,"station_id":"KLD"},{"station_id":"JNG","distance":3395,"i_lat":-6.215091,"is_transit":true,"line":1,"time":3,"i_long":106.86807400000001,"transit":true,"station_name":"Jatinegara"},{"i_lat":-6.209188,"transit":false,"distance":1236,"station_name":"Pondok Jati","time":2,"line":11,"station_id":"POK","is_transit":false,"i_long":106.861737},{"is_transit":false,"station_name":"Kramat","line":11,"transit":false,"i_lat":-6.193792,"distance":1829,"station_id":"KMT","i_long":106.855437,"time":2},{"station_name":"Gang Sentiong","transit":false,"time":1,"i_lat":-6.185975,"i_long":106.850107,"distance":973,"line":11,"is_transit":false,"station_id":"GST"},{"distance":1567,"time":8,"i_lat":-6.174784,"is_transit":false,"i_long":106.84368,"station_id":"PSE","line":11,"station_name":"Pasar Senen","transit":false},{"station_id":"KMO","i_lat":-6.161728,"is_transit":false,"station_name":"Kemayoran","transit":false,"i_long":106.839204,"time":4,"line":11,"distance":1436},{"i_long":106.836569,"line":11,"is_transit":false,"station_id":"RJW","distance":1901,"transit":false,"station_name":"Rajawali","time":5,"i_lat":-6.14505},{"station_id":"KPB","time":3,"i_lat":-6.132549,"i_long":106.826365,"transit":true,"station_name":"Kampung Bandan","distance":1444,"is_transit":true,"line":4},{"station_id":"JAKK","line":2,"distance":1364,"i_long":106.812439,"station_name":"Jakarta Kota","time":3,"transit":true,"i_lat":-6.137569,"is_transit":true},{"line":2,"transit":false,"station_id":"JAY","station_name":"Jayakarta","time":4,"distance":1264,"is_transit":false,"i_lat":-6.141205,"i_long":106.820901},{"i_long":106.82482,"station_name":"Manggabesar","line":2,"time":2,"is_transit":false,"i_lat":-6.149769,"transit":false,"distance":1080,"station_id":"MGB"},{"i_long":106.827103,"station_name":"Sawah Besar","is_transit":false,"transit":false,"time":2,"distance":906,"station_id":"SW","i_lat":-6.160725,"line":2},{"time":2,"line":2,"i_lat":-6.166716,"transit":false,"station_name":"Juanda","distance":1149,"station_id":"JUA","is_transit":false,"i_long":106.828284},{"transit":false,"line":2,"time":4,"i_lat":-6.186295,"distance":2015,"i_long":106.832183,"is_transit":false,"station_name":"Gondangdia","station_id":"GDD"},{"line":2,"time":3,"station_name":"Cikini","i_lat":-6.198556,"transit":false,"distance":1750,"i_long":106.840169,"station_id":"CKI","is_transit":false},{"transit":true,"time":4,"station_id":"MRI","is_transit":true,"i_lat":-6.209883,"i_long":106.84912,"station_name":"Manggarai","line":2,"distance":1590},{"i_long":106.822649,"is_transit":false,"station_id":"SUD","time":4,"station_name":"Sudirman","i_lat":-6.202263,"transit":false,"distance":3186,"line":1},{"i_lat":-6.201433,"transit":false,"station_name":"Sudirman Baru","distance":280,"station_id":"SUDB","is_transit":false,"i_long":106.819881,"line":1,"time":1},{"time":1,"is_transit":false,"line":1,"i_lat":-6.20132,"i_long":106.816351,"distance":471,"station_id":"KAT","station_name":"Karet","transit":false},{"time":5,"distance":2029,"is_transit":false,"line":1,"station_id":"THB","station_name":"Tanah Abang","i_lat":-6.185545,"i_long":106.811091,"transit":false},{"station_name":"Duri","i_long":106.800832,"line":1,"is_transit":true,"distance":3632,"time":8,"i_lat":-6.155215,"transit":true,"station_id":"DU"},{"is_transit":false,"station_id":"GGL","line":5,"i_long":106.788277,"transit":false,"time":3,"station_name":"Grogol","distance":1700,"i_lat":-6.162021},{"distance":2036,"station_id":"PSG","time":2,"transit":false,"station_name":"Pesing","line":5,"i_long":106.771379,"i_lat":-6.161433,"is_transit":false},{"time":2,"i_lat":-6.1587309999999995,"station_id":"TKO","station_name":"Taman Kota","is_transit":false,"line":5,"transit":false,"i_long":106.756522,"distance":1614},{"station_name":"Bojongindah","line":5,"i_lat":-6.159876,"i_long":106.737035,"station_id":"BOI","transit":false,"time":2,"is_transit":false,"distance":2334}]]}