{"data":[[{"time":0,"is_transit":false,"station_id":"TB","transit":false,"line":1,"station_name":"Tambun","i_long":107.055722,"i_lat":-6.258864,"distance":0},{"i_lat":-6.248029,"station_name":"Bekasi Timur","time":7,"i_long":107.016735,"distance":4460,"line":0,"transit":false,"is_transit":false,"station_id":"BKST"},{"time":2,"distance":2368,"station_id":"BKS","station_name":"Bekasi","is_transit":false,"transit":false,"line":0,"i_lat":-6.236616,"i_long":106.997013},{"i_lat":-6.224515,"i_long":106.977657,"distance":2520,"is_transit":false,"time":4,"station_name":"Kranji","station_id":"KRI","transit":false,"line":1},{"distance":3097,"is_transit":false,"i_long":106.951283,"station_id":"CUK","line":0,"transit":false,"i_lat":-6.219053,"time":3,"station_name":"Cakung"},{"i_long":106.939679,"distance":1385,"is_transit":false,"line":1,"transit":false,"station_name":"Klenderbaru","station_id":"KLDB","time":8,"i_lat":-6.217455},{"i_lat":-6.215568,"time":1,"distance":1305,"i_long":106.922662,"is_transit":false,"transit":false,"station_name":"Buaran","station_id":"BUA","line":0},{"distance":3100,"transit":false,"i_long":106.899548,"station_id":"KLD","time":2,"line":1,"station_name":"Klender","i_lat":-6.2135,"is_transit":false},{"station_id":"JNG","is_transit":true,"line":0,"transit":false,"i_long":106.86807400000001,"distance":3395,"i_lat":-6.215091,"station_name":"Jatinegara","time":3},{"time":2,"line":1,"distance":1377,"station_id":"MTR","i_lat":-6.212485,"is_transit":false,"transit":false,"i_long":106.858896,"station_name":"Matraman"},{"is_transit":true,"transit":true,"distance":1275,"line":0,"i_lat":-6.209883,"station_name":"Manggarai","station_id":"MRI","time":2,"i_long":106.84912},{"i_long":106.840169,"is_transit":false,"distance":1590,"station_id":"CKI","time":4,"i_lat":-6.198556,"line":0,"station_name":"Cikini","transit":false}],[{"line":1,"time":0,"is_transit":false,"distance":0,"transit":false,"i_long":107.055722,"i_lat":-6.258864,"station_id":"TB","station_name":"Tambun"},{"station_id":"BKST","i_long":107.016735,"transit":false,"station_name":"Bekasi Timur","time":7,"is_transit":false,"i_lat":-6.248029,"line":0,"distance":4460},{"station_id":"BKS","i_lat":-6.236616,"station_name":"Bekasi","transit":false,"is_transit":false,"time":2,"i_long":106.997013,"distance":2368,"line":0},{"transit":false,"i_lat":-6.224515,"i_long":106.977657,"distance":2520,"is_transit":false,"line":1,"station_id":"KRI","station_name":"Kranji","time":4},{"i_lat":-6.219053,"i_long":106.951283,"is_transit":false,"line":0,"transit":false,"station_name":"Cakung","station_id":"CUK","distance":3097,"time":3},{"station_name":"Klenderbaru","i_lat":-6.217455,"time":8,"line":1,"is_transit":false,"distance":1385,"station_id":"KLDB","transit":false,"i_long":106.939679},{"line":0,"time":1,"i_long":106.922662,"transit":false,"is_transit":false,"i_lat":-6.215568,"distance":1305,"station_id":"BUA","station_name":"Buaran"},{"i_lat":-6.2135,"station_name":"Klender","transit":false,"line":1,"time":2,"i_long":106.899548,"distance":3100,"is_transit":false,"station_id":"KLD"},{"i_lat":-6.215091,"transit":true,"time":3,"is_transit":true,"station_name":"Jatinegara","line":0,"i_long":106.86807400000001,"distance":3395,"station_id":"JNG"},{"is_transit":false,"transit":false,"i_long":106.861737,"i_lat":-6.209188,"station_name":"Pondok Jati","distance":1236,"station_id":"POK","time":2,"line":11},{"line":11,"distance":1829,"i_lat":-6.193792,"station_id":"KMT","time":2,"station_name":"Kramat","i_long":106.855437,"is_transit":false,"transit":false},{"station_id":"GST","i_lat":-6.185975,"line":11,"is_transit":false,"i_long":106.850107,"distance":973,"transit":false,"station_name":"Gang Sentiong","time":1},{"distance":1567,"line":11,"station_name":"Pasar Senen","time":8,"i_long":106.84368,"transit":false,"i_lat":-6.174784,"is_transit":false,"station_id":"PSE"},{"time":4,"i_lat":-6.161728,"line":11,"is_transit":false,"station_id":"KMO","transit":false,"i_long":106.839204,"distance":1436,"station_name":"Kemayoran"},{"distance":1901,"transit":false,"is_transit":false,"station_name":"Rajawali","time":5,"i_lat":-6.14505,"i_long":106.836569,"station_id":"RJW","line":11},{"station_name":"Kampung Bandan","is_transit":true,"distance":1444,"transit":true,"time":3,"station_id":"KPB","i_long":106.826365,"line":0,"i_lat":-6.132549},{"transit":true,"i_lat":-6.137569,"distance":1364,"station_name":"Jakarta Kota","is_transit":true,"line":0,"station_id":"JAKK","time":3,"i_long":106.812439},{"i_long":106.820901,"station_id":"JAY","time":4,"line":7,"i_lat":-6.141205,"distance":1264,"is_transit":false,"station_name":"Jayakarta","transit":false},{"time":2,"line":2,"station_id":"MGB","transit":false,"station_name":"Manggabesar","distance":1080,"is_transit":false,"i_long":106.82482,"i_lat":-6.149769},{"transit":false,"i_long":106.827103,"i_lat":-6.160725,"is_transit":false,"line":2,"station_id":"SW","distance":906,"station_name":"Sawah Besar","time":2},{"station_id":"JUA","transit":false,"distance":1149,"time":2,"station_name":"Juanda","i_lat":-6.166716,"line":2,"is_transit":false,"i_long":106.828284},{"i_lat":-6.186295,"distance":2015,"station_id":"GDD","line":2,"is_transit":false,"i_long":106.832183,"time":4,"station_name":"Gondangdia","transit":false},{"i_lat":-6.198556,"i_long":106.840169,"is_transit":false,"transit":false,"station_id":"CKI","distance":1750,"station_name":"Cikini","line":0,"time":3}],[{"is_transit":false,"station_id":"TB","i_long":107.055722,"transit":false,"line":1,"distance":0,"i_lat":-6.258864,"time":0,"station_name":"Tambun"},{"time":7,"i_lat":-6.248029,"distance":4460,"station_name":"Bekasi Timur","i_long":107.016735,"is_transit":false,"transit":false,"line":0,"station_id":"BKST"},{"is_transit":false,"distance":2368,"line":0,"i_long":106.997013,"transit":false,"time":2,"i_lat":-6.236616,"station_id":"BKS","station_name":"Bekasi"},{"i_long":106.977657,"line":1,"is_transit":false,"distance":2520,"station_name":"Kranji","station_id":"KRI","transit":false,"i_lat":-6.224515,"time":4},{"station_name":"Cakung","i_lat":-6.219053,"i_long":106.951283,"time":3,"is_transit":false,"distance":3097,"line":0,"transit":false,"station_id":"CUK"},{"station_id":"KLDB","is_transit":false,"i_long":106.939679,"line":1,"station_name":"Klenderbaru","transit":false,"time":8,"distance":1385,"i_lat":-6.217455},{"line":0,"transit":false,"station_id":"BUA","station_name":"Buaran","is_transit":false,"i_long":106.922662,"distance":1305,"time":1,"i_lat":-6.215568},{"i_long":106.899548,"transit":false,"distance":3100,"i_lat":-6.2135,"station_id":"KLD","time":2,"line":1,"station_name":"Klender","is_transit":false},{"station_name":"Jatinegara","line":0,"i_long":106.86807400000001,"i_lat":-6.215091,"distance":3395,"is_transit":true,"transit":true,"time":3,"station_id":"JNG"},{"is_transit":false,"transit":false,"time":2,"i_lat":-6.209188,"line":11,"station_name":"Pondok Jati","distance":1236,"station_id":"POK","i_long":106.861737},{"is_transit":false,"line":11,"station_name":"Kramat","time":2,"i_long":106.855437,"station_id":"KMT","transit":false,"i_lat":-6.193792,"distance":1829},{"transit":false,"i_lat":-6.185975,"i_long":106.850107,"time":1,"line":11,"station_name":"Gang Sentiong","distance":973,"is_transit":false,"station_id":"GST"},{"station_id":"PSE","is_transit":false,"i_long":106.84368,"transit":false,"time":8,"station_name":"Pasar Senen","i_lat":-6.174784,"line":11,"distance":1567},{"time":4,"line":11,"i_long":106.839204,"station_id":"KMO","transit":false,"station_name":"Kemayoran","distance":1436,"i_lat":-6.161728,"is_transit":false},{"time":5,"transit":false,"i_long":106.836569,"station_id":"RJW","is_transit":false,"i_lat":-6.14505,"station_name":"Rajawali","distance":1901,"line":11},{"distance":1444,"line":0,"is_transit":true,"i_lat":-6.132549,"station_name":"Kampung Bandan","station_id":"KPB","transit":true,"time":3,"i_long":106.826365},{"is_transit":false,"station_name":"Angke","i_lat":-6.144674,"i_long":106.79867,"distance":4102,"transit":false,"time":9,"line":0,"station_id":"AK"},{"distance":1230,"is_transit":true,"transit":true,"i_long":106.800832,"i_lat":-6.155215,"line":1,"station_id":"DU","station_name":"Duri","time":4},{"distance":3632,"is_transit":true,"time":8,"i_lat":-6.185545,"line":1,"station_id":"THB","transit":false,"station_name":"Tanah Abang","i_long":106.811091},{"time":5,"transit":false,"i_lat":-6.20132,"distance":2029,"station_id":"KAT","is_transit":false,"station_name":"Karet","line":1,"i_long":106.816351},{"i_long":106.819881,"line":1,"is_transit":false,"station_name":"Sudirman Baru","time":1,"station_id":"SUDB","distance":471,"transit":false,"i_lat":-6.201433},{"distance":280,"i_lat":-6.202263,"is_transit":false,"station_id":"SUD","i_long":106.822649,"transit":false,"time":1,"line":1,"station_name":"Sudirman"},{"station_name":"Manggarai","time":4,"is_transit":true,"transit":true,"line":0,"station_id":"MRI","distance":3186,"i_lat":-6.209883,"i_long":106.84912},{"distance":1590,"transit":false,"station_id":"CKI","line":0,"station_name":"Cikini","i_long":106.840169,"is_transit":false,"time":4,"i_lat":-6.198556}],[{"time":0,"distance":0,"i_long":107.055722,"line":1,"station_name":"Tambun","i_lat":-6.258864,"is_transit":false,"station_id":"TB","transit":false},{"transit":false,"time":7,"distance":4460,"i_long":107.016735,"station_id":"BKST","station_name":"Bekasi Timur","i_lat":-6.248029,"is_transit":false,"line":0},{"distance":2368,"line":0,"is_transit":false,"i_long":106.997013,"transit":false,"station_name":"Bekasi","station_id":"BKS","time":2,"i_lat":-6.236616},{"distance":2520,"transit":false,"i_long":106.977657,"station_id":"KRI","time":4,"station_name":"Kranji","i_lat":-6.224515,"is_transit":false,"line":1},{"transit":false,"is_transit":false,"i_long":106.951283,"distance":3097,"station_id":"CUK","line":0,"station_name":"Cakung","i_lat":-6.219053,"time":3},{"time":8,"is_transit":false,"i_lat":-6.217455,"line":1,"transit":false,"station_id":"KLDB","i_long":106.939679,"distance":1385,"station_name":"Klenderbaru"},{"i_long":106.922662,"time":1,"line":0,"is_transit":false,"distance":1305,"station_id":"BUA","station_name":"Buaran","transit":false,"i_lat":-6.215568},{"i_long":106.899548,"is_transit":false,"i_lat":-6.2135,"line":1,"station_id":"KLD","transit":false,"distance":3100,"station_name":"Klender","time":2},{"line":0,"station_name":"Jatinegara","transit":false,"is_transit":true,"time":3,"station_id":"JNG","i_lat":-6.215091,"i_long":106.86807400000001,"distance":3395},{"i_long":106.858896,"station_id":"MTR","i_lat":-6.212485,"time":2,"line":1,"station_name":"Matraman","distance":1377,"transit":false,"is_transit":false},{"transit":false,"station_name":"Manggarai","station_id":"MRI","time":2,"i_lat":-6.209883,"distance":1275,"i_long":106.84912,"line":0,"is_transit":true},{"station_name":"Sudirman","is_transit":false,"line":1,"distance":3186,"station_id":"SUD","i_lat":-6.202263,"i_long":106.822649,"time":4,"transit":false},{"station_name":"Sudirman Baru","distance":280,"i_lat":-6.201433,"line":1,"i_long":106.819881,"is_transit":false,"station_id":"SUDB","time":1,"transit":false},{"line":1,"i_long":106.816351,"station_id":"KAT","i_lat":-6.20132,"distance":471,"time":1,"station_name":"Karet","transit":false,"is_transit":false},{"is_transit":true,"line":1,"station_name":"Tanah Abang","i_long":106.811091,"transit":false,"i_lat":-6.185545,"distance":2029,"station_id":"THB","time":5},{"i_long":106.800832,"time":8,"is_transit":true,"transit":true,"station_name":"Duri","station_id":"DU","i_lat":-6.155215,"distance":3632,"line":1},{"station_id":"AK","is_transit":false,"line":0,"transit":false,"station_name":"Angke","time":4,"distance":1230,"i_long":106.79867,"i_lat":-6.144674},{"distance":4102,"station_name":"Kampung Bandan","time":9,"is_transit":true,"i_lat":-6.132549,"transit":false,"station_id":"KPB","i_long":106.826365,"line":0},{"station_name":"Jakarta Kota","station_id":"JAKK","time":3,"i_lat":-6.137569,"i_long":106.812439,"transit":true,"line":0,"is_transit":true,"distance":1364},{"time":4,"i_long":106.820901,"station_id":"JAY","station_name":"Jayakarta","i_lat":-6.141205,"is_transit":false,"line":7,"distance":1264,"transit":false},{"station_name":"Manggabesar","is_transit":false,"time":2,"i_long":106.82482,"line":2,"station_id":"MGB","transit":false,"distance":1080,"i_lat":-6.149769},{"station_name":"Sawah Besar","is_transit":false,"time":2,"i_lat":-6.160725,"distance":906,"i_long":106.827103,"station_id":"SW","line":2,"transit":false},{"line":2,"station_name":"Juanda","i_lat":-6.166716,"transit":false,"time":2,"i_long":106.828284,"station_id":"JUA","is_transit":false,"distance":1149},{"time":4,"is_transit":false,"i_long":106.832183,"station_name":"Gondangdia","transit":false,"station_id":"GDD","i_lat":-6.186295,"distance":2015,"line":2},{"i_lat":-6.198556,"is_transit":false,"time":3,"transit":false,"i_long":106.840169,"station_name":"Cikini","line":0,"distance":1750,"station_id":"CKI"}]]}