{"data":[[{"time":0,"i_long":107.055722,"distance":0,"station_id":"TB","is_transit":false,"station_name":"Tambun","transit":false,"i_lat":-6.258864,"line":1},{"station_name":"Bekasi Timur","station_id":"BKST","time":7,"transit":false,"distance":4460,"i_lat":-6.248029,"i_long":107.016735,"is_transit":false,"line":1},{"is_transit":false,"line":1,"station_id":"BKS","distance":2368,"transit":false,"i_long":106.997013,"station_name":"Bekasi","time":2,"i_lat":-6.236616},{"i_lat":-6.224515,"transit":false,"station_id":"KRI","i_long":106.977657,"distance":2520,"line":1,"time":4,"station_name":"Kranji","is_transit":false},{"station_id":"CUK","is_transit":false,"line":1,"i_lat":-6.219053,"distance":3097,"transit":false,"time":3,"station_name":"Cakung","i_long":106.951283},{"distance":1385,"line":1,"station_id":"KLDB","time":8,"is_transit":false,"transit":false,"i_lat":-6.217455,"i_long":106.939679,"station_name":"Klenderbaru"},{"station_id":"BUA","time":1,"i_long":106.922662,"line":1,"transit":false,"i_lat":-6.215568,"distance":1305,"is_transit":false,"station_name":"Buaran"},{"line":1,"i_long":106.899548,"time":2,"station_name":"Klender","i_lat":-6.2135,"distance":3100,"station_id":"KLD","is_transit":false,"transit":false},{"line":1,"time":3,"distance":3395,"transit":false,"i_lat":-6.215091,"is_transit":false,"i_long":106.86807400000001,"station_id":"JNG","station_name":"Jatinegara"},{"line":1,"time":2,"station_id":"MTR","transit":false,"is_transit":false,"i_lat":-6.212485,"distance":1377,"i_long":106.858896,"station_name":"Matraman"},{"distance":1275,"station_id":"MRI","line":2,"station_name":"Manggarai","time":2,"transit":false,"is_transit":false,"i_long":106.84912,"i_lat":-6.209883},{"time":4,"station_id":"SUD","line":1,"is_transit":false,"transit":false,"i_lat":-6.202263,"i_long":106.822649,"distance":3186,"station_name":"Sudirman"},{"i_long":106.819881,"line":1,"distance":280,"is_transit":false,"station_name":"Sudirman Baru","i_lat":-6.201433,"station_id":"SUDB","time":1,"transit":false},{"i_long":106.816351,"time":1,"is_transit":false,"line":1,"station_id":"KAT","transit":false,"distance":471,"station_name":"Karet","i_lat":-6.20132},{"station_id":"THB","station_name":"Tanah Abang","is_transit":true,"i_lat":-6.185545,"i_long":106.811091,"time":5,"transit":true,"distance":2029,"line":1},{"station_id":"PLM","i_lat":-6.207404,"i_long":106.79689,"time":6,"line":6,"distance":3191,"is_transit":false,"transit":false,"station_name":"Palmerah"},{"station_id":"KBY","line":6,"i_lat":-6.237242,"time":7,"transit":false,"distance":3737,"i_long":106.780334,"station_name":"Kebayoran","is_transit":false},{"station_id":"PDJ","line":6,"is_transit":false,"i_long":106.74273,"station_name":"Pondokranji","i_lat":-6.276362,"time":8,"distance":6218,"transit":false},{"i_long":106.728916,"i_lat":-6.288927,"station_name":"Jurangmangu","line":6,"time":3,"is_transit":false,"distance":2179,"transit":false,"station_id":"JMU"},{"i_lat":-6.296963,"time":4,"distance":1994,"transit":false,"station_id":"SDM","i_long":106.712277,"is_transit":false,"line":6,"station_name":"Sudimara"},{"i_lat":-6.314823,"i_long":106.675475,"line":6,"station_name":"Rawa Buntu","station_id":"RU","distance":4566,"time":6,"is_transit":false,"transit":false},{"line":6,"station_id":"SRP","is_transit":false,"i_long":106.66566,"transit":false,"distance":2413,"time":4,"i_lat":-6.319871,"station_name":"Serpong"},{"distance":1784,"transit":false,"line":3,"station_id":"CSK","time":4,"is_transit":false,"i_lat":-6.32484,"station_name":"Cisauk","i_long":106.640411},{"transit":false,"i_lat":-6.329547,"line":3,"station_name":"Cicayur","distance":2519,"time":4,"station_id":"CC","i_long":106.617853,"is_transit":false},{"station_id":"PRP","is_transit":false,"i_long":106.568863,"time":8,"station_name":"Parung Panjang","line":6,"transit":false,"i_lat":-6.3441410000000005,"distance":5968},{"is_transit":false,"transit":false,"time":9,"distance":7025,"station_id":"CJT","i_lat":-6.354349,"line":3,"i_long":106.508482,"station_name":"Cilejit"}],[{"line":1,"transit":false,"station_name":"Tambun","station_id":"TB","i_lat":-6.258864,"distance":0,"i_long":107.055722,"time":0,"is_transit":false},{"station_name":"Bekasi Timur","station_id":"BKST","line":1,"distance":4460,"i_lat":-6.248029,"i_long":107.016735,"transit":false,"time":7,"is_transit":false},{"station_id":"BKS","i_long":106.997013,"transit":false,"i_lat":-6.236616,"time":2,"is_transit":false,"station_name":"Bekasi","distance":2368,"line":1},{"time":4,"transit":false,"distance":2520,"is_transit":false,"i_lat":-6.224515,"line":1,"station_name":"Kranji","station_id":"KRI","i_long":106.977657},{"time":3,"i_long":106.951283,"transit":false,"distance":3097,"station_id":"CUK","station_name":"Cakung","line":1,"is_transit":false,"i_lat":-6.219053},{"line":1,"time":8,"i_long":106.939679,"station_name":"Klenderbaru","distance":1385,"is_transit":false,"transit":false,"station_id":"KLDB","i_lat":-6.217455},{"time":1,"distance":1305,"is_transit":false,"transit":false,"i_lat":-6.215568,"station_id":"BUA","i_long":106.922662,"line":1,"station_name":"Buaran"},{"station_name":"Klender","time":2,"line":1,"i_lat":-6.2135,"distance":3100,"is_transit":false,"station_id":"KLD","transit":false,"i_long":106.899548},{"time":3,"line":1,"is_transit":true,"station_name":"Jatinegara","transit":true,"i_lat":-6.215091,"station_id":"JNG","distance":3395,"i_long":106.86807400000001},{"distance":1236,"time":2,"station_id":"POK","i_long":106.861737,"i_lat":-6.209188,"transit":false,"is_transit":false,"line":11,"station_name":"Pondok Jati"},{"line":11,"is_transit":false,"station_id":"KMT","i_long":106.855437,"distance":1829,"station_name":"Kramat","time":2,"transit":false,"i_lat":-6.193792},{"station_id":"GST","is_transit":false,"distance":973,"line":11,"transit":false,"time":1,"station_name":"Gang Sentiong","i_long":106.850107,"i_lat":-6.185975},{"time":8,"i_lat":-6.174784,"station_id":"PSE","is_transit":false,"station_name":"Pasar Senen","transit":false,"i_long":106.84368,"distance":1567,"line":11},{"station_name":"Kemayoran","transit":false,"is_transit":false,"i_lat":-6.161728,"line":11,"i_long":106.839204,"distance":1436,"time":4,"station_id":"KMO"},{"time":5,"i_long":106.836569,"line":11,"transit":false,"i_lat":-6.14505,"is_transit":false,"distance":1901,"station_id":"RJW","station_name":"Rajawali"},{"i_lat":-6.132549,"station_name":"Kampung Bandan","is_transit":true,"station_id":"KPB","transit":true,"distance":1444,"line":4,"time":3,"i_long":106.826365},{"time":9,"station_id":"AK","line":1,"distance":4102,"i_lat":-6.144674,"station_name":"Angke","i_long":106.79867,"transit":false,"is_transit":false},{"time":4,"is_transit":false,"i_lat":-6.155215,"i_long":106.800832,"transit":false,"distance":1230,"station_id":"DU","station_name":"Duri","line":1},{"distance":3632,"line":1,"station_id":"THB","time":8,"i_long":106.811091,"transit":true,"i_lat":-6.185545,"station_name":"Tanah Abang","is_transit":true},{"station_id":"PLM","station_name":"Palmerah","time":6,"distance":3191,"i_long":106.79689,"i_lat":-6.207404,"is_transit":false,"line":6,"transit":false},{"time":7,"station_name":"Kebayoran","line":6,"transit":false,"is_transit":false,"i_lat":-6.237242,"distance":3737,"station_id":"KBY","i_long":106.780334},{"line":6,"station_name":"Pondokranji","time":8,"station_id":"PDJ","i_lat":-6.276362,"i_long":106.74273,"distance":6218,"transit":false,"is_transit":false},{"is_transit":false,"transit":false,"time":3,"distance":2179,"line":6,"station_name":"Jurangmangu","station_id":"JMU","i_lat":-6.288927,"i_long":106.728916},{"station_name":"Sudimara","is_transit":false,"distance":1994,"station_id":"SDM","line":6,"i_lat":-6.296963,"transit":false,"time":4,"i_long":106.712277},{"i_lat":-6.314823,"time":6,"station_id":"RU","is_transit":false,"i_long":106.675475,"transit":false,"line":6,"station_name":"Rawa Buntu","distance":4566},{"line":6,"i_lat":-6.319871,"is_transit":false,"transit":false,"station_id":"SRP","i_long":106.66566,"time":4,"station_name":"Serpong","distance":2413},{"transit":false,"line":3,"distance":1784,"i_long":106.640411,"time":4,"i_lat":-6.32484,"is_transit":false,"station_id":"CSK","station_name":"Cisauk"},{"time":4,"station_name":"Cicayur","i_long":106.617853,"is_transit":false,"distance":2519,"transit":false,"i_lat":-6.329547,"line":3,"station_id":"CC"},{"transit":false,"time":8,"is_transit":false,"i_lat":-6.3441410000000005,"i_long":106.568863,"line":6,"station_id":"PRP","station_name":"Parung Panjang","distance":5968},{"distance":7025,"station_name":"Cilejit","i_long":106.508482,"transit":false,"i_lat":-6.354349,"is_transit":false,"line":3,"time":9,"station_id":"CJT"}],[{"station_name":"Tambun","is_transit":false,"station_id":"TB","i_lat":-6.258864,"line":1,"transit":false,"distance":0,"i_long":107.055722,"time":0},{"is_transit":false,"line":1,"station_id":"BKST","time":7,"i_long":107.016735,"distance":4460,"i_lat":-6.248029,"station_name":"Bekasi Timur","transit":false},{"time":2,"transit":false,"station_id":"BKS","is_transit":false,"station_name":"Bekasi","i_long":106.997013,"i_lat":-6.236616,"line":1,"distance":2368},{"time":4,"distance":2520,"i_long":106.977657,"i_lat":-6.224515,"station_name":"Kranji","line":1,"station_id":"KRI","is_transit":false,"transit":false},{"i_lat":-6.219053,"line":1,"station_name":"Cakung","transit":false,"time":3,"is_transit":false,"i_long":106.951283,"station_id":"CUK","distance":3097},{"is_transit":false,"transit":false,"time":8,"line":1,"station_name":"Klenderbaru","distance":1385,"station_id":"KLDB","i_lat":-6.217455,"i_long":106.939679},{"is_transit":false,"time":1,"distance":1305,"station_id":"BUA","i_lat":-6.215568,"line":1,"station_name":"Buaran","transit":false,"i_long":106.922662},{"transit":false,"i_lat":-6.2135,"i_long":106.899548,"distance":3100,"station_id":"KLD","time":2,"station_name":"Klender","line":1,"is_transit":false},{"i_long":106.86807400000001,"i_lat":-6.215091,"distance":3395,"is_transit":false,"station_id":"JNG","line":1,"station_name":"Jatinegara","time":3,"transit":false},{"station_name":"Matraman","time":2,"distance":1377,"transit":false,"is_transit":false,"i_long":106.858896,"i_lat":-6.212485,"station_id":"MTR","line":1},{"line":2,"transit":true,"time":2,"is_transit":true,"station_name":"Manggarai","distance":1275,"i_long":106.84912,"station_id":"MRI","i_lat":-6.209883},{"is_transit":false,"i_lat":-6.198556,"distance":1590,"i_long":106.840169,"transit":false,"time":4,"station_id":"CKI","station_name":"Cikini","line":2},{"line":2,"station_id":"GDD","is_transit":false,"station_name":"Gondangdia","i_lat":-6.186295,"distance":1750,"i_long":106.832183,"transit":false,"time":3},{"distance":2015,"station_name":"Juanda","is_transit":false,"transit":false,"time":4,"i_lat":-6.166716,"station_id":"JUA","i_long":106.828284,"line":2},{"time":2,"is_transit":false,"i_long":106.827103,"line":2,"distance":1149,"transit":false,"station_id":"SW","station_name":"Sawah Besar","i_lat":-6.160725},{"is_transit":false,"distance":906,"transit":false,"i_lat":-6.149769,"station_name":"Manggabesar","line":2,"i_long":106.82482,"station_id":"MGB","time":2},{"time":2,"station_id":"JAY","line":2,"station_name":"Jayakarta","is_transit":false,"i_lat":-6.141205,"i_long":106.820901,"transit":false,"distance":1080},{"line":2,"distance":1264,"time":4,"station_id":"JAKK","transit":true,"i_lat":-6.137569,"station_name":"Jakarta Kota","i_long":106.812439,"is_transit":true},{"station_name":"Kampung Bandan","distance":1364,"station_id":"KPB","transit":true,"i_lat":-6.132549,"i_long":106.826365,"time":3,"is_transit":true,"line":4},{"line":1,"i_lat":-6.144674,"distance":4102,"is_transit":false,"station_name":"Angke","transit":false,"time":9,"i_long":106.79867,"station_id":"AK"},{"is_transit":false,"distance":1230,"time":4,"i_lat":-6.155215,"i_long":106.800832,"station_name":"Duri","station_id":"DU","transit":false,"line":1},{"distance":3632,"station_name":"Tanah Abang","is_transit":true,"time":8,"i_long":106.811091,"i_lat":-6.185545,"transit":true,"line":1,"station_id":"THB"},{"time":6,"i_lat":-6.207404,"i_long":106.79689,"station_id":"PLM","line":6,"transit":false,"is_transit":false,"distance":3191,"station_name":"Palmerah"},{"station_id":"KBY","line":6,"is_transit":false,"station_name":"Kebayoran","distance":3737,"time":7,"transit":false,"i_lat":-6.237242,"i_long":106.780334},{"i_long":106.74273,"station_name":"Pondokranji","time":8,"is_transit":false,"distance":6218,"i_lat":-6.276362,"station_id":"PDJ","transit":false,"line":6},{"station_name":"Jurangmangu","transit":false,"time":3,"is_transit":false,"i_lat":-6.288927,"i_long":106.728916,"distance":2179,"line":6,"station_id":"JMU"},{"station_id":"SDM","transit":false,"station_name":"Sudimara","i_lat":-6.296963,"i_long":106.712277,"distance":1994,"time":4,"line":6,"is_transit":false},{"i_lat":-6.314823,"distance":4566,"station_id":"RU","transit":false,"i_long":106.675475,"time":6,"station_name":"Rawa Buntu","is_transit":false,"line":6},{"is_transit":false,"transit":false,"time":4,"i_long":106.66566,"distance":2413,"station_id":"SRP","i_lat":-6.319871,"line":6,"station_name":"Serpong"},{"distance":1784,"transit":false,"is_transit":false,"time":4,"i_long":106.640411,"station_name":"Cisauk","line":3,"i_lat":-6.32484,"station_id":"CSK"},{"distance":2519,"i_long":106.617853,"transit":false,"i_lat":-6.329547,"line":3,"time":4,"station_name":"Cicayur","station_id":"CC","is_transit":false},{"distance":5968,"line":6,"transit":false,"station_id":"PRP","i_lat":-6.3441410000000005,"time":8,"i_long":106.568863,"is_transit":false,"station_name":"Parung Panjang"},{"i_lat":-6.354349,"station_id":"CJT","distance":7025,"transit":false,"time":9,"line":3,"is_transit":false,"i_long":106.508482,"station_name":"Cilejit"}],[{"station_name":"Tambun","i_long":107.055722,"transit":false,"is_transit":false,"station_id":"TB","i_lat":-6.258864,"line":1,"distance":0,"time":0},{"is_transit":false,"distance":4460,"station_name":"Bekasi Timur","station_id":"BKST","transit":false,"i_lat":-6.248029,"i_long":107.016735,"time":7,"line":1},{"transit":false,"i_lat":-6.236616,"i_long":106.997013,"station_id":"BKS","is_transit":false,"distance":2368,"time":2,"line":1,"station_name":"Bekasi"},{"station_id":"KRI","time":4,"distance":2520,"line":1,"transit":false,"i_lat":-6.224515,"i_long":106.977657,"is_transit":false,"station_name":"Kranji"},{"i_lat":-6.219053,"is_transit":false,"time":3,"distance":3097,"line":1,"i_long":106.951283,"transit":false,"station_id":"CUK","station_name":"Cakung"},{"distance":1385,"i_lat":-6.217455,"i_long":106.939679,"station_id":"KLDB","is_transit":false,"station_name":"Klenderbaru","time":8,"line":1,"transit":false},{"i_long":106.922662,"station_name":"Buaran","line":1,"i_lat":-6.215568,"station_id":"BUA","time":1,"distance":1305,"transit":false,"is_transit":false},{"time":2,"station_name":"Klender","transit":false,"i_long":106.899548,"line":1,"distance":3100,"station_id":"KLD","i_lat":-6.2135,"is_transit":false},{"i_long":106.86807400000001,"transit":true,"station_name":"Jatinegara","line":1,"station_id":"JNG","time":3,"distance":3395,"i_lat":-6.215091,"is_transit":true},{"i_long":106.861737,"i_lat":-6.209188,"distance":1236,"station_name":"Pondok Jati","is_transit":false,"time":2,"line":11,"station_id":"POK","transit":false},{"is_transit":false,"i_long":106.855437,"station_id":"KMT","transit":false,"time":2,"distance":1829,"i_lat":-6.193792,"station_name":"Kramat","line":11},{"station_name":"Gang Sentiong","i_lat":-6.185975,"i_long":106.850107,"line":11,"time":1,"is_transit":false,"station_id":"GST","distance":973,"transit":false},{"is_transit":false,"distance":1567,"time":8,"i_long":106.84368,"line":11,"transit":false,"station_id":"PSE","station_name":"Pasar Senen","i_lat":-6.174784},{"i_long":106.839204,"station_name":"Kemayoran","transit":false,"distance":1436,"time":4,"i_lat":-6.161728,"line":11,"station_id":"KMO","is_transit":false},{"time":5,"line":11,"i_long":106.836569,"distance":1901,"station_name":"Rajawali","station_id":"RJW","transit":false,"i_lat":-6.14505,"is_transit":false},{"i_long":106.826365,"station_name":"Kampung Bandan","line":4,"station_id":"KPB","is_transit":true,"transit":true,"time":3,"i_lat":-6.132549,"distance":1444},{"distance":1364,"station_id":"JAKK","line":2,"i_long":106.812439,"is_transit":true,"i_lat":-6.137569,"transit":true,"time":3,"station_name":"Jakarta Kota"},{"station_id":"JAY","station_name":"Jayakarta","i_lat":-6.141205,"time":4,"transit":false,"is_transit":false,"distance":1264,"line":2,"i_long":106.820901},{"time":2,"line":2,"transit":false,"station_id":"MGB","station_name":"Manggabesar","i_lat":-6.149769,"i_long":106.82482,"is_transit":false,"distance":1080},{"i_long":106.827103,"distance":906,"station_name":"Sawah Besar","time":2,"i_lat":-6.160725,"line":2,"transit":false,"is_transit":false,"station_id":"SW"},{"distance":1149,"line":2,"is_transit":false,"station_name":"Juanda","i_lat":-6.166716,"time":2,"i_long":106.828284,"station_id":"JUA","transit":false},{"station_name":"Gondangdia","time":4,"is_transit":false,"distance":2015,"i_lat":-6.186295,"i_long":106.832183,"line":2,"station_id":"GDD","transit":false},{"transit":false,"time":3,"is_transit":false,"station_id":"CKI","distance":1750,"station_name":"Cikini","i_long":106.840169,"line":2,"i_lat":-6.198556},{"station_name":"Manggarai","i_long":106.84912,"transit":true,"distance":1590,"i_lat":-6.209883,"time":4,"station_id":"MRI","line":2,"is_transit":true},{"i_lat":-6.202263,"time":4,"i_long":106.822649,"station_id":"SUD","transit":false,"distance":3186,"is_transit":false,"station_name":"Sudirman","line":1},{"i_lat":-6.201433,"transit":false,"station_name":"Sudirman Baru","i_long":106.819881,"line":1,"station_id":"SUDB","distance":280,"time":1,"is_transit":false},{"transit":false,"time":1,"is_transit":false,"station_name":"Karet","i_long":106.816351,"line":1,"distance":471,"i_lat":-6.20132,"station_id":"KAT"},{"i_long":106.811091,"time":5,"distance":2029,"line":1,"station_id":"THB","transit":true,"is_transit":true,"station_name":"Tanah Abang","i_lat":-6.185545},{"station_id":"PLM","time":6,"transit":false,"distance":3191,"station_name":"Palmerah","line":6,"is_transit":false,"i_lat":-6.207404,"i_long":106.79689},{"station_name":"Kebayoran","i_lat":-6.237242,"i_long":106.780334,"line":6,"time":7,"station_id":"KBY","distance":3737,"transit":false,"is_transit":false},{"station_id":"PDJ","time":8,"i_long":106.74273,"i_lat":-6.276362,"line":6,"transit":false,"is_transit":false,"station_name":"Pondokranji","distance":6218},{"transit":false,"station_id":"JMU","is_transit":false,"i_lat":-6.288927,"station_name":"Jurangmangu","i_long":106.728916,"distance":2179,"time":3,"line":6},{"distance":1994,"transit":false,"time":4,"station_name":"Sudimara","i_long":106.712277,"line":6,"station_id":"SDM","is_transit":false,"i_lat":-6.296963},{"distance":4566,"i_lat":-6.314823,"station_id":"RU","transit":false,"time":6,"station_name":"Rawa Buntu","line":6,"is_transit":false,"i_long":106.675475},{"transit":false,"time":4,"is_transit":false,"line":6,"distance":2413,"station_id":"SRP","station_name":"Serpong","i_long":106.66566,"i_lat":-6.319871},{"station_name":"Cisauk","distance":1784,"transit":false,"station_id":"CSK","time":4,"line":3,"i_long":106.640411,"i_lat":-6.32484,"is_transit":false},{"i_lat":-6.329547,"transit":false,"i_long":106.617853,"is_transit":false,"line":3,"time":4,"distance":2519,"station_id":"CC","station_name":"Cicayur"},{"time":8,"transit":false,"station_id":"PRP","is_transit":false,"station_name":"Parung Panjang","distance":5968,"i_lat":-6.3441410000000005,"i_long":106.568863,"line":6},{"i_long":106.508482,"line":3,"station_name":"Cilejit","distance":7025,"is_transit":false,"i_lat":-6.354349,"station_id":"CJT","transit":false,"time":9}]]}