{"data":[[{"time":0,"transit":false,"distance":0,"station_id":"TB","line":1,"is_transit":false,"i_lat":-6.258864,"i_long":107.055722,"station_name":"Tambun"},{"i_lat":-6.248029,"station_id":"BKST","is_transit":false,"line":1,"i_long":107.016735,"distance":4460,"time":7,"station_name":"Bekasi Timur","transit":false},{"i_lat":-6.236616,"distance":2368,"transit":false,"is_transit":false,"time":2,"i_long":106.997013,"line":1,"station_id":"BKS","station_name":"Bekasi"},{"transit":false,"distance":2520,"station_id":"KRI","is_transit":false,"i_long":106.977657,"i_lat":-6.224515,"station_name":"Kranji","line":1,"time":4},{"station_name":"Cakung","i_lat":-6.219053,"distance":3097,"station_id":"CUK","time":3,"i_long":106.951283,"line":1,"is_transit":false,"transit":false},{"is_transit":false,"station_id":"KLDB","time":8,"station_name":"Klenderbaru","i_lat":-6.217455,"transit":false,"i_long":106.939679,"distance":1385,"line":1},{"station_id":"BUA","distance":1305,"transit":false,"station_name":"Buaran","i_lat":-6.215568,"time":1,"i_long":106.922662,"is_transit":false,"line":1},{"station_id":"KLD","distance":3100,"station_name":"Klender","i_long":106.899548,"is_transit":false,"time":2,"transit":false,"i_lat":-6.2135,"line":1},{"i_long":106.86807400000001,"time":3,"i_lat":-6.215091,"station_id":"JNG","line":1,"distance":3395,"is_transit":false,"transit":false,"station_name":"Jatinegara"},{"i_long":106.858896,"time":2,"is_transit":false,"distance":1377,"transit":false,"station_name":"Matraman","line":1,"i_lat":-6.212485,"station_id":"MTR"},{"i_long":106.84912,"line":2,"station_name":"Manggarai","station_id":"MRI","is_transit":true,"i_lat":-6.209883,"transit":true,"distance":1275,"time":2},{"i_lat":-6.198556,"i_long":106.840169,"is_transit":false,"time":4,"station_id":"CKI","station_name":"Cikini","line":2,"transit":false,"distance":1590}],[{"distance":0,"i_lat":-6.258864,"station_name":"Tambun","is_transit":false,"station_id":"TB","i_long":107.055722,"transit":false,"time":0,"line":1},{"transit":false,"station_id":"BKST","i_long":107.016735,"distance":4460,"i_lat":-6.248029,"is_transit":false,"line":1,"station_name":"Bekasi Timur","time":7},{"station_id":"BKS","time":2,"transit":false,"distance":2368,"i_lat":-6.236616,"station_name":"Bekasi","is_transit":false,"line":1,"i_long":106.997013},{"station_name":"Kranji","distance":2520,"transit":false,"i_long":106.977657,"time":4,"line":1,"station_id":"KRI","is_transit":false,"i_lat":-6.224515},{"time":3,"transit":false,"station_id":"CUK","is_transit":false,"distance":3097,"i_long":106.951283,"line":1,"i_lat":-6.219053,"station_name":"Cakung"},{"transit":false,"i_lat":-6.217455,"station_name":"Klenderbaru","line":1,"distance":1385,"i_long":106.939679,"is_transit":false,"station_id":"KLDB","time":8},{"line":1,"station_id":"BUA","i_long":106.922662,"distance":1305,"i_lat":-6.215568,"is_transit":false,"transit":false,"time":1,"station_name":"Buaran"},{"transit":false,"is_transit":false,"time":2,"distance":3100,"line":1,"i_lat":-6.2135,"station_id":"KLD","i_long":106.899548,"station_name":"Klender"},{"station_id":"JNG","time":3,"line":1,"transit":true,"i_long":106.86807400000001,"distance":3395,"is_transit":true,"station_name":"Jatinegara","i_lat":-6.215091},{"station_id":"POK","station_name":"Pondok Jati","transit":false,"distance":1236,"time":2,"i_lat":-6.209188,"line":11,"is_transit":false,"i_long":106.861737},{"i_long":106.855437,"station_name":"Kramat","time":2,"line":11,"i_lat":-6.193792,"station_id":"KMT","transit":false,"is_transit":false,"distance":1829},{"station_id":"GST","i_long":106.850107,"transit":false,"station_name":"Gang Sentiong","time":1,"distance":973,"i_lat":-6.185975,"is_transit":false,"line":11},{"time":8,"transit":false,"i_long":106.84368,"station_name":"Pasar Senen","station_id":"PSE","i_lat":-6.174784,"line":11,"distance":1567,"is_transit":false},{"is_transit":false,"station_name":"Kemayoran","line":11,"distance":1436,"i_long":106.839204,"i_lat":-6.161728,"station_id":"KMO","transit":false,"time":4},{"i_lat":-6.14505,"line":11,"i_long":106.836569,"distance":1901,"transit":false,"station_name":"Rajawali","station_id":"RJW","is_transit":false,"time":5},{"is_transit":true,"station_name":"Kampung Bandan","transit":true,"time":3,"i_lat":-6.132549,"i_long":106.826365,"line":4,"station_id":"KPB","distance":1444},{"time":3,"i_long":106.812439,"distance":1364,"transit":true,"station_name":"Jakarta Kota","i_lat":-6.137569,"station_id":"JAKK","line":2,"is_transit":true},{"transit":false,"station_name":"Jayakarta","i_lat":-6.141205,"line":2,"is_transit":false,"time":4,"station_id":"JAY","i_long":106.820901,"distance":1264},{"station_id":"MGB","time":2,"i_lat":-6.149769,"station_name":"Manggabesar","i_long":106.82482,"distance":1080,"line":2,"is_transit":false,"transit":false},{"time":2,"is_transit":false,"distance":906,"i_long":106.827103,"station_name":"Sawah Besar","station_id":"SW","i_lat":-6.160725,"transit":false,"line":2},{"i_lat":-6.166716,"time":2,"transit":false,"station_name":"Juanda","line":2,"is_transit":false,"station_id":"JUA","i_long":106.828284,"distance":1149},{"line":2,"is_transit":false,"station_name":"Gondangdia","time":4,"transit":false,"i_long":106.832183,"station_id":"GDD","i_lat":-6.186295,"distance":2015},{"is_transit":false,"i_lat":-6.198556,"time":3,"line":2,"station_name":"Cikini","distance":1750,"i_long":106.840169,"transit":false,"station_id":"CKI"}],[{"station_name":"Tambun","transit":false,"station_id":"TB","is_transit":false,"time":0,"distance":0,"i_lat":-6.258864,"i_long":107.055722,"line":1},{"time":7,"is_transit":false,"station_id":"BKST","distance":4460,"i_long":107.016735,"transit":false,"station_name":"Bekasi Timur","line":1,"i_lat":-6.248029},{"i_long":106.997013,"line":1,"transit":false,"is_transit":false,"i_lat":-6.236616,"station_id":"BKS","distance":2368,"station_name":"Bekasi","time":2},{"line":1,"station_name":"Kranji","is_transit":false,"i_long":106.977657,"transit":false,"i_lat":-6.224515,"distance":2520,"station_id":"KRI","time":4},{"distance":3097,"i_long":106.951283,"transit":false,"station_id":"CUK","i_lat":-6.219053,"is_transit":false,"station_name":"Cakung","time":3,"line":1},{"is_transit":false,"i_long":106.939679,"line":1,"station_name":"Klenderbaru","transit":false,"distance":1385,"time":8,"i_lat":-6.217455,"station_id":"KLDB"},{"time":1,"line":1,"i_lat":-6.215568,"transit":false,"station_name":"Buaran","is_transit":false,"distance":1305,"i_long":106.922662,"station_id":"BUA"},{"i_long":106.899548,"is_transit":false,"time":2,"station_name":"Klender","transit":false,"station_id":"KLD","i_lat":-6.2135,"line":1,"distance":3100},{"station_id":"JNG","transit":true,"is_transit":true,"i_lat":-6.215091,"i_long":106.86807400000001,"time":3,"distance":3395,"station_name":"Jatinegara","line":1},{"i_long":106.861737,"time":2,"line":11,"transit":false,"station_id":"POK","station_name":"Pondok Jati","is_transit":false,"distance":1236,"i_lat":-6.209188},{"transit":false,"time":2,"line":11,"is_transit":false,"station_id":"KMT","distance":1829,"i_lat":-6.193792,"i_long":106.855437,"station_name":"Kramat"},{"station_name":"Gang Sentiong","is_transit":false,"i_lat":-6.185975,"i_long":106.850107,"time":1,"distance":973,"transit":false,"line":11,"station_id":"GST"},{"line":11,"transit":false,"is_transit":false,"station_name":"Pasar Senen","time":8,"i_long":106.84368,"station_id":"PSE","i_lat":-6.174784,"distance":1567},{"line":11,"station_name":"Kemayoran","station_id":"KMO","i_long":106.839204,"is_transit":false,"distance":1436,"time":4,"i_lat":-6.161728,"transit":false},{"distance":1901,"i_long":106.836569,"station_name":"Rajawali","i_lat":-6.14505,"is_transit":false,"transit":false,"time":5,"line":11,"station_id":"RJW"},{"i_lat":-6.132549,"station_name":"Kampung Bandan","time":3,"transit":true,"i_long":106.826365,"line":4,"is_transit":true,"distance":1444,"station_id":"KPB"},{"i_lat":-6.144674,"station_id":"AK","transit":false,"time":9,"distance":4102,"i_long":106.79867,"station_name":"Angke","is_transit":false,"line":1},{"is_transit":false,"distance":1230,"time":4,"line":1,"i_lat":-6.155215,"i_long":106.800832,"transit":false,"station_name":"Duri","station_id":"DU"},{"i_long":106.811091,"transit":false,"station_id":"THB","i_lat":-6.185545,"line":1,"distance":3632,"time":8,"is_transit":false,"station_name":"Tanah Abang"},{"i_lat":-6.20132,"i_long":106.816351,"is_transit":false,"transit":false,"distance":2029,"station_name":"Karet","time":5,"line":1,"station_id":"KAT"},{"station_name":"Sudirman Baru","is_transit":false,"time":1,"i_lat":-6.201433,"station_id":"SUDB","distance":471,"line":1,"i_long":106.819881,"transit":false},{"station_name":"Sudirman","station_id":"SUD","i_long":106.822649,"time":1,"distance":280,"transit":false,"is_transit":false,"line":1,"i_lat":-6.202263},{"transit":true,"i_lat":-6.209883,"station_name":"Manggarai","time":4,"i_long":106.84912,"station_id":"MRI","line":2,"distance":3186,"is_transit":true},{"is_transit":false,"transit":false,"station_name":"Cikini","distance":1590,"time":4,"i_long":106.840169,"i_lat":-6.198556,"line":2,"station_id":"CKI"}],[{"i_lat":-6.258864,"time":0,"station_id":"TB","transit":false,"is_transit":false,"distance":0,"i_long":107.055722,"station_name":"Tambun","line":1},{"i_long":107.016735,"time":7,"i_lat":-6.248029,"line":1,"distance":4460,"station_name":"Bekasi Timur","station_id":"BKST","is_transit":false,"transit":false},{"is_transit":false,"station_id":"BKS","i_lat":-6.236616,"i_long":106.997013,"station_name":"Bekasi","line":1,"transit":false,"time":2,"distance":2368},{"transit":false,"is_transit":false,"i_lat":-6.224515,"line":1,"station_name":"Kranji","station_id":"KRI","i_long":106.977657,"distance":2520,"time":4},{"i_lat":-6.219053,"station_name":"Cakung","is_transit":false,"transit":false,"time":3,"i_long":106.951283,"distance":3097,"line":1,"station_id":"CUK"},{"station_name":"Klenderbaru","station_id":"KLDB","is_transit":false,"time":8,"distance":1385,"line":1,"i_long":106.939679,"transit":false,"i_lat":-6.217455},{"i_lat":-6.215568,"is_transit":false,"station_name":"Buaran","distance":1305,"line":1,"transit":false,"i_long":106.922662,"station_id":"BUA","time":1},{"time":2,"i_lat":-6.2135,"line":1,"transit":false,"station_id":"KLD","station_name":"Klender","is_transit":false,"i_long":106.899548,"distance":3100},{"line":1,"time":3,"transit":false,"station_name":"Jatinegara","i_long":106.86807400000001,"i_lat":-6.215091,"station_id":"JNG","is_transit":false,"distance":3395},{"i_lat":-6.212485,"is_transit":false,"time":2,"i_long":106.858896,"transit":false,"station_name":"Matraman","distance":1377,"line":1,"station_id":"MTR"},{"station_name":"Manggarai","time":2,"transit":false,"distance":1275,"i_long":106.84912,"line":2,"station_id":"MRI","is_transit":false,"i_lat":-6.209883},{"time":4,"transit":false,"i_long":106.822649,"is_transit":false,"distance":3186,"station_id":"SUD","i_lat":-6.202263,"station_name":"Sudirman","line":1},{"time":1,"distance":280,"transit":false,"station_name":"Sudirman Baru","i_long":106.819881,"station_id":"SUDB","is_transit":false,"line":1,"i_lat":-6.201433},{"line":1,"station_id":"KAT","i_long":106.816351,"station_name":"Karet","is_transit":false,"time":1,"i_lat":-6.20132,"transit":false,"distance":471},{"i_lat":-6.185545,"station_name":"Tanah Abang","is_transit":false,"distance":2029,"line":1,"transit":false,"station_id":"THB","i_long":106.811091,"time":5},{"i_long":106.800832,"line":1,"is_transit":false,"station_id":"DU","transit":false,"station_name":"Duri","time":8,"i_lat":-6.155215,"distance":3632},{"is_transit":false,"i_lat":-6.144674,"time":4,"line":1,"distance":1230,"transit":false,"i_long":106.79867,"station_name":"Angke","station_id":"AK"},{"station_name":"Kampung Bandan","time":9,"is_transit":true,"distance":4102,"i_long":106.826365,"line":4,"transit":true,"station_id":"KPB","i_lat":-6.132549},{"i_long":106.812439,"line":2,"station_name":"Jakarta Kota","station_id":"JAKK","i_lat":-6.137569,"is_transit":true,"time":3,"distance":1364,"transit":true},{"is_transit":false,"transit":false,"i_lat":-6.141205,"time":4,"distance":1264,"i_long":106.820901,"line":2,"station_name":"Jayakarta","station_id":"JAY"},{"transit":false,"line":2,"i_long":106.82482,"station_id":"MGB","station_name":"Manggabesar","i_lat":-6.149769,"time":2,"is_transit":false,"distance":1080},{"distance":906,"i_lat":-6.160725,"line":2,"station_name":"Sawah Besar","i_long":106.827103,"station_id":"SW","is_transit":false,"transit":false,"time":2},{"line":2,"transit":false,"i_long":106.828284,"is_transit":false,"station_name":"Juanda","station_id":"JUA","distance":1149,"i_lat":-6.166716,"time":2},{"station_id":"GDD","line":2,"is_transit":false,"time":4,"station_name":"Gondangdia","distance":2015,"transit":false,"i_lat":-6.186295,"i_long":106.832183},{"transit":false,"station_name":"Cikini","i_long":106.840169,"time":3,"is_transit":false,"line":2,"station_id":"CKI","distance":1750,"i_lat":-6.198556}]]}