{"data":[[{"i_lat":-6.258864,"station_id":"TB","time":0,"is_transit":false,"i_long":107.055722,"station_name":"Tambun","transit":false,"distance":0,"line":1},{"station_name":"Bekasi Timur","time":7,"is_transit":false,"distance":4460,"station_id":"BKST","i_long":107.016735,"i_lat":-6.248029,"transit":false,"line":1},{"time":2,"distance":2368,"i_lat":-6.236616,"is_transit":false,"line":1,"station_id":"BKS","station_name":"Bekasi","i_long":106.997013,"transit":false},{"time":4,"line":1,"station_id":"KRI","transit":false,"is_transit":false,"distance":2520,"i_long":106.977657,"i_lat":-6.224515,"station_name":"Kranji"},{"transit":false,"is_transit":false,"station_name":"Cakung","distance":3097,"station_id":"CUK","i_lat":-6.219053,"time":3,"i_long":106.951283,"line":1},{"distance":1385,"i_long":106.939679,"station_id":"KLDB","is_transit":false,"line":1,"transit":false,"time":8,"i_lat":-6.217455,"station_name":"Klenderbaru"},{"line":1,"transit":false,"is_transit":false,"time":1,"station_id":"BUA","station_name":"Buaran","distance":1305,"i_lat":-6.215568,"i_long":106.922662},{"i_lat":-6.2135,"i_long":106.899548,"line":1,"transit":false,"time":2,"is_transit":false,"station_name":"Klender","distance":3100,"station_id":"KLD"},{"distance":3395,"line":1,"time":3,"station_name":"Jatinegara","i_lat":-6.215091,"transit":false,"i_long":106.86807400000001,"is_transit":false,"station_id":"JNG"},{"station_id":"MTR","i_long":106.858896,"station_name":"Matraman","line":1,"time":2,"transit":false,"i_lat":-6.212485,"is_transit":false,"distance":1377},{"transit":false,"distance":1275,"i_long":106.84912,"line":2,"time":2,"is_transit":false,"station_id":"MRI","i_lat":-6.209883,"station_name":"Manggarai"},{"is_transit":false,"time":4,"station_name":"Sudirman","distance":3186,"i_lat":-6.202263,"i_long":106.822649,"transit":false,"station_id":"SUD","line":1},{"time":1,"station_id":"SUDB","distance":280,"station_name":"Sudirman Baru","is_transit":false,"line":1,"i_lat":-6.201433,"i_long":106.819881,"transit":false},{"station_name":"Karet","is_transit":false,"i_long":106.816351,"station_id":"KAT","distance":471,"time":1,"i_lat":-6.20132,"line":1,"transit":false},{"is_transit":true,"time":5,"transit":true,"line":1,"i_long":106.811091,"station_name":"Tanah Abang","station_id":"THB","distance":2029,"i_lat":-6.185545},{"is_transit":false,"station_id":"PLM","distance":3191,"transit":false,"i_lat":-6.207404,"time":6,"line":6,"station_name":"Palmerah","i_long":106.79689},{"station_id":"KBY","is_transit":false,"time":7,"i_long":106.780334,"transit":false,"station_name":"Kebayoran","line":6,"distance":3737,"i_lat":-6.237242},{"transit":false,"line":6,"distance":6218,"time":8,"is_transit":false,"station_name":"Pondokranji","station_id":"PDJ","i_lat":-6.276362,"i_long":106.74273},{"is_transit":false,"line":6,"time":3,"station_id":"JMU","transit":false,"i_lat":-6.288927,"i_long":106.728916,"station_name":"Jurangmangu","distance":2179},{"line":6,"time":4,"station_name":"Sudimara","station_id":"SDM","distance":1994,"transit":false,"is_transit":false,"i_lat":-6.296963,"i_long":106.712277},{"is_transit":false,"station_id":"RU","transit":false,"time":6,"line":6,"distance":4566,"i_long":106.675475,"station_name":"Rawa Buntu","i_lat":-6.314823},{"time":4,"i_long":106.66566,"is_transit":false,"station_id":"SRP","distance":2413,"station_name":"Serpong","transit":false,"line":6,"i_lat":-6.319871},{"is_transit":false,"distance":1784,"i_long":106.640411,"time":4,"i_lat":-6.32484,"station_name":"Cisauk","line":3,"station_id":"CSK","transit":false},{"station_id":"CC","i_long":106.617853,"time":4,"line":3,"i_lat":-6.329547,"transit":false,"station_name":"Cicayur","is_transit":false,"distance":2519},{"station_id":"PRP","distance":5968,"i_lat":-6.3441410000000005,"i_long":106.568863,"transit":false,"station_name":"Parung Panjang","line":6,"is_transit":false,"time":8},{"distance":7025,"i_long":106.508482,"transit":false,"line":3,"time":9,"station_id":"CJT","i_lat":-6.354349,"station_name":"Cilejit","is_transit":false}],[{"station_id":"TB","line":1,"distance":0,"i_long":107.055722,"transit":false,"station_name":"Tambun","is_transit":false,"time":0,"i_lat":-6.258864},{"distance":4460,"transit":false,"time":7,"i_long":107.016735,"station_name":"Bekasi Timur","station_id":"BKST","is_transit":false,"i_lat":-6.248029,"line":1},{"distance":2368,"line":1,"i_long":106.997013,"i_lat":-6.236616,"is_transit":false,"transit":false,"station_id":"BKS","station_name":"Bekasi","time":2},{"line":1,"time":4,"station_id":"KRI","transit":false,"is_transit":false,"i_lat":-6.224515,"i_long":106.977657,"distance":2520,"station_name":"Kranji"},{"line":1,"transit":false,"time":3,"station_name":"Cakung","station_id":"CUK","is_transit":false,"distance":3097,"i_lat":-6.219053,"i_long":106.951283},{"station_name":"Klenderbaru","is_transit":false,"station_id":"KLDB","i_long":106.939679,"distance":1385,"transit":false,"i_lat":-6.217455,"time":8,"line":1},{"time":1,"station_id":"BUA","i_lat":-6.215568,"is_transit":false,"line":1,"transit":false,"distance":1305,"i_long":106.922662,"station_name":"Buaran"},{"transit":false,"line":1,"time":2,"distance":3100,"station_id":"KLD","i_long":106.899548,"is_transit":false,"station_name":"Klender","i_lat":-6.2135},{"transit":true,"time":3,"distance":3395,"station_id":"JNG","is_transit":true,"station_name":"Jatinegara","i_lat":-6.215091,"line":1,"i_long":106.86807400000001},{"i_lat":-6.209188,"transit":false,"line":11,"is_transit":false,"station_name":"Pondok Jati","i_long":106.861737,"time":2,"station_id":"POK","distance":1236},{"station_name":"Kramat","i_long":106.855437,"station_id":"KMT","transit":false,"line":11,"is_transit":false,"i_lat":-6.193792,"time":2,"distance":1829},{"station_id":"GST","time":1,"line":11,"is_transit":false,"station_name":"Gang Sentiong","distance":973,"transit":false,"i_lat":-6.185975,"i_long":106.850107},{"distance":1567,"i_lat":-6.174784,"is_transit":false,"i_long":106.84368,"transit":false,"station_id":"PSE","line":11,"time":8,"station_name":"Pasar Senen"},{"i_lat":-6.161728,"is_transit":false,"station_id":"KMO","station_name":"Kemayoran","i_long":106.839204,"distance":1436,"time":4,"transit":false,"line":11},{"station_id":"RJW","distance":1901,"transit":false,"station_name":"Rajawali","is_transit":false,"i_lat":-6.14505,"i_long":106.836569,"time":5,"line":11},{"time":3,"i_lat":-6.132549,"transit":true,"station_name":"Kampung Bandan","line":4,"distance":1444,"is_transit":true,"station_id":"KPB","i_long":106.826365},{"i_lat":-6.144674,"line":1,"distance":4102,"time":9,"transit":false,"station_id":"AK","station_name":"Angke","is_transit":false,"i_long":106.79867},{"station_id":"DU","is_transit":false,"station_name":"Duri","distance":1230,"transit":false,"i_lat":-6.155215,"i_long":106.800832,"line":1,"time":4},{"time":8,"station_id":"THB","is_transit":true,"station_name":"Tanah Abang","distance":3632,"i_long":106.811091,"transit":true,"i_lat":-6.185545,"line":1},{"station_id":"PLM","transit":false,"time":6,"line":6,"is_transit":false,"station_name":"Palmerah","i_long":106.79689,"i_lat":-6.207404,"distance":3191},{"is_transit":false,"transit":false,"station_name":"Kebayoran","station_id":"KBY","i_long":106.780334,"time":7,"distance":3737,"i_lat":-6.237242,"line":6},{"i_lat":-6.276362,"is_transit":false,"time":8,"station_name":"Pondokranji","distance":6218,"i_long":106.74273,"line":6,"transit":false,"station_id":"PDJ"},{"i_lat":-6.288927,"i_long":106.728916,"line":6,"transit":false,"distance":2179,"station_name":"Jurangmangu","station_id":"JMU","time":3,"is_transit":false},{"transit":false,"time":4,"distance":1994,"station_id":"SDM","is_transit":false,"station_name":"Sudimara","i_lat":-6.296963,"i_long":106.712277,"line":6},{"station_id":"RU","station_name":"Rawa Buntu","i_lat":-6.314823,"i_long":106.675475,"line":6,"transit":false,"time":6,"is_transit":false,"distance":4566},{"station_id":"SRP","time":4,"transit":false,"station_name":"Serpong","line":6,"is_transit":false,"i_lat":-6.319871,"distance":2413,"i_long":106.66566},{"distance":1784,"station_id":"CSK","station_name":"Cisauk","i_lat":-6.32484,"line":3,"is_transit":false,"time":4,"transit":false,"i_long":106.640411},{"i_long":106.617853,"transit":false,"station_id":"CC","i_lat":-6.329547,"is_transit":false,"station_name":"Cicayur","line":3,"distance":2519,"time":4},{"station_id":"PRP","station_name":"Parung Panjang","i_lat":-6.3441410000000005,"i_long":106.568863,"transit":false,"is_transit":false,"time":8,"line":6,"distance":5968},{"i_long":106.508482,"time":9,"station_name":"Cilejit","i_lat":-6.354349,"line":3,"station_id":"CJT","is_transit":false,"distance":7025,"transit":false}],[{"transit":false,"is_transit":false,"i_lat":-6.258864,"time":0,"i_long":107.055722,"line":1,"distance":0,"station_name":"Tambun","station_id":"TB"},{"distance":4460,"line":1,"time":7,"station_id":"BKST","is_transit":false,"station_name":"Bekasi Timur","transit":false,"i_lat":-6.248029,"i_long":107.016735},{"distance":2368,"transit":false,"station_name":"Bekasi","i_long":106.997013,"station_id":"BKS","line":1,"time":2,"is_transit":false,"i_lat":-6.236616},{"line":1,"distance":2520,"station_id":"KRI","station_name":"Kranji","i_long":106.977657,"transit":false,"is_transit":false,"time":4,"i_lat":-6.224515},{"distance":3097,"i_lat":-6.219053,"is_transit":false,"station_name":"Cakung","i_long":106.951283,"station_id":"CUK","transit":false,"line":1,"time":3},{"station_id":"KLDB","time":8,"i_long":106.939679,"line":1,"distance":1385,"transit":false,"i_lat":-6.217455,"station_name":"Klenderbaru","is_transit":false},{"transit":false,"station_name":"Buaran","is_transit":false,"distance":1305,"line":1,"time":1,"station_id":"BUA","i_lat":-6.215568,"i_long":106.922662},{"is_transit":false,"i_lat":-6.2135,"transit":false,"distance":3100,"i_long":106.899548,"time":2,"line":1,"station_name":"Klender","station_id":"KLD"},{"time":3,"i_long":106.86807400000001,"station_name":"Jatinegara","transit":false,"station_id":"JNG","is_transit":false,"distance":3395,"i_lat":-6.215091,"line":1},{"line":1,"time":2,"transit":false,"station_name":"Matraman","is_transit":false,"distance":1377,"i_lat":-6.212485,"station_id":"MTR","i_long":106.858896},{"i_lat":-6.209883,"transit":true,"is_transit":true,"line":2,"time":2,"i_long":106.84912,"station_name":"Manggarai","station_id":"MRI","distance":1275},{"is_transit":false,"i_lat":-6.198556,"time":4,"distance":1590,"line":2,"station_id":"CKI","i_long":106.840169,"transit":false,"station_name":"Cikini"},{"time":3,"i_lat":-6.186295,"line":2,"i_long":106.832183,"distance":1750,"station_name":"Gondangdia","transit":false,"station_id":"GDD","is_transit":false},{"i_lat":-6.166716,"is_transit":false,"transit":false,"station_id":"JUA","time":4,"i_long":106.828284,"distance":2015,"station_name":"Juanda","line":2},{"transit":false,"distance":1149,"time":2,"is_transit":false,"station_id":"SW","station_name":"Sawah Besar","i_lat":-6.160725,"i_long":106.827103,"line":2},{"time":2,"i_lat":-6.149769,"line":2,"station_id":"MGB","transit":false,"is_transit":false,"i_long":106.82482,"distance":906,"station_name":"Manggabesar"},{"distance":1080,"station_id":"JAY","line":2,"transit":false,"station_name":"Jayakarta","time":2,"i_long":106.820901,"is_transit":false,"i_lat":-6.141205},{"transit":true,"station_name":"Jakarta Kota","station_id":"JAKK","is_transit":true,"time":4,"distance":1264,"i_lat":-6.137569,"line":2,"i_long":106.812439},{"transit":true,"station_id":"KPB","i_lat":-6.132549,"station_name":"Kampung Bandan","i_long":106.826365,"distance":1364,"line":4,"is_transit":true,"time":3},{"time":9,"i_lat":-6.144674,"station_name":"Angke","transit":false,"distance":4102,"i_long":106.79867,"is_transit":false,"station_id":"AK","line":1},{"is_transit":false,"station_id":"DU","distance":1230,"i_lat":-6.155215,"i_long":106.800832,"line":1,"time":4,"transit":false,"station_name":"Duri"},{"is_transit":true,"distance":3632,"station_id":"THB","transit":true,"line":1,"i_long":106.811091,"station_name":"Tanah Abang","i_lat":-6.185545,"time":8},{"station_name":"Palmerah","transit":false,"is_transit":false,"distance":3191,"line":6,"i_long":106.79689,"time":6,"i_lat":-6.207404,"station_id":"PLM"},{"distance":3737,"line":6,"time":7,"station_name":"Kebayoran","transit":false,"station_id":"KBY","is_transit":false,"i_lat":-6.237242,"i_long":106.780334},{"transit":false,"is_transit":false,"i_lat":-6.276362,"line":6,"i_long":106.74273,"station_name":"Pondokranji","time":8,"station_id":"PDJ","distance":6218},{"station_name":"Jurangmangu","station_id":"JMU","i_long":106.728916,"i_lat":-6.288927,"distance":2179,"is_transit":false,"line":6,"transit":false,"time":3},{"i_long":106.712277,"line":6,"station_name":"Sudimara","i_lat":-6.296963,"transit":false,"is_transit":false,"station_id":"SDM","time":4,"distance":1994},{"time":6,"transit":false,"station_name":"Rawa Buntu","i_lat":-6.314823,"is_transit":false,"i_long":106.675475,"line":6,"station_id":"RU","distance":4566},{"time":4,"station_name":"Serpong","i_long":106.66566,"station_id":"SRP","distance":2413,"is_transit":false,"transit":false,"i_lat":-6.319871,"line":6},{"station_name":"Cisauk","transit":false,"time":4,"i_lat":-6.32484,"i_long":106.640411,"line":3,"station_id":"CSK","distance":1784,"is_transit":false},{"transit":false,"station_name":"Cicayur","is_transit":false,"time":4,"distance":2519,"i_lat":-6.329547,"line":3,"station_id":"CC","i_long":106.617853},{"is_transit":false,"line":6,"time":8,"station_name":"Parung Panjang","i_long":106.568863,"distance":5968,"i_lat":-6.3441410000000005,"transit":false,"station_id":"PRP"},{"transit":false,"i_lat":-6.354349,"station_id":"CJT","distance":7025,"time":9,"line":3,"i_long":106.508482,"station_name":"Cilejit","is_transit":false}],[{"line":1,"is_transit":false,"transit":false,"time":0,"i_lat":-6.258864,"i_long":107.055722,"station_id":"TB","station_name":"Tambun","distance":0},{"time":7,"transit":false,"station_name":"Bekasi Timur","i_lat":-6.248029,"line":1,"distance":4460,"station_id":"BKST","is_transit":false,"i_long":107.016735},{"time":2,"distance":2368,"i_long":106.997013,"line":1,"i_lat":-6.236616,"transit":false,"station_name":"Bekasi","station_id":"BKS","is_transit":false},{"distance":2520,"station_name":"Kranji","station_id":"KRI","i_lat":-6.224515,"transit":false,"is_transit":false,"time":4,"i_long":106.977657,"line":1},{"is_transit":false,"time":3,"i_lat":-6.219053,"line":1,"transit":false,"station_id":"CUK","distance":3097,"station_name":"Cakung","i_long":106.951283},{"station_name":"Klenderbaru","i_lat":-6.217455,"transit":false,"station_id":"KLDB","distance":1385,"time":8,"is_transit":false,"line":1,"i_long":106.939679},{"i_lat":-6.215568,"line":1,"i_long":106.922662,"station_name":"Buaran","station_id":"BUA","time":1,"distance":1305,"is_transit":false,"transit":false},{"station_name":"Klender","is_transit":false,"i_long":106.899548,"station_id":"KLD","time":2,"distance":3100,"transit":false,"i_lat":-6.2135,"line":1},{"time":3,"distance":3395,"station_name":"Jatinegara","station_id":"JNG","i_lat":-6.215091,"is_transit":true,"i_long":106.86807400000001,"line":1,"transit":true},{"distance":1236,"line":11,"time":2,"i_long":106.861737,"transit":false,"is_transit":false,"i_lat":-6.209188,"station_name":"Pondok Jati","station_id":"POK"},{"station_name":"Kramat","distance":1829,"transit":false,"is_transit":false,"station_id":"KMT","i_lat":-6.193792,"i_long":106.855437,"line":11,"time":2},{"station_id":"GST","is_transit":false,"distance":973,"line":11,"i_long":106.850107,"transit":false,"station_name":"Gang Sentiong","i_lat":-6.185975,"time":1},{"station_name":"Pasar Senen","transit":false,"is_transit":false,"time":8,"distance":1567,"station_id":"PSE","i_long":106.84368,"line":11,"i_lat":-6.174784},{"is_transit":false,"i_long":106.839204,"transit":false,"station_id":"KMO","i_lat":-6.161728,"time":4,"distance":1436,"line":11,"station_name":"Kemayoran"},{"line":11,"i_long":106.836569,"transit":false,"time":5,"i_lat":-6.14505,"is_transit":false,"station_name":"Rajawali","distance":1901,"station_id":"RJW"},{"station_id":"KPB","i_long":106.826365,"is_transit":true,"distance":1444,"station_name":"Kampung Bandan","i_lat":-6.132549,"transit":true,"time":3,"line":4},{"line":2,"distance":1364,"time":3,"station_name":"Jakarta Kota","transit":true,"station_id":"JAKK","is_transit":true,"i_long":106.812439,"i_lat":-6.137569},{"is_transit":false,"distance":1264,"station_id":"JAY","i_lat":-6.141205,"time":4,"station_name":"Jayakarta","i_long":106.820901,"line":2,"transit":false},{"i_lat":-6.149769,"station_name":"Manggabesar","is_transit":false,"distance":1080,"station_id":"MGB","time":2,"i_long":106.82482,"transit":false,"line":2},{"i_lat":-6.160725,"station_id":"SW","is_transit":false,"station_name":"Sawah Besar","i_long":106.827103,"time":2,"transit":false,"distance":906,"line":2},{"station_name":"Juanda","transit":false,"time":2,"line":2,"i_lat":-6.166716,"station_id":"JUA","is_transit":false,"i_long":106.828284,"distance":1149},{"transit":false,"i_long":106.832183,"line":2,"station_name":"Gondangdia","distance":2015,"station_id":"GDD","time":4,"i_lat":-6.186295,"is_transit":false},{"time":3,"i_lat":-6.198556,"is_transit":false,"line":2,"i_long":106.840169,"station_id":"CKI","station_name":"Cikini","distance":1750,"transit":false},{"i_lat":-6.209883,"is_transit":true,"transit":true,"i_long":106.84912,"time":4,"station_name":"Manggarai","station_id":"MRI","distance":1590,"line":2},{"line":1,"is_transit":false,"transit":false,"station_name":"Sudirman","station_id":"SUD","distance":3186,"time":4,"i_long":106.822649,"i_lat":-6.202263},{"station_name":"Sudirman Baru","distance":280,"time":1,"is_transit":false,"i_lat":-6.201433,"station_id":"SUDB","i_long":106.819881,"transit":false,"line":1},{"is_transit":false,"station_id":"KAT","i_long":106.816351,"transit":false,"line":1,"station_name":"Karet","time":1,"i_lat":-6.20132,"distance":471},{"i_lat":-6.185545,"station_name":"Tanah Abang","distance":2029,"station_id":"THB","i_long":106.811091,"time":5,"transit":true,"line":1,"is_transit":true},{"transit":false,"i_long":106.79689,"line":6,"distance":3191,"time":6,"i_lat":-6.207404,"station_name":"Palmerah","station_id":"PLM","is_transit":false},{"is_transit":false,"i_long":106.780334,"station_id":"KBY","transit":false,"time":7,"distance":3737,"station_name":"Kebayoran","line":6,"i_lat":-6.237242},{"station_name":"Pondokranji","is_transit":false,"time":8,"station_id":"PDJ","transit":false,"distance":6218,"line":6,"i_long":106.74273,"i_lat":-6.276362},{"is_transit":false,"line":6,"time":3,"station_id":"JMU","i_lat":-6.288927,"station_name":"Jurangmangu","transit":false,"i_long":106.728916,"distance":2179},{"transit":false,"station_id":"SDM","line":6,"station_name":"Sudimara","is_transit":false,"distance":1994,"i_long":106.712277,"time":4,"i_lat":-6.296963},{"transit":false,"time":6,"line":6,"station_id":"RU","i_long":106.675475,"i_lat":-6.314823,"station_name":"Rawa Buntu","is_transit":false,"distance":4566},{"line":6,"distance":2413,"time":4,"i_lat":-6.319871,"station_id":"SRP","i_long":106.66566,"station_name":"Serpong","transit":false,"is_transit":false},{"distance":1784,"station_id":"CSK","is_transit":false,"i_lat":-6.32484,"i_long":106.640411,"transit":false,"time":4,"station_name":"Cisauk","line":3},{"i_lat":-6.329547,"time":4,"distance":2519,"i_long":106.617853,"station_id":"CC","is_transit":false,"line":3,"transit":false,"station_name":"Cicayur"},{"i_long":106.568863,"transit":false,"station_name":"Parung Panjang","distance":5968,"time":8,"is_transit":false,"i_lat":-6.3441410000000005,"line":6,"station_id":"PRP"},{"distance":7025,"i_long":106.508482,"line":3,"is_transit":false,"transit":false,"i_lat":-6.354349,"station_id":"CJT","station_name":"Cilejit","time":9}]]}