{"data":[[{"line":1,"station_name":"Tambun","transit":false,"distance":0,"time":0,"i_lat":-6.258864,"i_long":107.055722,"station_id":"TB","is_transit":false},{"station_id":"BKST","station_name":"Bekasi Timur","is_transit":false,"i_long":107.016735,"line":1,"time":7,"i_lat":-6.248029,"distance":4460,"transit":false},{"is_transit":false,"line":1,"station_name":"Bekasi","distance":2368,"time":2,"transit":false,"i_long":106.997013,"i_lat":-6.236616,"station_id":"BKS"},{"station_name":"Kranji","station_id":"KRI","time":4,"distance":2520,"line":1,"i_long":106.977657,"i_lat":-6.224515,"is_transit":false,"transit":false},{"is_transit":false,"distance":3097,"station_id":"CUK","i_lat":-6.219053,"time":3,"transit":false,"i_long":106.951283,"station_name":"Cakung","line":1},{"distance":1385,"i_lat":-6.217455,"i_long":106.939679,"is_transit":false,"time":8,"line":1,"transit":false,"station_name":"Klenderbaru","station_id":"KLDB"},{"i_lat":-6.215568,"transit":false,"station_id":"BUA","i_long":106.922662,"time":1,"is_transit":false,"line":1,"station_name":"Buaran","distance":1305},{"station_name":"Klender","transit":false,"is_transit":false,"station_id":"KLD","distance":3100,"i_lat":-6.2135,"line":1,"i_long":106.899548,"time":2},{"i_long":106.86807400000001,"time":3,"transit":false,"i_lat":-6.215091,"station_id":"JNG","is_transit":false,"distance":3395,"station_name":"Jatinegara","line":1},{"line":1,"station_id":"MTR","is_transit":false,"station_name":"Matraman","transit":false,"distance":1377,"time":2,"i_long":106.858896,"i_lat":-6.212485},{"station_name":"Manggarai","station_id":"MRI","distance":1275,"is_transit":true,"transit":true,"line":2,"i_long":106.84912,"i_lat":-6.209883,"time":2},{"station_id":"TEB","transit":false,"station_name":"Tebet","i_lat":-6.226659,"distance":2610,"i_long":106.857948,"line":2,"is_transit":false,"time":4},{"transit":false,"i_lat":-6.242512,"i_long":106.856607,"is_transit":false,"time":2,"distance":1230,"line":2,"station_id":"CW","station_name":"Cawang"},{"distance":1546,"line":2,"transit":false,"station_name":"Duren Kalibata","is_transit":false,"time":3,"i_lat":-6.255332,"station_id":"DRN","i_long":106.85449},{"i_lat":-6.263214,"station_id":"PSMB","station_name":"Pasar Minggu Baru","time":2,"distance":824,"i_long":106.851577,"transit":false,"line":2,"is_transit":false},{"time":2,"line":2,"station_name":"Pasar Minggu","i_lat":-6.2842400000000005,"station_id":"PSM","transit":false,"i_long":106.843999,"distance":2380,"is_transit":false},{"i_long":106.838896,"station_id":"TNT","transit":false,"station_name":"Tanjung Barat","time":4,"distance":2820,"line":2,"is_transit":false,"i_lat":-6.3080680000000005},{"is_transit":false,"i_lat":-6.330363,"transit":false,"i_long":106.832616,"line":2,"station_name":"Lenteng Agung","time":3,"station_id":"LNA","distance":2671},{"station_id":"UP","is_transit":false,"line":2,"i_lat":-6.339291,"station_name":"Univ. Pancasila","distance":1029,"i_long":106.834175,"time":2,"transit":false},{"is_transit":false,"distance":2264,"time":3,"i_lat":-6.360749,"transit":false,"station_id":"UI","station_name":"Univ. Indonesia","i_long":106.831474,"line":2},{"station_id":"POC","i_lat":-6.369073,"station_name":"Pondok Cina","i_long":106.831114,"line":2,"transit":false,"is_transit":false,"time":2,"distance":1109},{"time":4,"i_long":106.819451,"line":2,"distance":2727,"i_lat":-6.391065,"transit":false,"is_transit":false,"station_id":"DPB","station_name":"Depokbaru"},{"is_transit":false,"transit":false,"i_long":106.816926,"station_name":"Depok","line":2,"station_id":"DP","distance":1584,"i_lat":-6.405256,"time":3},{"i_lat":-6.448811,"transit":false,"distance":5084,"time":6,"station_name":"Citayam","station_id":"CTA","is_transit":false,"i_long":106.800298,"line":2},{"time":5,"station_name":"Bojonggede","i_long":106.792719,"transit":false,"station_id":"BJD","line":2,"i_lat":-6.493243,"distance":5197,"is_transit":false},{"i_long":106.800016,"station_name":"Cilebut","transit":false,"is_transit":false,"line":2,"distance":4331,"i_lat":-6.530544,"time":5,"station_id":"CLT"}],[{"station_name":"Tambun","is_transit":false,"time":0,"i_long":107.055722,"distance":0,"i_lat":-6.258864,"line":1,"station_id":"TB","transit":false},{"station_id":"BKST","i_long":107.016735,"is_transit":false,"i_lat":-6.248029,"time":7,"distance":4460,"line":1,"transit":false,"station_name":"Bekasi Timur"},{"is_transit":false,"i_long":106.997013,"distance":2368,"time":2,"station_id":"BKS","transit":false,"station_name":"Bekasi","i_lat":-6.236616,"line":1},{"is_transit":false,"i_lat":-6.224515,"i_long":106.977657,"station_id":"KRI","line":1,"time":4,"station_name":"Kranji","distance":2520,"transit":false},{"i_lat":-6.219053,"i_long":106.951283,"station_name":"Cakung","is_transit":false,"transit":false,"time":3,"line":1,"station_id":"CUK","distance":3097},{"station_id":"KLDB","line":1,"transit":false,"time":8,"i_lat":-6.217455,"station_name":"Klenderbaru","i_long":106.939679,"distance":1385,"is_transit":false},{"station_name":"Buaran","distance":1305,"line":1,"transit":false,"is_transit":false,"station_id":"BUA","i_long":106.922662,"i_lat":-6.215568,"time":1},{"is_transit":false,"i_long":106.899548,"line":1,"station_id":"KLD","station_name":"Klender","transit":false,"i_lat":-6.2135,"time":2,"distance":3100},{"distance":3395,"i_long":106.86807400000001,"line":1,"transit":true,"time":3,"station_id":"JNG","i_lat":-6.215091,"is_transit":true,"station_name":"Jatinegara"},{"line":11,"station_name":"Pondok Jati","is_transit":false,"distance":1236,"time":2,"transit":false,"station_id":"POK","i_long":106.861737,"i_lat":-6.209188},{"distance":1829,"time":2,"i_lat":-6.193792,"line":11,"station_id":"KMT","is_transit":false,"i_long":106.855437,"station_name":"Kramat","transit":false},{"is_transit":false,"time":1,"station_name":"Gang Sentiong","i_long":106.850107,"i_lat":-6.185975,"station_id":"GST","distance":973,"transit":false,"line":11},{"station_name":"Pasar Senen","time":8,"i_lat":-6.174784,"distance":1567,"station_id":"PSE","line":11,"is_transit":false,"i_long":106.84368,"transit":false},{"station_id":"KMO","is_transit":false,"time":4,"line":11,"distance":1436,"station_name":"Kemayoran","i_lat":-6.161728,"transit":false,"i_long":106.839204},{"transit":false,"line":11,"is_transit":false,"time":5,"station_id":"RJW","i_long":106.836569,"distance":1901,"i_lat":-6.14505,"station_name":"Rajawali"},{"i_long":106.826365,"station_name":"Kampung Bandan","distance":1444,"time":3,"station_id":"KPB","i_lat":-6.132549,"line":4,"is_transit":true,"transit":true},{"transit":false,"station_id":"AK","distance":4102,"time":9,"station_name":"Angke","i_long":106.79867,"i_lat":-6.144674,"is_transit":false,"line":1},{"line":1,"station_id":"DU","distance":1230,"is_transit":false,"station_name":"Duri","time":4,"i_lat":-6.155215,"i_long":106.800832,"transit":false},{"i_long":106.811091,"line":1,"station_name":"Tanah Abang","is_transit":false,"i_lat":-6.185545,"transit":false,"distance":3632,"time":8,"station_id":"THB"},{"distance":2029,"line":1,"transit":false,"i_lat":-6.20132,"i_long":106.816351,"station_id":"KAT","is_transit":false,"time":5,"station_name":"Karet"},{"i_lat":-6.201433,"transit":false,"time":1,"line":1,"is_transit":false,"distance":471,"i_long":106.819881,"station_name":"Sudirman Baru","station_id":"SUDB"},{"is_transit":false,"station_id":"SUD","i_long":106.822649,"i_lat":-6.202263,"transit":false,"station_name":"Sudirman","line":1,"time":1,"distance":280},{"i_lat":-6.209883,"is_transit":true,"line":2,"i_long":106.84912,"station_id":"MRI","transit":true,"distance":3186,"station_name":"Manggarai","time":4},{"station_name":"Tebet","i_lat":-6.226659,"transit":false,"time":4,"station_id":"TEB","i_long":106.857948,"distance":2610,"line":2,"is_transit":false},{"station_name":"Cawang","i_lat":-6.242512,"i_long":106.856607,"transit":false,"is_transit":false,"line":2,"distance":1230,"time":2,"station_id":"CW"},{"station_id":"DRN","station_name":"Duren Kalibata","i_lat":-6.255332,"line":2,"is_transit":false,"time":3,"distance":1546,"transit":false,"i_long":106.85449},{"station_name":"Pasar Minggu Baru","time":2,"i_lat":-6.263214,"i_long":106.851577,"transit":false,"line":2,"distance":824,"is_transit":false,"station_id":"PSMB"},{"time":2,"is_transit":false,"station_name":"Pasar Minggu","distance":2380,"i_long":106.843999,"line":2,"station_id":"PSM","transit":false,"i_lat":-6.2842400000000005},{"station_id":"TNT","transit":false,"time":4,"i_long":106.838896,"is_transit":false,"distance":2820,"station_name":"Tanjung Barat","i_lat":-6.3080680000000005,"line":2},{"station_id":"LNA","transit":false,"distance":2671,"line":2,"i_lat":-6.330363,"time":3,"is_transit":false,"station_name":"Lenteng Agung","i_long":106.832616},{"distance":1029,"i_lat":-6.339291,"time":2,"transit":false,"station_name":"Univ. Pancasila","station_id":"UP","i_long":106.834175,"line":2,"is_transit":false},{"i_long":106.831474,"i_lat":-6.360749,"transit":false,"station_name":"Univ. Indonesia","time":3,"station_id":"UI","is_transit":false,"line":2,"distance":2264},{"station_id":"POC","distance":1109,"station_name":"Pondok Cina","line":2,"is_transit":false,"time":2,"i_long":106.831114,"transit":false,"i_lat":-6.369073},{"i_lat":-6.391065,"i_long":106.819451,"distance":2727,"station_name":"Depokbaru","transit":false,"station_id":"DPB","line":2,"time":4,"is_transit":false},{"i_lat":-6.405256,"station_name":"Depok","transit":false,"time":3,"is_transit":false,"line":2,"i_long":106.816926,"distance":1584,"station_id":"DP"},{"i_lat":-6.448811,"is_transit":false,"station_name":"Citayam","transit":false,"distance":5084,"i_long":106.800298,"line":2,"time":6,"station_id":"CTA"},{"i_long":106.792719,"time":5,"is_transit":false,"station_id":"BJD","line":2,"station_name":"Bojonggede","i_lat":-6.493243,"transit":false,"distance":5197},{"is_transit":false,"distance":4331,"station_id":"CLT","station_name":"Cilebut","i_long":106.800016,"time":5,"i_lat":-6.530544,"line":2,"transit":false}],[{"i_lat":-6.258864,"transit":false,"is_transit":false,"station_name":"Tambun","line":1,"distance":0,"time":0,"i_long":107.055722,"station_id":"TB"},{"i_lat":-6.248029,"is_transit":false,"time":7,"station_id":"BKST","transit":false,"distance":4460,"station_name":"Bekasi Timur","i_long":107.016735,"line":1},{"is_transit":false,"station_name":"Bekasi","time":2,"i_long":106.997013,"line":1,"distance":2368,"i_lat":-6.236616,"station_id":"BKS","transit":false},{"transit":false,"i_long":106.977657,"station_id":"KRI","i_lat":-6.224515,"distance":2520,"is_transit":false,"line":1,"station_name":"Kranji","time":4},{"i_long":106.951283,"station_name":"Cakung","time":3,"is_transit":false,"distance":3097,"i_lat":-6.219053,"transit":false,"line":1,"station_id":"CUK"},{"distance":1385,"transit":false,"station_name":"Klenderbaru","station_id":"KLDB","line":1,"time":8,"i_lat":-6.217455,"i_long":106.939679,"is_transit":false},{"is_transit":false,"i_lat":-6.215568,"transit":false,"distance":1305,"i_long":106.922662,"time":1,"station_id":"BUA","line":1,"station_name":"Buaran"},{"i_lat":-6.2135,"time":2,"transit":false,"line":1,"station_name":"Klender","station_id":"KLD","i_long":106.899548,"is_transit":false,"distance":3100},{"station_id":"JNG","i_lat":-6.215091,"transit":true,"distance":3395,"i_long":106.86807400000001,"line":1,"is_transit":true,"time":3,"station_name":"Jatinegara"},{"line":11,"is_transit":false,"station_name":"Pondok Jati","transit":false,"i_lat":-6.209188,"station_id":"POK","time":2,"distance":1236,"i_long":106.861737},{"is_transit":false,"distance":1829,"time":2,"station_id":"KMT","i_lat":-6.193792,"i_long":106.855437,"line":11,"transit":false,"station_name":"Kramat"},{"transit":false,"is_transit":false,"distance":973,"time":1,"station_id":"GST","i_long":106.850107,"line":11,"i_lat":-6.185975,"station_name":"Gang Sentiong"},{"line":11,"is_transit":false,"distance":1567,"i_lat":-6.174784,"transit":false,"station_name":"Pasar Senen","time":8,"i_long":106.84368,"station_id":"PSE"},{"line":11,"is_transit":false,"distance":1436,"time":4,"station_name":"Kemayoran","station_id":"KMO","i_long":106.839204,"transit":false,"i_lat":-6.161728},{"station_name":"Rajawali","is_transit":false,"station_id":"RJW","distance":1901,"i_lat":-6.14505,"time":5,"i_long":106.836569,"line":11,"transit":false},{"time":3,"station_id":"KPB","distance":1444,"station_name":"Kampung Bandan","is_transit":true,"i_long":106.826365,"line":4,"i_lat":-6.132549,"transit":true},{"line":2,"is_transit":true,"time":3,"station_name":"Jakarta Kota","i_lat":-6.137569,"station_id":"JAKK","transit":true,"i_long":106.812439,"distance":1364},{"transit":false,"time":4,"station_id":"JAY","i_lat":-6.141205,"i_long":106.820901,"line":2,"is_transit":false,"distance":1264,"station_name":"Jayakarta"},{"station_id":"MGB","i_long":106.82482,"line":2,"transit":false,"is_transit":false,"distance":1080,"station_name":"Manggabesar","time":2,"i_lat":-6.149769},{"distance":906,"station_name":"Sawah Besar","station_id":"SW","i_lat":-6.160725,"time":2,"line":2,"is_transit":false,"i_long":106.827103,"transit":false},{"line":2,"transit":false,"is_transit":false,"distance":1149,"i_lat":-6.166716,"station_name":"Juanda","time":2,"i_long":106.828284,"station_id":"JUA"},{"station_id":"GDD","time":4,"transit":false,"station_name":"Gondangdia","distance":2015,"i_lat":-6.186295,"i_long":106.832183,"is_transit":false,"line":2},{"i_long":106.840169,"line":2,"station_name":"Cikini","station_id":"CKI","i_lat":-6.198556,"transit":false,"time":3,"distance":1750,"is_transit":false},{"time":4,"station_id":"MRI","transit":false,"is_transit":false,"i_lat":-6.209883,"i_long":106.84912,"station_name":"Manggarai","distance":1590,"line":2},{"distance":2610,"line":2,"i_lat":-6.226659,"time":4,"station_name":"Tebet","is_transit":false,"i_long":106.857948,"transit":false,"station_id":"TEB"},{"transit":false,"distance":1230,"time":2,"is_transit":false,"station_name":"Cawang","station_id":"CW","i_long":106.856607,"i_lat":-6.242512,"line":2},{"transit":false,"distance":1546,"i_lat":-6.255332,"time":3,"station_name":"Duren Kalibata","i_long":106.85449,"is_transit":false,"station_id":"DRN","line":2},{"i_long":106.851577,"line":2,"time":2,"station_id":"PSMB","distance":824,"station_name":"Pasar Minggu Baru","transit":false,"i_lat":-6.263214,"is_transit":false},{"time":2,"station_id":"PSM","station_name":"Pasar Minggu","transit":false,"distance":2380,"i_lat":-6.2842400000000005,"i_long":106.843999,"is_transit":false,"line":2},{"transit":false,"station_name":"Tanjung Barat","i_lat":-6.3080680000000005,"time":4,"i_long":106.838896,"line":2,"station_id":"TNT","is_transit":false,"distance":2820},{"i_lat":-6.330363,"time":3,"transit":false,"is_transit":false,"distance":2671,"station_id":"LNA","station_name":"Lenteng Agung","i_long":106.832616,"line":2},{"station_id":"UP","line":2,"is_transit":false,"i_long":106.834175,"distance":1029,"station_name":"Univ. Pancasila","time":2,"transit":false,"i_lat":-6.339291},{"i_lat":-6.360749,"line":2,"i_long":106.831474,"distance":2264,"transit":false,"is_transit":false,"time":3,"station_name":"Univ. Indonesia","station_id":"UI"},{"is_transit":false,"station_name":"Pondok Cina","distance":1109,"time":2,"line":2,"i_long":106.831114,"transit":false,"station_id":"POC","i_lat":-6.369073},{"i_long":106.819451,"station_name":"Depokbaru","distance":2727,"time":4,"is_transit":false,"station_id":"DPB","transit":false,"i_lat":-6.391065,"line":2},{"is_transit":false,"i_long":106.816926,"station_id":"DP","line":2,"transit":false,"i_lat":-6.405256,"time":3,"station_name":"Depok","distance":1584},{"station_id":"CTA","is_transit":false,"time":6,"i_long":106.800298,"transit":false,"distance":5084,"station_name":"Citayam","i_lat":-6.448811,"line":2},{"i_long":106.792719,"transit":false,"i_lat":-6.493243,"is_transit":false,"station_name":"Bojonggede","time":5,"station_id":"BJD","distance":5197,"line":2},{"distance":4331,"time":5,"i_lat":-6.530544,"station_name":"Cilebut","is_transit":false,"line":2,"i_long":106.800016,"transit":false,"station_id":"CLT"}]]}