{"data":[[{"time":0,"i_long":107.055722,"distance":0,"station_id":"TB","is_transit":false,"station_name":"Tambun","transit":false,"i_lat":-6.258864,"line":1},{"station_name":"Bekasi Timur","station_id":"BKST","time":7,"transit":false,"distance":4460,"i_lat":-6.248029,"i_long":107.016735,"is_transit":false,"line":1},{"is_transit":false,"line":1,"station_id":"BKS","distance":2368,"transit":false,"i_long":106.997013,"station_name":"Bekasi","time":2,"i_lat":-6.236616},{"i_lat":-6.224515,"transit":false,"station_id":"KRI","i_long":106.977657,"distance":2520,"line":1,"time":4,"station_name":"Kranji","is_transit":false},{"station_id":"CUK","is_transit":false,"line":1,"i_lat":-6.219053,"distance":3097,"transit":false,"time":3,"station_name":"Cakung","i_long":106.951283},{"distance":1385,"line":1,"station_id":"KLDB","time":8,"is_transit":false,"transit":false,"i_lat":-6.217455,"i_long":106.939679,"station_name":"Klenderbaru"},{"station_id":"BUA","time":1,"i_long":106.922662,"line":1,"transit":false,"i_lat":-6.215568,"distance":1305,"is_transit":false,"station_name":"Buaran"},{"line":1,"i_long":106.899548,"time":2,"station_name":"Klender","i_lat":-6.2135,"distance":3100,"station_id":"KLD","is_transit":false,"transit":false},{"line":1,"time":3,"distance":3395,"transit":false,"i_lat":-6.215091,"is_transit":false,"i_long":106.86807400000001,"station_id":"JNG","station_name":"Jatinegara"},{"line":1,"time":2,"station_id":"MTR","transit":false,"is_transit":false,"i_lat":-6.212485,"distance":1377,"i_long":106.858896,"station_name":"Matraman"},{"distance":1275,"station_id":"MRI","line":2,"station_name":"Manggarai","time":2,"transit":true,"is_transit":true,"i_long":106.84912,"i_lat":-6.209883},{"time":4,"station_id":"CKI","line":2,"is_transit":false,"transit":false,"i_lat":-6.198556,"i_long":106.840169,"distance":1590,"station_name":"Cikini"}],[{"i_long":107.055722,"line":1,"distance":0,"is_transit":false,"station_name":"Tambun","i_lat":-6.258864,"station_id":"TB","time":0,"transit":false},{"i_long":107.016735,"time":7,"is_transit":false,"line":1,"station_id":"BKST","transit":false,"distance":4460,"station_name":"Bekasi Timur","i_lat":-6.248029},{"station_id":"BKS","station_name":"Bekasi","is_transit":false,"i_lat":-6.236616,"i_long":106.997013,"time":2,"transit":false,"distance":2368,"line":1},{"station_id":"KRI","i_lat":-6.224515,"i_long":106.977657,"time":4,"line":1,"distance":2520,"is_transit":false,"transit":false,"station_name":"Kranji"},{"station_id":"CUK","line":1,"i_lat":-6.219053,"time":3,"transit":false,"distance":3097,"i_long":106.951283,"station_name":"Cakung","is_transit":false},{"station_name":"Klenderbaru","transit":false,"distance":1385,"i_long":106.939679,"station_id":"KLDB","is_transit":false,"i_lat":-6.217455,"line":1,"time":8},{"time":1,"distance":1305,"i_long":106.922662,"line":1,"is_transit":false,"transit":false,"station_id":"BUA","station_name":"Buaran","i_lat":-6.215568},{"line":1,"station_name":"Klender","i_lat":-6.2135,"distance":3100,"time":2,"is_transit":false,"transit":false,"i_long":106.899548,"station_id":"KLD"},{"time":3,"i_lat":-6.215091,"station_name":"Jatinegara","is_transit":true,"distance":3395,"station_id":"JNG","transit":true,"i_long":106.86807400000001,"line":1},{"is_transit":false,"i_lat":-6.209188,"i_long":106.861737,"time":2,"line":11,"station_name":"Pondok Jati","station_id":"POK","transit":false,"distance":1236},{"station_name":"Kramat","distance":1829,"transit":false,"is_transit":false,"station_id":"KMT","time":2,"i_lat":-6.193792,"i_long":106.855437,"line":11},{"distance":973,"is_transit":false,"line":11,"time":1,"transit":false,"station_name":"Gang Sentiong","i_lat":-6.185975,"i_long":106.850107,"station_id":"GST"},{"line":11,"time":8,"distance":1567,"is_transit":false,"i_lat":-6.174784,"station_name":"Pasar Senen","transit":false,"station_id":"PSE","i_long":106.84368},{"distance":1436,"transit":false,"time":4,"line":11,"i_long":106.839204,"is_transit":false,"station_name":"Kemayoran","station_id":"KMO","i_lat":-6.161728},{"i_lat":-6.14505,"i_long":106.836569,"station_name":"Rajawali","time":5,"transit":false,"line":11,"distance":1901,"station_id":"RJW","is_transit":false},{"distance":1444,"is_transit":true,"transit":true,"line":4,"time":3,"i_lat":-6.132549,"i_long":106.826365,"station_name":"Kampung Bandan","station_id":"KPB"},{"i_lat":-6.137569,"station_name":"Jakarta Kota","station_id":"JAKK","is_transit":true,"i_long":106.812439,"line":2,"distance":1364,"time":3,"transit":true},{"time":4,"transit":false,"distance":1264,"is_transit":false,"i_lat":-6.141205,"line":2,"station_name":"Jayakarta","station_id":"JAY","i_long":106.820901},{"time":2,"i_long":106.82482,"transit":false,"distance":1080,"station_id":"MGB","station_name":"Manggabesar","line":2,"is_transit":false,"i_lat":-6.149769},{"line":2,"time":2,"i_long":106.827103,"station_name":"Sawah Besar","distance":906,"is_transit":false,"transit":false,"station_id":"SW","i_lat":-6.160725},{"time":2,"distance":1149,"is_transit":false,"transit":false,"i_lat":-6.166716,"station_id":"JUA","i_long":106.828284,"line":2,"station_name":"Juanda"},{"time":4,"station_name":"Gondangdia","line":2,"i_lat":-6.186295,"distance":2015,"is_transit":false,"station_id":"GDD","transit":false,"i_long":106.832183},{"time":3,"line":2,"is_transit":false,"transit":false,"station_name":"Cikini","i_lat":-6.198556,"station_id":"CKI","distance":1750,"i_long":106.840169}],[{"distance":0,"station_id":"TB","time":0,"i_long":107.055722,"i_lat":-6.258864,"transit":false,"is_transit":false,"line":1,"station_name":"Tambun"},{"line":1,"is_transit":false,"station_id":"BKST","i_long":107.016735,"distance":4460,"station_name":"Bekasi Timur","time":7,"transit":false,"i_lat":-6.248029},{"station_id":"BKS","is_transit":false,"distance":2368,"line":1,"transit":false,"time":2,"station_name":"Bekasi","i_long":106.997013,"i_lat":-6.236616},{"time":4,"i_lat":-6.224515,"station_id":"KRI","is_transit":false,"transit":false,"station_name":"Kranji","i_long":106.977657,"distance":2520,"line":1},{"transit":false,"station_name":"Cakung","is_transit":false,"i_lat":-6.219053,"line":1,"i_long":106.951283,"distance":3097,"time":3,"station_id":"CUK"},{"time":8,"i_long":106.939679,"line":1,"transit":false,"i_lat":-6.217455,"is_transit":false,"distance":1385,"station_id":"KLDB","station_name":"Klenderbaru"},{"i_lat":-6.215568,"station_name":"Buaran","is_transit":false,"station_id":"BUA","transit":false,"distance":1305,"line":1,"time":1,"i_long":106.922662},{"time":2,"station_id":"KLD","line":1,"distance":3100,"i_lat":-6.2135,"station_name":"Klender","i_long":106.899548,"transit":false,"is_transit":false},{"station_id":"JNG","station_name":"Jatinegara","i_long":106.86807400000001,"transit":true,"is_transit":true,"distance":3395,"i_lat":-6.215091,"time":3,"line":1},{"time":2,"distance":1236,"i_long":106.861737,"station_name":"Pondok Jati","transit":false,"is_transit":false,"i_lat":-6.209188,"line":11,"station_id":"POK"},{"station_id":"KMT","time":2,"transit":false,"distance":1829,"station_name":"Kramat","is_transit":false,"i_long":106.855437,"line":11,"i_lat":-6.193792},{"is_transit":false,"transit":false,"station_name":"Gang Sentiong","i_lat":-6.185975,"i_long":106.850107,"station_id":"GST","time":1,"distance":973,"line":11},{"is_transit":false,"station_name":"Pasar Senen","transit":false,"station_id":"PSE","time":8,"line":11,"distance":1567,"i_long":106.84368,"i_lat":-6.174784},{"distance":1436,"station_name":"Kemayoran","is_transit":false,"i_long":106.839204,"line":11,"station_id":"KMO","i_lat":-6.161728,"transit":false,"time":4},{"i_lat":-6.14505,"i_long":106.836569,"line":11,"station_name":"Rajawali","station_id":"RJW","is_transit":false,"time":5,"distance":1901,"transit":false},{"station_id":"KPB","is_transit":true,"distance":1444,"i_lat":-6.132549,"line":4,"i_long":106.826365,"transit":true,"time":3,"station_name":"Kampung Bandan"},{"is_transit":false,"time":9,"distance":4102,"i_long":106.79867,"station_name":"Angke","line":1,"transit":false,"station_id":"AK","i_lat":-6.144674},{"time":4,"station_name":"Duri","i_lat":-6.155215,"is_transit":false,"distance":1230,"line":1,"transit":false,"i_long":106.800832,"station_id":"DU"},{"station_id":"THB","station_name":"Tanah Abang","is_transit":false,"distance":3632,"time":8,"i_long":106.811091,"i_lat":-6.185545,"line":1,"transit":false},{"line":1,"distance":2029,"transit":false,"time":5,"station_name":"Karet","is_transit":false,"i_lat":-6.20132,"i_long":106.816351,"station_id":"KAT"},{"station_id":"SUDB","transit":false,"distance":471,"is_transit":false,"i_lat":-6.201433,"time":1,"station_name":"Sudirman Baru","i_long":106.819881,"line":1},{"i_lat":-6.202263,"transit":false,"station_name":"Sudirman","is_transit":false,"distance":280,"station_id":"SUD","i_long":106.822649,"line":1,"time":1},{"transit":true,"i_long":106.84912,"station_name":"Manggarai","is_transit":true,"distance":3186,"line":2,"time":4,"i_lat":-6.209883,"station_id":"MRI"},{"i_long":106.840169,"is_transit":false,"station_id":"CKI","time":4,"transit":false,"station_name":"Cikini","distance":1590,"line":2,"i_lat":-6.198556}],[{"i_lat":-6.258864,"is_transit":false,"i_long":107.055722,"station_name":"Tambun","station_id":"TB","line":1,"transit":false,"time":0,"distance":0},{"transit":false,"i_long":107.016735,"line":1,"time":7,"station_name":"Bekasi Timur","is_transit":false,"distance":4460,"station_id":"BKST","i_lat":-6.248029},{"distance":2368,"line":1,"i_long":106.997013,"transit":false,"i_lat":-6.236616,"station_name":"Bekasi","station_id":"BKS","is_transit":false,"time":2},{"line":1,"station_id":"KRI","transit":false,"i_lat":-6.224515,"is_transit":false,"station_name":"Kranji","time":4,"i_long":106.977657,"distance":2520},{"time":3,"transit":false,"is_transit":false,"station_id":"CUK","line":1,"station_name":"Cakung","distance":3097,"i_lat":-6.219053,"i_long":106.951283},{"i_lat":-6.217455,"distance":1385,"time":8,"is_transit":false,"transit":false,"line":1,"station_id":"KLDB","station_name":"Klenderbaru","i_long":106.939679},{"station_name":"Buaran","distance":1305,"i_long":106.922662,"time":1,"transit":false,"line":1,"station_id":"BUA","i_lat":-6.215568,"is_transit":false},{"transit":false,"distance":3100,"station_id":"KLD","station_name":"Klender","time":2,"i_long":106.899548,"line":1,"i_lat":-6.2135,"is_transit":false},{"i_lat":-6.215091,"transit":false,"station_id":"JNG","is_transit":false,"i_long":106.86807400000001,"line":1,"time":3,"station_name":"Jatinegara","distance":3395},{"distance":1377,"station_name":"Matraman","time":2,"station_id":"MTR","i_lat":-6.212485,"line":1,"transit":false,"is_transit":false,"i_long":106.858896},{"transit":false,"time":2,"station_name":"Manggarai","distance":1275,"station_id":"MRI","is_transit":false,"line":2,"i_lat":-6.209883,"i_long":106.84912},{"is_transit":false,"transit":false,"station_id":"SUD","station_name":"Sudirman","i_long":106.822649,"i_lat":-6.202263,"time":4,"line":1,"distance":3186},{"station_id":"SUDB","distance":280,"i_lat":-6.201433,"transit":false,"station_name":"Sudirman Baru","i_long":106.819881,"line":1,"is_transit":false,"time":1},{"distance":471,"is_transit":false,"station_name":"Karet","i_lat":-6.20132,"line":1,"i_long":106.816351,"station_id":"KAT","transit":false,"time":1},{"time":5,"i_lat":-6.185545,"station_name":"Tanah Abang","station_id":"THB","line":1,"is_transit":false,"i_long":106.811091,"distance":2029,"transit":false},{"time":8,"station_name":"Duri","distance":3632,"transit":false,"i_long":106.800832,"station_id":"DU","is_transit":false,"i_lat":-6.155215,"line":1},{"line":1,"station_id":"AK","i_long":106.79867,"transit":false,"is_transit":false,"station_name":"Angke","i_lat":-6.144674,"time":4,"distance":1230},{"distance":4102,"transit":true,"i_long":106.826365,"is_transit":true,"station_id":"KPB","station_name":"Kampung Bandan","i_lat":-6.132549,"time":9,"line":4},{"i_lat":-6.137569,"transit":true,"time":3,"station_id":"JAKK","i_long":106.812439,"station_name":"Jakarta Kota","is_transit":true,"distance":1364,"line":2},{"line":2,"is_transit":false,"time":4,"i_long":106.820901,"station_name":"Jayakarta","distance":1264,"i_lat":-6.141205,"transit":false,"station_id":"JAY"},{"transit":false,"station_id":"MGB","time":2,"i_long":106.82482,"i_lat":-6.149769,"distance":1080,"line":2,"station_name":"Manggabesar","is_transit":false},{"station_id":"SW","i_lat":-6.160725,"time":2,"transit":false,"station_name":"Sawah Besar","i_long":106.827103,"is_transit":false,"line":2,"distance":906},{"i_long":106.828284,"line":2,"is_transit":false,"distance":1149,"transit":false,"i_lat":-6.166716,"time":2,"station_id":"JUA","station_name":"Juanda"},{"line":2,"is_transit":false,"distance":2015,"station_name":"Gondangdia","i_lat":-6.186295,"i_long":106.832183,"transit":false,"station_id":"GDD","time":4},{"station_id":"CKI","transit":false,"station_name":"Cikini","is_transit":false,"time":3,"distance":1750,"i_long":106.840169,"i_lat":-6.198556,"line":2}]]}