{"data":[[{"i_long":107.055722,"station_id":"TB","is_transit":false,"i_lat":-6.258864,"time":0,"transit":false,"distance":0,"line":1,"station_name":"Tambun"},{"transit":false,"station_id":"BKST","distance":4460,"station_name":"Bekasi Timur","line":1,"time":7,"is_transit":false,"i_lat":-6.248029,"i_long":107.016735},{"i_lat":-6.236616,"i_long":106.997013,"station_name":"Bekasi","station_id":"BKS","is_transit":false,"time":2,"line":1,"transit":false,"distance":2368},{"transit":false,"station_name":"Kranji","station_id":"KRI","is_transit":false,"distance":2520,"i_long":106.977657,"line":1,"time":4,"i_lat":-6.224515},{"distance":3097,"i_long":106.951283,"line":1,"time":3,"transit":false,"station_id":"CUK","station_name":"Cakung","is_transit":false,"i_lat":-6.219053},{"line":1,"station_id":"KLDB","is_transit":false,"time":8,"transit":false,"i_lat":-6.217455,"station_name":"Klenderbaru","distance":1385,"i_long":106.939679},{"i_long":106.922662,"time":1,"is_transit":false,"transit":false,"distance":1305,"i_lat":-6.215568,"line":1,"station_name":"Buaran","station_id":"BUA"},{"i_long":106.899548,"station_id":"KLD","station_name":"Klender","time":2,"distance":3100,"is_transit":false,"line":1,"i_lat":-6.2135,"transit":false},{"distance":3395,"i_lat":-6.215091,"time":3,"i_long":106.86807400000001,"station_name":"Jatinegara","is_transit":false,"line":1,"transit":false,"station_id":"JNG"},{"i_lat":-6.212485,"time":2,"transit":false,"station_name":"Matraman","station_id":"MTR","distance":1377,"line":1,"i_long":106.858896,"is_transit":false},{"i_long":106.84912,"transit":false,"is_transit":false,"time":2,"line":2,"i_lat":-6.209883,"station_name":"Manggarai","station_id":"MRI","distance":1275},{"station_name":"Sudirman","time":4,"distance":3186,"i_lat":-6.202263,"station_id":"SUD","transit":false,"is_transit":false,"i_long":106.822649,"line":1},{"transit":false,"station_name":"Sudirman Baru","i_lat":-6.201433,"time":1,"distance":280,"i_long":106.819881,"line":1,"station_id":"SUDB","is_transit":false},{"distance":471,"station_id":"KAT","time":1,"i_long":106.816351,"is_transit":false,"station_name":"Karet","transit":false,"i_lat":-6.20132,"line":1},{"station_name":"Tanah Abang","station_id":"THB","distance":2029,"i_long":106.811091,"time":5,"i_lat":-6.185545,"is_transit":true,"line":1,"transit":true},{"i_lat":-6.207404,"transit":false,"station_id":"PLM","station_name":"Palmerah","time":6,"is_transit":false,"line":6,"i_long":106.79689,"distance":3191},{"distance":3737,"station_name":"Kebayoran","time":7,"line":6,"station_id":"KBY","is_transit":false,"i_lat":-6.237242,"transit":false,"i_long":106.780334},{"distance":6218,"i_long":106.74273,"station_id":"PDJ","is_transit":false,"i_lat":-6.276362,"line":6,"station_name":"Pondokranji","transit":false,"time":8},{"distance":2179,"station_name":"Jurangmangu","i_lat":-6.288927,"line":6,"station_id":"JMU","transit":false,"i_long":106.728916,"is_transit":false,"time":3},{"station_name":"Sudimara","i_long":106.712277,"line":6,"time":4,"is_transit":false,"transit":false,"i_lat":-6.296963,"station_id":"SDM","distance":1994},{"transit":false,"station_id":"RU","line":6,"is_transit":false,"i_lat":-6.314823,"i_long":106.675475,"time":6,"distance":4566,"station_name":"Rawa Buntu"},{"station_id":"SRP","i_long":106.66566,"station_name":"Serpong","transit":false,"line":6,"i_lat":-6.319871,"distance":2413,"time":4,"is_transit":false},{"time":4,"i_long":106.640411,"is_transit":false,"station_name":"Cisauk","line":3,"distance":1784,"transit":false,"station_id":"CSK","i_lat":-6.32484},{"transit":false,"station_id":"CC","i_long":106.617853,"line":3,"distance":2519,"time":4,"i_lat":-6.329547,"is_transit":false,"station_name":"Cicayur"},{"station_id":"PRP","i_lat":-6.3441410000000005,"i_long":106.568863,"is_transit":false,"line":6,"time":8,"station_name":"Parung Panjang","distance":5968,"transit":false},{"distance":7025,"station_id":"CJT","i_lat":-6.354349,"i_long":106.508482,"transit":false,"line":3,"station_name":"Cilejit","time":9,"is_transit":false},{"time":6,"is_transit":false,"i_long":106.491338,"line":0,"distance":2675,"station_id":"DAR","station_name":"Daru","transit":false,"i_lat":-6.338021},{"is_transit":false,"distance":3902,"station_id":"TEJ","time":5,"i_lat":-6.327251,"i_long":106.460812,"station_name":"Tenjo","line":6,"transit":false},{"distance":2974,"i_long":106.425991,"is_transit":false,"transit":false,"station_id":"TGS","i_lat":-6.328533,"station_name":"Tigaraksa","time":5,"line":6},{"i_long":106.411216,"is_transit":false,"line":3,"transit":false,"distance":2651,"station_name":"Cikoya","station_id":"CKY","i_lat":-6.33561,"time":3}],[{"i_long":107.055722,"time":0,"transit":false,"station_name":"Tambun","is_transit":false,"distance":0,"i_lat":-6.258864,"station_id":"TB","line":1},{"distance":4460,"time":7,"transit":false,"station_name":"Bekasi Timur","i_lat":-6.248029,"i_long":107.016735,"station_id":"BKST","is_transit":false,"line":1},{"distance":2368,"i_lat":-6.236616,"station_name":"Bekasi","is_transit":false,"line":1,"i_long":106.997013,"transit":false,"station_id":"BKS","time":2},{"station_id":"KRI","distance":2520,"transit":false,"station_name":"Kranji","i_lat":-6.224515,"i_long":106.977657,"line":1,"is_transit":false,"time":4},{"transit":false,"is_transit":false,"distance":3097,"time":3,"i_lat":-6.219053,"i_long":106.951283,"station_name":"Cakung","line":1,"station_id":"CUK"},{"i_long":106.939679,"station_name":"Klenderbaru","time":8,"line":1,"is_transit":false,"distance":1385,"station_id":"KLDB","i_lat":-6.217455,"transit":false},{"is_transit":false,"transit":false,"i_long":106.922662,"station_name":"Buaran","station_id":"BUA","i_lat":-6.215568,"line":1,"distance":1305,"time":1},{"line":1,"distance":3100,"is_transit":false,"transit":false,"i_lat":-6.2135,"station_id":"KLD","time":2,"station_name":"Klender","i_long":106.899548},{"is_transit":true,"station_name":"Jatinegara","time":3,"distance":3395,"i_long":106.86807400000001,"transit":true,"station_id":"JNG","i_lat":-6.215091,"line":1},{"i_long":106.861737,"distance":1236,"time":2,"is_transit":false,"transit":false,"station_id":"POK","i_lat":-6.209188,"line":11,"station_name":"Pondok Jati"},{"station_id":"KMT","line":11,"station_name":"Kramat","is_transit":false,"i_long":106.855437,"distance":1829,"i_lat":-6.193792,"transit":false,"time":2},{"distance":973,"station_name":"Gang Sentiong","is_transit":false,"i_lat":-6.185975,"line":11,"transit":false,"station_id":"GST","time":1,"i_long":106.850107},{"station_id":"PSE","i_lat":-6.174784,"is_transit":false,"line":11,"transit":false,"distance":1567,"time":8,"i_long":106.84368,"station_name":"Pasar Senen"},{"i_lat":-6.161728,"is_transit":false,"distance":1436,"time":4,"station_name":"Kemayoran","i_long":106.839204,"line":11,"transit":false,"station_id":"KMO"},{"i_lat":-6.14505,"is_transit":false,"time":5,"distance":1901,"i_long":106.836569,"line":11,"transit":false,"station_id":"RJW","station_name":"Rajawali"},{"i_lat":-6.132549,"i_long":106.826365,"station_name":"Kampung Bandan","distance":1444,"is_transit":true,"time":3,"transit":true,"station_id":"KPB","line":4},{"time":9,"line":1,"i_long":106.79867,"transit":false,"is_transit":false,"distance":4102,"station_name":"Angke","station_id":"AK","i_lat":-6.144674},{"i_lat":-6.155215,"distance":1230,"transit":false,"station_id":"DU","line":1,"i_long":106.800832,"time":4,"is_transit":false,"station_name":"Duri"},{"time":8,"station_name":"Tanah Abang","transit":true,"line":1,"i_lat":-6.185545,"station_id":"THB","is_transit":true,"i_long":106.811091,"distance":3632},{"i_long":106.79689,"station_id":"PLM","station_name":"Palmerah","is_transit":false,"distance":3191,"time":6,"line":6,"transit":false,"i_lat":-6.207404},{"is_transit":false,"time":7,"station_id":"KBY","station_name":"Kebayoran","distance":3737,"i_lat":-6.237242,"line":6,"transit":false,"i_long":106.780334},{"i_long":106.74273,"line":6,"distance":6218,"transit":false,"station_name":"Pondokranji","station_id":"PDJ","i_lat":-6.276362,"time":8,"is_transit":false},{"distance":2179,"line":6,"i_long":106.728916,"station_id":"JMU","i_lat":-6.288927,"station_name":"Jurangmangu","is_transit":false,"time":3,"transit":false},{"station_name":"Sudimara","is_transit":false,"station_id":"SDM","line":6,"time":4,"i_lat":-6.296963,"transit":false,"i_long":106.712277,"distance":1994},{"is_transit":false,"station_name":"Rawa Buntu","station_id":"RU","transit":false,"i_lat":-6.314823,"time":6,"line":6,"i_long":106.675475,"distance":4566},{"station_id":"SRP","transit":false,"station_name":"Serpong","time":4,"distance":2413,"i_lat":-6.319871,"i_long":106.66566,"line":6,"is_transit":false},{"station_id":"CSK","transit":false,"station_name":"Cisauk","is_transit":false,"time":4,"distance":1784,"i_lat":-6.32484,"line":3,"i_long":106.640411},{"time":4,"is_transit":false,"i_long":106.617853,"station_id":"CC","station_name":"Cicayur","i_lat":-6.329547,"line":3,"transit":false,"distance":2519},{"i_lat":-6.3441410000000005,"transit":false,"station_name":"Parung Panjang","i_long":106.568863,"line":6,"distance":5968,"station_id":"PRP","time":8,"is_transit":false},{"distance":7025,"i_lat":-6.354349,"line":3,"station_name":"Cilejit","is_transit":false,"transit":false,"station_id":"CJT","time":9,"i_long":106.508482},{"is_transit":false,"time":6,"distance":2675,"station_id":"DAR","i_lat":-6.338021,"i_long":106.491338,"transit":false,"line":0,"station_name":"Daru"},{"station_name":"Tenjo","time":5,"i_long":106.460812,"transit":false,"is_transit":false,"distance":3902,"station_id":"TEJ","i_lat":-6.327251,"line":6},{"i_lat":-6.328533,"station_id":"TGS","is_transit":false,"distance":2974,"i_long":106.425991,"station_name":"Tigaraksa","transit":false,"time":5,"line":6},{"i_lat":-6.33561,"line":3,"distance":2651,"i_long":106.411216,"station_name":"Cikoya","is_transit":false,"station_id":"CKY","time":3,"transit":false}],[{"is_transit":false,"i_lat":-6.258864,"i_long":107.055722,"line":1,"transit":false,"distance":0,"station_id":"TB","time":0,"station_name":"Tambun"},{"transit":false,"i_long":107.016735,"i_lat":-6.248029,"station_id":"BKST","time":7,"is_transit":false,"station_name":"Bekasi Timur","distance":4460,"line":1},{"time":2,"station_id":"BKS","transit":false,"i_long":106.997013,"distance":2368,"is_transit":false,"station_name":"Bekasi","line":1,"i_lat":-6.236616},{"transit":false,"distance":2520,"station_name":"Kranji","i_long":106.977657,"line":1,"i_lat":-6.224515,"is_transit":false,"time":4,"station_id":"KRI"},{"i_long":106.951283,"distance":3097,"i_lat":-6.219053,"transit":false,"line":1,"time":3,"station_name":"Cakung","station_id":"CUK","is_transit":false},{"is_transit":false,"station_id":"KLDB","i_lat":-6.217455,"i_long":106.939679,"line":1,"distance":1385,"transit":false,"station_name":"Klenderbaru","time":8},{"is_transit":false,"station_id":"BUA","i_long":106.922662,"line":1,"distance":1305,"i_lat":-6.215568,"time":1,"station_name":"Buaran","transit":false},{"distance":3100,"station_name":"Klender","is_transit":false,"station_id":"KLD","i_lat":-6.2135,"i_long":106.899548,"time":2,"transit":false,"line":1},{"i_lat":-6.215091,"station_name":"Jatinegara","time":3,"i_long":106.86807400000001,"transit":false,"line":1,"is_transit":false,"distance":3395,"station_id":"JNG"},{"distance":1377,"station_id":"MTR","time":2,"line":1,"i_lat":-6.212485,"is_transit":false,"i_long":106.858896,"transit":false,"station_name":"Matraman"},{"station_name":"Manggarai","is_transit":true,"distance":1275,"station_id":"MRI","i_long":106.84912,"line":2,"transit":true,"time":2,"i_lat":-6.209883},{"is_transit":false,"station_id":"CKI","line":2,"transit":false,"time":4,"i_long":106.840169,"station_name":"Cikini","i_lat":-6.198556,"distance":1590},{"is_transit":false,"station_name":"Gondangdia","i_lat":-6.186295,"i_long":106.832183,"station_id":"GDD","line":2,"time":3,"distance":1750,"transit":false},{"station_name":"Juanda","time":4,"station_id":"JUA","is_transit":false,"distance":2015,"transit":false,"i_lat":-6.166716,"i_long":106.828284,"line":2},{"i_lat":-6.160725,"transit":false,"time":2,"station_id":"SW","i_long":106.827103,"line":2,"is_transit":false,"distance":1149,"station_name":"Sawah Besar"},{"distance":906,"transit":false,"station_id":"MGB","time":2,"i_long":106.82482,"is_transit":false,"line":2,"i_lat":-6.149769,"station_name":"Manggabesar"},{"line":2,"transit":false,"distance":1080,"time":2,"station_id":"JAY","station_name":"Jayakarta","i_lat":-6.141205,"i_long":106.820901,"is_transit":false},{"distance":1264,"time":4,"station_id":"JAKK","i_long":106.812439,"station_name":"Jakarta Kota","is_transit":true,"transit":true,"i_lat":-6.137569,"line":2},{"station_id":"KPB","line":4,"i_long":106.826365,"transit":true,"time":3,"is_transit":true,"i_lat":-6.132549,"station_name":"Kampung Bandan","distance":1364},{"time":9,"transit":false,"i_lat":-6.144674,"i_long":106.79867,"line":1,"is_transit":false,"station_id":"AK","distance":4102,"station_name":"Angke"},{"transit":false,"station_id":"DU","is_transit":false,"distance":1230,"i_lat":-6.155215,"line":1,"station_name":"Duri","i_long":106.800832,"time":4},{"is_transit":true,"transit":true,"station_id":"THB","line":1,"i_long":106.811091,"time":8,"i_lat":-6.185545,"station_name":"Tanah Abang","distance":3632},{"time":6,"distance":3191,"station_name":"Palmerah","station_id":"PLM","transit":false,"i_long":106.79689,"i_lat":-6.207404,"line":6,"is_transit":false},{"transit":false,"line":6,"station_name":"Kebayoran","i_long":106.780334,"is_transit":false,"time":7,"i_lat":-6.237242,"distance":3737,"station_id":"KBY"},{"transit":false,"i_lat":-6.276362,"station_id":"PDJ","i_long":106.74273,"line":6,"station_name":"Pondokranji","time":8,"is_transit":false,"distance":6218},{"line":6,"is_transit":false,"station_id":"JMU","time":3,"i_lat":-6.288927,"distance":2179,"transit":false,"i_long":106.728916,"station_name":"Jurangmangu"},{"station_id":"SDM","i_long":106.712277,"is_transit":false,"line":6,"station_name":"Sudimara","i_lat":-6.296963,"distance":1994,"transit":false,"time":4},{"time":6,"i_long":106.675475,"transit":false,"i_lat":-6.314823,"station_id":"RU","distance":4566,"is_transit":false,"station_name":"Rawa Buntu","line":6},{"i_lat":-6.319871,"is_transit":false,"line":6,"i_long":106.66566,"station_id":"SRP","station_name":"Serpong","transit":false,"distance":2413,"time":4},{"i_long":106.640411,"time":4,"is_transit":false,"station_name":"Cisauk","transit":false,"station_id":"CSK","i_lat":-6.32484,"line":3,"distance":1784},{"station_name":"Cicayur","transit":false,"is_transit":false,"distance":2519,"i_long":106.617853,"station_id":"CC","time":4,"i_lat":-6.329547,"line":3},{"i_long":106.568863,"i_lat":-6.3441410000000005,"station_id":"PRP","is_transit":false,"time":8,"line":6,"station_name":"Parung Panjang","transit":false,"distance":5968},{"time":9,"i_lat":-6.354349,"is_transit":false,"station_name":"Cilejit","station_id":"CJT","i_long":106.508482,"transit":false,"line":3,"distance":7025},{"station_id":"DAR","distance":2675,"i_long":106.491338,"line":0,"transit":false,"i_lat":-6.338021,"station_name":"Daru","time":6,"is_transit":false},{"station_name":"Tenjo","line":6,"distance":3902,"station_id":"TEJ","i_long":106.460812,"time":5,"transit":false,"i_lat":-6.327251,"is_transit":false},{"station_name":"Tigaraksa","transit":false,"i_lat":-6.328533,"is_transit":false,"i_long":106.425991,"line":6,"distance":2974,"time":5,"station_id":"TGS"},{"time":3,"transit":false,"line":3,"is_transit":false,"distance":2651,"i_lat":-6.33561,"station_name":"Cikoya","i_long":106.411216,"station_id":"CKY"}],[{"i_lat":-6.258864,"distance":0,"time":0,"station_id":"TB","i_long":107.055722,"transit":false,"is_transit":false,"station_name":"Tambun","line":1},{"line":1,"transit":false,"distance":4460,"time":7,"station_id":"BKST","is_transit":false,"station_name":"Bekasi Timur","i_lat":-6.248029,"i_long":107.016735},{"station_name":"Bekasi","distance":2368,"station_id":"BKS","i_long":106.997013,"line":1,"i_lat":-6.236616,"transit":false,"time":2,"is_transit":false},{"line":1,"distance":2520,"transit":false,"time":4,"i_lat":-6.224515,"i_long":106.977657,"is_transit":false,"station_name":"Kranji","station_id":"KRI"},{"i_long":106.951283,"distance":3097,"i_lat":-6.219053,"line":1,"time":3,"station_id":"CUK","is_transit":false,"station_name":"Cakung","transit":false},{"time":8,"station_name":"Klenderbaru","station_id":"KLDB","line":1,"i_long":106.939679,"transit":false,"is_transit":false,"distance":1385,"i_lat":-6.217455},{"station_name":"Buaran","i_long":106.922662,"is_transit":false,"time":1,"station_id":"BUA","line":1,"distance":1305,"transit":false,"i_lat":-6.215568},{"station_name":"Klender","i_long":106.899548,"line":1,"i_lat":-6.2135,"is_transit":false,"distance":3100,"time":2,"transit":false,"station_id":"KLD"},{"is_transit":true,"transit":true,"time":3,"station_id":"JNG","i_long":106.86807400000001,"line":1,"station_name":"Jatinegara","distance":3395,"i_lat":-6.215091},{"distance":1236,"time":2,"transit":false,"i_lat":-6.209188,"i_long":106.861737,"station_name":"Pondok Jati","line":11,"is_transit":false,"station_id":"POK"},{"station_id":"KMT","station_name":"Kramat","time":2,"is_transit":false,"distance":1829,"i_lat":-6.193792,"line":11,"i_long":106.855437,"transit":false},{"transit":false,"i_long":106.850107,"line":11,"time":1,"i_lat":-6.185975,"station_id":"GST","distance":973,"station_name":"Gang Sentiong","is_transit":false},{"is_transit":false,"i_long":106.84368,"transit":false,"distance":1567,"station_id":"PSE","station_name":"Pasar Senen","time":8,"line":11,"i_lat":-6.174784},{"time":4,"station_name":"Kemayoran","distance":1436,"station_id":"KMO","i_lat":-6.161728,"i_long":106.839204,"line":11,"is_transit":false,"transit":false},{"distance":1901,"line":11,"i_lat":-6.14505,"station_name":"Rajawali","is_transit":false,"transit":false,"station_id":"RJW","time":5,"i_long":106.836569},{"distance":1444,"is_transit":true,"i_long":106.826365,"time":3,"station_id":"KPB","station_name":"Kampung Bandan","i_lat":-6.132549,"transit":true,"line":4},{"station_name":"Jakarta Kota","is_transit":true,"time":3,"i_long":106.812439,"station_id":"JAKK","line":2,"distance":1364,"transit":true,"i_lat":-6.137569},{"distance":1264,"is_transit":false,"time":4,"i_lat":-6.141205,"line":2,"station_name":"Jayakarta","transit":false,"station_id":"JAY","i_long":106.820901},{"i_long":106.82482,"transit":false,"is_transit":false,"station_id":"MGB","distance":1080,"i_lat":-6.149769,"station_name":"Manggabesar","line":2,"time":2},{"i_long":106.827103,"time":2,"distance":906,"i_lat":-6.160725,"station_id":"SW","is_transit":false,"transit":false,"line":2,"station_name":"Sawah Besar"},{"distance":1149,"transit":false,"is_transit":false,"line":2,"i_long":106.828284,"time":2,"station_id":"JUA","station_name":"Juanda","i_lat":-6.166716},{"station_name":"Gondangdia","station_id":"GDD","distance":2015,"i_long":106.832183,"time":4,"is_transit":false,"transit":false,"i_lat":-6.186295,"line":2},{"transit":false,"line":2,"station_id":"CKI","station_name":"Cikini","i_lat":-6.198556,"i_long":106.840169,"distance":1750,"time":3,"is_transit":false},{"time":4,"station_name":"Manggarai","distance":1590,"station_id":"MRI","is_transit":true,"i_lat":-6.209883,"i_long":106.84912,"transit":true,"line":2},{"station_id":"SUD","is_transit":false,"line":1,"i_long":106.822649,"transit":false,"time":4,"i_lat":-6.202263,"distance":3186,"station_name":"Sudirman"},{"distance":280,"station_name":"Sudirman Baru","time":1,"transit":false,"station_id":"SUDB","i_lat":-6.201433,"line":1,"i_long":106.819881,"is_transit":false},{"station_name":"Karet","is_transit":false,"station_id":"KAT","i_lat":-6.20132,"distance":471,"i_long":106.816351,"time":1,"line":1,"transit":false},{"line":1,"station_id":"THB","station_name":"Tanah Abang","i_long":106.811091,"distance":2029,"time":5,"is_transit":true,"transit":true,"i_lat":-6.185545},{"station_name":"Palmerah","line":6,"time":6,"i_long":106.79689,"distance":3191,"i_lat":-6.207404,"transit":false,"station_id":"PLM","is_transit":false},{"line":6,"transit":false,"is_transit":false,"time":7,"station_id":"KBY","distance":3737,"station_name":"Kebayoran","i_lat":-6.237242,"i_long":106.780334},{"is_transit":false,"line":6,"time":8,"i_long":106.74273,"i_lat":-6.276362,"station_name":"Pondokranji","station_id":"PDJ","distance":6218,"transit":false},{"line":6,"is_transit":false,"time":3,"distance":2179,"station_name":"Jurangmangu","i_long":106.728916,"transit":false,"station_id":"JMU","i_lat":-6.288927},{"is_transit":false,"distance":1994,"i_lat":-6.296963,"i_long":106.712277,"line":6,"station_name":"Sudimara","transit":false,"station_id":"SDM","time":4},{"distance":4566,"is_transit":false,"i_lat":-6.314823,"transit":false,"time":6,"i_long":106.675475,"line":6,"station_name":"Rawa Buntu","station_id":"RU"},{"time":4,"transit":false,"is_transit":false,"station_name":"Serpong","i_lat":-6.319871,"i_long":106.66566,"station_id":"SRP","line":6,"distance":2413},{"line":3,"is_transit":false,"transit":false,"distance":1784,"station_id":"CSK","station_name":"Cisauk","time":4,"i_lat":-6.32484,"i_long":106.640411},{"i_lat":-6.329547,"i_long":106.617853,"line":3,"is_transit":false,"time":4,"distance":2519,"station_name":"Cicayur","station_id":"CC","transit":false},{"station_name":"Parung Panjang","distance":5968,"i_lat":-6.3441410000000005,"transit":false,"station_id":"PRP","i_long":106.568863,"line":6,"is_transit":false,"time":8},{"distance":7025,"transit":false,"i_lat":-6.354349,"is_transit":false,"i_long":106.508482,"time":9,"station_name":"Cilejit","station_id":"CJT","line":3},{"distance":2675,"station_name":"Daru","i_lat":-6.338021,"is_transit":false,"line":0,"i_long":106.491338,"time":6,"station_id":"DAR","transit":false},{"transit":false,"distance":3902,"line":6,"station_id":"TEJ","i_long":106.460812,"i_lat":-6.327251,"is_transit":false,"station_name":"Tenjo","time":5},{"is_transit":false,"distance":2974,"time":5,"i_lat":-6.328533,"line":6,"station_id":"TGS","i_long":106.425991,"station_name":"Tigaraksa","transit":false},{"i_lat":-6.33561,"transit":false,"line":3,"distance":2651,"station_name":"Cikoya","i_long":106.411216,"is_transit":false,"time":3,"station_id":"CKY"}]]}