{"data":[[{"i_long":107.055722,"is_transit":false,"line":1,"distance":0,"time":0,"transit":false,"station_name":"Tambun","i_lat":-6.258864,"station_id":"TB"},{"line":1,"is_transit":false,"station_id":"BKST","distance":4460,"time":7,"i_long":107.016735,"i_lat":-6.248029,"station_name":"Bekasi Timur","transit":false},{"line":1,"station_id":"BKS","i_lat":-6.236616,"station_name":"Bekasi","is_transit":false,"transit":false,"i_long":106.997013,"time":2,"distance":2368},{"i_lat":-6.224515,"is_transit":false,"distance":2520,"station_id":"KRI","transit":false,"line":1,"time":4,"i_long":106.977657,"station_name":"Kranji"},{"i_lat":-6.219053,"station_name":"Cakung","station_id":"CUK","is_transit":false,"i_long":106.951283,"line":1,"time":3,"distance":3097,"transit":false},{"station_name":"Klenderbaru","is_transit":false,"distance":1385,"line":1,"i_long":106.939679,"time":8,"i_lat":-6.217455,"transit":false,"station_id":"KLDB"},{"station_name":"Buaran","transit":false,"station_id":"BUA","i_lat":-6.215568,"i_long":106.922662,"time":1,"distance":1305,"line":1,"is_transit":false},{"time":2,"transit":false,"i_lat":-6.2135,"station_id":"KLD","station_name":"Klender","i_long":106.899548,"distance":3100,"line":1,"is_transit":false},{"i_lat":-6.215091,"is_transit":false,"station_id":"JNG","station_name":"Jatinegara","distance":3395,"line":1,"transit":false,"time":3,"i_long":106.86807400000001},{"is_transit":false,"transit":false,"station_id":"MTR","distance":1377,"i_lat":-6.212485,"time":2,"station_name":"Matraman","i_long":106.858896,"line":1},{"i_lat":-6.209883,"line":2,"station_name":"Manggarai","distance":1275,"i_long":106.84912,"is_transit":true,"transit":true,"station_id":"MRI","time":2},{"i_long":106.840169,"distance":1590,"station_id":"CKI","is_transit":false,"i_lat":-6.198556,"station_name":"Cikini","line":2,"transit":false,"time":4}],[{"station_name":"Tambun","i_long":107.055722,"is_transit":false,"station_id":"TB","distance":0,"time":0,"line":1,"i_lat":-6.258864,"transit":false},{"line":1,"i_lat":-6.248029,"station_name":"Bekasi Timur","transit":false,"is_transit":false,"i_long":107.016735,"station_id":"BKST","time":7,"distance":4460},{"is_transit":false,"line":1,"transit":false,"distance":2368,"station_name":"Bekasi","time":2,"i_lat":-6.236616,"i_long":106.997013,"station_id":"BKS"},{"is_transit":false,"i_lat":-6.224515,"transit":false,"station_id":"KRI","station_name":"Kranji","time":4,"distance":2520,"i_long":106.977657,"line":1},{"i_lat":-6.219053,"line":1,"station_id":"CUK","distance":3097,"time":3,"transit":false,"station_name":"Cakung","is_transit":false,"i_long":106.951283},{"station_id":"KLDB","is_transit":false,"time":8,"distance":1385,"i_lat":-6.217455,"i_long":106.939679,"station_name":"Klenderbaru","transit":false,"line":1},{"i_long":106.922662,"line":1,"station_id":"BUA","station_name":"Buaran","is_transit":false,"transit":false,"time":1,"distance":1305,"i_lat":-6.215568},{"i_long":106.899548,"line":1,"distance":3100,"station_name":"Klender","transit":false,"station_id":"KLD","time":2,"i_lat":-6.2135,"is_transit":false},{"transit":true,"station_name":"Jatinegara","distance":3395,"is_transit":true,"i_long":106.86807400000001,"line":1,"station_id":"JNG","time":3,"i_lat":-6.215091},{"i_lat":-6.209188,"time":2,"station_name":"Pondok Jati","distance":1236,"line":11,"transit":false,"station_id":"POK","is_transit":false,"i_long":106.861737},{"line":11,"distance":1829,"i_lat":-6.193792,"time":2,"is_transit":false,"station_id":"KMT","transit":false,"station_name":"Kramat","i_long":106.855437},{"line":11,"distance":973,"transit":false,"i_long":106.850107,"i_lat":-6.185975,"is_transit":false,"station_id":"GST","station_name":"Gang Sentiong","time":1},{"time":8,"is_transit":false,"line":11,"station_name":"Pasar Senen","i_lat":-6.174784,"i_long":106.84368,"transit":false,"distance":1567,"station_id":"PSE"},{"i_long":106.839204,"line":11,"is_transit":false,"station_id":"KMO","station_name":"Kemayoran","time":4,"transit":false,"distance":1436,"i_lat":-6.161728},{"distance":1901,"station_id":"RJW","time":5,"i_long":106.836569,"transit":false,"is_transit":false,"i_lat":-6.14505,"line":11,"station_name":"Rajawali"},{"i_long":106.826365,"station_name":"Kampung Bandan","time":3,"line":4,"is_transit":true,"transit":true,"distance":1444,"station_id":"KPB","i_lat":-6.132549},{"transit":true,"is_transit":true,"i_long":106.812439,"time":3,"station_name":"Jakarta Kota","i_lat":-6.137569,"station_id":"JAKK","distance":1364,"line":2},{"distance":1264,"line":2,"time":4,"station_id":"JAY","i_long":106.820901,"is_transit":false,"station_name":"Jayakarta","transit":false,"i_lat":-6.141205},{"line":2,"i_long":106.82482,"transit":false,"is_transit":false,"station_id":"MGB","i_lat":-6.149769,"time":2,"distance":1080,"station_name":"Manggabesar"},{"station_name":"Sawah Besar","transit":false,"time":2,"is_transit":false,"distance":906,"i_long":106.827103,"line":2,"station_id":"SW","i_lat":-6.160725},{"transit":false,"station_name":"Juanda","is_transit":false,"time":2,"distance":1149,"i_lat":-6.166716,"station_id":"JUA","i_long":106.828284,"line":2},{"transit":false,"i_lat":-6.186295,"station_id":"GDD","i_long":106.832183,"time":4,"line":2,"distance":2015,"station_name":"Gondangdia","is_transit":false},{"line":2,"i_lat":-6.198556,"station_name":"Cikini","is_transit":false,"transit":false,"station_id":"CKI","distance":1750,"time":3,"i_long":106.840169}],[{"station_id":"TB","time":0,"i_lat":-6.258864,"line":1,"transit":false,"is_transit":false,"distance":0,"station_name":"Tambun","i_long":107.055722},{"station_name":"Bekasi Timur","time":7,"i_lat":-6.248029,"distance":4460,"i_long":107.016735,"is_transit":false,"transit":false,"line":1,"station_id":"BKST"},{"station_id":"BKS","distance":2368,"is_transit":false,"i_long":106.997013,"station_name":"Bekasi","line":1,"transit":false,"i_lat":-6.236616,"time":2},{"i_long":106.977657,"is_transit":false,"station_id":"KRI","transit":false,"time":4,"station_name":"Kranji","i_lat":-6.224515,"line":1,"distance":2520},{"i_long":106.951283,"station_id":"CUK","distance":3097,"i_lat":-6.219053,"line":1,"transit":false,"time":3,"is_transit":false,"station_name":"Cakung"},{"i_long":106.939679,"i_lat":-6.217455,"line":1,"distance":1385,"station_id":"KLDB","station_name":"Klenderbaru","transit":false,"time":8,"is_transit":false},{"is_transit":false,"i_long":106.922662,"time":1,"distance":1305,"station_name":"Buaran","line":1,"i_lat":-6.215568,"station_id":"BUA","transit":false},{"i_lat":-6.2135,"time":2,"station_id":"KLD","distance":3100,"station_name":"Klender","transit":false,"is_transit":false,"line":1,"i_long":106.899548},{"i_long":106.86807400000001,"time":3,"is_transit":true,"station_id":"JNG","distance":3395,"station_name":"Jatinegara","line":1,"i_lat":-6.215091,"transit":true},{"station_name":"Pondok Jati","i_long":106.861737,"station_id":"POK","time":2,"distance":1236,"is_transit":false,"i_lat":-6.209188,"line":11,"transit":false},{"i_lat":-6.193792,"distance":1829,"transit":false,"station_id":"KMT","time":2,"station_name":"Kramat","is_transit":false,"line":11,"i_long":106.855437},{"line":11,"time":1,"station_id":"GST","transit":false,"i_long":106.850107,"station_name":"Gang Sentiong","i_lat":-6.185975,"distance":973,"is_transit":false},{"distance":1567,"transit":false,"time":8,"i_long":106.84368,"i_lat":-6.174784,"line":11,"station_id":"PSE","station_name":"Pasar Senen","is_transit":false},{"time":4,"i_lat":-6.161728,"line":11,"station_id":"KMO","is_transit":false,"distance":1436,"station_name":"Kemayoran","i_long":106.839204,"transit":false},{"is_transit":false,"station_name":"Rajawali","i_long":106.836569,"time":5,"station_id":"RJW","transit":false,"line":11,"distance":1901,"i_lat":-6.14505},{"is_transit":true,"line":4,"time":3,"i_lat":-6.132549,"station_name":"Kampung Bandan","i_long":106.826365,"distance":1444,"transit":true,"station_id":"KPB"},{"station_name":"Angke","transit":false,"i_long":106.79867,"line":1,"time":9,"station_id":"AK","distance":4102,"i_lat":-6.144674,"is_transit":false},{"is_transit":false,"station_name":"Duri","time":4,"distance":1230,"i_lat":-6.155215,"station_id":"DU","transit":false,"i_long":106.800832,"line":1},{"station_id":"THB","transit":false,"is_transit":false,"i_lat":-6.185545,"i_long":106.811091,"time":8,"distance":3632,"line":1,"station_name":"Tanah Abang"},{"i_lat":-6.20132,"transit":false,"station_id":"KAT","is_transit":false,"station_name":"Karet","line":1,"time":5,"i_long":106.816351,"distance":2029},{"station_id":"SUDB","time":1,"is_transit":false,"i_lat":-6.201433,"i_long":106.819881,"station_name":"Sudirman Baru","line":1,"distance":471,"transit":false},{"is_transit":false,"station_id":"SUD","i_lat":-6.202263,"line":1,"transit":false,"i_long":106.822649,"station_name":"Sudirman","distance":280,"time":1},{"i_lat":-6.209883,"transit":true,"line":2,"i_long":106.84912,"distance":3186,"station_name":"Manggarai","station_id":"MRI","time":4,"is_transit":true},{"i_lat":-6.198556,"i_long":106.840169,"line":2,"distance":1590,"station_id":"CKI","transit":false,"time":4,"is_transit":false,"station_name":"Cikini"}],[{"i_long":107.055722,"station_id":"TB","distance":0,"station_name":"Tambun","transit":false,"is_transit":false,"time":0,"i_lat":-6.258864,"line":1},{"i_lat":-6.248029,"distance":4460,"station_name":"Bekasi Timur","time":7,"transit":false,"is_transit":false,"i_long":107.016735,"line":1,"station_id":"BKST"},{"transit":false,"distance":2368,"station_name":"Bekasi","station_id":"BKS","i_long":106.997013,"is_transit":false,"i_lat":-6.236616,"time":2,"line":1},{"station_id":"KRI","transit":false,"station_name":"Kranji","is_transit":false,"i_long":106.977657,"distance":2520,"time":4,"line":1,"i_lat":-6.224515},{"distance":3097,"time":3,"station_name":"Cakung","is_transit":false,"i_long":106.951283,"transit":false,"station_id":"CUK","i_lat":-6.219053,"line":1},{"i_long":106.939679,"distance":1385,"station_id":"KLDB","line":1,"transit":false,"time":8,"i_lat":-6.217455,"is_transit":false,"station_name":"Klenderbaru"},{"line":1,"time":1,"distance":1305,"station_name":"Buaran","transit":false,"is_transit":false,"i_lat":-6.215568,"station_id":"BUA","i_long":106.922662},{"line":1,"station_id":"KLD","i_lat":-6.2135,"is_transit":false,"transit":false,"i_long":106.899548,"station_name":"Klender","distance":3100,"time":2},{"line":1,"station_id":"JNG","distance":3395,"i_lat":-6.215091,"is_transit":false,"time":3,"station_name":"Jatinegara","transit":false,"i_long":106.86807400000001},{"distance":1377,"i_lat":-6.212485,"transit":false,"is_transit":false,"i_long":106.858896,"time":2,"station_id":"MTR","line":1,"station_name":"Matraman"},{"station_id":"MRI","i_long":106.84912,"is_transit":false,"transit":false,"distance":1275,"i_lat":-6.209883,"line":2,"time":2,"station_name":"Manggarai"},{"i_long":106.822649,"is_transit":false,"i_lat":-6.202263,"station_name":"Sudirman","station_id":"SUD","line":1,"transit":false,"time":4,"distance":3186},{"station_name":"Sudirman Baru","i_lat":-6.201433,"transit":false,"line":1,"time":1,"i_long":106.819881,"distance":280,"station_id":"SUDB","is_transit":false},{"i_lat":-6.20132,"is_transit":false,"line":1,"distance":471,"i_long":106.816351,"station_id":"KAT","station_name":"Karet","transit":false,"time":1},{"distance":2029,"transit":false,"station_name":"Tanah Abang","time":5,"is_transit":false,"i_lat":-6.185545,"line":1,"i_long":106.811091,"station_id":"THB"},{"transit":false,"station_id":"DU","time":8,"i_lat":-6.155215,"is_transit":false,"line":1,"i_long":106.800832,"station_name":"Duri","distance":3632},{"i_lat":-6.144674,"line":1,"i_long":106.79867,"station_id":"AK","station_name":"Angke","time":4,"distance":1230,"transit":false,"is_transit":false},{"line":4,"station_id":"KPB","distance":4102,"transit":true,"station_name":"Kampung Bandan","is_transit":true,"i_long":106.826365,"time":9,"i_lat":-6.132549},{"time":3,"station_name":"Jakarta Kota","i_long":106.812439,"line":2,"station_id":"JAKK","i_lat":-6.137569,"transit":true,"distance":1364,"is_transit":true},{"is_transit":false,"station_id":"JAY","distance":1264,"i_long":106.820901,"time":4,"line":2,"station_name":"Jayakarta","i_lat":-6.141205,"transit":false},{"transit":false,"station_name":"Manggabesar","line":2,"is_transit":false,"station_id":"MGB","distance":1080,"i_lat":-6.149769,"i_long":106.82482,"time":2},{"station_id":"SW","distance":906,"time":2,"transit":false,"is_transit":false,"i_lat":-6.160725,"station_name":"Sawah Besar","i_long":106.827103,"line":2},{"distance":1149,"transit":false,"is_transit":false,"i_lat":-6.166716,"i_long":106.828284,"station_name":"Juanda","time":2,"station_id":"JUA","line":2},{"distance":2015,"is_transit":false,"i_long":106.832183,"line":2,"transit":false,"time":4,"station_name":"Gondangdia","i_lat":-6.186295,"station_id":"GDD"},{"time":3,"i_long":106.840169,"i_lat":-6.198556,"is_transit":false,"line":2,"station_name":"Cikini","station_id":"CKI","distance":1750,"transit":false}]]}