{"data":[[{"distance":0,"transit":false,"i_long":107.055722,"line":1,"time":0,"is_transit":false,"station_id":"TB","i_lat":-6.258864,"station_name":"Tambun"},{"time":7,"line":0,"distance":4460,"i_long":107.016735,"is_transit":false,"station_name":"Bekasi Timur","station_id":"BKST","i_lat":-6.248029,"transit":false},{"distance":2368,"transit":false,"station_name":"Bekasi","is_transit":false,"line":0,"time":2,"i_long":106.997013,"station_id":"BKS","i_lat":-6.236616},{"station_id":"KRI","i_long":106.977657,"station_name":"Kranji","transit":false,"time":4,"i_lat":-6.224515,"distance":2520,"is_transit":false,"line":1},{"distance":3097,"station_name":"Cakung","transit":false,"station_id":"CUK","is_transit":false,"i_lat":-6.219053,"i_long":106.951283,"line":0,"time":3},{"transit":false,"station_id":"KLDB","station_name":"Klenderbaru","i_lat":-6.217455,"distance":1385,"time":8,"is_transit":false,"i_long":106.939679,"line":1},{"station_id":"BUA","is_transit":false,"line":0,"i_lat":-6.215568,"time":1,"i_long":106.922662,"distance":1305,"transit":false,"station_name":"Buaran"},{"distance":3100,"transit":false,"i_long":106.899548,"line":1,"station_name":"Klender","station_id":"KLD","i_lat":-6.2135,"is_transit":false,"time":2},{"line":0,"distance":3395,"transit":false,"is_transit":true,"time":3,"station_name":"Jatinegara","i_lat":-6.215091,"i_long":106.86807400000001,"station_id":"JNG"},{"time":2,"line":1,"is_transit":false,"transit":false,"i_long":106.858896,"distance":1377,"station_id":"MTR","i_lat":-6.212485,"station_name":"Matraman"},{"is_transit":true,"i_long":106.84912,"line":0,"time":2,"i_lat":-6.209883,"distance":1275,"transit":true,"station_name":"Manggarai","station_id":"MRI"},{"station_name":"Tebet","station_id":"TEB","line":2,"transit":false,"time":4,"is_transit":false,"distance":2610,"i_lat":-6.226659,"i_long":106.857948},{"distance":1230,"line":0,"transit":false,"station_id":"CW","is_transit":false,"station_name":"Cawang","i_long":106.856607,"i_lat":-6.242512,"time":2},{"line":0,"station_id":"DRN","is_transit":false,"distance":1546,"time":3,"transit":false,"i_lat":-6.255332,"i_long":106.85449,"station_name":"Duren Kalibata"},{"station_name":"Pasar Minggu Baru","i_long":106.851577,"line":2,"time":2,"distance":824,"i_lat":-6.263214,"station_id":"PSMB","is_transit":false,"transit":false},{"i_lat":-6.2842400000000005,"is_transit":false,"station_id":"PSM","distance":2380,"transit":false,"i_long":106.843999,"time":2,"station_name":"Pasar Minggu","line":2},{"transit":false,"is_transit":false,"time":4,"station_id":"TNT","station_name":"Tanjung Barat","i_lat":-6.3080680000000005,"line":2,"i_long":106.838896,"distance":2820},{"time":3,"distance":2671,"station_name":"Lenteng Agung","transit":false,"line":2,"station_id":"LNA","is_transit":false,"i_lat":-6.330363,"i_long":106.832616},{"i_long":106.834175,"distance":1029,"station_name":"Univ. Pancasila","station_id":"UP","line":2,"transit":false,"time":2,"i_lat":-6.339291,"is_transit":false},{"i_long":106.831474,"line":2,"time":3,"station_id":"UI","distance":2264,"is_transit":false,"station_name":"Univ. Indonesia","i_lat":-6.360749,"transit":false},{"is_transit":false,"station_id":"POC","transit":false,"station_name":"Pondok Cina","i_lat":-6.369073,"distance":1109,"i_long":106.831114,"line":2,"time":2},{"station_id":"DPB","i_lat":-6.391065,"i_long":106.819451,"distance":2727,"is_transit":false,"time":4,"station_name":"Depokbaru","transit":false,"line":0},{"station_id":"DP","line":0,"distance":1584,"station_name":"Depok","is_transit":false,"i_lat":-6.405256,"i_long":106.816926,"time":3,"transit":false},{"station_id":"CTA","station_name":"Citayam","distance":5084,"transit":false,"i_long":106.800298,"line":1,"is_transit":true,"time":6,"i_lat":-6.448811},{"is_transit":false,"i_lat":-6.493243,"distance":5197,"station_name":"Bojonggede","transit":false,"i_long":106.792719,"line":0,"time":5,"station_id":"BJD"},{"distance":4331,"station_name":"Cilebut","line":0,"station_id":"CLT","time":5,"i_long":106.800016,"is_transit":false,"transit":false,"i_lat":-6.530544}],[{"i_long":107.055722,"station_id":"TB","transit":false,"line":1,"station_name":"Tambun","time":0,"is_transit":false,"distance":0,"i_lat":-6.258864},{"i_lat":-6.248029,"station_id":"BKST","line":0,"distance":4460,"time":7,"i_long":107.016735,"station_name":"Bekasi Timur","transit":false,"is_transit":false},{"station_name":"Bekasi","station_id":"BKS","i_lat":-6.236616,"line":0,"is_transit":false,"i_long":106.997013,"transit":false,"time":2,"distance":2368},{"time":4,"line":1,"i_lat":-6.224515,"station_id":"KRI","is_transit":false,"i_long":106.977657,"station_name":"Kranji","transit":false,"distance":2520},{"is_transit":false,"time":3,"i_lat":-6.219053,"station_name":"Cakung","line":0,"i_long":106.951283,"station_id":"CUK","distance":3097,"transit":false},{"distance":1385,"i_long":106.939679,"i_lat":-6.217455,"transit":false,"line":1,"time":8,"is_transit":false,"station_name":"Klenderbaru","station_id":"KLDB"},{"distance":1305,"i_lat":-6.215568,"transit":false,"station_id":"BUA","i_long":106.922662,"station_name":"Buaran","line":0,"time":1,"is_transit":false},{"time":2,"is_transit":false,"transit":false,"station_id":"KLD","i_long":106.899548,"line":1,"i_lat":-6.2135,"station_name":"Klender","distance":3100},{"i_long":106.86807400000001,"line":0,"time":3,"station_name":"Jatinegara","i_lat":-6.215091,"is_transit":true,"distance":3395,"station_id":"JNG","transit":true},{"is_transit":false,"station_name":"Pondok Jati","i_long":106.861737,"station_id":"POK","line":11,"time":2,"distance":1236,"i_lat":-6.209188,"transit":false},{"i_long":106.855437,"line":11,"i_lat":-6.193792,"time":2,"transit":false,"distance":1829,"station_id":"KMT","station_name":"Kramat","is_transit":false},{"distance":973,"time":1,"station_name":"Gang Sentiong","transit":false,"station_id":"GST","is_transit":false,"i_lat":-6.185975,"i_long":106.850107,"line":11},{"is_transit":false,"distance":1567,"station_name":"Pasar Senen","i_long":106.84368,"time":8,"transit":false,"i_lat":-6.174784,"line":11,"station_id":"PSE"},{"line":11,"distance":1436,"transit":false,"station_name":"Kemayoran","i_lat":-6.161728,"time":4,"is_transit":false,"station_id":"KMO","i_long":106.839204},{"transit":false,"line":11,"i_lat":-6.14505,"station_id":"RJW","time":5,"is_transit":false,"distance":1901,"station_name":"Rajawali","i_long":106.836569},{"is_transit":true,"station_id":"KPB","i_lat":-6.132549,"i_long":106.826365,"distance":1444,"time":3,"transit":true,"line":0,"station_name":"Kampung Bandan"},{"time":9,"line":0,"i_long":106.79867,"transit":false,"distance":4102,"is_transit":false,"station_name":"Angke","station_id":"AK","i_lat":-6.144674},{"i_long":106.800832,"is_transit":true,"line":1,"transit":true,"station_name":"Duri","station_id":"DU","time":4,"distance":1230,"i_lat":-6.155215},{"time":8,"line":1,"station_id":"THB","station_name":"Tanah Abang","distance":3632,"i_long":106.811091,"transit":false,"is_transit":true,"i_lat":-6.185545},{"is_transit":false,"i_long":106.816351,"station_id":"KAT","distance":2029,"line":1,"time":5,"transit":false,"station_name":"Karet","i_lat":-6.20132},{"line":1,"time":1,"is_transit":false,"station_id":"SUDB","i_long":106.819881,"distance":471,"transit":false,"station_name":"Sudirman Baru","i_lat":-6.201433},{"time":1,"station_id":"SUD","i_lat":-6.202263,"is_transit":false,"distance":280,"line":1,"i_long":106.822649,"transit":false,"station_name":"Sudirman"},{"line":0,"is_transit":true,"i_long":106.84912,"station_name":"Manggarai","i_lat":-6.209883,"distance":3186,"transit":true,"time":4,"station_id":"MRI"},{"station_id":"TEB","time":4,"transit":false,"i_lat":-6.226659,"line":2,"i_long":106.857948,"station_name":"Tebet","is_transit":false,"distance":2610},{"distance":1230,"i_lat":-6.242512,"i_long":106.856607,"line":0,"is_transit":false,"station_id":"CW","station_name":"Cawang","time":2,"transit":false},{"is_transit":false,"i_lat":-6.255332,"line":0,"station_name":"Duren Kalibata","time":3,"distance":1546,"station_id":"DRN","transit":false,"i_long":106.85449},{"distance":824,"i_long":106.851577,"station_id":"PSMB","is_transit":false,"station_name":"Pasar Minggu Baru","i_lat":-6.263214,"time":2,"line":2,"transit":false},{"is_transit":false,"station_id":"PSM","transit":false,"line":2,"distance":2380,"i_long":106.843999,"station_name":"Pasar Minggu","time":2,"i_lat":-6.2842400000000005},{"station_name":"Tanjung Barat","station_id":"TNT","time":4,"i_long":106.838896,"line":2,"is_transit":false,"transit":false,"i_lat":-6.3080680000000005,"distance":2820},{"is_transit":false,"station_name":"Lenteng Agung","station_id":"LNA","distance":2671,"i_lat":-6.330363,"time":3,"transit":false,"i_long":106.832616,"line":2},{"i_lat":-6.339291,"is_transit":false,"station_name":"Univ. Pancasila","distance":1029,"transit":false,"station_id":"UP","line":2,"i_long":106.834175,"time":2},{"is_transit":false,"distance":2264,"station_name":"Univ. Indonesia","line":2,"time":3,"transit":false,"station_id":"UI","i_lat":-6.360749,"i_long":106.831474},{"i_lat":-6.369073,"line":2,"is_transit":false,"transit":false,"i_long":106.831114,"station_name":"Pondok Cina","station_id":"POC","time":2,"distance":1109},{"station_id":"DPB","transit":false,"is_transit":false,"i_lat":-6.391065,"distance":2727,"station_name":"Depokbaru","time":4,"line":0,"i_long":106.819451},{"is_transit":false,"time":3,"i_long":106.816926,"distance":1584,"station_id":"DP","line":0,"i_lat":-6.405256,"station_name":"Depok","transit":false},{"distance":5084,"transit":false,"line":1,"is_transit":true,"station_name":"Citayam","station_id":"CTA","i_long":106.800298,"i_lat":-6.448811,"time":6},{"time":5,"transit":false,"distance":5197,"line":0,"station_id":"BJD","i_lat":-6.493243,"i_long":106.792719,"station_name":"Bojonggede","is_transit":false},{"line":0,"time":5,"station_name":"Cilebut","is_transit":false,"transit":false,"station_id":"CLT","i_long":106.800016,"i_lat":-6.530544,"distance":4331}],[{"station_name":"Tambun","station_id":"TB","i_lat":-6.258864,"time":0,"line":1,"is_transit":false,"transit":false,"distance":0,"i_long":107.055722},{"station_id":"BKST","distance":4460,"time":7,"station_name":"Bekasi Timur","i_lat":-6.248029,"i_long":107.016735,"transit":false,"line":0,"is_transit":false},{"station_id":"BKS","is_transit":false,"station_name":"Bekasi","i_long":106.997013,"transit":false,"distance":2368,"time":2,"line":0,"i_lat":-6.236616},{"is_transit":false,"station_name":"Kranji","i_lat":-6.224515,"distance":2520,"transit":false,"time":4,"i_long":106.977657,"line":1,"station_id":"KRI"},{"time":3,"transit":false,"is_transit":false,"station_id":"CUK","i_lat":-6.219053,"station_name":"Cakung","i_long":106.951283,"distance":3097,"line":0},{"is_transit":false,"distance":1385,"station_name":"Klenderbaru","i_long":106.939679,"i_lat":-6.217455,"station_id":"KLDB","line":1,"time":8,"transit":false},{"distance":1305,"i_long":106.922662,"is_transit":false,"i_lat":-6.215568,"time":1,"transit":false,"station_name":"Buaran","line":0,"station_id":"BUA"},{"station_id":"KLD","is_transit":false,"i_lat":-6.2135,"line":1,"transit":false,"station_name":"Klender","i_long":106.899548,"time":2,"distance":3100},{"distance":3395,"time":3,"i_lat":-6.215091,"station_name":"Jatinegara","is_transit":true,"transit":true,"line":0,"station_id":"JNG","i_long":106.86807400000001},{"is_transit":false,"distance":1236,"station_id":"POK","i_lat":-6.209188,"station_name":"Pondok Jati","i_long":106.861737,"transit":false,"line":11,"time":2},{"transit":false,"is_transit":false,"distance":1829,"station_name":"Kramat","i_long":106.855437,"i_lat":-6.193792,"time":2,"line":11,"station_id":"KMT"},{"station_id":"GST","line":11,"i_long":106.850107,"station_name":"Gang Sentiong","distance":973,"transit":false,"i_lat":-6.185975,"is_transit":false,"time":1},{"i_long":106.84368,"line":11,"transit":false,"time":8,"station_id":"PSE","i_lat":-6.174784,"distance":1567,"station_name":"Pasar Senen","is_transit":false},{"i_lat":-6.161728,"i_long":106.839204,"distance":1436,"time":4,"station_id":"KMO","transit":false,"station_name":"Kemayoran","line":11,"is_transit":false},{"distance":1901,"is_transit":false,"time":5,"i_lat":-6.14505,"transit":false,"station_id":"RJW","station_name":"Rajawali","i_long":106.836569,"line":11},{"i_lat":-6.132549,"station_name":"Kampung Bandan","transit":true,"distance":1444,"time":3,"is_transit":true,"line":0,"i_long":106.826365,"station_id":"KPB"},{"time":3,"station_name":"Jakarta Kota","transit":true,"station_id":"JAKK","i_lat":-6.137569,"i_long":106.812439,"is_transit":true,"line":0,"distance":1364},{"time":4,"i_long":106.820901,"transit":false,"station_id":"JAY","distance":1264,"is_transit":false,"line":7,"station_name":"Jayakarta","i_lat":-6.141205},{"is_transit":false,"i_long":106.82482,"time":2,"station_name":"Manggabesar","distance":1080,"station_id":"MGB","i_lat":-6.149769,"line":2,"transit":false},{"i_long":106.827103,"station_id":"SW","i_lat":-6.160725,"line":2,"distance":906,"transit":false,"is_transit":false,"time":2,"station_name":"Sawah Besar"},{"is_transit":false,"distance":1149,"station_name":"Juanda","time":2,"station_id":"JUA","i_lat":-6.166716,"line":2,"transit":false,"i_long":106.828284},{"distance":2015,"is_transit":false,"time":4,"station_name":"Gondangdia","transit":false,"i_lat":-6.186295,"i_long":106.832183,"station_id":"GDD","line":2},{"i_lat":-6.198556,"distance":1750,"time":3,"i_long":106.840169,"line":0,"is_transit":false,"station_id":"CKI","station_name":"Cikini","transit":false},{"time":4,"distance":1590,"i_long":106.84912,"line":0,"station_name":"Manggarai","is_transit":true,"station_id":"MRI","i_lat":-6.209883,"transit":true},{"transit":false,"i_lat":-6.226659,"is_transit":false,"line":2,"distance":2610,"station_id":"TEB","i_long":106.857948,"station_name":"Tebet","time":4},{"i_lat":-6.242512,"distance":1230,"is_transit":false,"time":2,"station_id":"CW","line":0,"transit":false,"station_name":"Cawang","i_long":106.856607},{"station_id":"DRN","time":3,"line":0,"station_name":"Duren Kalibata","distance":1546,"is_transit":false,"transit":false,"i_long":106.85449,"i_lat":-6.255332},{"i_long":106.851577,"time":2,"station_name":"Pasar Minggu Baru","is_transit":false,"distance":824,"station_id":"PSMB","i_lat":-6.263214,"line":2,"transit":false},{"line":2,"distance":2380,"is_transit":false,"station_name":"Pasar Minggu","station_id":"PSM","i_lat":-6.2842400000000005,"i_long":106.843999,"time":2,"transit":false},{"station_name":"Tanjung Barat","i_long":106.838896,"transit":false,"is_transit":false,"line":2,"time":4,"station_id":"TNT","i_lat":-6.3080680000000005,"distance":2820},{"line":2,"transit":false,"i_long":106.832616,"station_name":"Lenteng Agung","distance":2671,"station_id":"LNA","i_lat":-6.330363,"is_transit":false,"time":3},{"is_transit":false,"i_long":106.834175,"distance":1029,"transit":false,"station_id":"UP","station_name":"Univ. Pancasila","i_lat":-6.339291,"time":2,"line":2},{"time":3,"transit":false,"line":2,"i_lat":-6.360749,"station_name":"Univ. Indonesia","is_transit":false,"i_long":106.831474,"distance":2264,"station_id":"UI"},{"is_transit":false,"station_name":"Pondok Cina","distance":1109,"station_id":"POC","transit":false,"i_long":106.831114,"i_lat":-6.369073,"time":2,"line":2},{"time":4,"distance":2727,"i_long":106.819451,"station_name":"Depokbaru","transit":false,"is_transit":false,"i_lat":-6.391065,"line":0,"station_id":"DPB"},{"is_transit":false,"line":0,"station_id":"DP","transit":false,"station_name":"Depok","time":3,"distance":1584,"i_long":106.816926,"i_lat":-6.405256},{"distance":5084,"line":1,"time":6,"i_long":106.800298,"station_name":"Citayam","transit":false,"station_id":"CTA","is_transit":true,"i_lat":-6.448811},{"time":5,"transit":false,"line":0,"i_lat":-6.493243,"i_long":106.792719,"station_name":"Bojonggede","distance":5197,"is_transit":false,"station_id":"BJD"},{"i_long":106.800016,"station_name":"Cilebut","is_transit":false,"distance":4331,"i_lat":-6.530544,"line":0,"transit":false,"time":5,"station_id":"CLT"}]]}