{"data":[[{"station_name":"Tambun","is_transit":false,"time":0,"i_long":107.055722,"distance":0,"line":1,"i_lat":-6.258864,"station_id":"TB","transit":false},{"station_id":"BKST","line":1,"time":7,"station_name":"Bekasi Timur","distance":4460,"is_transit":false,"i_lat":-6.248029,"i_long":107.016735,"transit":false},{"i_lat":-6.236616,"station_id":"BKS","transit":false,"time":2,"i_long":106.997013,"distance":2368,"is_transit":false,"station_name":"Bekasi","line":1},{"distance":2520,"i_lat":-6.224515,"station_name":"Kranji","is_transit":false,"time":4,"i_long":106.977657,"transit":false,"line":1,"station_id":"KRI"},{"i_long":106.951283,"time":3,"transit":false,"is_transit":false,"i_lat":-6.219053,"line":1,"station_id":"CUK","distance":3097,"station_name":"Cakung"},{"i_lat":-6.217455,"time":8,"transit":false,"i_long":106.939679,"distance":1385,"is_transit":false,"line":1,"station_id":"KLDB","station_name":"Klenderbaru"},{"station_name":"Buaran","distance":1305,"time":1,"station_id":"BUA","transit":false,"i_long":106.922662,"i_lat":-6.215568,"is_transit":false,"line":1},{"time":2,"i_lat":-6.2135,"station_name":"Klender","distance":3100,"station_id":"KLD","is_transit":false,"transit":false,"i_long":106.899548,"line":1},{"i_lat":-6.215091,"is_transit":false,"time":3,"distance":3395,"transit":false,"station_id":"JNG","line":1,"station_name":"Jatinegara","i_long":106.86807400000001},{"station_id":"MTR","i_lat":-6.212485,"transit":false,"is_transit":false,"station_name":"Matraman","i_long":106.858896,"distance":1377,"line":1,"time":2},{"i_long":106.84912,"transit":false,"station_name":"Manggarai","time":2,"station_id":"MRI","i_lat":-6.209883,"is_transit":false,"distance":1275,"line":2},{"time":4,"distance":3186,"line":1,"is_transit":false,"i_long":106.822649,"transit":false,"station_id":"SUD","station_name":"Sudirman","i_lat":-6.202263},{"distance":280,"i_long":106.819881,"time":1,"transit":false,"line":1,"is_transit":false,"station_id":"SUDB","i_lat":-6.201433,"station_name":"Sudirman Baru"},{"i_long":106.816351,"line":1,"time":1,"distance":471,"transit":false,"station_name":"Karet","is_transit":false,"i_lat":-6.20132,"station_id":"KAT"},{"distance":2029,"i_lat":-6.185545,"transit":true,"station_name":"Tanah Abang","i_long":106.811091,"line":1,"station_id":"THB","time":5,"is_transit":true},{"line":6,"time":6,"distance":3191,"station_name":"Palmerah","is_transit":false,"i_lat":-6.207404,"i_long":106.79689,"transit":false,"station_id":"PLM"},{"distance":3737,"time":7,"station_id":"KBY","is_transit":false,"station_name":"Kebayoran","i_lat":-6.237242,"i_long":106.780334,"line":6,"transit":false},{"i_long":106.74273,"distance":6218,"station_name":"Pondokranji","transit":false,"time":8,"i_lat":-6.276362,"line":6,"station_id":"PDJ","is_transit":false},{"line":6,"transit":false,"distance":2179,"is_transit":false,"station_id":"JMU","i_lat":-6.288927,"station_name":"Jurangmangu","i_long":106.728916,"time":3},{"is_transit":false,"i_lat":-6.296963,"distance":1994,"transit":false,"station_id":"SDM","line":6,"i_long":106.712277,"station_name":"Sudimara","time":4},{"line":6,"time":6,"distance":4566,"station_name":"Rawa Buntu","transit":false,"i_long":106.675475,"is_transit":false,"i_lat":-6.314823,"station_id":"RU"},{"line":6,"station_name":"Serpong","station_id":"SRP","i_lat":-6.319871,"time":4,"i_long":106.66566,"distance":2413,"transit":false,"is_transit":false},{"transit":false,"station_id":"CSK","i_lat":-6.32484,"line":3,"i_long":106.640411,"station_name":"Cisauk","time":4,"distance":1784,"is_transit":false},{"station_id":"CC","i_lat":-6.329547,"i_long":106.617853,"station_name":"Cicayur","distance":2519,"is_transit":false,"line":3,"transit":false,"time":4},{"i_lat":-6.3441410000000005,"time":8,"transit":false,"station_name":"Parung Panjang","station_id":"PRP","i_long":106.568863,"distance":5968,"line":6,"is_transit":false},{"station_id":"CJT","i_long":106.508482,"distance":7025,"transit":false,"station_name":"Cilejit","is_transit":false,"line":3,"i_lat":-6.354349,"time":9},{"line":0,"is_transit":false,"i_lat":-6.338021,"transit":false,"station_id":"DAR","distance":2675,"i_long":106.491338,"time":6,"station_name":"Daru"},{"transit":false,"is_transit":false,"distance":3902,"line":6,"i_long":106.460812,"station_id":"TEJ","time":5,"station_name":"Tenjo","i_lat":-6.327251},{"transit":false,"station_name":"Tigaraksa","is_transit":false,"station_id":"TGS","distance":2974,"i_lat":-6.328533,"i_long":106.425991,"time":5,"line":6},{"is_transit":false,"station_id":"CKY","i_long":106.411216,"line":3,"transit":false,"time":3,"i_lat":-6.33561,"station_name":"Cikoya","distance":2651}],[{"time":0,"distance":0,"i_long":107.055722,"line":1,"station_name":"Tambun","transit":false,"i_lat":-6.258864,"is_transit":false,"station_id":"TB"},{"transit":false,"is_transit":false,"i_long":107.016735,"line":1,"time":7,"station_name":"Bekasi Timur","station_id":"BKST","distance":4460,"i_lat":-6.248029},{"i_long":106.997013,"station_id":"BKS","transit":false,"distance":2368,"i_lat":-6.236616,"time":2,"line":1,"is_transit":false,"station_name":"Bekasi"},{"station_id":"KRI","is_transit":false,"i_lat":-6.224515,"transit":false,"line":1,"i_long":106.977657,"station_name":"Kranji","time":4,"distance":2520},{"i_lat":-6.219053,"station_id":"CUK","i_long":106.951283,"is_transit":false,"transit":false,"time":3,"station_name":"Cakung","distance":3097,"line":1},{"station_name":"Klenderbaru","station_id":"KLDB","distance":1385,"transit":false,"time":8,"is_transit":false,"i_lat":-6.217455,"i_long":106.939679,"line":1},{"time":1,"station_id":"BUA","station_name":"Buaran","i_lat":-6.215568,"i_long":106.922662,"line":1,"distance":1305,"transit":false,"is_transit":false},{"distance":3100,"transit":false,"is_transit":false,"line":1,"station_id":"KLD","station_name":"Klender","time":2,"i_lat":-6.2135,"i_long":106.899548},{"i_long":106.86807400000001,"station_id":"JNG","time":3,"transit":true,"is_transit":true,"distance":3395,"i_lat":-6.215091,"line":1,"station_name":"Jatinegara"},{"distance":1236,"i_lat":-6.209188,"i_long":106.861737,"line":11,"is_transit":false,"transit":false,"time":2,"station_name":"Pondok Jati","station_id":"POK"},{"station_name":"Kramat","transit":false,"i_long":106.855437,"i_lat":-6.193792,"station_id":"KMT","distance":1829,"line":11,"is_transit":false,"time":2},{"station_id":"GST","i_long":106.850107,"i_lat":-6.185975,"transit":false,"is_transit":false,"station_name":"Gang Sentiong","time":1,"distance":973,"line":11},{"transit":false,"station_name":"Pasar Senen","distance":1567,"i_long":106.84368,"is_transit":false,"i_lat":-6.174784,"station_id":"PSE","time":8,"line":11},{"i_lat":-6.161728,"is_transit":false,"i_long":106.839204,"distance":1436,"line":11,"station_name":"Kemayoran","transit":false,"station_id":"KMO","time":4},{"i_long":106.836569,"line":11,"distance":1901,"transit":false,"station_id":"RJW","is_transit":false,"time":5,"i_lat":-6.14505,"station_name":"Rajawali"},{"time":3,"transit":true,"station_name":"Kampung Bandan","is_transit":true,"i_long":106.826365,"line":4,"station_id":"KPB","distance":1444,"i_lat":-6.132549},{"i_long":106.79867,"line":1,"time":9,"station_name":"Angke","station_id":"AK","transit":false,"distance":4102,"i_lat":-6.144674,"is_transit":false},{"station_id":"DU","station_name":"Duri","i_long":106.800832,"line":1,"i_lat":-6.155215,"is_transit":false,"transit":false,"distance":1230,"time":4},{"i_lat":-6.185545,"is_transit":true,"distance":3632,"i_long":106.811091,"station_id":"THB","line":1,"time":8,"station_name":"Tanah Abang","transit":true},{"station_name":"Palmerah","i_long":106.79689,"station_id":"PLM","is_transit":false,"distance":3191,"i_lat":-6.207404,"time":6,"line":6,"transit":false},{"station_id":"KBY","distance":3737,"line":6,"transit":false,"station_name":"Kebayoran","time":7,"i_long":106.780334,"i_lat":-6.237242,"is_transit":false},{"i_long":106.74273,"line":6,"distance":6218,"is_transit":false,"time":8,"transit":false,"i_lat":-6.276362,"station_name":"Pondokranji","station_id":"PDJ"},{"distance":2179,"station_id":"JMU","is_transit":false,"line":6,"transit":false,"i_lat":-6.288927,"i_long":106.728916,"station_name":"Jurangmangu","time":3},{"station_name":"Sudimara","line":6,"i_long":106.712277,"transit":false,"distance":1994,"is_transit":false,"time":4,"i_lat":-6.296963,"station_id":"SDM"},{"i_long":106.675475,"is_transit":false,"i_lat":-6.314823,"station_name":"Rawa Buntu","distance":4566,"station_id":"RU","line":6,"transit":false,"time":6},{"station_name":"Serpong","is_transit":false,"i_lat":-6.319871,"i_long":106.66566,"time":4,"station_id":"SRP","distance":2413,"line":6,"transit":false},{"is_transit":false,"station_name":"Cisauk","i_lat":-6.32484,"i_long":106.640411,"line":3,"distance":1784,"station_id":"CSK","transit":false,"time":4},{"station_id":"CC","transit":false,"distance":2519,"is_transit":false,"time":4,"i_long":106.617853,"i_lat":-6.329547,"line":3,"station_name":"Cicayur"},{"i_long":106.568863,"line":6,"station_name":"Parung Panjang","transit":false,"station_id":"PRP","is_transit":false,"distance":5968,"time":8,"i_lat":-6.3441410000000005},{"i_long":106.508482,"is_transit":false,"transit":false,"station_id":"CJT","line":3,"time":9,"distance":7025,"i_lat":-6.354349,"station_name":"Cilejit"},{"is_transit":false,"distance":2675,"i_lat":-6.338021,"transit":false,"i_long":106.491338,"station_id":"DAR","line":0,"station_name":"Daru","time":6},{"is_transit":false,"station_name":"Tenjo","distance":3902,"i_long":106.460812,"transit":false,"station_id":"TEJ","i_lat":-6.327251,"line":6,"time":5},{"time":5,"line":6,"i_long":106.425991,"i_lat":-6.328533,"station_id":"TGS","distance":2974,"transit":false,"is_transit":false,"station_name":"Tigaraksa"},{"station_id":"CKY","i_lat":-6.33561,"time":3,"line":3,"is_transit":false,"transit":false,"distance":2651,"station_name":"Cikoya","i_long":106.411216}],[{"transit":false,"station_id":"TB","is_transit":false,"distance":0,"i_long":107.055722,"time":0,"i_lat":-6.258864,"line":1,"station_name":"Tambun"},{"station_name":"Bekasi Timur","transit":false,"station_id":"BKST","line":1,"is_transit":false,"i_lat":-6.248029,"time":7,"distance":4460,"i_long":107.016735},{"station_id":"BKS","line":1,"distance":2368,"transit":false,"is_transit":false,"time":2,"i_lat":-6.236616,"i_long":106.997013,"station_name":"Bekasi"},{"i_long":106.977657,"station_id":"KRI","i_lat":-6.224515,"is_transit":false,"distance":2520,"transit":false,"station_name":"Kranji","time":4,"line":1},{"distance":3097,"station_name":"Cakung","is_transit":false,"line":1,"i_lat":-6.219053,"i_long":106.951283,"time":3,"transit":false,"station_id":"CUK"},{"time":8,"i_lat":-6.217455,"station_id":"KLDB","i_long":106.939679,"station_name":"Klenderbaru","distance":1385,"line":1,"transit":false,"is_transit":false},{"distance":1305,"i_lat":-6.215568,"station_name":"Buaran","station_id":"BUA","transit":false,"line":1,"is_transit":false,"i_long":106.922662,"time":1},{"distance":3100,"i_lat":-6.2135,"station_name":"Klender","transit":false,"is_transit":false,"station_id":"KLD","time":2,"i_long":106.899548,"line":1},{"is_transit":false,"station_id":"JNG","station_name":"Jatinegara","time":3,"i_long":106.86807400000001,"transit":false,"distance":3395,"line":1,"i_lat":-6.215091},{"station_id":"MTR","i_long":106.858896,"distance":1377,"time":2,"station_name":"Matraman","line":1,"i_lat":-6.212485,"transit":false,"is_transit":false},{"station_id":"MRI","time":2,"transit":true,"i_long":106.84912,"line":2,"i_lat":-6.209883,"is_transit":true,"distance":1275,"station_name":"Manggarai"},{"transit":false,"station_id":"CKI","i_lat":-6.198556,"line":2,"time":4,"i_long":106.840169,"distance":1590,"is_transit":false,"station_name":"Cikini"},{"is_transit":false,"station_id":"GDD","station_name":"Gondangdia","line":2,"transit":false,"time":3,"distance":1750,"i_lat":-6.186295,"i_long":106.832183},{"station_name":"Juanda","i_long":106.828284,"distance":2015,"time":4,"transit":false,"is_transit":false,"i_lat":-6.166716,"station_id":"JUA","line":2},{"line":2,"i_lat":-6.160725,"transit":false,"station_id":"SW","is_transit":false,"distance":1149,"station_name":"Sawah Besar","time":2,"i_long":106.827103},{"station_name":"Manggabesar","transit":false,"line":2,"station_id":"MGB","is_transit":false,"time":2,"distance":906,"i_lat":-6.149769,"i_long":106.82482},{"is_transit":false,"station_id":"JAY","i_lat":-6.141205,"station_name":"Jayakarta","i_long":106.820901,"line":2,"transit":false,"distance":1080,"time":2},{"is_transit":true,"station_id":"JAKK","distance":1264,"transit":true,"i_long":106.812439,"line":2,"i_lat":-6.137569,"time":4,"station_name":"Jakarta Kota"},{"distance":1364,"time":3,"station_id":"KPB","is_transit":true,"transit":true,"station_name":"Kampung Bandan","i_lat":-6.132549,"i_long":106.826365,"line":4},{"transit":false,"station_name":"Angke","i_lat":-6.144674,"i_long":106.79867,"station_id":"AK","is_transit":false,"line":1,"distance":4102,"time":9},{"distance":1230,"i_lat":-6.155215,"i_long":106.800832,"line":1,"transit":false,"station_id":"DU","is_transit":false,"station_name":"Duri","time":4},{"distance":3632,"is_transit":true,"i_lat":-6.185545,"i_long":106.811091,"line":1,"time":8,"station_id":"THB","station_name":"Tanah Abang","transit":true},{"time":6,"line":6,"is_transit":false,"i_lat":-6.207404,"i_long":106.79689,"transit":false,"station_id":"PLM","distance":3191,"station_name":"Palmerah"},{"i_long":106.780334,"i_lat":-6.237242,"transit":false,"station_name":"Kebayoran","line":6,"station_id":"KBY","time":7,"is_transit":false,"distance":3737},{"i_lat":-6.276362,"is_transit":false,"station_id":"PDJ","i_long":106.74273,"time":8,"line":6,"distance":6218,"transit":false,"station_name":"Pondokranji"},{"station_id":"JMU","is_transit":false,"time":3,"i_lat":-6.288927,"line":6,"station_name":"Jurangmangu","transit":false,"i_long":106.728916,"distance":2179},{"distance":1994,"transit":false,"station_id":"SDM","station_name":"Sudimara","i_long":106.712277,"time":4,"i_lat":-6.296963,"line":6,"is_transit":false},{"station_name":"Rawa Buntu","i_long":106.675475,"time":6,"i_lat":-6.314823,"distance":4566,"is_transit":false,"station_id":"RU","transit":false,"line":6},{"line":6,"transit":false,"time":4,"i_long":106.66566,"station_name":"Serpong","is_transit":false,"station_id":"SRP","distance":2413,"i_lat":-6.319871},{"station_name":"Cisauk","is_transit":false,"time":4,"station_id":"CSK","i_long":106.640411,"distance":1784,"line":3,"i_lat":-6.32484,"transit":false},{"time":4,"i_lat":-6.329547,"line":3,"station_id":"CC","transit":false,"i_long":106.617853,"distance":2519,"station_name":"Cicayur","is_transit":false},{"station_id":"PRP","i_long":106.568863,"transit":false,"line":6,"is_transit":false,"distance":5968,"i_lat":-6.3441410000000005,"station_name":"Parung Panjang","time":8},{"line":3,"i_long":106.508482,"time":9,"station_id":"CJT","is_transit":false,"transit":false,"i_lat":-6.354349,"station_name":"Cilejit","distance":7025},{"transit":false,"time":6,"distance":2675,"is_transit":false,"i_long":106.491338,"station_name":"Daru","station_id":"DAR","line":0,"i_lat":-6.338021},{"station_name":"Tenjo","distance":3902,"station_id":"TEJ","time":5,"i_lat":-6.327251,"i_long":106.460812,"transit":false,"is_transit":false,"line":6},{"station_name":"Tigaraksa","transit":false,"is_transit":false,"i_lat":-6.328533,"line":6,"time":5,"station_id":"TGS","distance":2974,"i_long":106.425991},{"line":3,"station_id":"CKY","is_transit":false,"i_long":106.411216,"time":3,"distance":2651,"transit":false,"station_name":"Cikoya","i_lat":-6.33561}],[{"station_id":"TB","is_transit":false,"station_name":"Tambun","time":0,"distance":0,"i_lat":-6.258864,"transit":false,"line":1,"i_long":107.055722},{"distance":4460,"i_long":107.016735,"i_lat":-6.248029,"station_name":"Bekasi Timur","transit":false,"is_transit":false,"time":7,"line":1,"station_id":"BKST"},{"i_lat":-6.236616,"time":2,"distance":2368,"station_id":"BKS","i_long":106.997013,"is_transit":false,"line":1,"transit":false,"station_name":"Bekasi"},{"transit":false,"distance":2520,"i_lat":-6.224515,"time":4,"is_transit":false,"i_long":106.977657,"station_name":"Kranji","line":1,"station_id":"KRI"},{"i_long":106.951283,"distance":3097,"transit":false,"station_id":"CUK","i_lat":-6.219053,"is_transit":false,"line":1,"station_name":"Cakung","time":3},{"i_lat":-6.217455,"station_name":"Klenderbaru","distance":1385,"time":8,"i_long":106.939679,"transit":false,"station_id":"KLDB","line":1,"is_transit":false},{"i_lat":-6.215568,"distance":1305,"line":1,"station_id":"BUA","i_long":106.922662,"station_name":"Buaran","transit":false,"time":1,"is_transit":false},{"distance":3100,"time":2,"station_id":"KLD","transit":false,"i_long":106.899548,"line":1,"station_name":"Klender","is_transit":false,"i_lat":-6.2135},{"station_id":"JNG","station_name":"Jatinegara","time":3,"i_lat":-6.215091,"transit":true,"line":1,"i_long":106.86807400000001,"distance":3395,"is_transit":true},{"station_id":"POK","transit":false,"line":11,"distance":1236,"is_transit":false,"station_name":"Pondok Jati","i_long":106.861737,"time":2,"i_lat":-6.209188},{"distance":1829,"i_long":106.855437,"transit":false,"is_transit":false,"station_id":"KMT","station_name":"Kramat","time":2,"line":11,"i_lat":-6.193792},{"station_name":"Gang Sentiong","is_transit":false,"station_id":"GST","time":1,"distance":973,"transit":false,"i_long":106.850107,"line":11,"i_lat":-6.185975},{"transit":false,"station_id":"PSE","line":11,"time":8,"i_long":106.84368,"station_name":"Pasar Senen","is_transit":false,"distance":1567,"i_lat":-6.174784},{"time":4,"station_name":"Kemayoran","transit":false,"distance":1436,"i_lat":-6.161728,"is_transit":false,"i_long":106.839204,"station_id":"KMO","line":11},{"line":11,"is_transit":false,"time":5,"station_name":"Rajawali","station_id":"RJW","transit":false,"distance":1901,"i_long":106.836569,"i_lat":-6.14505},{"station_name":"Kampung Bandan","i_lat":-6.132549,"station_id":"KPB","is_transit":true,"distance":1444,"i_long":106.826365,"line":4,"transit":true,"time":3},{"line":2,"time":3,"distance":1364,"i_long":106.812439,"transit":true,"station_name":"Jakarta Kota","i_lat":-6.137569,"is_transit":true,"station_id":"JAKK"},{"station_id":"JAY","transit":false,"distance":1264,"station_name":"Jayakarta","time":4,"is_transit":false,"line":2,"i_lat":-6.141205,"i_long":106.820901},{"time":2,"station_id":"MGB","i_lat":-6.149769,"i_long":106.82482,"line":2,"transit":false,"station_name":"Manggabesar","is_transit":false,"distance":1080},{"i_lat":-6.160725,"transit":false,"time":2,"is_transit":false,"station_name":"Sawah Besar","distance":906,"station_id":"SW","i_long":106.827103,"line":2},{"is_transit":false,"line":2,"distance":1149,"i_lat":-6.166716,"transit":false,"station_name":"Juanda","time":2,"station_id":"JUA","i_long":106.828284},{"i_lat":-6.186295,"station_name":"Gondangdia","time":4,"is_transit":false,"station_id":"GDD","distance":2015,"i_long":106.832183,"line":2,"transit":false},{"station_name":"Cikini","time":3,"is_transit":false,"i_long":106.840169,"line":2,"transit":false,"station_id":"CKI","distance":1750,"i_lat":-6.198556},{"distance":1590,"station_name":"Manggarai","station_id":"MRI","time":4,"line":2,"i_lat":-6.209883,"is_transit":true,"i_long":106.84912,"transit":true},{"transit":false,"is_transit":false,"time":4,"station_name":"Sudirman","i_long":106.822649,"station_id":"SUD","i_lat":-6.202263,"line":1,"distance":3186},{"time":1,"transit":false,"station_id":"SUDB","distance":280,"station_name":"Sudirman Baru","is_transit":false,"i_long":106.819881,"i_lat":-6.201433,"line":1},{"transit":false,"line":1,"i_long":106.816351,"i_lat":-6.20132,"station_id":"KAT","is_transit":false,"distance":471,"time":1,"station_name":"Karet"},{"i_long":106.811091,"i_lat":-6.185545,"line":1,"transit":true,"time":5,"station_name":"Tanah Abang","station_id":"THB","distance":2029,"is_transit":true},{"i_lat":-6.207404,"i_long":106.79689,"distance":3191,"line":6,"station_name":"Palmerah","is_transit":false,"time":6,"station_id":"PLM","transit":false},{"station_id":"KBY","i_long":106.780334,"i_lat":-6.237242,"time":7,"transit":false,"is_transit":false,"distance":3737,"line":6,"station_name":"Kebayoran"},{"station_name":"Pondokranji","time":8,"station_id":"PDJ","i_long":106.74273,"transit":false,"distance":6218,"i_lat":-6.276362,"is_transit":false,"line":6},{"time":3,"station_id":"JMU","line":6,"transit":false,"i_long":106.728916,"station_name":"Jurangmangu","distance":2179,"i_lat":-6.288927,"is_transit":false},{"is_transit":false,"station_name":"Sudimara","line":6,"i_lat":-6.296963,"distance":1994,"i_long":106.712277,"station_id":"SDM","transit":false,"time":4},{"station_id":"RU","i_lat":-6.314823,"i_long":106.675475,"time":6,"line":6,"station_name":"Rawa Buntu","transit":false,"is_transit":false,"distance":4566},{"station_id":"SRP","i_long":106.66566,"is_transit":false,"time":4,"i_lat":-6.319871,"station_name":"Serpong","transit":false,"distance":2413,"line":6},{"station_name":"Cisauk","i_lat":-6.32484,"time":4,"i_long":106.640411,"station_id":"CSK","transit":false,"distance":1784,"line":3,"is_transit":false},{"time":4,"station_name":"Cicayur","transit":false,"is_transit":false,"i_lat":-6.329547,"i_long":106.617853,"station_id":"CC","distance":2519,"line":3},{"i_lat":-6.3441410000000005,"i_long":106.568863,"line":6,"is_transit":false,"station_name":"Parung Panjang","distance":5968,"transit":false,"station_id":"PRP","time":8},{"is_transit":false,"i_lat":-6.354349,"line":3,"station_id":"CJT","i_long":106.508482,"distance":7025,"time":9,"station_name":"Cilejit","transit":false},{"line":0,"i_lat":-6.338021,"time":6,"distance":2675,"is_transit":false,"station_name":"Daru","station_id":"DAR","transit":false,"i_long":106.491338},{"i_lat":-6.327251,"is_transit":false,"i_long":106.460812,"station_id":"TEJ","transit":false,"time":5,"distance":3902,"station_name":"Tenjo","line":6},{"station_name":"Tigaraksa","station_id":"TGS","i_lat":-6.328533,"transit":false,"i_long":106.425991,"line":6,"distance":2974,"is_transit":false,"time":5},{"transit":false,"i_lat":-6.33561,"i_long":106.411216,"distance":2651,"line":3,"station_name":"Cikoya","station_id":"CKY","is_transit":false,"time":3}]]}