{"data":[[{"distance":0,"is_transit":false,"station_name":"Tambun","i_long":107.055722,"transit":false,"i_lat":-6.258864,"station_id":"TB","time":0,"line":1},{"line":1,"station_name":"Bekasi Timur","i_long":107.016735,"station_id":"BKST","transit":false,"distance":4460,"is_transit":false,"i_lat":-6.248029,"time":7},{"transit":false,"i_long":106.997013,"is_transit":false,"time":2,"station_id":"BKS","i_lat":-6.236616,"station_name":"Bekasi","line":1,"distance":2368},{"station_name":"Kranji","transit":false,"time":4,"is_transit":false,"i_long":106.977657,"line":1,"distance":2520,"i_lat":-6.224515,"station_id":"KRI"},{"is_transit":false,"station_name":"Cakung","distance":3097,"transit":false,"time":3,"i_lat":-6.219053,"i_long":106.951283,"line":1,"station_id":"CUK"},{"distance":1385,"time":8,"station_id":"KLDB","i_lat":-6.217455,"transit":false,"i_long":106.939679,"station_name":"Klenderbaru","is_transit":false,"line":1},{"i_lat":-6.215568,"transit":false,"i_long":106.922662,"is_transit":false,"station_id":"BUA","distance":1305,"line":1,"time":1,"station_name":"Buaran"},{"station_id":"KLD","time":2,"i_lat":-6.2135,"is_transit":false,"station_name":"Klender","i_long":106.899548,"transit":false,"line":1,"distance":3100},{"distance":3395,"i_lat":-6.215091,"i_long":106.86807400000001,"station_id":"JNG","line":1,"transit":false,"is_transit":false,"time":3,"station_name":"Jatinegara"},{"i_lat":-6.212485,"i_long":106.858896,"distance":1377,"time":2,"transit":false,"station_name":"Matraman","station_id":"MTR","line":1,"is_transit":false},{"station_name":"Manggarai","transit":true,"line":2,"is_transit":true,"station_id":"MRI","distance":1275,"i_long":106.84912,"i_lat":-6.209883,"time":2},{"transit":false,"is_transit":false,"i_lat":-6.226659,"distance":2610,"station_name":"Tebet","line":2,"time":4,"station_id":"TEB","i_long":106.857948},{"time":2,"line":2,"i_lat":-6.242512,"is_transit":false,"distance":1230,"station_id":"CW","i_long":106.856607,"transit":false,"station_name":"Cawang"},{"is_transit":false,"i_long":106.85449,"line":2,"transit":false,"distance":1546,"i_lat":-6.255332,"station_id":"DRN","time":3,"station_name":"Duren Kalibata"},{"station_name":"Pasar Minggu Baru","i_lat":-6.263214,"station_id":"PSMB","i_long":106.851577,"transit":false,"line":2,"time":2,"is_transit":false,"distance":824},{"station_id":"PSM","line":2,"distance":2380,"i_long":106.843999,"transit":false,"time":2,"is_transit":false,"i_lat":-6.2842400000000005,"station_name":"Pasar Minggu"},{"is_transit":false,"transit":false,"distance":2820,"i_lat":-6.3080680000000005,"station_name":"Tanjung Barat","station_id":"TNT","time":4,"i_long":106.838896,"line":2},{"station_name":"Lenteng Agung","distance":2671,"transit":false,"i_lat":-6.330363,"time":3,"is_transit":false,"station_id":"LNA","line":2,"i_long":106.832616},{"transit":false,"station_id":"UP","time":2,"distance":1029,"line":2,"i_lat":-6.339291,"station_name":"Univ. Pancasila","is_transit":false,"i_long":106.834175},{"is_transit":false,"i_long":106.831474,"transit":false,"distance":2264,"line":2,"station_name":"Univ. Indonesia","station_id":"UI","time":3,"i_lat":-6.360749},{"i_long":106.831114,"station_name":"Pondok Cina","transit":false,"station_id":"POC","is_transit":false,"time":2,"i_lat":-6.369073,"line":2,"distance":1109},{"i_lat":-6.391065,"is_transit":false,"transit":false,"time":4,"line":2,"i_long":106.819451,"station_id":"DPB","station_name":"Depokbaru","distance":2727},{"is_transit":false,"i_long":106.816926,"time":3,"station_name":"Depok","station_id":"DP","line":2,"i_lat":-6.405256,"transit":false,"distance":1584},{"station_id":"CTA","station_name":"Citayam","i_lat":-6.448811,"transit":false,"is_transit":false,"distance":5084,"time":6,"i_long":106.800298,"line":2},{"time":5,"i_long":106.792719,"transit":false,"station_name":"Bojonggede","station_id":"BJD","line":2,"is_transit":false,"i_lat":-6.493243,"distance":5197},{"line":2,"distance":4331,"time":5,"station_name":"Cilebut","station_id":"CLT","i_long":106.800016,"is_transit":false,"transit":false,"i_lat":-6.530544}],[{"i_lat":-6.258864,"i_long":107.055722,"station_name":"Tambun","is_transit":false,"time":0,"line":1,"distance":0,"station_id":"TB","transit":false},{"distance":4460,"i_lat":-6.248029,"station_id":"BKST","line":1,"station_name":"Bekasi Timur","i_long":107.016735,"transit":false,"is_transit":false,"time":7},{"station_id":"BKS","time":2,"i_long":106.997013,"line":1,"i_lat":-6.236616,"is_transit":false,"transit":false,"distance":2368,"station_name":"Bekasi"},{"station_id":"KRI","time":4,"distance":2520,"line":1,"transit":false,"is_transit":false,"i_lat":-6.224515,"i_long":106.977657,"station_name":"Kranji"},{"transit":false,"distance":3097,"line":1,"station_id":"CUK","station_name":"Cakung","i_long":106.951283,"i_lat":-6.219053,"is_transit":false,"time":3},{"distance":1385,"i_long":106.939679,"transit":false,"time":8,"line":1,"station_id":"KLDB","is_transit":false,"station_name":"Klenderbaru","i_lat":-6.217455},{"station_name":"Buaran","transit":false,"time":1,"i_long":106.922662,"i_lat":-6.215568,"line":1,"distance":1305,"station_id":"BUA","is_transit":false},{"is_transit":false,"station_id":"KLD","station_name":"Klender","i_long":106.899548,"distance":3100,"transit":false,"time":2,"line":1,"i_lat":-6.2135},{"station_id":"JNG","is_transit":true,"time":3,"transit":true,"distance":3395,"i_lat":-6.215091,"i_long":106.86807400000001,"line":1,"station_name":"Jatinegara"},{"time":2,"line":11,"transit":false,"i_long":106.861737,"i_lat":-6.209188,"station_name":"Pondok Jati","distance":1236,"station_id":"POK","is_transit":false},{"transit":false,"distance":1829,"station_id":"KMT","i_long":106.855437,"time":2,"i_lat":-6.193792,"is_transit":false,"station_name":"Kramat","line":11},{"distance":973,"transit":false,"station_id":"GST","time":1,"i_lat":-6.185975,"is_transit":false,"station_name":"Gang Sentiong","i_long":106.850107,"line":11},{"transit":false,"i_lat":-6.174784,"i_long":106.84368,"time":8,"is_transit":false,"line":11,"station_name":"Pasar Senen","station_id":"PSE","distance":1567},{"i_lat":-6.161728,"station_id":"KMO","station_name":"Kemayoran","transit":false,"distance":1436,"time":4,"line":11,"i_long":106.839204,"is_transit":false},{"transit":false,"is_transit":false,"time":5,"distance":1901,"i_lat":-6.14505,"line":11,"i_long":106.836569,"station_name":"Rajawali","station_id":"RJW"},{"i_long":106.826365,"station_name":"Kampung Bandan","time":3,"station_id":"KPB","distance":1444,"line":4,"is_transit":true,"i_lat":-6.132549,"transit":true},{"station_name":"Angke","i_lat":-6.144674,"station_id":"AK","is_transit":false,"transit":false,"time":9,"i_long":106.79867,"distance":4102,"line":1},{"i_long":106.800832,"station_id":"DU","time":4,"distance":1230,"line":1,"station_name":"Duri","is_transit":false,"i_lat":-6.155215,"transit":false},{"line":1,"station_name":"Tanah Abang","i_lat":-6.185545,"transit":false,"is_transit":false,"distance":3632,"station_id":"THB","time":8,"i_long":106.811091},{"i_long":106.816351,"transit":false,"line":1,"station_id":"KAT","is_transit":false,"time":5,"distance":2029,"i_lat":-6.20132,"station_name":"Karet"},{"time":1,"station_id":"SUDB","i_lat":-6.201433,"line":1,"station_name":"Sudirman Baru","is_transit":false,"i_long":106.819881,"transit":false,"distance":471},{"station_name":"Sudirman","is_transit":false,"i_long":106.822649,"line":1,"station_id":"SUD","i_lat":-6.202263,"distance":280,"time":1,"transit":false},{"is_transit":true,"i_lat":-6.209883,"station_id":"MRI","transit":true,"station_name":"Manggarai","time":4,"distance":3186,"i_long":106.84912,"line":2},{"i_long":106.857948,"line":2,"transit":false,"station_name":"Tebet","is_transit":false,"station_id":"TEB","distance":2610,"i_lat":-6.226659,"time":4},{"is_transit":false,"station_name":"Cawang","time":2,"transit":false,"i_lat":-6.242512,"line":2,"distance":1230,"i_long":106.856607,"station_id":"CW"},{"is_transit":false,"station_id":"DRN","time":3,"distance":1546,"line":2,"i_long":106.85449,"transit":false,"i_lat":-6.255332,"station_name":"Duren Kalibata"},{"time":2,"station_id":"PSMB","station_name":"Pasar Minggu Baru","i_long":106.851577,"is_transit":false,"distance":824,"i_lat":-6.263214,"transit":false,"line":2},{"i_long":106.843999,"transit":false,"i_lat":-6.2842400000000005,"station_name":"Pasar Minggu","station_id":"PSM","line":2,"time":2,"is_transit":false,"distance":2380},{"station_id":"TNT","time":4,"distance":2820,"i_lat":-6.3080680000000005,"transit":false,"is_transit":false,"line":2,"station_name":"Tanjung Barat","i_long":106.838896},{"time":3,"distance":2671,"i_lat":-6.330363,"i_long":106.832616,"line":2,"station_name":"Lenteng Agung","transit":false,"is_transit":false,"station_id":"LNA"},{"transit":false,"time":2,"distance":1029,"is_transit":false,"i_lat":-6.339291,"i_long":106.834175,"station_id":"UP","line":2,"station_name":"Univ. Pancasila"},{"time":3,"distance":2264,"is_transit":false,"i_long":106.831474,"station_id":"UI","station_name":"Univ. Indonesia","line":2,"i_lat":-6.360749,"transit":false},{"transit":false,"time":2,"station_name":"Pondok Cina","station_id":"POC","is_transit":false,"distance":1109,"line":2,"i_long":106.831114,"i_lat":-6.369073},{"station_id":"DPB","time":4,"i_lat":-6.391065,"i_long":106.819451,"station_name":"Depokbaru","line":2,"is_transit":false,"distance":2727,"transit":false},{"i_lat":-6.405256,"distance":1584,"i_long":106.816926,"station_id":"DP","station_name":"Depok","is_transit":false,"line":2,"time":3,"transit":false},{"station_id":"CTA","i_long":106.800298,"is_transit":false,"transit":false,"station_name":"Citayam","i_lat":-6.448811,"line":2,"time":6,"distance":5084},{"i_long":106.792719,"station_id":"BJD","line":2,"distance":5197,"station_name":"Bojonggede","is_transit":false,"i_lat":-6.493243,"transit":false,"time":5},{"i_long":106.800016,"transit":false,"i_lat":-6.530544,"is_transit":false,"station_name":"Cilebut","line":2,"time":5,"distance":4331,"station_id":"CLT"}],[{"distance":0,"station_id":"TB","i_long":107.055722,"i_lat":-6.258864,"station_name":"Tambun","transit":false,"is_transit":false,"time":0,"line":1},{"transit":false,"i_lat":-6.248029,"i_long":107.016735,"line":1,"station_name":"Bekasi Timur","station_id":"BKST","time":7,"is_transit":false,"distance":4460},{"station_id":"BKS","i_long":106.997013,"line":1,"transit":false,"is_transit":false,"i_lat":-6.236616,"time":2,"distance":2368,"station_name":"Bekasi"},{"transit":false,"is_transit":false,"station_name":"Kranji","distance":2520,"time":4,"station_id":"KRI","line":1,"i_lat":-6.224515,"i_long":106.977657},{"i_long":106.951283,"time":3,"distance":3097,"station_name":"Cakung","i_lat":-6.219053,"line":1,"transit":false,"station_id":"CUK","is_transit":false},{"i_long":106.939679,"is_transit":false,"station_id":"KLDB","station_name":"Klenderbaru","line":1,"distance":1385,"transit":false,"time":8,"i_lat":-6.217455},{"transit":false,"station_id":"BUA","station_name":"Buaran","is_transit":false,"time":1,"i_lat":-6.215568,"line":1,"i_long":106.922662,"distance":1305},{"transit":false,"i_long":106.899548,"line":1,"station_id":"KLD","station_name":"Klender","i_lat":-6.2135,"time":2,"is_transit":false,"distance":3100},{"i_long":106.86807400000001,"time":3,"i_lat":-6.215091,"line":1,"station_name":"Jatinegara","distance":3395,"station_id":"JNG","transit":true,"is_transit":true},{"station_id":"POK","time":2,"i_lat":-6.209188,"transit":false,"station_name":"Pondok Jati","i_long":106.861737,"is_transit":false,"line":11,"distance":1236},{"distance":1829,"time":2,"i_lat":-6.193792,"is_transit":false,"station_id":"KMT","line":11,"station_name":"Kramat","transit":false,"i_long":106.855437},{"line":11,"station_id":"GST","time":1,"station_name":"Gang Sentiong","is_transit":false,"distance":973,"i_lat":-6.185975,"transit":false,"i_long":106.850107},{"i_long":106.84368,"station_id":"PSE","is_transit":false,"distance":1567,"i_lat":-6.174784,"station_name":"Pasar Senen","line":11,"transit":false,"time":8},{"station_name":"Kemayoran","i_lat":-6.161728,"distance":1436,"time":4,"i_long":106.839204,"line":11,"transit":false,"station_id":"KMO","is_transit":false},{"station_name":"Rajawali","distance":1901,"station_id":"RJW","time":5,"transit":false,"is_transit":false,"i_lat":-6.14505,"i_long":106.836569,"line":11},{"i_lat":-6.132549,"i_long":106.826365,"line":4,"is_transit":true,"station_name":"Kampung Bandan","distance":1444,"station_id":"KPB","transit":true,"time":3},{"is_transit":true,"time":3,"i_long":106.812439,"station_name":"Jakarta Kota","line":2,"distance":1364,"i_lat":-6.137569,"transit":true,"station_id":"JAKK"},{"station_name":"Jayakarta","is_transit":false,"i_long":106.820901,"time":4,"i_lat":-6.141205,"transit":false,"station_id":"JAY","distance":1264,"line":2},{"distance":1080,"station_name":"Manggabesar","i_long":106.82482,"line":2,"transit":false,"is_transit":false,"time":2,"i_lat":-6.149769,"station_id":"MGB"},{"transit":false,"i_lat":-6.160725,"distance":906,"line":2,"is_transit":false,"i_long":106.827103,"station_id":"SW","station_name":"Sawah Besar","time":2},{"i_long":106.828284,"is_transit":false,"station_id":"JUA","line":2,"time":2,"station_name":"Juanda","transit":false,"i_lat":-6.166716,"distance":1149},{"station_name":"Gondangdia","i_long":106.832183,"line":2,"time":4,"station_id":"GDD","is_transit":false,"transit":false,"distance":2015,"i_lat":-6.186295},{"i_long":106.840169,"is_transit":false,"distance":1750,"transit":false,"time":3,"line":2,"i_lat":-6.198556,"station_id":"CKI","station_name":"Cikini"},{"station_id":"MRI","station_name":"Manggarai","time":4,"distance":1590,"is_transit":false,"i_long":106.84912,"line":2,"transit":false,"i_lat":-6.209883},{"i_lat":-6.226659,"distance":2610,"i_long":106.857948,"transit":false,"line":2,"is_transit":false,"station_id":"TEB","time":4,"station_name":"Tebet"},{"i_long":106.856607,"time":2,"line":2,"distance":1230,"is_transit":false,"i_lat":-6.242512,"transit":false,"station_name":"Cawang","station_id":"CW"},{"is_transit":false,"i_lat":-6.255332,"i_long":106.85449,"distance":1546,"line":2,"station_id":"DRN","time":3,"transit":false,"station_name":"Duren Kalibata"},{"line":2,"station_id":"PSMB","i_lat":-6.263214,"transit":false,"station_name":"Pasar Minggu Baru","time":2,"is_transit":false,"i_long":106.851577,"distance":824},{"distance":2380,"i_lat":-6.2842400000000005,"line":2,"time":2,"i_long":106.843999,"is_transit":false,"transit":false,"station_id":"PSM","station_name":"Pasar Minggu"},{"time":4,"i_lat":-6.3080680000000005,"transit":false,"line":2,"i_long":106.838896,"station_name":"Tanjung Barat","is_transit":false,"distance":2820,"station_id":"TNT"},{"i_lat":-6.330363,"is_transit":false,"time":3,"distance":2671,"transit":false,"i_long":106.832616,"station_name":"Lenteng Agung","station_id":"LNA","line":2},{"time":2,"line":2,"is_transit":false,"i_lat":-6.339291,"i_long":106.834175,"transit":false,"distance":1029,"station_name":"Univ. Pancasila","station_id":"UP"},{"distance":2264,"line":2,"i_lat":-6.360749,"time":3,"transit":false,"station_name":"Univ. Indonesia","i_long":106.831474,"station_id":"UI","is_transit":false},{"time":2,"is_transit":false,"station_name":"Pondok Cina","distance":1109,"i_long":106.831114,"transit":false,"line":2,"station_id":"POC","i_lat":-6.369073},{"station_id":"DPB","distance":2727,"time":4,"i_lat":-6.391065,"line":2,"is_transit":false,"i_long":106.819451,"station_name":"Depokbaru","transit":false},{"distance":1584,"is_transit":false,"transit":false,"time":3,"station_name":"Depok","i_long":106.816926,"i_lat":-6.405256,"station_id":"DP","line":2},{"is_transit":false,"i_long":106.800298,"station_id":"CTA","distance":5084,"station_name":"Citayam","i_lat":-6.448811,"line":2,"time":6,"transit":false},{"is_transit":false,"i_lat":-6.493243,"transit":false,"station_name":"Bojonggede","line":2,"station_id":"BJD","time":5,"i_long":106.792719,"distance":5197},{"transit":false,"time":5,"station_name":"Cilebut","station_id":"CLT","distance":4331,"i_lat":-6.530544,"is_transit":false,"line":2,"i_long":106.800016}]]}