{"data":[[{"i_lat":-6.258864,"station_id":"TB","line":1,"distance":0,"i_long":107.055722,"transit":false,"is_transit":false,"station_name":"Tambun","time":0},{"station_name":"Bekasi Timur","i_lat":-6.248029,"transit":false,"time":7,"distance":4460,"station_id":"BKST","i_long":107.016735,"is_transit":false,"line":0},{"transit":false,"station_id":"BKS","i_lat":-6.236616,"line":0,"time":2,"station_name":"Bekasi","is_transit":false,"distance":2368,"i_long":106.997013},{"i_long":106.977657,"time":4,"station_name":"Kranji","i_lat":-6.224515,"line":1,"distance":2520,"is_transit":false,"transit":false,"station_id":"KRI"},{"i_lat":-6.219053,"i_long":106.951283,"transit":false,"time":3,"is_transit":false,"line":0,"station_id":"CUK","station_name":"Cakung","distance":3097},{"i_lat":-6.217455,"station_id":"KLDB","transit":false,"station_name":"Klenderbaru","time":8,"is_transit":false,"i_long":106.939679,"line":1,"distance":1385},{"i_long":106.922662,"line":0,"transit":false,"station_id":"BUA","station_name":"Buaran","i_lat":-6.215568,"distance":1305,"is_transit":false,"time":1},{"i_long":106.899548,"is_transit":false,"distance":3100,"station_name":"Klender","line":1,"i_lat":-6.2135,"station_id":"KLD","transit":false,"time":2},{"transit":false,"time":3,"line":0,"station_name":"Jatinegara","station_id":"JNG","is_transit":true,"distance":3395,"i_long":106.86807400000001,"i_lat":-6.215091},{"i_lat":-6.212485,"is_transit":false,"distance":1377,"line":1,"i_long":106.858896,"time":2,"transit":false,"station_id":"MTR","station_name":"Matraman"},{"transit":true,"time":2,"i_lat":-6.209883,"line":0,"is_transit":true,"station_name":"Manggarai","i_long":106.84912,"station_id":"MRI","distance":1275},{"i_long":106.857948,"i_lat":-6.226659,"station_name":"Tebet","station_id":"TEB","transit":false,"time":4,"line":2,"is_transit":false,"distance":2610},{"i_long":106.856607,"is_transit":false,"time":2,"distance":1230,"line":0,"i_lat":-6.242512,"station_id":"CW","station_name":"Cawang","transit":false},{"station_id":"DRN","distance":1546,"line":0,"time":3,"station_name":"Duren Kalibata","transit":false,"i_lat":-6.255332,"is_transit":false,"i_long":106.85449}],[{"transit":false,"is_transit":false,"time":0,"i_lat":-6.258864,"station_id":"TB","i_long":107.055722,"station_name":"Tambun","distance":0,"line":1},{"is_transit":false,"distance":4460,"i_lat":-6.248029,"station_name":"Bekasi Timur","transit":false,"line":0,"i_long":107.016735,"time":7,"station_id":"BKST"},{"station_id":"BKS","transit":false,"is_transit":false,"line":0,"distance":2368,"time":2,"i_long":106.997013,"station_name":"Bekasi","i_lat":-6.236616},{"station_name":"Kranji","transit":false,"time":4,"i_lat":-6.224515,"line":1,"distance":2520,"i_long":106.977657,"is_transit":false,"station_id":"KRI"},{"i_lat":-6.219053,"is_transit":false,"time":3,"station_name":"Cakung","i_long":106.951283,"station_id":"CUK","transit":false,"distance":3097,"line":0},{"is_transit":false,"time":8,"distance":1385,"i_lat":-6.217455,"transit":false,"station_id":"KLDB","i_long":106.939679,"line":1,"station_name":"Klenderbaru"},{"i_long":106.922662,"i_lat":-6.215568,"transit":false,"station_name":"Buaran","line":0,"station_id":"BUA","distance":1305,"time":1,"is_transit":false},{"is_transit":false,"i_lat":-6.2135,"station_id":"KLD","transit":false,"station_name":"Klender","i_long":106.899548,"line":1,"distance":3100,"time":2},{"time":3,"distance":3395,"i_long":106.86807400000001,"station_name":"Jatinegara","station_id":"JNG","transit":true,"is_transit":true,"i_lat":-6.215091,"line":0},{"line":11,"distance":1236,"station_id":"POK","time":2,"i_long":106.861737,"is_transit":false,"station_name":"Pondok Jati","i_lat":-6.209188,"transit":false},{"is_transit":false,"station_id":"KMT","distance":1829,"line":11,"transit":false,"i_lat":-6.193792,"station_name":"Kramat","time":2,"i_long":106.855437},{"is_transit":false,"station_id":"GST","transit":false,"time":1,"i_lat":-6.185975,"i_long":106.850107,"distance":973,"station_name":"Gang Sentiong","line":11},{"station_name":"Pasar Senen","i_lat":-6.174784,"station_id":"PSE","line":11,"is_transit":false,"distance":1567,"transit":false,"time":8,"i_long":106.84368},{"transit":false,"line":11,"station_id":"KMO","i_lat":-6.161728,"is_transit":false,"time":4,"i_long":106.839204,"distance":1436,"station_name":"Kemayoran"},{"station_id":"RJW","distance":1901,"i_lat":-6.14505,"line":11,"station_name":"Rajawali","is_transit":false,"time":5,"transit":false,"i_long":106.836569},{"transit":true,"time":3,"line":0,"station_id":"KPB","station_name":"Kampung Bandan","i_lat":-6.132549,"i_long":106.826365,"distance":1444,"is_transit":true},{"line":0,"i_long":106.79867,"station_id":"AK","i_lat":-6.144674,"is_transit":false,"station_name":"Angke","distance":4102,"transit":false,"time":9},{"station_name":"Duri","transit":true,"distance":1230,"time":4,"is_transit":true,"i_long":106.800832,"i_lat":-6.155215,"line":1,"station_id":"DU"},{"station_name":"Tanah Abang","i_long":106.811091,"distance":3632,"time":8,"station_id":"THB","i_lat":-6.185545,"is_transit":true,"transit":false,"line":1},{"line":1,"station_name":"Karet","time":5,"station_id":"KAT","is_transit":false,"transit":false,"i_lat":-6.20132,"i_long":106.816351,"distance":2029},{"time":1,"distance":471,"transit":false,"station_id":"SUDB","i_long":106.819881,"station_name":"Sudirman Baru","i_lat":-6.201433,"is_transit":false,"line":1},{"station_id":"SUD","station_name":"Sudirman","line":1,"transit":false,"is_transit":false,"i_long":106.822649,"distance":280,"time":1,"i_lat":-6.202263},{"distance":3186,"transit":true,"station_id":"MRI","time":4,"i_lat":-6.209883,"line":0,"i_long":106.84912,"is_transit":true,"station_name":"Manggarai"},{"station_id":"TEB","is_transit":false,"transit":false,"i_lat":-6.226659,"time":4,"station_name":"Tebet","i_long":106.857948,"distance":2610,"line":2},{"distance":1230,"is_transit":false,"station_id":"CW","transit":false,"time":2,"line":0,"i_lat":-6.242512,"station_name":"Cawang","i_long":106.856607},{"line":0,"is_transit":false,"distance":1546,"i_lat":-6.255332,"station_id":"DRN","transit":false,"i_long":106.85449,"station_name":"Duren Kalibata","time":3}],[{"transit":false,"i_lat":-6.258864,"station_id":"TB","station_name":"Tambun","time":0,"distance":0,"is_transit":false,"i_long":107.055722,"line":1},{"transit":false,"distance":4460,"station_id":"BKST","station_name":"Bekasi Timur","i_lat":-6.248029,"is_transit":false,"line":0,"time":7,"i_long":107.016735},{"i_long":106.997013,"station_id":"BKS","time":2,"transit":false,"is_transit":false,"station_name":"Bekasi","i_lat":-6.236616,"line":0,"distance":2368},{"transit":false,"i_long":106.977657,"is_transit":false,"station_id":"KRI","line":1,"distance":2520,"time":4,"station_name":"Kranji","i_lat":-6.224515},{"line":0,"station_name":"Cakung","station_id":"CUK","transit":false,"i_long":106.951283,"i_lat":-6.219053,"time":3,"distance":3097,"is_transit":false},{"line":1,"transit":false,"time":8,"station_id":"KLDB","i_lat":-6.217455,"is_transit":false,"i_long":106.939679,"station_name":"Klenderbaru","distance":1385},{"station_id":"BUA","distance":1305,"station_name":"Buaran","time":1,"i_long":106.922662,"line":0,"is_transit":false,"transit":false,"i_lat":-6.215568},{"station_id":"KLD","line":1,"transit":false,"station_name":"Klender","time":2,"i_long":106.899548,"distance":3100,"is_transit":false,"i_lat":-6.2135},{"distance":3395,"transit":true,"station_name":"Jatinegara","time":3,"is_transit":true,"line":0,"station_id":"JNG","i_lat":-6.215091,"i_long":106.86807400000001},{"distance":1236,"time":2,"transit":false,"is_transit":false,"i_long":106.861737,"i_lat":-6.209188,"line":11,"station_id":"POK","station_name":"Pondok Jati"},{"i_long":106.855437,"transit":false,"time":2,"distance":1829,"station_id":"KMT","line":11,"i_lat":-6.193792,"is_transit":false,"station_name":"Kramat"},{"station_name":"Gang Sentiong","time":1,"line":11,"i_long":106.850107,"distance":973,"i_lat":-6.185975,"station_id":"GST","is_transit":false,"transit":false},{"time":8,"transit":false,"i_lat":-6.174784,"station_name":"Pasar Senen","line":11,"station_id":"PSE","distance":1567,"i_long":106.84368,"is_transit":false},{"is_transit":false,"distance":1436,"time":4,"transit":false,"station_name":"Kemayoran","station_id":"KMO","i_lat":-6.161728,"i_long":106.839204,"line":11},{"station_id":"RJW","line":11,"i_lat":-6.14505,"distance":1901,"station_name":"Rajawali","transit":false,"i_long":106.836569,"is_transit":false,"time":5},{"transit":true,"distance":1444,"is_transit":true,"time":3,"line":0,"station_id":"KPB","i_lat":-6.132549,"station_name":"Kampung Bandan","i_long":106.826365},{"distance":1364,"i_long":106.812439,"is_transit":true,"i_lat":-6.137569,"station_id":"JAKK","station_name":"Jakarta Kota","time":3,"line":0,"transit":true},{"transit":false,"i_long":106.820901,"line":7,"station_id":"JAY","distance":1264,"is_transit":false,"station_name":"Jayakarta","i_lat":-6.141205,"time":4},{"line":2,"distance":1080,"transit":false,"station_id":"MGB","is_transit":false,"station_name":"Manggabesar","time":2,"i_lat":-6.149769,"i_long":106.82482},{"time":2,"distance":906,"i_lat":-6.160725,"line":2,"i_long":106.827103,"is_transit":false,"transit":false,"station_id":"SW","station_name":"Sawah Besar"},{"line":2,"is_transit":false,"station_id":"JUA","i_lat":-6.166716,"transit":false,"station_name":"Juanda","distance":1149,"time":2,"i_long":106.828284},{"i_long":106.832183,"station_name":"Gondangdia","time":4,"i_lat":-6.186295,"is_transit":false,"transit":false,"station_id":"GDD","distance":2015,"line":2},{"transit":false,"time":3,"i_lat":-6.198556,"station_id":"CKI","is_transit":false,"distance":1750,"station_name":"Cikini","i_long":106.840169,"line":0},{"line":0,"is_transit":true,"station_name":"Manggarai","transit":true,"station_id":"MRI","time":4,"distance":1590,"i_lat":-6.209883,"i_long":106.84912},{"is_transit":false,"time":4,"i_lat":-6.226659,"station_name":"Tebet","transit":false,"station_id":"TEB","i_long":106.857948,"line":2,"distance":2610},{"station_name":"Cawang","station_id":"CW","is_transit":false,"distance":1230,"transit":false,"time":2,"i_lat":-6.242512,"i_long":106.856607,"line":0},{"station_id":"DRN","is_transit":false,"transit":false,"i_long":106.85449,"line":0,"i_lat":-6.255332,"time":3,"station_name":"Duren Kalibata","distance":1546}]]}