{"data":[[{"i_long":107.055722,"station_id":"TB","distance":0,"is_transit":false,"i_lat":-6.258864,"line":1,"transit":false,"time":0,"station_name":"Tambun"},{"transit":false,"time":7,"station_id":"BKST","station_name":"Bekasi Timur","distance":4460,"i_lat":-6.248029,"line":1,"is_transit":false,"i_long":107.016735},{"distance":2368,"line":1,"station_id":"BKS","station_name":"Bekasi","transit":false,"i_lat":-6.236616,"time":2,"is_transit":false,"i_long":106.997013},{"line":1,"is_transit":false,"i_long":106.977657,"time":4,"transit":false,"station_id":"KRI","station_name":"Kranji","distance":2520,"i_lat":-6.224515},{"distance":3097,"line":1,"i_long":106.951283,"i_lat":-6.219053,"station_id":"CUK","time":3,"transit":false,"station_name":"Cakung","is_transit":false},{"i_long":106.939679,"station_id":"KLDB","is_transit":false,"line":1,"station_name":"Klenderbaru","distance":1385,"i_lat":-6.217455,"transit":false,"time":8},{"is_transit":false,"station_id":"BUA","station_name":"Buaran","time":1,"line":1,"transit":false,"distance":1305,"i_lat":-6.215568,"i_long":106.922662},{"station_name":"Klender","i_long":106.899548,"station_id":"KLD","distance":3100,"transit":false,"i_lat":-6.2135,"is_transit":false,"line":1,"time":2},{"time":3,"i_long":106.86807400000001,"line":1,"station_id":"JNG","distance":3395,"is_transit":false,"i_lat":-6.215091,"station_name":"Jatinegara","transit":false},{"is_transit":false,"distance":1377,"i_long":106.858896,"line":1,"station_name":"Matraman","transit":false,"time":2,"i_lat":-6.212485,"station_id":"MTR"},{"time":2,"distance":1275,"i_lat":-6.209883,"station_id":"MRI","transit":true,"station_name":"Manggarai","is_transit":true,"line":2,"i_long":106.84912},{"transit":false,"time":4,"i_long":106.857948,"line":2,"station_id":"TEB","is_transit":false,"i_lat":-6.226659,"station_name":"Tebet","distance":2610},{"is_transit":false,"i_lat":-6.242512,"transit":false,"station_name":"Cawang","station_id":"CW","line":2,"i_long":106.856607,"distance":1230,"time":2},{"line":2,"i_lat":-6.255332,"i_long":106.85449,"station_id":"DRN","station_name":"Duren Kalibata","transit":false,"distance":1546,"is_transit":false,"time":3}],[{"distance":0,"i_long":107.055722,"time":0,"i_lat":-6.258864,"line":1,"transit":false,"station_name":"Tambun","is_transit":false,"station_id":"TB"},{"station_id":"BKST","i_long":107.016735,"line":1,"station_name":"Bekasi Timur","is_transit":false,"time":7,"distance":4460,"i_lat":-6.248029,"transit":false},{"i_long":106.997013,"time":2,"station_name":"Bekasi","line":1,"i_lat":-6.236616,"station_id":"BKS","transit":false,"is_transit":false,"distance":2368},{"distance":2520,"transit":false,"station_name":"Kranji","is_transit":false,"line":1,"station_id":"KRI","i_lat":-6.224515,"time":4,"i_long":106.977657},{"transit":false,"is_transit":false,"distance":3097,"line":1,"station_id":"CUK","time":3,"station_name":"Cakung","i_long":106.951283,"i_lat":-6.219053},{"distance":1385,"i_lat":-6.217455,"transit":false,"i_long":106.939679,"line":1,"station_id":"KLDB","station_name":"Klenderbaru","is_transit":false,"time":8},{"line":1,"is_transit":false,"distance":1305,"station_id":"BUA","station_name":"Buaran","time":1,"transit":false,"i_lat":-6.215568,"i_long":106.922662},{"i_long":106.899548,"is_transit":false,"station_id":"KLD","line":1,"station_name":"Klender","time":2,"i_lat":-6.2135,"distance":3100,"transit":false},{"is_transit":true,"distance":3395,"line":1,"transit":true,"i_lat":-6.215091,"i_long":106.86807400000001,"time":3,"station_name":"Jatinegara","station_id":"JNG"},{"transit":false,"time":2,"station_name":"Pondok Jati","is_transit":false,"distance":1236,"i_long":106.861737,"line":11,"station_id":"POK","i_lat":-6.209188},{"time":2,"station_name":"Kramat","transit":false,"i_long":106.855437,"station_id":"KMT","distance":1829,"line":11,"is_transit":false,"i_lat":-6.193792},{"distance":973,"i_lat":-6.185975,"is_transit":false,"line":11,"station_name":"Gang Sentiong","time":1,"i_long":106.850107,"transit":false,"station_id":"GST"},{"line":11,"time":8,"transit":false,"is_transit":false,"distance":1567,"station_id":"PSE","station_name":"Pasar Senen","i_lat":-6.174784,"i_long":106.84368},{"transit":false,"station_id":"KMO","time":4,"i_long":106.839204,"distance":1436,"station_name":"Kemayoran","is_transit":false,"i_lat":-6.161728,"line":11},{"station_id":"RJW","distance":1901,"station_name":"Rajawali","transit":false,"i_lat":-6.14505,"line":11,"is_transit":false,"i_long":106.836569,"time":5},{"station_id":"KPB","time":3,"station_name":"Kampung Bandan","is_transit":true,"i_lat":-6.132549,"distance":1444,"transit":true,"i_long":106.826365,"line":4},{"transit":false,"line":1,"time":9,"i_lat":-6.144674,"station_name":"Angke","i_long":106.79867,"distance":4102,"station_id":"AK","is_transit":false},{"is_transit":false,"transit":false,"i_long":106.800832,"station_name":"Duri","distance":1230,"station_id":"DU","i_lat":-6.155215,"line":1,"time":4},{"station_id":"THB","line":1,"station_name":"Tanah Abang","time":8,"distance":3632,"is_transit":false,"i_lat":-6.185545,"i_long":106.811091,"transit":false},{"distance":2029,"time":5,"transit":false,"i_lat":-6.20132,"station_id":"KAT","station_name":"Karet","is_transit":false,"i_long":106.816351,"line":1},{"is_transit":false,"station_name":"Sudirman Baru","time":1,"distance":471,"i_lat":-6.201433,"station_id":"SUDB","transit":false,"i_long":106.819881,"line":1},{"station_id":"SUD","transit":false,"is_transit":false,"i_lat":-6.202263,"i_long":106.822649,"time":1,"distance":280,"line":1,"station_name":"Sudirman"},{"i_lat":-6.209883,"transit":true,"station_id":"MRI","is_transit":true,"station_name":"Manggarai","line":2,"time":4,"i_long":106.84912,"distance":3186},{"time":4,"station_id":"TEB","is_transit":false,"i_lat":-6.226659,"i_long":106.857948,"station_name":"Tebet","line":2,"distance":2610,"transit":false},{"is_transit":false,"station_id":"CW","i_lat":-6.242512,"line":2,"transit":false,"i_long":106.856607,"station_name":"Cawang","distance":1230,"time":2},{"i_lat":-6.255332,"transit":false,"line":2,"i_long":106.85449,"distance":1546,"station_name":"Duren Kalibata","time":3,"station_id":"DRN","is_transit":false}],[{"i_lat":-6.258864,"i_long":107.055722,"line":1,"distance":0,"station_id":"TB","time":0,"transit":false,"is_transit":false,"station_name":"Tambun"},{"i_long":107.016735,"station_id":"BKST","distance":4460,"station_name":"Bekasi Timur","transit":false,"is_transit":false,"time":7,"i_lat":-6.248029,"line":1},{"i_lat":-6.236616,"time":2,"distance":2368,"station_name":"Bekasi","transit":false,"is_transit":false,"i_long":106.997013,"line":1,"station_id":"BKS"},{"transit":false,"distance":2520,"station_name":"Kranji","station_id":"KRI","i_long":106.977657,"is_transit":false,"i_lat":-6.224515,"time":4,"line":1},{"station_id":"CUK","transit":false,"station_name":"Cakung","is_transit":false,"i_long":106.951283,"distance":3097,"time":3,"line":1,"i_lat":-6.219053},{"distance":1385,"time":8,"station_name":"Klenderbaru","is_transit":false,"i_long":106.939679,"transit":false,"station_id":"KLDB","i_lat":-6.217455,"line":1},{"i_long":106.922662,"distance":1305,"station_id":"BUA","line":1,"time":1,"transit":false,"i_lat":-6.215568,"is_transit":false,"station_name":"Buaran"},{"line":1,"time":2,"distance":3100,"station_name":"Klender","transit":false,"is_transit":false,"i_lat":-6.2135,"station_id":"KLD","i_long":106.899548},{"line":1,"station_id":"JNG","i_lat":-6.215091,"is_transit":true,"transit":true,"i_long":106.86807400000001,"station_name":"Jatinegara","distance":3395,"time":3},{"line":11,"station_id":"POK","distance":1236,"i_lat":-6.209188,"is_transit":false,"time":2,"station_name":"Pondok Jati","transit":false,"i_long":106.861737},{"distance":1829,"i_lat":-6.193792,"transit":false,"is_transit":false,"i_long":106.855437,"time":2,"station_id":"KMT","line":11,"station_name":"Kramat"},{"station_id":"GST","i_long":106.850107,"is_transit":false,"transit":false,"distance":973,"i_lat":-6.185975,"line":11,"time":1,"station_name":"Gang Sentiong"},{"i_long":106.84368,"is_transit":false,"i_lat":-6.174784,"station_name":"Pasar Senen","station_id":"PSE","line":11,"transit":false,"time":8,"distance":1567},{"station_name":"Kemayoran","i_lat":-6.161728,"transit":false,"line":11,"time":4,"i_long":106.839204,"distance":1436,"station_id":"KMO","is_transit":false},{"i_lat":-6.14505,"is_transit":false,"line":11,"distance":1901,"i_long":106.836569,"station_id":"RJW","station_name":"Rajawali","time":5,"transit":false},{"distance":1444,"transit":true,"station_name":"Kampung Bandan","time":3,"is_transit":true,"i_lat":-6.132549,"line":4,"i_long":106.826365,"station_id":"KPB"},{"transit":true,"time":3,"station_id":"JAKK","i_lat":-6.137569,"is_transit":true,"line":2,"i_long":106.812439,"station_name":"Jakarta Kota","distance":1364},{"station_id":"JAY","i_lat":-6.141205,"station_name":"Jayakarta","is_transit":false,"transit":false,"time":4,"line":2,"i_long":106.820901,"distance":1264},{"line":2,"station_id":"MGB","distance":1080,"transit":false,"station_name":"Manggabesar","is_transit":false,"i_long":106.82482,"time":2,"i_lat":-6.149769},{"time":2,"station_name":"Sawah Besar","i_long":106.827103,"line":2,"station_id":"SW","i_lat":-6.160725,"transit":false,"distance":906,"is_transit":false},{"is_transit":false,"distance":1149,"station_id":"JUA","i_long":106.828284,"time":2,"line":2,"station_name":"Juanda","i_lat":-6.166716,"transit":false},{"transit":false,"station_name":"Gondangdia","line":2,"is_transit":false,"station_id":"GDD","distance":2015,"i_lat":-6.186295,"i_long":106.832183,"time":4},{"station_id":"CKI","time":3,"distance":1750,"transit":false,"is_transit":false,"i_lat":-6.198556,"station_name":"Cikini","i_long":106.840169,"line":2},{"distance":1590,"transit":false,"is_transit":false,"i_lat":-6.209883,"i_long":106.84912,"station_name":"Manggarai","time":4,"station_id":"MRI","line":2},{"distance":2610,"is_transit":false,"i_long":106.857948,"line":2,"transit":false,"time":4,"station_name":"Tebet","i_lat":-6.226659,"station_id":"TEB"},{"transit":false,"i_long":106.856607,"i_lat":-6.242512,"is_transit":false,"line":2,"station_name":"Cawang","station_id":"CW","distance":1230,"time":2},{"station_id":"DRN","transit":false,"line":2,"i_lat":-6.255332,"is_transit":false,"station_name":"Duren Kalibata","distance":1546,"i_long":106.85449,"time":3}]]}