{"data":[[{"station_name":"Tambun","is_transit":false,"time":0,"distance":0,"transit":false,"i_lat":-6.258864,"i_long":107.055722,"line":1,"station_id":"TB"},{"is_transit":false,"i_long":107.016735,"line":1,"transit":false,"station_id":"BKST","station_name":"Bekasi Timur","time":7,"distance":4460,"i_lat":-6.248029},{"line":1,"transit":false,"is_transit":false,"station_name":"Bekasi","time":2,"i_lat":-6.236616,"i_long":106.997013,"station_id":"BKS","distance":2368},{"i_lat":-6.224515,"distance":2520,"is_transit":false,"i_long":106.977657,"station_name":"Kranji","station_id":"KRI","transit":false,"time":4,"line":1},{"i_long":106.951283,"is_transit":false,"transit":false,"station_id":"CUK","station_name":"Cakung","time":3,"i_lat":-6.219053,"distance":3097,"line":1},{"line":1,"is_transit":false,"station_id":"KLDB","i_lat":-6.217455,"station_name":"Klenderbaru","time":8,"transit":false,"distance":1385,"i_long":106.939679},{"time":1,"is_transit":false,"transit":false,"station_name":"Buaran","i_lat":-6.215568,"i_long":106.922662,"distance":1305,"line":1,"station_id":"BUA"},{"is_transit":false,"transit":false,"station_name":"Klender","time":2,"distance":3100,"line":1,"i_lat":-6.2135,"i_long":106.899548,"station_id":"KLD"},{"station_id":"JNG","is_transit":false,"station_name":"Jatinegara","line":1,"i_lat":-6.215091,"time":3,"distance":3395,"i_long":106.86807400000001,"transit":false},{"i_long":106.858896,"transit":false,"time":2,"i_lat":-6.212485,"station_name":"Matraman","station_id":"MTR","distance":1377,"line":1,"is_transit":false},{"time":2,"station_name":"Manggarai","distance":1275,"line":2,"i_long":106.84912,"transit":true,"station_id":"MRI","is_transit":true,"i_lat":-6.209883},{"transit":false,"station_name":"Tebet","i_lat":-6.226659,"line":2,"is_transit":false,"time":4,"station_id":"TEB","i_long":106.857948,"distance":2610},{"station_id":"CW","time":2,"i_lat":-6.242512,"station_name":"Cawang","i_long":106.856607,"distance":1230,"line":2,"is_transit":false,"transit":false},{"time":3,"is_transit":false,"distance":1546,"i_long":106.85449,"station_name":"Duren Kalibata","station_id":"DRN","i_lat":-6.255332,"transit":false,"line":2}],[{"i_lat":-6.258864,"time":0,"transit":false,"station_name":"Tambun","line":1,"is_transit":false,"station_id":"TB","i_long":107.055722,"distance":0},{"line":1,"is_transit":false,"station_name":"Bekasi Timur","time":7,"transit":false,"i_long":107.016735,"station_id":"BKST","i_lat":-6.248029,"distance":4460},{"is_transit":false,"i_lat":-6.236616,"time":2,"line":1,"station_name":"Bekasi","distance":2368,"i_long":106.997013,"transit":false,"station_id":"BKS"},{"station_name":"Kranji","transit":false,"station_id":"KRI","is_transit":false,"time":4,"distance":2520,"i_lat":-6.224515,"i_long":106.977657,"line":1},{"time":3,"is_transit":false,"station_id":"CUK","distance":3097,"i_long":106.951283,"transit":false,"station_name":"Cakung","line":1,"i_lat":-6.219053},{"i_long":106.939679,"line":1,"transit":false,"is_transit":false,"i_lat":-6.217455,"station_id":"KLDB","distance":1385,"station_name":"Klenderbaru","time":8},{"line":1,"station_name":"Buaran","is_transit":false,"i_long":106.922662,"transit":false,"i_lat":-6.215568,"distance":1305,"station_id":"BUA","time":1},{"distance":3100,"i_long":106.899548,"transit":false,"station_id":"KLD","i_lat":-6.2135,"is_transit":false,"station_name":"Klender","time":2,"line":1},{"is_transit":true,"i_long":106.86807400000001,"line":1,"station_name":"Jatinegara","transit":true,"distance":3395,"time":3,"i_lat":-6.215091,"station_id":"JNG"},{"time":2,"line":11,"i_lat":-6.209188,"transit":false,"station_name":"Pondok Jati","is_transit":false,"distance":1236,"i_long":106.861737,"station_id":"POK"},{"i_long":106.855437,"is_transit":false,"time":2,"station_name":"Kramat","transit":false,"station_id":"KMT","i_lat":-6.193792,"line":11,"distance":1829},{"station_id":"GST","transit":false,"is_transit":false,"i_lat":-6.185975,"i_long":106.850107,"time":1,"distance":973,"station_name":"Gang Sentiong","line":11},{"i_long":106.84368,"time":8,"line":11,"transit":false,"station_id":"PSE","station_name":"Pasar Senen","is_transit":false,"distance":1567,"i_lat":-6.174784},{"transit":false,"time":4,"line":11,"is_transit":false,"station_id":"KMO","distance":1436,"i_lat":-6.161728,"i_long":106.839204,"station_name":"Kemayoran"},{"station_name":"Rajawali","is_transit":false,"i_lat":-6.14505,"i_long":106.836569,"time":5,"distance":1901,"transit":false,"line":11,"station_id":"RJW"},{"line":4,"transit":true,"is_transit":true,"station_name":"Kampung Bandan","time":3,"i_long":106.826365,"station_id":"KPB","i_lat":-6.132549,"distance":1444},{"line":1,"station_name":"Angke","station_id":"AK","i_long":106.79867,"is_transit":false,"distance":4102,"time":9,"i_lat":-6.144674,"transit":false},{"time":4,"i_lat":-6.155215,"distance":1230,"station_id":"DU","transit":false,"station_name":"Duri","is_transit":false,"i_long":106.800832,"line":1},{"line":1,"time":8,"station_id":"THB","i_lat":-6.185545,"transit":false,"distance":3632,"is_transit":false,"i_long":106.811091,"station_name":"Tanah Abang"},{"time":5,"transit":false,"distance":2029,"i_lat":-6.20132,"is_transit":false,"station_name":"Karet","station_id":"KAT","i_long":106.816351,"line":1},{"is_transit":false,"distance":471,"time":1,"line":1,"i_lat":-6.201433,"i_long":106.819881,"transit":false,"station_name":"Sudirman Baru","station_id":"SUDB"},{"i_long":106.822649,"transit":false,"station_id":"SUD","i_lat":-6.202263,"line":1,"distance":280,"time":1,"is_transit":false,"station_name":"Sudirman"},{"i_lat":-6.209883,"i_long":106.84912,"is_transit":true,"transit":true,"distance":3186,"station_name":"Manggarai","time":4,"line":2,"station_id":"MRI"},{"station_name":"Tebet","is_transit":false,"time":4,"i_lat":-6.226659,"station_id":"TEB","distance":2610,"line":2,"i_long":106.857948,"transit":false},{"station_name":"Cawang","station_id":"CW","i_long":106.856607,"time":2,"distance":1230,"transit":false,"is_transit":false,"line":2,"i_lat":-6.242512},{"transit":false,"i_lat":-6.255332,"station_name":"Duren Kalibata","time":3,"i_long":106.85449,"station_id":"DRN","line":2,"distance":1546,"is_transit":false}],[{"is_transit":false,"transit":false,"station_name":"Tambun","distance":0,"time":0,"i_long":107.055722,"i_lat":-6.258864,"line":1,"station_id":"TB"},{"i_lat":-6.248029,"time":7,"station_id":"BKST","transit":false,"is_transit":false,"distance":4460,"i_long":107.016735,"station_name":"Bekasi Timur","line":1},{"i_long":106.997013,"time":2,"i_lat":-6.236616,"line":1,"distance":2368,"station_name":"Bekasi","station_id":"BKS","is_transit":false,"transit":false},{"is_transit":false,"station_id":"KRI","i_lat":-6.224515,"i_long":106.977657,"station_name":"Kranji","line":1,"transit":false,"time":4,"distance":2520},{"transit":false,"is_transit":false,"i_lat":-6.219053,"line":1,"station_name":"Cakung","station_id":"CUK","i_long":106.951283,"distance":3097,"time":3},{"i_lat":-6.217455,"station_name":"Klenderbaru","is_transit":false,"transit":false,"time":8,"i_long":106.939679,"distance":1385,"line":1,"station_id":"KLDB"},{"station_name":"Buaran","station_id":"BUA","is_transit":false,"time":1,"distance":1305,"line":1,"i_long":106.922662,"transit":false,"i_lat":-6.215568},{"i_lat":-6.2135,"is_transit":false,"station_name":"Klender","distance":3100,"line":1,"transit":false,"i_long":106.899548,"station_id":"KLD","time":2},{"time":3,"i_lat":-6.215091,"line":1,"transit":true,"station_id":"JNG","station_name":"Jatinegara","is_transit":true,"i_long":106.86807400000001,"distance":3395},{"line":11,"time":2,"transit":false,"station_name":"Pondok Jati","i_long":106.861737,"i_lat":-6.209188,"station_id":"POK","is_transit":false,"distance":1236},{"i_lat":-6.193792,"is_transit":false,"time":2,"i_long":106.855437,"transit":false,"station_name":"Kramat","distance":1829,"line":11,"station_id":"KMT"},{"station_name":"Gang Sentiong","time":1,"transit":false,"distance":973,"i_long":106.850107,"line":11,"station_id":"GST","is_transit":false,"i_lat":-6.185975},{"time":8,"transit":false,"i_long":106.84368,"is_transit":false,"distance":1567,"station_id":"PSE","i_lat":-6.174784,"station_name":"Pasar Senen","line":11},{"time":4,"distance":1436,"transit":false,"station_name":"Kemayoran","i_long":106.839204,"station_id":"KMO","is_transit":false,"line":11,"i_lat":-6.161728},{"line":11,"station_id":"RJW","i_long":106.836569,"station_name":"Rajawali","is_transit":false,"time":5,"i_lat":-6.14505,"transit":false,"distance":1901},{"i_lat":-6.132549,"station_name":"Kampung Bandan","is_transit":true,"distance":1444,"line":4,"transit":true,"station_id":"KPB","i_long":106.826365,"time":3},{"i_long":106.812439,"line":2,"is_transit":true,"station_id":"JAKK","transit":true,"station_name":"Jakarta Kota","time":3,"i_lat":-6.137569,"distance":1364},{"is_transit":false,"time":4,"distance":1264,"i_lat":-6.141205,"station_id":"JAY","i_long":106.820901,"line":2,"station_name":"Jayakarta","transit":false},{"station_name":"Manggabesar","time":2,"is_transit":false,"distance":1080,"i_long":106.82482,"line":2,"transit":false,"station_id":"MGB","i_lat":-6.149769},{"i_long":106.827103,"line":2,"station_name":"Sawah Besar","station_id":"SW","i_lat":-6.160725,"is_transit":false,"time":2,"distance":906,"transit":false},{"is_transit":false,"transit":false,"i_lat":-6.166716,"time":2,"distance":1149,"i_long":106.828284,"line":2,"station_name":"Juanda","station_id":"JUA"},{"transit":false,"line":2,"i_long":106.832183,"station_id":"GDD","station_name":"Gondangdia","i_lat":-6.186295,"time":4,"is_transit":false,"distance":2015},{"distance":1750,"i_lat":-6.198556,"line":2,"station_name":"Cikini","i_long":106.840169,"station_id":"CKI","is_transit":false,"transit":false,"time":3},{"line":2,"transit":false,"i_long":106.84912,"is_transit":false,"station_name":"Manggarai","station_id":"MRI","distance":1590,"i_lat":-6.209883,"time":4},{"station_id":"TEB","line":2,"is_transit":false,"time":4,"station_name":"Tebet","distance":2610,"transit":false,"i_lat":-6.226659,"i_long":106.857948},{"transit":false,"station_name":"Cawang","i_long":106.856607,"time":2,"is_transit":false,"line":2,"station_id":"CW","distance":1230,"i_lat":-6.242512},{"line":2,"i_lat":-6.255332,"transit":false,"i_long":106.85449,"station_id":"DRN","station_name":"Duren Kalibata","distance":1546,"is_transit":false,"time":3}]]}