{"data":[[{"transit":false,"i_long":107.055722,"is_transit":false,"station_name":"Tambun","distance":0,"station_id":"TB","i_lat":-6.258864,"line":1,"time":0},{"station_id":"BKST","station_name":"Bekasi Timur","i_lat":-6.248029,"line":1,"distance":4460,"transit":false,"i_long":107.016735,"is_transit":false,"time":7},{"station_id":"BKS","i_lat":-6.236616,"time":2,"is_transit":false,"line":1,"station_name":"Bekasi","i_long":106.997013,"distance":2368,"transit":false},{"station_id":"KRI","station_name":"Kranji","line":1,"time":4,"is_transit":false,"transit":false,"i_long":106.977657,"distance":2520,"i_lat":-6.224515},{"station_name":"Cakung","station_id":"CUK","i_long":106.951283,"time":3,"is_transit":false,"line":1,"i_lat":-6.219053,"transit":false,"distance":3097},{"time":8,"line":1,"transit":false,"is_transit":false,"station_id":"KLDB","distance":1385,"station_name":"Klenderbaru","i_long":106.939679,"i_lat":-6.217455},{"transit":false,"is_transit":false,"station_name":"Buaran","i_long":106.922662,"line":1,"distance":1305,"station_id":"BUA","i_lat":-6.215568,"time":1},{"time":2,"i_lat":-6.2135,"transit":false,"station_id":"KLD","i_long":106.899548,"line":1,"distance":3100,"station_name":"Klender","is_transit":false},{"i_lat":-6.215091,"line":1,"transit":false,"is_transit":false,"i_long":106.86807400000001,"station_id":"JNG","time":3,"distance":3395,"station_name":"Jatinegara"},{"is_transit":false,"station_name":"Matraman","distance":1377,"i_long":106.858896,"i_lat":-6.212485,"time":2,"line":1,"station_id":"MTR","transit":false},{"station_id":"MRI","i_lat":-6.209883,"station_name":"Manggarai","is_transit":true,"distance":1275,"i_long":106.84912,"line":2,"time":2,"transit":true},{"is_transit":false,"time":4,"distance":2610,"station_name":"Tebet","i_long":106.857948,"i_lat":-6.226659,"transit":false,"line":2,"station_id":"TEB"},{"is_transit":false,"station_name":"Cawang","distance":1230,"time":2,"i_long":106.856607,"line":2,"transit":false,"station_id":"CW","i_lat":-6.242512},{"station_id":"DRN","line":2,"i_lat":-6.255332,"transit":false,"time":3,"is_transit":false,"station_name":"Duren Kalibata","distance":1546,"i_long":106.85449}],[{"station_name":"Tambun","i_long":107.055722,"time":0,"transit":false,"is_transit":false,"i_lat":-6.258864,"line":1,"distance":0,"station_id":"TB"},{"transit":false,"station_name":"Bekasi Timur","time":7,"i_lat":-6.248029,"distance":4460,"station_id":"BKST","line":1,"is_transit":false,"i_long":107.016735},{"station_id":"BKS","line":1,"i_lat":-6.236616,"is_transit":false,"time":2,"transit":false,"distance":2368,"i_long":106.997013,"station_name":"Bekasi"},{"station_id":"KRI","i_lat":-6.224515,"time":4,"distance":2520,"transit":false,"i_long":106.977657,"station_name":"Kranji","is_transit":false,"line":1},{"line":1,"transit":false,"is_transit":false,"distance":3097,"station_name":"Cakung","time":3,"station_id":"CUK","i_long":106.951283,"i_lat":-6.219053},{"line":1,"i_lat":-6.217455,"time":8,"station_id":"KLDB","is_transit":false,"distance":1385,"station_name":"Klenderbaru","transit":false,"i_long":106.939679},{"distance":1305,"time":1,"i_lat":-6.215568,"transit":false,"i_long":106.922662,"line":1,"is_transit":false,"station_id":"BUA","station_name":"Buaran"},{"transit":false,"i_long":106.899548,"station_name":"Klender","is_transit":false,"line":1,"station_id":"KLD","time":2,"distance":3100,"i_lat":-6.2135},{"station_id":"JNG","is_transit":true,"transit":true,"line":1,"station_name":"Jatinegara","i_lat":-6.215091,"i_long":106.86807400000001,"distance":3395,"time":3},{"time":2,"transit":false,"is_transit":false,"distance":1236,"i_lat":-6.209188,"i_long":106.861737,"line":11,"station_name":"Pondok Jati","station_id":"POK"},{"distance":1829,"time":2,"i_lat":-6.193792,"station_id":"KMT","transit":false,"station_name":"Kramat","i_long":106.855437,"is_transit":false,"line":11},{"i_lat":-6.185975,"i_long":106.850107,"transit":false,"station_name":"Gang Sentiong","is_transit":false,"distance":973,"line":11,"time":1,"station_id":"GST"},{"i_lat":-6.174784,"station_name":"Pasar Senen","i_long":106.84368,"is_transit":false,"transit":false,"distance":1567,"line":11,"time":8,"station_id":"PSE"},{"is_transit":false,"i_long":106.839204,"station_id":"KMO","time":4,"i_lat":-6.161728,"transit":false,"line":11,"distance":1436,"station_name":"Kemayoran"},{"transit":false,"station_id":"RJW","distance":1901,"i_long":106.836569,"is_transit":false,"time":5,"station_name":"Rajawali","i_lat":-6.14505,"line":11},{"distance":1444,"i_long":106.826365,"transit":true,"line":4,"station_id":"KPB","time":3,"i_lat":-6.132549,"station_name":"Kampung Bandan","is_transit":true},{"station_name":"Angke","station_id":"AK","i_long":106.79867,"time":9,"transit":false,"distance":4102,"i_lat":-6.144674,"is_transit":false,"line":1},{"is_transit":false,"station_name":"Duri","i_lat":-6.155215,"transit":false,"distance":1230,"station_id":"DU","i_long":106.800832,"time":4,"line":1},{"distance":3632,"is_transit":false,"transit":false,"time":8,"station_id":"THB","i_lat":-6.185545,"i_long":106.811091,"station_name":"Tanah Abang","line":1},{"is_transit":false,"line":1,"time":5,"transit":false,"distance":2029,"station_id":"KAT","station_name":"Karet","i_lat":-6.20132,"i_long":106.816351},{"distance":471,"station_name":"Sudirman Baru","i_long":106.819881,"transit":false,"line":1,"is_transit":false,"i_lat":-6.201433,"time":1,"station_id":"SUDB"},{"is_transit":false,"station_name":"Sudirman","time":1,"distance":280,"i_lat":-6.202263,"station_id":"SUD","transit":false,"i_long":106.822649,"line":1},{"is_transit":true,"station_id":"MRI","time":4,"i_long":106.84912,"station_name":"Manggarai","line":2,"distance":3186,"transit":true,"i_lat":-6.209883},{"station_name":"Tebet","time":4,"is_transit":false,"i_long":106.857948,"transit":false,"i_lat":-6.226659,"distance":2610,"station_id":"TEB","line":2},{"time":2,"distance":1230,"station_name":"Cawang","transit":false,"i_long":106.856607,"line":2,"station_id":"CW","is_transit":false,"i_lat":-6.242512},{"station_id":"DRN","is_transit":false,"station_name":"Duren Kalibata","distance":1546,"transit":false,"i_long":106.85449,"i_lat":-6.255332,"line":2,"time":3}],[{"distance":0,"line":1,"station_name":"Tambun","transit":false,"i_lat":-6.258864,"station_id":"TB","i_long":107.055722,"time":0,"is_transit":false},{"distance":4460,"i_lat":-6.248029,"is_transit":false,"station_id":"BKST","i_long":107.016735,"transit":false,"line":1,"station_name":"Bekasi Timur","time":7},{"transit":false,"is_transit":false,"line":1,"time":2,"distance":2368,"i_long":106.997013,"i_lat":-6.236616,"station_name":"Bekasi","station_id":"BKS"},{"i_lat":-6.224515,"time":4,"line":1,"transit":false,"distance":2520,"is_transit":false,"station_id":"KRI","i_long":106.977657,"station_name":"Kranji"},{"i_long":106.951283,"time":3,"transit":false,"line":1,"station_name":"Cakung","distance":3097,"station_id":"CUK","is_transit":false,"i_lat":-6.219053},{"station_name":"Klenderbaru","i_long":106.939679,"transit":false,"distance":1385,"i_lat":-6.217455,"time":8,"station_id":"KLDB","is_transit":false,"line":1},{"transit":false,"time":1,"i_lat":-6.215568,"line":1,"station_id":"BUA","is_transit":false,"station_name":"Buaran","i_long":106.922662,"distance":1305},{"transit":false,"distance":3100,"time":2,"station_name":"Klender","i_long":106.899548,"is_transit":false,"station_id":"KLD","line":1,"i_lat":-6.2135},{"station_id":"JNG","station_name":"Jatinegara","line":1,"transit":true,"i_lat":-6.215091,"i_long":106.86807400000001,"distance":3395,"time":3,"is_transit":true},{"transit":false,"station_id":"POK","distance":1236,"i_lat":-6.209188,"station_name":"Pondok Jati","time":2,"i_long":106.861737,"is_transit":false,"line":11},{"i_long":106.855437,"line":11,"distance":1829,"is_transit":false,"station_name":"Kramat","transit":false,"i_lat":-6.193792,"time":2,"station_id":"KMT"},{"station_name":"Gang Sentiong","distance":973,"i_lat":-6.185975,"time":1,"is_transit":false,"line":11,"station_id":"GST","i_long":106.850107,"transit":false},{"transit":false,"i_long":106.84368,"distance":1567,"is_transit":false,"station_id":"PSE","i_lat":-6.174784,"line":11,"time":8,"station_name":"Pasar Senen"},{"distance":1436,"is_transit":false,"line":11,"station_id":"KMO","time":4,"station_name":"Kemayoran","i_lat":-6.161728,"i_long":106.839204,"transit":false},{"station_id":"RJW","distance":1901,"line":11,"time":5,"is_transit":false,"i_long":106.836569,"transit":false,"i_lat":-6.14505,"station_name":"Rajawali"},{"is_transit":true,"station_name":"Kampung Bandan","transit":true,"i_long":106.826365,"time":3,"station_id":"KPB","i_lat":-6.132549,"distance":1444,"line":4},{"transit":true,"distance":1364,"is_transit":true,"time":3,"i_lat":-6.137569,"i_long":106.812439,"station_name":"Jakarta Kota","line":2,"station_id":"JAKK"},{"transit":false,"line":2,"time":4,"is_transit":false,"i_lat":-6.141205,"station_id":"JAY","i_long":106.820901,"distance":1264,"station_name":"Jayakarta"},{"transit":false,"i_lat":-6.149769,"station_name":"Manggabesar","line":2,"i_long":106.82482,"distance":1080,"is_transit":false,"station_id":"MGB","time":2},{"distance":906,"i_long":106.827103,"i_lat":-6.160725,"is_transit":false,"station_name":"Sawah Besar","line":2,"time":2,"transit":false,"station_id":"SW"},{"i_long":106.828284,"time":2,"transit":false,"distance":1149,"line":2,"i_lat":-6.166716,"station_name":"Juanda","station_id":"JUA","is_transit":false},{"transit":false,"station_id":"GDD","is_transit":false,"station_name":"Gondangdia","time":4,"i_lat":-6.186295,"line":2,"i_long":106.832183,"distance":2015},{"transit":false,"is_transit":false,"line":2,"station_id":"CKI","i_long":106.840169,"time":3,"distance":1750,"station_name":"Cikini","i_lat":-6.198556},{"i_lat":-6.209883,"station_name":"Manggarai","transit":false,"is_transit":false,"distance":1590,"line":2,"station_id":"MRI","time":4,"i_long":106.84912},{"is_transit":false,"distance":2610,"i_lat":-6.226659,"line":2,"station_name":"Tebet","i_long":106.857948,"transit":false,"station_id":"TEB","time":4},{"is_transit":false,"station_name":"Cawang","i_lat":-6.242512,"distance":1230,"station_id":"CW","line":2,"time":2,"i_long":106.856607,"transit":false},{"distance":1546,"i_lat":-6.255332,"time":3,"i_long":106.85449,"line":2,"is_transit":false,"transit":false,"station_id":"DRN","station_name":"Duren Kalibata"}]]}