{"data":[[{"transit":false,"line":1,"distance":0,"station_name":"Tambun","i_long":107.055722,"time":0,"is_transit":false,"station_id":"TB","i_lat":-6.258864},{"time":7,"is_transit":false,"transit":false,"distance":4460,"i_lat":-6.248029,"line":1,"station_id":"BKST","station_name":"Bekasi Timur","i_long":107.016735},{"transit":false,"station_id":"BKS","i_lat":-6.236616,"line":1,"distance":2368,"time":2,"station_name":"Bekasi","i_long":106.997013,"is_transit":false},{"distance":2520,"time":4,"station_id":"KRI","is_transit":false,"transit":false,"station_name":"Kranji","i_long":106.977657,"i_lat":-6.224515,"line":1},{"i_long":106.951283,"station_id":"CUK","distance":3097,"is_transit":false,"transit":false,"station_name":"Cakung","time":3,"i_lat":-6.219053,"line":1},{"distance":1385,"time":8,"is_transit":false,"i_lat":-6.217455,"i_long":106.939679,"station_name":"Klenderbaru","transit":false,"station_id":"KLDB","line":1},{"time":1,"station_id":"BUA","station_name":"Buaran","distance":1305,"transit":false,"is_transit":false,"i_lat":-6.215568,"line":1,"i_long":106.922662},{"time":2,"station_id":"KLD","transit":false,"line":1,"is_transit":false,"station_name":"Klender","i_lat":-6.2135,"i_long":106.899548,"distance":3100},{"i_long":106.86807400000001,"transit":true,"time":3,"station_id":"JNG","station_name":"Jatinegara","line":1,"distance":3395,"is_transit":true,"i_lat":-6.215091},{"is_transit":false,"line":11,"transit":false,"i_lat":-6.209188,"i_long":106.861737,"station_name":"Pondok Jati","time":2,"distance":1236,"station_id":"POK"},{"i_long":106.855437,"station_id":"KMT","station_name":"Kramat","distance":1829,"transit":false,"line":11,"is_transit":false,"i_lat":-6.193792,"time":2},{"i_lat":-6.185975,"transit":false,"i_long":106.850107,"distance":973,"time":1,"station_id":"GST","is_transit":false,"station_name":"Gang Sentiong","line":11}],[{"is_transit":false,"station_id":"TB","transit":false,"time":0,"station_name":"Tambun","line":1,"distance":0,"i_long":107.055722,"i_lat":-6.258864},{"time":7,"line":1,"transit":false,"station_name":"Bekasi Timur","i_lat":-6.248029,"is_transit":false,"i_long":107.016735,"station_id":"BKST","distance":4460},{"station_id":"BKS","time":2,"station_name":"Bekasi","distance":2368,"transit":false,"is_transit":false,"line":1,"i_lat":-6.236616,"i_long":106.997013},{"i_long":106.977657,"line":1,"station_id":"KRI","i_lat":-6.224515,"distance":2520,"time":4,"is_transit":false,"transit":false,"station_name":"Kranji"},{"i_long":106.951283,"line":1,"transit":false,"is_transit":false,"station_name":"Cakung","station_id":"CUK","distance":3097,"time":3,"i_lat":-6.219053},{"is_transit":false,"i_lat":-6.217455,"i_long":106.939679,"time":8,"station_name":"Klenderbaru","line":1,"transit":false,"distance":1385,"station_id":"KLDB"},{"station_id":"BUA","transit":false,"line":1,"i_long":106.922662,"i_lat":-6.215568,"station_name":"Buaran","distance":1305,"time":1,"is_transit":false},{"i_long":106.899548,"is_transit":false,"transit":false,"station_id":"KLD","i_lat":-6.2135,"line":1,"station_name":"Klender","distance":3100,"time":2},{"station_id":"JNG","time":3,"i_long":106.86807400000001,"line":1,"distance":3395,"transit":false,"station_name":"Jatinegara","is_transit":false,"i_lat":-6.215091},{"time":2,"station_id":"MTR","i_lat":-6.212485,"is_transit":false,"i_long":106.858896,"line":1,"station_name":"Matraman","distance":1377,"transit":false},{"i_long":106.84912,"station_id":"MRI","distance":1275,"line":2,"transit":false,"is_transit":false,"station_name":"Manggarai","i_lat":-6.209883,"time":2},{"station_id":"SUD","i_lat":-6.202263,"station_name":"Sudirman","distance":3186,"line":1,"is_transit":false,"transit":false,"i_long":106.822649,"time":4},{"station_id":"SUDB","is_transit":false,"station_name":"Sudirman Baru","i_lat":-6.201433,"i_long":106.819881,"line":1,"transit":false,"time":1,"distance":280},{"is_transit":false,"i_lat":-6.20132,"time":1,"distance":471,"station_id":"KAT","transit":false,"station_name":"Karet","i_long":106.816351,"line":1},{"station_id":"THB","i_long":106.811091,"line":1,"distance":2029,"station_name":"Tanah Abang","i_lat":-6.185545,"time":5,"is_transit":false,"transit":false},{"time":8,"station_id":"DU","distance":3632,"is_transit":false,"line":1,"transit":false,"i_lat":-6.155215,"station_name":"Duri","i_long":106.800832},{"i_lat":-6.144674,"is_transit":false,"station_id":"AK","time":4,"station_name":"Angke","distance":1230,"i_long":106.79867,"transit":false,"line":1},{"transit":true,"time":9,"distance":4102,"i_lat":-6.132549,"line":4,"is_transit":true,"station_name":"Kampung Bandan","i_long":106.826365,"station_id":"KPB"},{"line":11,"station_name":"Rajawali","time":3,"i_lat":-6.14505,"i_long":106.836569,"station_id":"RJW","distance":1444,"is_transit":false,"transit":false},{"distance":1901,"is_transit":false,"transit":false,"i_lat":-6.161728,"i_long":106.839204,"line":11,"station_id":"KMO","time":5,"station_name":"Kemayoran"},{"line":11,"is_transit":false,"transit":false,"time":4,"station_id":"PSE","i_lat":-6.174784,"station_name":"Pasar Senen","distance":1436,"i_long":106.84368},{"station_name":"Gang Sentiong","station_id":"GST","i_long":106.850107,"is_transit":false,"transit":false,"i_lat":-6.185975,"line":11,"distance":1567,"time":8}],[{"station_id":"TB","is_transit":false,"i_lat":-6.258864,"line":1,"station_name":"Tambun","distance":0,"transit":false,"i_long":107.055722,"time":0},{"station_id":"BKST","distance":4460,"is_transit":false,"station_name":"Bekasi Timur","i_lat":-6.248029,"i_long":107.016735,"time":7,"transit":false,"line":1},{"distance":2368,"is_transit":false,"station_id":"BKS","i_lat":-6.236616,"transit":false,"line":1,"time":2,"station_name":"Bekasi","i_long":106.997013},{"transit":false,"distance":2520,"i_long":106.977657,"line":1,"is_transit":false,"station_id":"KRI","i_lat":-6.224515,"time":4,"station_name":"Kranji"},{"station_id":"CUK","i_lat":-6.219053,"i_long":106.951283,"distance":3097,"time":3,"station_name":"Cakung","is_transit":false,"line":1,"transit":false},{"transit":false,"is_transit":false,"station_name":"Klenderbaru","time":8,"station_id":"KLDB","i_lat":-6.217455,"distance":1385,"line":1,"i_long":106.939679},{"line":1,"is_transit":false,"distance":1305,"station_name":"Buaran","transit":false,"i_lat":-6.215568,"i_long":106.922662,"time":1,"station_id":"BUA"},{"i_lat":-6.2135,"is_transit":false,"station_id":"KLD","time":2,"distance":3100,"transit":false,"line":1,"station_name":"Klender","i_long":106.899548},{"time":3,"transit":false,"i_long":106.86807400000001,"station_id":"JNG","distance":3395,"is_transit":false,"station_name":"Jatinegara","i_lat":-6.215091,"line":1},{"distance":1377,"i_lat":-6.212485,"station_name":"Matraman","i_long":106.858896,"line":1,"is_transit":false,"transit":false,"station_id":"MTR","time":2},{"transit":true,"station_name":"Manggarai","is_transit":true,"i_lat":-6.209883,"line":2,"station_id":"MRI","distance":1275,"i_long":106.84912,"time":2},{"station_name":"Cikini","i_long":106.840169,"distance":1590,"is_transit":false,"line":2,"transit":false,"time":4,"station_id":"CKI","i_lat":-6.198556},{"is_transit":false,"time":3,"transit":false,"station_name":"Gondangdia","station_id":"GDD","i_lat":-6.186295,"distance":1750,"line":2,"i_long":106.832183},{"time":4,"transit":false,"station_name":"Juanda","is_transit":false,"i_lat":-6.166716,"line":2,"i_long":106.828284,"distance":2015,"station_id":"JUA"},{"station_id":"SW","distance":1149,"i_lat":-6.160725,"is_transit":false,"line":2,"time":2,"i_long":106.827103,"transit":false,"station_name":"Sawah Besar"},{"i_lat":-6.149769,"distance":906,"transit":false,"station_name":"Manggabesar","time":2,"line":2,"station_id":"MGB","is_transit":false,"i_long":106.82482},{"is_transit":false,"station_name":"Jayakarta","line":2,"transit":false,"i_lat":-6.141205,"distance":1080,"station_id":"JAY","i_long":106.820901,"time":2},{"station_name":"Jakarta Kota","time":4,"station_id":"JAKK","is_transit":true,"line":2,"i_lat":-6.137569,"transit":true,"i_long":106.812439,"distance":1264},{"i_lat":-6.132549,"time":3,"i_long":106.826365,"line":4,"is_transit":true,"transit":true,"distance":1364,"station_name":"Kampung Bandan","station_id":"KPB"},{"line":11,"transit":false,"i_lat":-6.14505,"distance":1444,"is_transit":false,"time":3,"station_id":"RJW","station_name":"Rajawali","i_long":106.836569},{"station_name":"Kemayoran","line":11,"station_id":"KMO","is_transit":false,"time":5,"distance":1901,"i_long":106.839204,"transit":false,"i_lat":-6.161728},{"time":4,"distance":1436,"is_transit":false,"i_lat":-6.174784,"station_name":"Pasar Senen","i_long":106.84368,"station_id":"PSE","line":11,"transit":false},{"time":8,"i_long":106.850107,"distance":1567,"station_name":"Gang Sentiong","is_transit":false,"i_lat":-6.185975,"line":11,"transit":false,"station_id":"GST"}]]}