{"data":[[{"time":0,"transit":false,"station_name":"Tambun","line":1,"station_id":"TB","i_lat":-6.258864,"i_long":107.055722,"is_transit":false,"distance":0},{"i_long":107.016735,"station_id":"BKST","station_name":"Bekasi Timur","distance":4460,"time":7,"is_transit":false,"transit":false,"line":1,"i_lat":-6.248029},{"i_long":106.997013,"is_transit":false,"station_id":"BKS","distance":2368,"transit":false,"station_name":"Bekasi","line":1,"time":2,"i_lat":-6.236616},{"time":4,"station_id":"KRI","is_transit":false,"i_long":106.977657,"distance":2520,"i_lat":-6.224515,"line":1,"station_name":"Kranji","transit":false},{"i_long":106.951283,"distance":3097,"station_name":"Cakung","transit":false,"i_lat":-6.219053,"time":3,"is_transit":false,"line":1,"station_id":"CUK"},{"is_transit":false,"i_lat":-6.217455,"station_id":"KLDB","station_name":"Klenderbaru","transit":false,"line":1,"time":8,"i_long":106.939679,"distance":1385},{"station_name":"Buaran","line":1,"i_lat":-6.215568,"is_transit":false,"station_id":"BUA","time":1,"distance":1305,"transit":false,"i_long":106.922662},{"i_lat":-6.2135,"is_transit":false,"time":2,"distance":3100,"line":1,"i_long":106.899548,"station_id":"KLD","station_name":"Klender","transit":false},{"distance":3395,"station_id":"JNG","is_transit":false,"station_name":"Jatinegara","i_lat":-6.215091,"time":3,"transit":false,"line":1,"i_long":106.86807400000001},{"line":1,"is_transit":false,"i_long":106.858896,"station_name":"Matraman","distance":1377,"time":2,"i_lat":-6.212485,"transit":false,"station_id":"MTR"},{"is_transit":true,"station_name":"Manggarai","transit":true,"i_long":106.84912,"time":2,"i_lat":-6.209883,"line":2,"station_id":"MRI","distance":1275},{"transit":false,"is_transit":false,"line":2,"time":4,"station_id":"CKI","i_long":106.840169,"station_name":"Cikini","i_lat":-6.198556,"distance":1590},{"i_long":106.832183,"time":3,"distance":1750,"station_id":"GDD","is_transit":false,"line":2,"station_name":"Gondangdia","transit":false,"i_lat":-6.186295}],[{"station_name":"Tambun","line":1,"is_transit":false,"distance":0,"i_lat":-6.258864,"transit":false,"time":0,"i_long":107.055722,"station_id":"TB"},{"distance":4460,"time":7,"is_transit":false,"transit":false,"i_lat":-6.248029,"line":1,"station_id":"BKST","station_name":"Bekasi Timur","i_long":107.016735},{"time":2,"transit":false,"i_lat":-6.236616,"line":1,"station_id":"BKS","distance":2368,"station_name":"Bekasi","is_transit":false,"i_long":106.997013},{"station_id":"KRI","line":1,"i_lat":-6.224515,"transit":false,"i_long":106.977657,"distance":2520,"station_name":"Kranji","is_transit":false,"time":4},{"station_name":"Cakung","time":3,"distance":3097,"station_id":"CUK","is_transit":false,"i_long":106.951283,"line":1,"i_lat":-6.219053,"transit":false},{"station_id":"KLDB","time":8,"i_long":106.939679,"is_transit":false,"station_name":"Klenderbaru","i_lat":-6.217455,"distance":1385,"transit":false,"line":1},{"transit":false,"i_long":106.922662,"line":1,"station_id":"BUA","station_name":"Buaran","is_transit":false,"time":1,"distance":1305,"i_lat":-6.215568},{"i_long":106.899548,"time":2,"station_name":"Klender","station_id":"KLD","distance":3100,"is_transit":false,"transit":false,"i_lat":-6.2135,"line":1},{"distance":3395,"i_long":106.86807400000001,"line":1,"i_lat":-6.215091,"station_name":"Jatinegara","time":3,"transit":true,"station_id":"JNG","is_transit":true},{"distance":1236,"station_id":"POK","i_lat":-6.209188,"line":11,"station_name":"Pondok Jati","time":2,"is_transit":false,"i_long":106.861737,"transit":false},{"distance":1829,"station_name":"Kramat","transit":false,"station_id":"KMT","i_lat":-6.193792,"time":2,"line":11,"i_long":106.855437,"is_transit":false},{"distance":973,"i_lat":-6.185975,"station_name":"Gang Sentiong","i_long":106.850107,"time":1,"is_transit":false,"line":11,"station_id":"GST","transit":false},{"distance":1567,"i_long":106.84368,"station_id":"PSE","station_name":"Pasar Senen","transit":false,"time":8,"is_transit":false,"line":11,"i_lat":-6.174784},{"time":4,"i_long":106.839204,"transit":false,"station_name":"Kemayoran","i_lat":-6.161728,"line":11,"station_id":"KMO","distance":1436,"is_transit":false},{"i_long":106.836569,"station_id":"RJW","station_name":"Rajawali","time":5,"line":11,"distance":1901,"is_transit":false,"transit":false,"i_lat":-6.14505},{"is_transit":true,"transit":true,"distance":1444,"line":4,"i_long":106.826365,"station_name":"Kampung Bandan","station_id":"KPB","i_lat":-6.132549,"time":3},{"transit":true,"line":2,"distance":1364,"station_id":"JAKK","is_transit":true,"i_long":106.812439,"station_name":"Jakarta Kota","time":3,"i_lat":-6.137569},{"station_id":"JAY","distance":1264,"time":4,"i_lat":-6.141205,"i_long":106.820901,"is_transit":false,"line":2,"station_name":"Jayakarta","transit":false},{"is_transit":false,"station_id":"MGB","i_long":106.82482,"i_lat":-6.149769,"line":2,"transit":false,"time":2,"station_name":"Manggabesar","distance":1080},{"station_name":"Sawah Besar","line":2,"transit":false,"is_transit":false,"i_lat":-6.160725,"i_long":106.827103,"distance":906,"station_id":"SW","time":2},{"transit":false,"line":2,"i_lat":-6.166716,"is_transit":false,"station_id":"JUA","station_name":"Juanda","i_long":106.828284,"time":2,"distance":1149},{"transit":false,"distance":2015,"line":2,"i_long":106.832183,"time":4,"is_transit":false,"station_name":"Gondangdia","i_lat":-6.186295,"station_id":"GDD"}],[{"line":1,"station_name":"Tambun","time":0,"is_transit":false,"i_long":107.055722,"transit":false,"distance":0,"station_id":"TB","i_lat":-6.258864},{"station_id":"BKST","is_transit":false,"distance":4460,"line":1,"transit":false,"i_lat":-6.248029,"i_long":107.016735,"station_name":"Bekasi Timur","time":7},{"time":2,"distance":2368,"station_name":"Bekasi","i_long":106.997013,"is_transit":false,"line":1,"station_id":"BKS","i_lat":-6.236616,"transit":false},{"i_long":106.977657,"station_name":"Kranji","line":1,"i_lat":-6.224515,"transit":false,"station_id":"KRI","time":4,"distance":2520,"is_transit":false},{"is_transit":false,"time":3,"i_lat":-6.219053,"line":1,"i_long":106.951283,"transit":false,"station_id":"CUK","distance":3097,"station_name":"Cakung"},{"is_transit":false,"station_id":"KLDB","line":1,"i_long":106.939679,"distance":1385,"transit":false,"i_lat":-6.217455,"time":8,"station_name":"Klenderbaru"},{"is_transit":false,"station_name":"Buaran","i_long":106.922662,"distance":1305,"transit":false,"i_lat":-6.215568,"station_id":"BUA","time":1,"line":1},{"i_long":106.899548,"time":2,"transit":false,"i_lat":-6.2135,"station_name":"Klender","line":1,"station_id":"KLD","is_transit":false,"distance":3100},{"station_name":"Jatinegara","is_transit":false,"station_id":"JNG","transit":false,"distance":3395,"i_lat":-6.215091,"time":3,"line":1,"i_long":106.86807400000001},{"i_lat":-6.212485,"i_long":106.858896,"line":1,"transit":false,"station_name":"Matraman","is_transit":false,"distance":1377,"time":2,"station_id":"MTR"},{"i_lat":-6.209883,"is_transit":false,"time":2,"station_name":"Manggarai","station_id":"MRI","distance":1275,"line":2,"transit":false,"i_long":106.84912},{"i_lat":-6.202263,"distance":3186,"station_name":"Sudirman","station_id":"SUD","time":4,"line":1,"transit":false,"is_transit":false,"i_long":106.822649},{"distance":280,"transit":false,"station_name":"Sudirman Baru","i_long":106.819881,"is_transit":false,"line":1,"i_lat":-6.201433,"station_id":"SUDB","time":1},{"station_name":"Karet","is_transit":false,"i_lat":-6.20132,"distance":471,"line":1,"i_long":106.816351,"transit":false,"time":1,"station_id":"KAT"},{"station_id":"THB","time":5,"distance":2029,"i_lat":-6.185545,"station_name":"Tanah Abang","i_long":106.811091,"transit":false,"line":1,"is_transit":false},{"station_id":"DU","i_lat":-6.155215,"time":8,"line":1,"is_transit":false,"transit":false,"distance":3632,"station_name":"Duri","i_long":106.800832},{"station_id":"AK","transit":false,"is_transit":false,"distance":1230,"i_long":106.79867,"time":4,"i_lat":-6.144674,"line":1,"station_name":"Angke"},{"station_id":"KPB","distance":4102,"i_lat":-6.132549,"transit":true,"line":4,"station_name":"Kampung Bandan","time":9,"i_long":106.826365,"is_transit":true},{"station_name":"Jakarta Kota","station_id":"JAKK","i_long":106.812439,"i_lat":-6.137569,"line":2,"time":3,"transit":true,"is_transit":true,"distance":1364},{"station_id":"JAY","distance":1264,"line":2,"transit":false,"i_lat":-6.141205,"i_long":106.820901,"is_transit":false,"time":4,"station_name":"Jayakarta"},{"distance":1080,"is_transit":false,"i_lat":-6.149769,"station_id":"MGB","transit":false,"station_name":"Manggabesar","i_long":106.82482,"line":2,"time":2},{"is_transit":false,"station_name":"Sawah Besar","line":2,"station_id":"SW","time":2,"distance":906,"i_long":106.827103,"transit":false,"i_lat":-6.160725},{"is_transit":false,"time":2,"i_long":106.828284,"transit":false,"station_name":"Juanda","i_lat":-6.166716,"station_id":"JUA","distance":1149,"line":2},{"time":4,"station_name":"Gondangdia","line":2,"i_long":106.832183,"distance":2015,"i_lat":-6.186295,"station_id":"GDD","transit":false,"is_transit":false}],[{"time":0,"line":1,"station_id":"TB","i_long":107.055722,"is_transit":false,"i_lat":-6.258864,"station_name":"Tambun","transit":false,"distance":0},{"i_lat":-6.248029,"distance":4460,"station_id":"BKST","i_long":107.016735,"time":7,"transit":false,"station_name":"Bekasi Timur","is_transit":false,"line":1},{"line":1,"i_lat":-6.236616,"i_long":106.997013,"station_name":"Bekasi","transit":false,"is_transit":false,"distance":2368,"station_id":"BKS","time":2},{"distance":2520,"i_lat":-6.224515,"station_id":"KRI","time":4,"transit":false,"i_long":106.977657,"station_name":"Kranji","line":1,"is_transit":false},{"i_lat":-6.219053,"time":3,"distance":3097,"is_transit":false,"transit":false,"station_name":"Cakung","line":1,"i_long":106.951283,"station_id":"CUK"},{"distance":1385,"i_long":106.939679,"line":1,"is_transit":false,"transit":false,"station_name":"Klenderbaru","time":8,"i_lat":-6.217455,"station_id":"KLDB"},{"i_long":106.922662,"transit":false,"distance":1305,"is_transit":false,"station_name":"Buaran","line":1,"station_id":"BUA","i_lat":-6.215568,"time":1},{"i_long":106.899548,"i_lat":-6.2135,"line":1,"time":2,"station_id":"KLD","station_name":"Klender","transit":false,"is_transit":false,"distance":3100},{"station_id":"JNG","time":3,"i_long":106.86807400000001,"is_transit":true,"station_name":"Jatinegara","line":1,"transit":true,"distance":3395,"i_lat":-6.215091},{"i_lat":-6.209188,"time":2,"station_id":"POK","line":11,"i_long":106.861737,"distance":1236,"transit":false,"station_name":"Pondok Jati","is_transit":false},{"i_lat":-6.193792,"station_name":"Kramat","time":2,"transit":false,"i_long":106.855437,"distance":1829,"is_transit":false,"line":11,"station_id":"KMT"},{"station_name":"Gang Sentiong","i_lat":-6.185975,"distance":973,"line":11,"station_id":"GST","transit":false,"time":1,"is_transit":false,"i_long":106.850107},{"i_lat":-6.174784,"station_id":"PSE","station_name":"Pasar Senen","time":8,"line":11,"transit":false,"is_transit":false,"distance":1567,"i_long":106.84368},{"station_name":"Kemayoran","time":4,"distance":1436,"i_lat":-6.161728,"station_id":"KMO","transit":false,"is_transit":false,"line":11,"i_long":106.839204},{"distance":1901,"station_name":"Rajawali","station_id":"RJW","i_long":106.836569,"transit":false,"is_transit":false,"time":5,"i_lat":-6.14505,"line":11},{"distance":1444,"station_id":"KPB","is_transit":true,"i_long":106.826365,"i_lat":-6.132549,"time":3,"station_name":"Kampung Bandan","line":4,"transit":true},{"station_id":"AK","is_transit":false,"station_name":"Angke","transit":false,"distance":4102,"i_lat":-6.144674,"i_long":106.79867,"line":1,"time":9},{"time":4,"transit":false,"station_id":"DU","station_name":"Duri","distance":1230,"line":1,"is_transit":false,"i_lat":-6.155215,"i_long":106.800832},{"station_id":"THB","distance":3632,"station_name":"Tanah Abang","i_lat":-6.185545,"is_transit":false,"i_long":106.811091,"line":1,"transit":false,"time":8},{"i_lat":-6.20132,"time":5,"station_name":"Karet","line":1,"transit":false,"station_id":"KAT","distance":2029,"is_transit":false,"i_long":106.816351},{"is_transit":false,"station_name":"Sudirman Baru","station_id":"SUDB","time":1,"distance":471,"i_long":106.819881,"i_lat":-6.201433,"transit":false,"line":1},{"distance":280,"transit":false,"is_transit":false,"station_name":"Sudirman","line":1,"time":1,"i_long":106.822649,"i_lat":-6.202263,"station_id":"SUD"},{"time":4,"line":2,"distance":3186,"is_transit":true,"i_lat":-6.209883,"station_id":"MRI","transit":true,"i_long":106.84912,"station_name":"Manggarai"},{"line":2,"station_id":"CKI","i_lat":-6.198556,"distance":1590,"time":4,"transit":false,"station_name":"Cikini","i_long":106.840169,"is_transit":false},{"line":2,"station_id":"GDD","time":3,"i_long":106.832183,"transit":false,"i_lat":-6.186295,"station_name":"Gondangdia","is_transit":false,"distance":1750}]]}