{"data":[[{"time":0,"line":1,"station_name":"Tambun","distance":0,"i_long":107.055722,"station_id":"TB","transit":false,"i_lat":-6.258864,"is_transit":false},{"transit":false,"i_lat":-6.248029,"i_long":107.016735,"station_id":"BKST","distance":4460,"time":7,"is_transit":false,"station_name":"Bekasi Timur","line":1},{"transit":false,"time":2,"i_long":106.997013,"station_id":"BKS","is_transit":false,"i_lat":-6.236616,"line":1,"distance":2368,"station_name":"Bekasi"},{"station_id":"KRI","is_transit":false,"station_name":"Kranji","time":4,"i_lat":-6.224515,"i_long":106.977657,"line":1,"transit":false,"distance":2520},{"station_id":"CUK","time":3,"is_transit":false,"line":1,"i_long":106.951283,"station_name":"Cakung","distance":3097,"transit":false,"i_lat":-6.219053},{"line":1,"i_long":106.939679,"station_name":"Klenderbaru","transit":false,"station_id":"KLDB","is_transit":false,"time":8,"i_lat":-6.217455,"distance":1385},{"i_lat":-6.215568,"transit":false,"i_long":106.922662,"distance":1305,"is_transit":false,"line":1,"station_name":"Buaran","station_id":"BUA","time":1},{"line":1,"time":2,"is_transit":false,"station_name":"Klender","i_lat":-6.2135,"distance":3100,"i_long":106.899548,"station_id":"KLD","transit":false},{"i_long":106.86807400000001,"station_name":"Jatinegara","is_transit":true,"distance":3395,"line":1,"i_lat":-6.215091,"station_id":"JNG","time":3,"transit":true},{"time":2,"distance":1236,"station_name":"Pondok Jati","station_id":"POK","transit":false,"is_transit":false,"i_lat":-6.209188,"i_long":106.861737,"line":11},{"time":2,"station_id":"KMT","i_lat":-6.193792,"station_name":"Kramat","i_long":106.855437,"line":11,"distance":1829,"is_transit":false,"transit":false},{"i_long":106.850107,"transit":false,"distance":973,"time":1,"is_transit":false,"line":11,"station_name":"Gang Sentiong","i_lat":-6.185975,"station_id":"GST"}],[{"station_name":"Tambun","is_transit":false,"line":1,"transit":false,"time":0,"i_long":107.055722,"i_lat":-6.258864,"station_id":"TB","distance":0},{"transit":false,"time":7,"station_name":"Bekasi Timur","line":1,"is_transit":false,"distance":4460,"i_long":107.016735,"i_lat":-6.248029,"station_id":"BKST"},{"line":1,"transit":false,"i_long":106.997013,"time":2,"i_lat":-6.236616,"station_name":"Bekasi","is_transit":false,"station_id":"BKS","distance":2368},{"line":1,"station_name":"Kranji","transit":false,"station_id":"KRI","time":4,"distance":2520,"is_transit":false,"i_lat":-6.224515,"i_long":106.977657},{"i_lat":-6.219053,"station_name":"Cakung","distance":3097,"i_long":106.951283,"station_id":"CUK","transit":false,"is_transit":false,"time":3,"line":1},{"is_transit":false,"transit":false,"station_id":"KLDB","distance":1385,"i_lat":-6.217455,"station_name":"Klenderbaru","time":8,"i_long":106.939679,"line":1},{"is_transit":false,"distance":1305,"i_lat":-6.215568,"line":1,"station_id":"BUA","i_long":106.922662,"time":1,"station_name":"Buaran","transit":false},{"time":2,"transit":false,"station_name":"Klender","distance":3100,"i_long":106.899548,"line":1,"is_transit":false,"i_lat":-6.2135,"station_id":"KLD"},{"is_transit":false,"i_lat":-6.215091,"line":1,"station_name":"Jatinegara","station_id":"JNG","i_long":106.86807400000001,"transit":false,"time":3,"distance":3395},{"i_long":106.858896,"is_transit":false,"transit":false,"station_id":"MTR","line":1,"i_lat":-6.212485,"time":2,"station_name":"Matraman","distance":1377},{"station_name":"Manggarai","transit":false,"line":2,"is_transit":false,"i_long":106.84912,"station_id":"MRI","distance":1275,"time":2,"i_lat":-6.209883},{"is_transit":false,"time":4,"distance":3186,"station_id":"SUD","i_lat":-6.202263,"line":1,"i_long":106.822649,"transit":false,"station_name":"Sudirman"},{"station_name":"Sudirman Baru","distance":280,"is_transit":false,"i_long":106.819881,"station_id":"SUDB","transit":false,"time":1,"i_lat":-6.201433,"line":1},{"is_transit":false,"i_lat":-6.20132,"i_long":106.816351,"transit":false,"time":1,"line":1,"station_id":"KAT","distance":471,"station_name":"Karet"},{"transit":false,"time":5,"is_transit":false,"i_lat":-6.185545,"station_id":"THB","station_name":"Tanah Abang","i_long":106.811091,"distance":2029,"line":1},{"station_name":"Duri","line":1,"is_transit":false,"i_long":106.800832,"transit":false,"station_id":"DU","i_lat":-6.155215,"time":8,"distance":3632},{"i_long":106.79867,"distance":1230,"i_lat":-6.144674,"line":1,"station_name":"Angke","transit":false,"station_id":"AK","time":4,"is_transit":false},{"time":9,"line":4,"is_transit":true,"i_lat":-6.132549,"transit":true,"station_name":"Kampung Bandan","station_id":"KPB","distance":4102,"i_long":106.826365},{"station_name":"Rajawali","station_id":"RJW","time":3,"transit":false,"is_transit":false,"distance":1444,"i_lat":-6.14505,"i_long":106.836569,"line":11},{"distance":1901,"is_transit":false,"i_lat":-6.161728,"transit":false,"time":5,"station_name":"Kemayoran","line":11,"station_id":"KMO","i_long":106.839204},{"time":4,"transit":false,"is_transit":false,"station_name":"Pasar Senen","station_id":"PSE","i_lat":-6.174784,"distance":1436,"i_long":106.84368,"line":11},{"transit":false,"time":8,"station_name":"Gang Sentiong","station_id":"GST","is_transit":false,"distance":1567,"i_lat":-6.185975,"i_long":106.850107,"line":11}],[{"station_id":"TB","distance":0,"station_name":"Tambun","i_lat":-6.258864,"i_long":107.055722,"time":0,"line":1,"transit":false,"is_transit":false},{"line":1,"station_name":"Bekasi Timur","is_transit":false,"time":7,"i_lat":-6.248029,"station_id":"BKST","distance":4460,"transit":false,"i_long":107.016735},{"i_long":106.997013,"line":1,"station_name":"Bekasi","i_lat":-6.236616,"time":2,"station_id":"BKS","distance":2368,"is_transit":false,"transit":false},{"transit":false,"station_id":"KRI","is_transit":false,"distance":2520,"i_lat":-6.224515,"i_long":106.977657,"line":1,"station_name":"Kranji","time":4},{"time":3,"is_transit":false,"i_long":106.951283,"line":1,"i_lat":-6.219053,"distance":3097,"station_id":"CUK","transit":false,"station_name":"Cakung"},{"transit":false,"i_long":106.939679,"i_lat":-6.217455,"time":8,"distance":1385,"station_id":"KLDB","line":1,"is_transit":false,"station_name":"Klenderbaru"},{"line":1,"i_long":106.922662,"transit":false,"station_id":"BUA","station_name":"Buaran","i_lat":-6.215568,"distance":1305,"time":1,"is_transit":false},{"i_lat":-6.2135,"distance":3100,"transit":false,"line":1,"station_id":"KLD","time":2,"station_name":"Klender","is_transit":false,"i_long":106.899548},{"i_long":106.86807400000001,"is_transit":false,"station_id":"JNG","transit":false,"i_lat":-6.215091,"line":1,"time":3,"station_name":"Jatinegara","distance":3395},{"i_long":106.858896,"time":2,"station_name":"Matraman","distance":1377,"line":1,"i_lat":-6.212485,"is_transit":false,"transit":false,"station_id":"MTR"},{"station_id":"MRI","time":2,"i_lat":-6.209883,"i_long":106.84912,"line":2,"distance":1275,"station_name":"Manggarai","is_transit":true,"transit":true},{"i_long":106.840169,"transit":false,"distance":1590,"i_lat":-6.198556,"station_name":"Cikini","station_id":"CKI","time":4,"is_transit":false,"line":2},{"transit":false,"i_long":106.832183,"station_id":"GDD","i_lat":-6.186295,"line":2,"time":3,"station_name":"Gondangdia","is_transit":false,"distance":1750},{"is_transit":false,"distance":2015,"transit":false,"i_long":106.828284,"i_lat":-6.166716,"time":4,"station_name":"Juanda","station_id":"JUA","line":2},{"i_lat":-6.160725,"line":2,"station_id":"SW","distance":1149,"i_long":106.827103,"transit":false,"is_transit":false,"station_name":"Sawah Besar","time":2},{"station_id":"MGB","is_transit":false,"i_lat":-6.149769,"distance":906,"station_name":"Manggabesar","time":2,"i_long":106.82482,"line":2,"transit":false},{"line":2,"is_transit":false,"time":2,"i_lat":-6.141205,"i_long":106.820901,"distance":1080,"transit":false,"station_id":"JAY","station_name":"Jayakarta"},{"transit":true,"station_id":"JAKK","station_name":"Jakarta Kota","is_transit":true,"time":4,"i_lat":-6.137569,"line":2,"i_long":106.812439,"distance":1264},{"transit":true,"i_long":106.826365,"line":4,"station_id":"KPB","station_name":"Kampung Bandan","i_lat":-6.132549,"time":3,"is_transit":true,"distance":1364},{"i_long":106.836569,"time":3,"i_lat":-6.14505,"line":11,"station_name":"Rajawali","distance":1444,"station_id":"RJW","transit":false,"is_transit":false},{"station_id":"KMO","time":5,"i_lat":-6.161728,"transit":false,"station_name":"Kemayoran","i_long":106.839204,"is_transit":false,"line":11,"distance":1901},{"distance":1436,"time":4,"i_lat":-6.174784,"is_transit":false,"station_id":"PSE","line":11,"station_name":"Pasar Senen","transit":false,"i_long":106.84368},{"line":11,"station_id":"GST","time":8,"station_name":"Gang Sentiong","is_transit":false,"distance":1567,"i_lat":-6.185975,"transit":false,"i_long":106.850107}]]}