{"data":[[{"transit":false,"station_id":"TB","time":0,"distance":0,"line":1,"i_lat":-6.258864,"station_name":"Tambun","is_transit":false,"i_long":107.055722},{"is_transit":false,"i_long":107.016735,"transit":false,"distance":4460,"line":1,"station_name":"Bekasi Timur","station_id":"BKST","time":7,"i_lat":-6.248029},{"i_long":106.997013,"station_name":"Bekasi","transit":false,"station_id":"BKS","is_transit":false,"time":2,"i_lat":-6.236616,"line":1,"distance":2368},{"i_lat":-6.224515,"is_transit":false,"transit":false,"time":4,"line":1,"i_long":106.977657,"station_id":"KRI","station_name":"Kranji","distance":2520},{"is_transit":false,"i_long":106.951283,"time":3,"station_name":"Cakung","station_id":"CUK","line":1,"i_lat":-6.219053,"transit":false,"distance":3097},{"station_id":"KLDB","station_name":"Klenderbaru","i_lat":-6.217455,"transit":false,"is_transit":false,"distance":1385,"time":8,"i_long":106.939679,"line":1},{"time":1,"i_long":106.922662,"transit":false,"station_name":"Buaran","station_id":"BUA","line":1,"is_transit":false,"i_lat":-6.215568,"distance":1305},{"line":1,"distance":3100,"time":2,"station_name":"Klender","station_id":"KLD","i_long":106.899548,"is_transit":false,"transit":false,"i_lat":-6.2135},{"i_lat":-6.215091,"i_long":106.86807400000001,"station_name":"Jatinegara","is_transit":false,"time":3,"line":1,"distance":3395,"station_id":"JNG","transit":false},{"distance":1377,"i_lat":-6.212485,"station_id":"MTR","line":1,"station_name":"Matraman","i_long":106.858896,"transit":false,"is_transit":false,"time":2},{"station_id":"MRI","time":2,"i_long":106.84912,"line":2,"i_lat":-6.209883,"is_transit":false,"transit":false,"distance":1275,"station_name":"Manggarai"},{"station_id":"SUD","time":4,"distance":3186,"line":1,"transit":false,"is_transit":false,"i_lat":-6.202263,"i_long":106.822649,"station_name":"Sudirman"},{"transit":false,"distance":280,"line":1,"station_id":"SUDB","station_name":"Sudirman Baru","i_long":106.819881,"i_lat":-6.201433,"is_transit":false,"time":1},{"distance":471,"i_long":106.816351,"transit":false,"time":1,"line":1,"station_id":"KAT","is_transit":false,"station_name":"Karet","i_lat":-6.20132},{"station_name":"Tanah Abang","transit":false,"time":5,"i_long":106.811091,"i_lat":-6.185545,"line":1,"distance":2029,"station_id":"THB","is_transit":false},{"is_transit":true,"station_id":"DU","station_name":"Duri","i_long":106.800832,"distance":3632,"transit":true,"time":8,"line":1,"i_lat":-6.155215},{"station_id":"GGL","is_transit":false,"time":3,"transit":false,"distance":1700,"i_lat":-6.162021,"i_long":106.788277,"line":5,"station_name":"Grogol"}],[{"station_id":"TB","station_name":"Tambun","transit":false,"is_transit":false,"distance":0,"i_lat":-6.258864,"time":0,"i_long":107.055722,"line":1},{"line":1,"time":7,"station_id":"BKST","is_transit":false,"distance":4460,"station_name":"Bekasi Timur","transit":false,"i_lat":-6.248029,"i_long":107.016735},{"station_name":"Bekasi","station_id":"BKS","i_long":106.997013,"line":1,"is_transit":false,"time":2,"transit":false,"i_lat":-6.236616,"distance":2368},{"station_id":"KRI","time":4,"distance":2520,"transit":false,"i_lat":-6.224515,"i_long":106.977657,"station_name":"Kranji","line":1,"is_transit":false},{"line":1,"i_lat":-6.219053,"is_transit":false,"transit":false,"station_name":"Cakung","station_id":"CUK","distance":3097,"i_long":106.951283,"time":3},{"distance":1385,"line":1,"transit":false,"is_transit":false,"i_long":106.939679,"station_id":"KLDB","station_name":"Klenderbaru","time":8,"i_lat":-6.217455},{"distance":1305,"time":1,"i_long":106.922662,"station_id":"BUA","is_transit":false,"i_lat":-6.215568,"transit":false,"station_name":"Buaran","line":1},{"is_transit":false,"time":2,"i_long":106.899548,"transit":false,"distance":3100,"i_lat":-6.2135,"line":1,"station_name":"Klender","station_id":"KLD"},{"i_long":106.86807400000001,"station_id":"JNG","time":3,"distance":3395,"line":1,"station_name":"Jatinegara","is_transit":true,"i_lat":-6.215091,"transit":true},{"line":11,"station_name":"Pondok Jati","i_lat":-6.209188,"transit":false,"is_transit":false,"distance":1236,"station_id":"POK","time":2,"i_long":106.861737},{"i_long":106.855437,"transit":false,"line":11,"station_id":"KMT","is_transit":false,"time":2,"distance":1829,"i_lat":-6.193792,"station_name":"Kramat"},{"time":1,"station_id":"GST","i_lat":-6.185975,"line":11,"station_name":"Gang Sentiong","is_transit":false,"i_long":106.850107,"transit":false,"distance":973},{"station_name":"Pasar Senen","is_transit":false,"i_long":106.84368,"line":11,"station_id":"PSE","i_lat":-6.174784,"distance":1567,"time":8,"transit":false},{"is_transit":false,"i_lat":-6.161728,"station_id":"KMO","transit":false,"station_name":"Kemayoran","time":4,"distance":1436,"i_long":106.839204,"line":11},{"i_long":106.836569,"line":11,"transit":false,"station_name":"Rajawali","is_transit":false,"station_id":"RJW","distance":1901,"i_lat":-6.14505,"time":5},{"is_transit":true,"station_name":"Kampung Bandan","time":3,"transit":true,"i_lat":-6.132549,"line":4,"distance":1444,"i_long":106.826365,"station_id":"KPB"},{"is_transit":false,"station_id":"AK","time":9,"distance":4102,"line":1,"i_long":106.79867,"transit":false,"i_lat":-6.144674,"station_name":"Angke"},{"station_id":"DU","station_name":"Duri","distance":1230,"transit":true,"line":1,"time":4,"is_transit":true,"i_lat":-6.155215,"i_long":106.800832},{"station_name":"Grogol","distance":1700,"time":3,"i_lat":-6.162021,"is_transit":false,"line":5,"transit":false,"station_id":"GGL","i_long":106.788277}],[{"station_id":"TB","transit":false,"i_long":107.055722,"line":1,"is_transit":false,"time":0,"i_lat":-6.258864,"distance":0,"station_name":"Tambun"},{"i_lat":-6.248029,"time":7,"station_name":"Bekasi Timur","station_id":"BKST","transit":false,"i_long":107.016735,"line":1,"distance":4460,"is_transit":false},{"time":2,"distance":2368,"station_id":"BKS","transit":false,"is_transit":false,"i_lat":-6.236616,"line":1,"station_name":"Bekasi","i_long":106.997013},{"time":4,"transit":false,"i_lat":-6.224515,"i_long":106.977657,"line":1,"distance":2520,"station_name":"Kranji","is_transit":false,"station_id":"KRI"},{"station_id":"CUK","time":3,"distance":3097,"i_long":106.951283,"station_name":"Cakung","line":1,"transit":false,"i_lat":-6.219053,"is_transit":false},{"i_long":106.939679,"station_id":"KLDB","i_lat":-6.217455,"station_name":"Klenderbaru","distance":1385,"line":1,"is_transit":false,"transit":false,"time":8},{"i_lat":-6.215568,"i_long":106.922662,"station_id":"BUA","distance":1305,"line":1,"transit":false,"station_name":"Buaran","is_transit":false,"time":1},{"is_transit":false,"distance":3100,"station_id":"KLD","i_lat":-6.2135,"i_long":106.899548,"line":1,"transit":false,"time":2,"station_name":"Klender"},{"i_lat":-6.215091,"line":1,"station_id":"JNG","is_transit":false,"transit":false,"i_long":106.86807400000001,"station_name":"Jatinegara","distance":3395,"time":3},{"is_transit":false,"i_lat":-6.212485,"line":1,"transit":false,"time":2,"distance":1377,"i_long":106.858896,"station_name":"Matraman","station_id":"MTR"},{"time":2,"i_lat":-6.209883,"station_name":"Manggarai","line":2,"is_transit":true,"i_long":106.84912,"distance":1275,"transit":true,"station_id":"MRI"},{"station_id":"CKI","time":4,"station_name":"Cikini","line":2,"i_long":106.840169,"is_transit":false,"distance":1590,"i_lat":-6.198556,"transit":false},{"station_id":"GDD","is_transit":false,"distance":1750,"station_name":"Gondangdia","time":3,"transit":false,"i_lat":-6.186295,"line":2,"i_long":106.832183},{"i_long":106.828284,"distance":2015,"line":2,"transit":false,"is_transit":false,"station_id":"JUA","i_lat":-6.166716,"time":4,"station_name":"Juanda"},{"station_name":"Sawah Besar","i_long":106.827103,"station_id":"SW","i_lat":-6.160725,"distance":1149,"transit":false,"time":2,"is_transit":false,"line":2},{"line":2,"station_name":"Manggabesar","i_lat":-6.149769,"station_id":"MGB","time":2,"distance":906,"i_long":106.82482,"is_transit":false,"transit":false},{"i_lat":-6.141205,"i_long":106.820901,"station_name":"Jayakarta","transit":false,"distance":1080,"time":2,"station_id":"JAY","is_transit":false,"line":2},{"station_name":"Jakarta Kota","i_long":106.812439,"line":2,"is_transit":true,"time":4,"transit":true,"i_lat":-6.137569,"distance":1264,"station_id":"JAKK"},{"station_name":"Kampung Bandan","station_id":"KPB","time":3,"distance":1364,"is_transit":true,"transit":true,"i_long":106.826365,"line":4,"i_lat":-6.132549},{"i_lat":-6.144674,"distance":4102,"station_name":"Angke","time":9,"transit":false,"i_long":106.79867,"line":1,"station_id":"AK","is_transit":false},{"station_name":"Duri","transit":true,"i_long":106.800832,"is_transit":true,"station_id":"DU","time":4,"distance":1230,"i_lat":-6.155215,"line":1},{"station_id":"GGL","i_lat":-6.162021,"line":5,"is_transit":false,"station_name":"Grogol","transit":false,"i_long":106.788277,"distance":1700,"time":3}],[{"station_name":"Tambun","station_id":"TB","distance":0,"line":1,"time":0,"i_lat":-6.258864,"is_transit":false,"transit":false,"i_long":107.055722},{"i_long":107.016735,"distance":4460,"i_lat":-6.248029,"time":7,"station_id":"BKST","line":1,"transit":false,"is_transit":false,"station_name":"Bekasi Timur"},{"i_long":106.997013,"station_name":"Bekasi","i_lat":-6.236616,"is_transit":false,"line":1,"transit":false,"time":2,"distance":2368,"station_id":"BKS"},{"is_transit":false,"line":1,"station_id":"KRI","time":4,"i_lat":-6.224515,"distance":2520,"i_long":106.977657,"station_name":"Kranji","transit":false},{"distance":3097,"transit":false,"time":3,"i_lat":-6.219053,"line":1,"station_name":"Cakung","i_long":106.951283,"station_id":"CUK","is_transit":false},{"transit":false,"is_transit":false,"line":1,"station_id":"KLDB","time":8,"i_lat":-6.217455,"i_long":106.939679,"station_name":"Klenderbaru","distance":1385},{"line":1,"i_long":106.922662,"transit":false,"distance":1305,"station_id":"BUA","station_name":"Buaran","is_transit":false,"i_lat":-6.215568,"time":1},{"station_id":"KLD","is_transit":false,"line":1,"i_long":106.899548,"station_name":"Klender","time":2,"transit":false,"distance":3100,"i_lat":-6.2135},{"station_id":"JNG","distance":3395,"i_long":106.86807400000001,"line":1,"time":3,"i_lat":-6.215091,"station_name":"Jatinegara","transit":true,"is_transit":true},{"transit":false,"station_id":"POK","time":2,"i_lat":-6.209188,"i_long":106.861737,"is_transit":false,"station_name":"Pondok Jati","distance":1236,"line":11},{"time":2,"i_long":106.855437,"station_id":"KMT","station_name":"Kramat","i_lat":-6.193792,"is_transit":false,"distance":1829,"line":11,"transit":false},{"station_id":"GST","is_transit":false,"i_lat":-6.185975,"transit":false,"i_long":106.850107,"distance":973,"station_name":"Gang Sentiong","line":11,"time":1},{"i_long":106.84368,"time":8,"is_transit":false,"transit":false,"distance":1567,"i_lat":-6.174784,"station_name":"Pasar Senen","line":11,"station_id":"PSE"},{"line":11,"station_id":"KMO","transit":false,"station_name":"Kemayoran","i_long":106.839204,"time":4,"distance":1436,"i_lat":-6.161728,"is_transit":false},{"transit":false,"is_transit":false,"time":5,"line":11,"station_id":"RJW","station_name":"Rajawali","distance":1901,"i_long":106.836569,"i_lat":-6.14505},{"i_long":106.826365,"i_lat":-6.132549,"time":3,"station_name":"Kampung Bandan","station_id":"KPB","is_transit":true,"line":4,"transit":true,"distance":1444},{"time":3,"station_name":"Jakarta Kota","is_transit":true,"i_lat":-6.137569,"line":2,"i_long":106.812439,"station_id":"JAKK","distance":1364,"transit":true},{"is_transit":false,"station_name":"Jayakarta","time":4,"i_lat":-6.141205,"distance":1264,"i_long":106.820901,"transit":false,"station_id":"JAY","line":2},{"is_transit":false,"i_lat":-6.149769,"i_long":106.82482,"station_id":"MGB","station_name":"Manggabesar","distance":1080,"transit":false,"line":2,"time":2},{"station_id":"SW","is_transit":false,"i_lat":-6.160725,"transit":false,"line":2,"time":2,"distance":906,"station_name":"Sawah Besar","i_long":106.827103},{"distance":1149,"time":2,"i_long":106.828284,"transit":false,"station_name":"Juanda","i_lat":-6.166716,"is_transit":false,"station_id":"JUA","line":2},{"station_id":"GDD","time":4,"i_long":106.832183,"distance":2015,"station_name":"Gondangdia","is_transit":false,"i_lat":-6.186295,"line":2,"transit":false},{"transit":false,"line":2,"time":3,"is_transit":false,"distance":1750,"i_lat":-6.198556,"station_name":"Cikini","station_id":"CKI","i_long":106.840169},{"is_transit":true,"distance":1590,"transit":true,"i_long":106.84912,"i_lat":-6.209883,"station_name":"Manggarai","station_id":"MRI","time":4,"line":2},{"distance":3186,"station_name":"Sudirman","time":4,"transit":false,"is_transit":false,"station_id":"SUD","i_long":106.822649,"line":1,"i_lat":-6.202263},{"station_name":"Sudirman Baru","distance":280,"i_long":106.819881,"transit":false,"is_transit":false,"time":1,"line":1,"station_id":"SUDB","i_lat":-6.201433},{"time":1,"line":1,"distance":471,"i_lat":-6.20132,"station_id":"KAT","station_name":"Karet","i_long":106.816351,"transit":false,"is_transit":false},{"transit":false,"station_name":"Tanah Abang","station_id":"THB","time":5,"distance":2029,"is_transit":false,"i_lat":-6.185545,"line":1,"i_long":106.811091},{"transit":true,"station_name":"Duri","i_long":106.800832,"line":1,"is_transit":true,"i_lat":-6.155215,"time":8,"distance":3632,"station_id":"DU"},{"station_id":"GGL","is_transit":false,"i_long":106.788277,"time":3,"distance":1700,"transit":false,"station_name":"Grogol","line":5,"i_lat":-6.162021}]]}