{"data":[[{"station_name":"Tambun","i_lat":-6.258864,"i_long":107.055722,"line":1,"time":0,"station_id":"TB","is_transit":false,"distance":0,"transit":false},{"transit":false,"i_lat":-6.248029,"time":7,"station_id":"BKST","station_name":"Bekasi Timur","is_transit":false,"i_long":107.016735,"line":1,"distance":4460},{"i_long":106.997013,"is_transit":false,"time":2,"transit":false,"station_id":"BKS","distance":2368,"line":1,"station_name":"Bekasi","i_lat":-6.236616},{"transit":false,"line":1,"station_id":"KRI","station_name":"Kranji","distance":2520,"time":4,"is_transit":false,"i_lat":-6.224515,"i_long":106.977657},{"distance":3097,"time":3,"station_id":"CUK","is_transit":false,"transit":false,"i_lat":-6.219053,"i_long":106.951283,"station_name":"Cakung","line":1},{"distance":1385,"i_long":106.939679,"time":8,"transit":false,"station_id":"KLDB","i_lat":-6.217455,"is_transit":false,"station_name":"Klenderbaru","line":1},{"line":1,"station_name":"Buaran","i_long":106.922662,"time":1,"distance":1305,"station_id":"BUA","is_transit":false,"transit":false,"i_lat":-6.215568},{"line":1,"time":2,"i_lat":-6.2135,"station_id":"KLD","is_transit":false,"transit":false,"station_name":"Klender","distance":3100,"i_long":106.899548},{"line":1,"distance":3395,"station_id":"JNG","i_long":106.86807400000001,"transit":false,"i_lat":-6.215091,"is_transit":false,"time":3,"station_name":"Jatinegara"},{"station_id":"MTR","line":1,"distance":1377,"is_transit":false,"i_lat":-6.212485,"transit":false,"station_name":"Matraman","time":2,"i_long":106.858896},{"is_transit":false,"time":2,"i_lat":-6.209883,"station_id":"MRI","transit":false,"station_name":"Manggarai","distance":1275,"line":2,"i_long":106.84912},{"i_long":106.822649,"station_id":"SUD","i_lat":-6.202263,"line":1,"time":4,"distance":3186,"is_transit":false,"station_name":"Sudirman","transit":false},{"i_lat":-6.201433,"distance":280,"time":1,"i_long":106.819881,"station_id":"SUDB","transit":false,"is_transit":false,"line":1,"station_name":"Sudirman Baru"},{"transit":false,"station_id":"KAT","time":1,"is_transit":false,"station_name":"Karet","i_long":106.816351,"line":1,"i_lat":-6.20132,"distance":471},{"distance":2029,"i_lat":-6.185545,"line":1,"time":5,"station_id":"THB","transit":false,"station_name":"Tanah Abang","i_long":106.811091,"is_transit":false},{"station_name":"Duri","line":1,"distance":3632,"time":8,"transit":true,"i_long":106.800832,"station_id":"DU","i_lat":-6.155215,"is_transit":true},{"station_name":"Grogol","time":3,"station_id":"GGL","is_transit":false,"i_long":106.788277,"line":5,"distance":1700,"i_lat":-6.162021,"transit":false}],[{"time":0,"station_name":"Tambun","transit":false,"i_lat":-6.258864,"is_transit":false,"line":1,"distance":0,"station_id":"TB","i_long":107.055722},{"time":7,"is_transit":false,"i_long":107.016735,"distance":4460,"station_id":"BKST","transit":false,"i_lat":-6.248029,"station_name":"Bekasi Timur","line":1},{"station_name":"Bekasi","i_lat":-6.236616,"transit":false,"station_id":"BKS","is_transit":false,"distance":2368,"i_long":106.997013,"line":1,"time":2},{"station_name":"Kranji","distance":2520,"transit":false,"time":4,"i_lat":-6.224515,"i_long":106.977657,"line":1,"station_id":"KRI","is_transit":false},{"i_long":106.951283,"time":3,"distance":3097,"transit":false,"station_name":"Cakung","station_id":"CUK","is_transit":false,"i_lat":-6.219053,"line":1},{"is_transit":false,"distance":1385,"station_id":"KLDB","station_name":"Klenderbaru","line":1,"time":8,"i_lat":-6.217455,"i_long":106.939679,"transit":false},{"transit":false,"i_long":106.922662,"station_name":"Buaran","station_id":"BUA","is_transit":false,"line":1,"distance":1305,"time":1,"i_lat":-6.215568},{"distance":3100,"i_long":106.899548,"station_name":"Klender","time":2,"transit":false,"is_transit":false,"i_lat":-6.2135,"station_id":"KLD","line":1},{"line":1,"transit":true,"time":3,"station_id":"JNG","distance":3395,"is_transit":true,"station_name":"Jatinegara","i_lat":-6.215091,"i_long":106.86807400000001},{"time":2,"transit":false,"station_name":"Pondok Jati","line":11,"distance":1236,"station_id":"POK","i_long":106.861737,"is_transit":false,"i_lat":-6.209188},{"i_lat":-6.193792,"distance":1829,"line":11,"station_name":"Kramat","is_transit":false,"transit":false,"time":2,"i_long":106.855437,"station_id":"KMT"},{"transit":false,"station_id":"GST","line":11,"i_long":106.850107,"distance":973,"time":1,"station_name":"Gang Sentiong","i_lat":-6.185975,"is_transit":false},{"time":8,"station_name":"Pasar Senen","i_long":106.84368,"is_transit":false,"transit":false,"i_lat":-6.174784,"distance":1567,"line":11,"station_id":"PSE"},{"transit":false,"is_transit":false,"time":4,"distance":1436,"i_long":106.839204,"station_id":"KMO","line":11,"i_lat":-6.161728,"station_name":"Kemayoran"},{"i_long":106.836569,"station_id":"RJW","is_transit":false,"transit":false,"time":5,"station_name":"Rajawali","distance":1901,"i_lat":-6.14505,"line":11},{"is_transit":true,"i_lat":-6.132549,"line":4,"transit":true,"station_id":"KPB","station_name":"Kampung Bandan","distance":1444,"time":3,"i_long":106.826365},{"line":1,"distance":4102,"transit":false,"station_id":"AK","station_name":"Angke","is_transit":false,"i_long":106.79867,"i_lat":-6.144674,"time":9},{"line":1,"distance":1230,"i_lat":-6.155215,"station_id":"DU","transit":true,"is_transit":true,"station_name":"Duri","i_long":106.800832,"time":4},{"transit":false,"station_id":"GGL","station_name":"Grogol","is_transit":false,"line":5,"distance":1700,"i_long":106.788277,"time":3,"i_lat":-6.162021}],[{"time":0,"station_id":"TB","is_transit":false,"i_long":107.055722,"line":1,"i_lat":-6.258864,"transit":false,"station_name":"Tambun","distance":0},{"transit":false,"station_name":"Bekasi Timur","line":1,"station_id":"BKST","i_lat":-6.248029,"i_long":107.016735,"is_transit":false,"time":7,"distance":4460},{"i_lat":-6.236616,"line":1,"distance":2368,"station_id":"BKS","i_long":106.997013,"time":2,"station_name":"Bekasi","is_transit":false,"transit":false},{"is_transit":false,"station_name":"Kranji","time":4,"i_lat":-6.224515,"line":1,"i_long":106.977657,"station_id":"KRI","transit":false,"distance":2520},{"is_transit":false,"i_long":106.951283,"transit":false,"station_id":"CUK","distance":3097,"i_lat":-6.219053,"station_name":"Cakung","line":1,"time":3},{"i_long":106.939679,"is_transit":false,"distance":1385,"transit":false,"station_id":"KLDB","i_lat":-6.217455,"time":8,"line":1,"station_name":"Klenderbaru"},{"i_lat":-6.215568,"line":1,"station_id":"BUA","distance":1305,"station_name":"Buaran","i_long":106.922662,"transit":false,"is_transit":false,"time":1},{"i_lat":-6.2135,"i_long":106.899548,"distance":3100,"station_id":"KLD","station_name":"Klender","is_transit":false,"transit":false,"time":2,"line":1},{"distance":3395,"transit":false,"i_long":106.86807400000001,"station_id":"JNG","time":3,"station_name":"Jatinegara","is_transit":false,"i_lat":-6.215091,"line":1},{"i_long":106.858896,"distance":1377,"is_transit":false,"station_name":"Matraman","line":1,"station_id":"MTR","transit":false,"i_lat":-6.212485,"time":2},{"transit":true,"station_id":"MRI","is_transit":true,"time":2,"i_lat":-6.209883,"i_long":106.84912,"station_name":"Manggarai","distance":1275,"line":2},{"distance":1590,"i_long":106.840169,"station_id":"CKI","line":2,"time":4,"is_transit":false,"i_lat":-6.198556,"transit":false,"station_name":"Cikini"},{"distance":1750,"transit":false,"is_transit":false,"time":3,"i_long":106.832183,"line":2,"station_id":"GDD","station_name":"Gondangdia","i_lat":-6.186295},{"station_name":"Juanda","is_transit":false,"i_long":106.828284,"transit":false,"station_id":"JUA","line":2,"distance":2015,"time":4,"i_lat":-6.166716},{"station_name":"Sawah Besar","line":2,"i_long":106.827103,"is_transit":false,"station_id":"SW","time":2,"i_lat":-6.160725,"transit":false,"distance":1149},{"station_id":"MGB","transit":false,"time":2,"i_long":106.82482,"i_lat":-6.149769,"line":2,"station_name":"Manggabesar","is_transit":false,"distance":906},{"transit":false,"i_long":106.820901,"distance":1080,"is_transit":false,"station_name":"Jayakarta","i_lat":-6.141205,"line":2,"station_id":"JAY","time":2},{"station_id":"JAKK","is_transit":true,"transit":true,"station_name":"Jakarta Kota","i_lat":-6.137569,"time":4,"line":2,"distance":1264,"i_long":106.812439},{"distance":1364,"i_lat":-6.132549,"line":4,"station_name":"Kampung Bandan","i_long":106.826365,"time":3,"transit":true,"is_transit":true,"station_id":"KPB"},{"time":9,"i_lat":-6.144674,"i_long":106.79867,"is_transit":false,"distance":4102,"line":1,"transit":false,"station_name":"Angke","station_id":"AK"},{"i_long":106.800832,"transit":true,"station_name":"Duri","station_id":"DU","is_transit":true,"i_lat":-6.155215,"distance":1230,"line":1,"time":4},{"station_name":"Grogol","i_lat":-6.162021,"i_long":106.788277,"transit":false,"line":5,"is_transit":false,"time":3,"distance":1700,"station_id":"GGL"}],[{"time":0,"i_lat":-6.258864,"line":1,"is_transit":false,"distance":0,"i_long":107.055722,"station_name":"Tambun","station_id":"TB","transit":false},{"is_transit":false,"distance":4460,"transit":false,"station_id":"BKST","station_name":"Bekasi Timur","i_lat":-6.248029,"time":7,"line":1,"i_long":107.016735},{"i_long":106.997013,"line":1,"transit":false,"station_name":"Bekasi","is_transit":false,"distance":2368,"time":2,"i_lat":-6.236616,"station_id":"BKS"},{"time":4,"i_lat":-6.224515,"line":1,"distance":2520,"is_transit":false,"i_long":106.977657,"station_id":"KRI","station_name":"Kranji","transit":false},{"time":3,"i_long":106.951283,"distance":3097,"station_id":"CUK","i_lat":-6.219053,"line":1,"transit":false,"station_name":"Cakung","is_transit":false},{"i_lat":-6.217455,"time":8,"station_id":"KLDB","i_long":106.939679,"distance":1385,"station_name":"Klenderbaru","transit":false,"line":1,"is_transit":false},{"line":1,"i_long":106.922662,"distance":1305,"time":1,"is_transit":false,"i_lat":-6.215568,"station_name":"Buaran","transit":false,"station_id":"BUA"},{"distance":3100,"i_lat":-6.2135,"transit":false,"time":2,"station_name":"Klender","station_id":"KLD","i_long":106.899548,"line":1,"is_transit":false},{"i_lat":-6.215091,"is_transit":true,"distance":3395,"station_name":"Jatinegara","time":3,"line":1,"station_id":"JNG","transit":true,"i_long":106.86807400000001},{"transit":false,"is_transit":false,"station_name":"Pondok Jati","i_long":106.861737,"station_id":"POK","distance":1236,"i_lat":-6.209188,"time":2,"line":11},{"is_transit":false,"time":2,"i_lat":-6.193792,"transit":false,"station_name":"Kramat","distance":1829,"i_long":106.855437,"line":11,"station_id":"KMT"},{"is_transit":false,"time":1,"distance":973,"i_lat":-6.185975,"line":11,"transit":false,"station_id":"GST","station_name":"Gang Sentiong","i_long":106.850107},{"line":11,"station_id":"PSE","is_transit":false,"i_lat":-6.174784,"distance":1567,"time":8,"transit":false,"i_long":106.84368,"station_name":"Pasar Senen"},{"distance":1436,"station_name":"Kemayoran","line":11,"transit":false,"i_lat":-6.161728,"is_transit":false,"i_long":106.839204,"time":4,"station_id":"KMO"},{"line":11,"station_id":"RJW","transit":false,"distance":1901,"i_long":106.836569,"is_transit":false,"station_name":"Rajawali","time":5,"i_lat":-6.14505},{"distance":1444,"station_id":"KPB","transit":true,"station_name":"Kampung Bandan","is_transit":true,"i_long":106.826365,"i_lat":-6.132549,"line":4,"time":3},{"i_long":106.812439,"distance":1364,"station_id":"JAKK","station_name":"Jakarta Kota","is_transit":true,"line":2,"time":3,"transit":true,"i_lat":-6.137569},{"station_id":"JAY","time":4,"station_name":"Jayakarta","transit":false,"is_transit":false,"distance":1264,"i_long":106.820901,"i_lat":-6.141205,"line":2},{"station_id":"MGB","transit":false,"time":2,"station_name":"Manggabesar","distance":1080,"i_lat":-6.149769,"i_long":106.82482,"is_transit":false,"line":2},{"station_id":"SW","station_name":"Sawah Besar","is_transit":false,"transit":false,"i_lat":-6.160725,"time":2,"distance":906,"i_long":106.827103,"line":2},{"time":2,"transit":false,"station_id":"JUA","station_name":"Juanda","line":2,"i_lat":-6.166716,"i_long":106.828284,"is_transit":false,"distance":1149},{"distance":2015,"is_transit":false,"line":2,"station_id":"GDD","station_name":"Gondangdia","i_lat":-6.186295,"time":4,"i_long":106.832183,"transit":false},{"line":2,"station_name":"Cikini","transit":false,"is_transit":false,"distance":1750,"i_long":106.840169,"i_lat":-6.198556,"station_id":"CKI","time":3},{"time":4,"is_transit":true,"distance":1590,"transit":true,"i_long":106.84912,"station_id":"MRI","station_name":"Manggarai","i_lat":-6.209883,"line":2},{"is_transit":false,"line":1,"time":4,"distance":3186,"i_long":106.822649,"transit":false,"station_id":"SUD","i_lat":-6.202263,"station_name":"Sudirman"},{"station_name":"Sudirman Baru","i_lat":-6.201433,"is_transit":false,"i_long":106.819881,"line":1,"time":1,"station_id":"SUDB","transit":false,"distance":280},{"i_long":106.816351,"distance":471,"station_id":"KAT","time":1,"line":1,"transit":false,"i_lat":-6.20132,"is_transit":false,"station_name":"Karet"},{"i_lat":-6.185545,"i_long":106.811091,"line":1,"is_transit":false,"transit":false,"station_id":"THB","station_name":"Tanah Abang","time":5,"distance":2029},{"line":1,"time":8,"i_lat":-6.155215,"i_long":106.800832,"transit":true,"station_name":"Duri","station_id":"DU","distance":3632,"is_transit":true},{"station_id":"GGL","station_name":"Grogol","time":3,"transit":false,"line":5,"i_lat":-6.162021,"distance":1700,"is_transit":false,"i_long":106.788277}]]}