{"data":[[{"is_transit":false,"time":0,"distance":0,"i_long":107.055722,"station_id":"TB","transit":false,"i_lat":-6.258864,"line":1,"station_name":"Tambun"},{"is_transit":false,"i_long":107.016735,"time":7,"line":0,"station_name":"Bekasi Timur","i_lat":-6.248029,"station_id":"BKST","distance":4460,"transit":false},{"i_long":106.997013,"station_id":"BKS","time":2,"distance":2368,"transit":false,"i_lat":-6.236616,"is_transit":false,"station_name":"Bekasi","line":0},{"station_name":"Kranji","time":4,"transit":false,"line":1,"i_long":106.977657,"i_lat":-6.224515,"station_id":"KRI","distance":2520,"is_transit":false},{"transit":false,"i_long":106.951283,"station_name":"Cakung","is_transit":false,"time":3,"i_lat":-6.219053,"line":0,"distance":3097,"station_id":"CUK"},{"station_name":"Klenderbaru","time":8,"line":1,"transit":false,"i_long":106.939679,"i_lat":-6.217455,"is_transit":false,"distance":1385,"station_id":"KLDB"},{"time":1,"i_lat":-6.215568,"i_long":106.922662,"line":0,"distance":1305,"is_transit":false,"transit":false,"station_name":"Buaran","station_id":"BUA"},{"station_id":"KLD","i_lat":-6.2135,"is_transit":false,"time":2,"station_name":"Klender","i_long":106.899548,"distance":3100,"line":1,"transit":false},{"distance":3395,"station_id":"JNG","station_name":"Jatinegara","line":0,"transit":false,"i_lat":-6.215091,"time":3,"i_long":106.86807400000001,"is_transit":true},{"station_id":"MTR","i_long":106.858896,"station_name":"Matraman","distance":1377,"is_transit":false,"time":2,"i_lat":-6.212485,"line":1,"transit":false},{"i_lat":-6.209883,"is_transit":true,"distance":1275,"station_name":"Manggarai","time":2,"i_long":106.84912,"transit":false,"line":0,"station_id":"MRI"},{"station_name":"Sudirman","transit":false,"time":4,"distance":3186,"i_long":106.822649,"station_id":"SUD","line":1,"i_lat":-6.202263,"is_transit":false},{"station_id":"SUDB","time":1,"distance":280,"station_name":"Sudirman Baru","is_transit":false,"transit":false,"i_long":106.819881,"line":1,"i_lat":-6.201433},{"distance":471,"transit":false,"i_lat":-6.20132,"station_id":"KAT","i_long":106.816351,"line":1,"time":1,"is_transit":false,"station_name":"Karet"},{"transit":false,"line":1,"is_transit":true,"time":5,"i_lat":-6.185545,"station_id":"THB","distance":2029,"i_long":106.811091,"station_name":"Tanah Abang"},{"i_lat":-6.155215,"station_name":"Duri","i_long":106.800832,"station_id":"DU","line":1,"time":8,"is_transit":true,"transit":true,"distance":3632},{"i_long":106.788277,"transit":false,"i_lat":-6.162021,"station_id":"GGL","station_name":"Grogol","time":3,"distance":1700,"line":5,"is_transit":false}],[{"station_id":"TB","line":1,"is_transit":false,"transit":false,"i_long":107.055722,"distance":0,"time":0,"station_name":"Tambun","i_lat":-6.258864},{"station_id":"BKST","i_lat":-6.248029,"transit":false,"i_long":107.016735,"station_name":"Bekasi Timur","is_transit":false,"line":0,"distance":4460,"time":7},{"is_transit":false,"time":2,"distance":2368,"line":0,"station_id":"BKS","i_long":106.997013,"transit":false,"station_name":"Bekasi","i_lat":-6.236616},{"line":1,"distance":2520,"station_name":"Kranji","is_transit":false,"time":4,"station_id":"KRI","transit":false,"i_lat":-6.224515,"i_long":106.977657},{"line":0,"station_id":"CUK","time":3,"i_long":106.951283,"i_lat":-6.219053,"is_transit":false,"distance":3097,"transit":false,"station_name":"Cakung"},{"i_long":106.939679,"i_lat":-6.217455,"distance":1385,"is_transit":false,"line":1,"transit":false,"station_id":"KLDB","station_name":"Klenderbaru","time":8},{"i_lat":-6.215568,"is_transit":false,"station_id":"BUA","i_long":106.922662,"distance":1305,"time":1,"line":0,"transit":false,"station_name":"Buaran"},{"i_lat":-6.2135,"i_long":106.899548,"station_name":"Klender","station_id":"KLD","distance":3100,"time":2,"line":1,"is_transit":false,"transit":false},{"distance":3395,"transit":true,"station_name":"Jatinegara","time":3,"i_lat":-6.215091,"is_transit":true,"station_id":"JNG","i_long":106.86807400000001,"line":0},{"transit":false,"line":11,"station_id":"POK","i_lat":-6.209188,"station_name":"Pondok Jati","i_long":106.861737,"distance":1236,"is_transit":false,"time":2},{"i_lat":-6.193792,"station_name":"Kramat","is_transit":false,"station_id":"KMT","transit":false,"line":11,"i_long":106.855437,"distance":1829,"time":2},{"distance":973,"i_lat":-6.185975,"i_long":106.850107,"transit":false,"station_name":"Gang Sentiong","station_id":"GST","is_transit":false,"line":11,"time":1},{"transit":false,"time":8,"i_lat":-6.174784,"line":11,"i_long":106.84368,"is_transit":false,"distance":1567,"station_id":"PSE","station_name":"Pasar Senen"},{"station_name":"Kemayoran","i_lat":-6.161728,"is_transit":false,"distance":1436,"time":4,"station_id":"KMO","i_long":106.839204,"transit":false,"line":11},{"station_id":"RJW","transit":false,"station_name":"Rajawali","is_transit":false,"time":5,"i_long":106.836569,"line":11,"distance":1901,"i_lat":-6.14505},{"i_lat":-6.132549,"i_long":106.826365,"station_id":"KPB","is_transit":true,"transit":true,"line":0,"time":3,"station_name":"Kampung Bandan","distance":1444},{"station_id":"AK","station_name":"Angke","line":0,"distance":4102,"is_transit":false,"i_long":106.79867,"transit":false,"time":9,"i_lat":-6.144674},{"i_long":106.800832,"transit":true,"distance":1230,"line":1,"time":4,"is_transit":true,"i_lat":-6.155215,"station_id":"DU","station_name":"Duri"},{"distance":1700,"i_lat":-6.162021,"i_long":106.788277,"station_id":"GGL","station_name":"Grogol","time":3,"is_transit":false,"line":5,"transit":false}],[{"is_transit":false,"distance":0,"station_name":"Tambun","i_lat":-6.258864,"transit":false,"i_long":107.055722,"line":1,"time":0,"station_id":"TB"},{"station_name":"Bekasi Timur","transit":false,"line":0,"distance":4460,"station_id":"BKST","i_lat":-6.248029,"i_long":107.016735,"is_transit":false,"time":7},{"line":0,"distance":2368,"i_lat":-6.236616,"station_id":"BKS","is_transit":false,"i_long":106.997013,"station_name":"Bekasi","time":2,"transit":false},{"station_name":"Kranji","station_id":"KRI","time":4,"i_lat":-6.224515,"is_transit":false,"i_long":106.977657,"distance":2520,"line":1,"transit":false},{"distance":3097,"time":3,"line":0,"transit":false,"i_lat":-6.219053,"is_transit":false,"station_id":"CUK","station_name":"Cakung","i_long":106.951283},{"is_transit":false,"station_name":"Klenderbaru","transit":false,"distance":1385,"i_lat":-6.217455,"i_long":106.939679,"line":1,"time":8,"station_id":"KLDB"},{"i_lat":-6.215568,"i_long":106.922662,"line":0,"distance":1305,"station_id":"BUA","time":1,"station_name":"Buaran","is_transit":false,"transit":false},{"station_id":"KLD","station_name":"Klender","i_long":106.899548,"distance":3100,"transit":false,"is_transit":false,"i_lat":-6.2135,"time":2,"line":1},{"is_transit":true,"time":3,"i_long":106.86807400000001,"transit":false,"station_name":"Jatinegara","station_id":"JNG","distance":3395,"line":0,"i_lat":-6.215091},{"distance":1377,"transit":false,"i_long":106.858896,"i_lat":-6.212485,"line":1,"station_id":"MTR","is_transit":false,"time":2,"station_name":"Matraman"},{"i_lat":-6.209883,"station_id":"MRI","transit":true,"time":2,"line":0,"is_transit":true,"distance":1275,"i_long":106.84912,"station_name":"Manggarai"},{"line":0,"distance":1590,"station_name":"Cikini","time":4,"is_transit":false,"station_id":"CKI","i_lat":-6.198556,"i_long":106.840169,"transit":false},{"line":2,"is_transit":false,"distance":1750,"i_lat":-6.186295,"station_id":"GDD","time":3,"station_name":"Gondangdia","i_long":106.832183,"transit":false},{"line":2,"is_transit":false,"station_id":"JUA","station_name":"Juanda","transit":false,"time":4,"i_lat":-6.166716,"i_long":106.828284,"distance":2015},{"transit":false,"time":2,"i_lat":-6.160725,"line":2,"station_id":"SW","is_transit":false,"station_name":"Sawah Besar","i_long":106.827103,"distance":1149},{"line":2,"i_long":106.82482,"station_id":"MGB","time":2,"i_lat":-6.149769,"distance":906,"transit":false,"station_name":"Manggabesar","is_transit":false},{"station_id":"JAY","distance":1080,"station_name":"Jayakarta","line":7,"i_lat":-6.141205,"time":2,"transit":false,"is_transit":false,"i_long":106.820901},{"i_lat":-6.137569,"time":4,"line":0,"is_transit":true,"station_name":"Jakarta Kota","transit":true,"distance":1264,"i_long":106.812439,"station_id":"JAKK"},{"station_id":"KPB","line":0,"i_long":106.826365,"station_name":"Kampung Bandan","transit":false,"time":3,"is_transit":true,"distance":1364,"i_lat":-6.132549},{"station_id":"AK","i_lat":-6.144674,"station_name":"Angke","line":0,"distance":4102,"i_long":106.79867,"transit":false,"time":9,"is_transit":false},{"is_transit":true,"transit":true,"station_name":"Duri","line":1,"i_long":106.800832,"time":4,"station_id":"DU","i_lat":-6.155215,"distance":1230},{"transit":false,"line":5,"i_lat":-6.162021,"i_long":106.788277,"distance":1700,"station_id":"GGL","time":3,"station_name":"Grogol","is_transit":false}],[{"station_name":"Tambun","transit":false,"i_lat":-6.258864,"station_id":"TB","i_long":107.055722,"is_transit":false,"distance":0,"line":1,"time":0},{"i_long":107.016735,"line":0,"is_transit":false,"distance":4460,"station_name":"Bekasi Timur","time":7,"station_id":"BKST","transit":false,"i_lat":-6.248029},{"is_transit":false,"distance":2368,"station_name":"Bekasi","time":2,"line":0,"i_long":106.997013,"station_id":"BKS","transit":false,"i_lat":-6.236616},{"station_name":"Kranji","i_lat":-6.224515,"station_id":"KRI","i_long":106.977657,"transit":false,"distance":2520,"line":1,"time":4,"is_transit":false},{"station_id":"CUK","i_lat":-6.219053,"transit":false,"time":3,"i_long":106.951283,"is_transit":false,"station_name":"Cakung","line":0,"distance":3097},{"i_long":106.939679,"line":1,"time":8,"is_transit":false,"transit":false,"distance":1385,"i_lat":-6.217455,"station_id":"KLDB","station_name":"Klenderbaru"},{"is_transit":false,"i_long":106.922662,"line":0,"transit":false,"i_lat":-6.215568,"station_name":"Buaran","time":1,"distance":1305,"station_id":"BUA"},{"station_name":"Klender","distance":3100,"line":1,"station_id":"KLD","transit":false,"i_long":106.899548,"is_transit":false,"time":2,"i_lat":-6.2135},{"station_id":"JNG","station_name":"Jatinegara","line":0,"transit":true,"distance":3395,"time":3,"i_lat":-6.215091,"i_long":106.86807400000001,"is_transit":true},{"station_id":"POK","i_lat":-6.209188,"transit":false,"time":2,"i_long":106.861737,"distance":1236,"is_transit":false,"line":11,"station_name":"Pondok Jati"},{"i_lat":-6.193792,"distance":1829,"time":2,"is_transit":false,"transit":false,"i_long":106.855437,"line":11,"station_id":"KMT","station_name":"Kramat"},{"time":1,"station_name":"Gang Sentiong","station_id":"GST","transit":false,"distance":973,"is_transit":false,"line":11,"i_lat":-6.185975,"i_long":106.850107},{"line":11,"station_name":"Pasar Senen","station_id":"PSE","is_transit":false,"transit":false,"i_lat":-6.174784,"i_long":106.84368,"distance":1567,"time":8},{"i_long":106.839204,"time":4,"distance":1436,"is_transit":false,"i_lat":-6.161728,"station_id":"KMO","station_name":"Kemayoran","transit":false,"line":11},{"i_lat":-6.14505,"line":11,"distance":1901,"time":5,"is_transit":false,"transit":false,"station_id":"RJW","i_long":106.836569,"station_name":"Rajawali"},{"distance":1444,"i_long":106.826365,"line":0,"is_transit":true,"station_id":"KPB","station_name":"Kampung Bandan","i_lat":-6.132549,"time":3,"transit":true},{"i_long":106.812439,"distance":1364,"station_id":"JAKK","station_name":"Jakarta Kota","i_lat":-6.137569,"line":0,"is_transit":true,"transit":true,"time":3},{"time":4,"line":7,"i_long":106.820901,"is_transit":false,"station_name":"Jayakarta","distance":1264,"i_lat":-6.141205,"transit":false,"station_id":"JAY"},{"distance":1080,"station_id":"MGB","transit":false,"i_lat":-6.149769,"i_long":106.82482,"line":2,"station_name":"Manggabesar","time":2,"is_transit":false},{"line":2,"station_id":"SW","time":2,"distance":906,"transit":false,"is_transit":false,"station_name":"Sawah Besar","i_lat":-6.160725,"i_long":106.827103},{"station_name":"Juanda","is_transit":false,"station_id":"JUA","transit":false,"i_lat":-6.166716,"i_long":106.828284,"time":2,"line":2,"distance":1149},{"time":4,"distance":2015,"is_transit":false,"i_lat":-6.186295,"station_id":"GDD","transit":false,"line":2,"i_long":106.832183,"station_name":"Gondangdia"},{"station_name":"Cikini","is_transit":false,"i_lat":-6.198556,"transit":false,"time":3,"line":0,"distance":1750,"station_id":"CKI","i_long":106.840169},{"time":4,"i_lat":-6.209883,"is_transit":true,"station_id":"MRI","line":0,"distance":1590,"transit":true,"station_name":"Manggarai","i_long":106.84912},{"station_id":"SUD","i_lat":-6.202263,"i_long":106.822649,"time":4,"station_name":"Sudirman","distance":3186,"transit":false,"line":1,"is_transit":false},{"station_name":"Sudirman Baru","i_long":106.819881,"distance":280,"line":1,"i_lat":-6.201433,"is_transit":false,"transit":false,"time":1,"station_id":"SUDB"},{"is_transit":false,"station_name":"Karet","i_lat":-6.20132,"line":1,"distance":471,"i_long":106.816351,"transit":false,"station_id":"KAT","time":1},{"line":1,"station_id":"THB","time":5,"transit":false,"i_long":106.811091,"station_name":"Tanah Abang","is_transit":true,"i_lat":-6.185545,"distance":2029},{"is_transit":true,"station_id":"DU","station_name":"Duri","time":8,"i_lat":-6.155215,"transit":true,"distance":3632,"i_long":106.800832,"line":1},{"time":3,"i_lat":-6.162021,"station_id":"GGL","i_long":106.788277,"line":5,"distance":1700,"station_name":"Grogol","is_transit":false,"transit":false}]]}