{"data":[[{"station_name":"Tambun","line":1,"is_transit":false,"i_lat":-6.258864,"distance":0,"time":0,"i_long":107.055722,"transit":false,"station_id":"TB"},{"distance":4460,"i_lat":-6.248029,"station_name":"Bekasi Timur","is_transit":false,"time":7,"i_long":107.016735,"line":1,"station_id":"BKST","transit":false},{"station_id":"BKS","is_transit":false,"transit":false,"i_lat":-6.236616,"station_name":"Bekasi","distance":2368,"time":2,"i_long":106.997013,"line":1},{"i_long":106.977657,"transit":false,"distance":2520,"i_lat":-6.224515,"is_transit":false,"time":4,"station_id":"KRI","station_name":"Kranji","line":1},{"i_long":106.951283,"time":3,"i_lat":-6.219053,"transit":false,"distance":3097,"station_id":"CUK","station_name":"Cakung","is_transit":false,"line":1},{"is_transit":false,"line":1,"time":8,"i_long":106.939679,"distance":1385,"station_id":"KLDB","station_name":"Klenderbaru","i_lat":-6.217455,"transit":false},{"i_long":106.922662,"station_name":"Buaran","time":1,"i_lat":-6.215568,"is_transit":false,"line":1,"station_id":"BUA","distance":1305,"transit":false},{"station_id":"KLD","time":2,"station_name":"Klender","line":1,"transit":false,"i_long":106.899548,"is_transit":false,"i_lat":-6.2135,"distance":3100},{"transit":true,"station_name":"Jatinegara","distance":3395,"i_long":106.86807400000001,"time":3,"station_id":"JNG","i_lat":-6.215091,"is_transit":true,"line":1},{"i_lat":-6.209188,"i_long":106.861737,"line":11,"distance":1236,"transit":false,"station_name":"Pondok Jati","station_id":"POK","time":2,"is_transit":false},{"i_lat":-6.193792,"line":11,"transit":false,"time":2,"station_id":"KMT","station_name":"Kramat","i_long":106.855437,"distance":1829,"is_transit":false},{"is_transit":false,"station_name":"Gang Sentiong","i_long":106.850107,"line":11,"time":1,"transit":false,"station_id":"GST","i_lat":-6.185975,"distance":973}],[{"station_name":"Tambun","time":0,"distance":0,"i_lat":-6.258864,"station_id":"TB","is_transit":false,"i_long":107.055722,"line":1,"transit":false},{"transit":false,"station_id":"BKST","distance":4460,"i_lat":-6.248029,"is_transit":false,"i_long":107.016735,"station_name":"Bekasi Timur","time":7,"line":1},{"station_id":"BKS","is_transit":false,"i_long":106.997013,"station_name":"Bekasi","time":2,"transit":false,"distance":2368,"i_lat":-6.236616,"line":1},{"transit":false,"is_transit":false,"i_lat":-6.224515,"station_name":"Kranji","line":1,"i_long":106.977657,"station_id":"KRI","distance":2520,"time":4},{"station_name":"Cakung","distance":3097,"station_id":"CUK","time":3,"line":1,"i_long":106.951283,"i_lat":-6.219053,"is_transit":false,"transit":false},{"station_name":"Klenderbaru","i_lat":-6.217455,"station_id":"KLDB","is_transit":false,"distance":1385,"transit":false,"i_long":106.939679,"time":8,"line":1},{"i_lat":-6.215568,"transit":false,"distance":1305,"station_name":"Buaran","is_transit":false,"i_long":106.922662,"line":1,"station_id":"BUA","time":1},{"station_id":"KLD","i_lat":-6.2135,"distance":3100,"time":2,"station_name":"Klender","is_transit":false,"i_long":106.899548,"transit":false,"line":1},{"is_transit":false,"time":3,"station_name":"Jatinegara","i_long":106.86807400000001,"i_lat":-6.215091,"station_id":"JNG","transit":false,"distance":3395,"line":1},{"i_long":106.858896,"is_transit":false,"distance":1377,"i_lat":-6.212485,"time":2,"station_id":"MTR","line":1,"station_name":"Matraman","transit":false},{"station_name":"Manggarai","is_transit":false,"line":2,"i_lat":-6.209883,"distance":1275,"transit":false,"time":2,"station_id":"MRI","i_long":106.84912},{"i_long":106.822649,"transit":false,"is_transit":false,"time":4,"distance":3186,"station_id":"SUD","line":1,"station_name":"Sudirman","i_lat":-6.202263},{"station_id":"SUDB","line":1,"station_name":"Sudirman Baru","i_lat":-6.201433,"transit":false,"distance":280,"is_transit":false,"time":1,"i_long":106.819881},{"transit":false,"line":1,"i_lat":-6.20132,"time":1,"station_name":"Karet","is_transit":false,"station_id":"KAT","i_long":106.816351,"distance":471},{"distance":2029,"line":1,"is_transit":false,"time":5,"i_lat":-6.185545,"station_name":"Tanah Abang","i_long":106.811091,"transit":false,"station_id":"THB"},{"i_lat":-6.155215,"is_transit":false,"i_long":106.800832,"line":1,"time":8,"station_id":"DU","transit":false,"station_name":"Duri","distance":3632},{"time":4,"is_transit":false,"i_lat":-6.144674,"station_id":"AK","line":1,"distance":1230,"station_name":"Angke","i_long":106.79867,"transit":false},{"is_transit":true,"station_id":"KPB","i_long":106.826365,"i_lat":-6.132549,"transit":true,"station_name":"Kampung Bandan","line":4,"time":9,"distance":4102},{"i_lat":-6.14505,"is_transit":false,"line":11,"i_long":106.836569,"station_id":"RJW","transit":false,"station_name":"Rajawali","time":3,"distance":1444},{"station_name":"Kemayoran","i_lat":-6.161728,"transit":false,"station_id":"KMO","time":5,"i_long":106.839204,"distance":1901,"line":11,"is_transit":false},{"station_name":"Pasar Senen","i_lat":-6.174784,"i_long":106.84368,"transit":false,"is_transit":false,"line":11,"distance":1436,"time":4,"station_id":"PSE"},{"station_id":"GST","station_name":"Gang Sentiong","i_lat":-6.185975,"line":11,"is_transit":false,"time":8,"distance":1567,"transit":false,"i_long":106.850107}],[{"station_name":"Tambun","time":0,"i_lat":-6.258864,"i_long":107.055722,"transit":false,"line":1,"distance":0,"is_transit":false,"station_id":"TB"},{"time":7,"station_name":"Bekasi Timur","is_transit":false,"distance":4460,"i_long":107.016735,"line":1,"station_id":"BKST","transit":false,"i_lat":-6.248029},{"station_id":"BKS","transit":false,"time":2,"i_long":106.997013,"station_name":"Bekasi","is_transit":false,"distance":2368,"i_lat":-6.236616,"line":1},{"station_id":"KRI","transit":false,"distance":2520,"line":1,"i_lat":-6.224515,"time":4,"station_name":"Kranji","is_transit":false,"i_long":106.977657},{"distance":3097,"i_lat":-6.219053,"time":3,"transit":false,"station_name":"Cakung","station_id":"CUK","i_long":106.951283,"line":1,"is_transit":false},{"i_long":106.939679,"i_lat":-6.217455,"transit":false,"station_name":"Klenderbaru","time":8,"station_id":"KLDB","is_transit":false,"line":1,"distance":1385},{"station_id":"BUA","distance":1305,"station_name":"Buaran","line":1,"is_transit":false,"time":1,"i_long":106.922662,"transit":false,"i_lat":-6.215568},{"i_lat":-6.2135,"distance":3100,"station_name":"Klender","station_id":"KLD","is_transit":false,"time":2,"i_long":106.899548,"transit":false,"line":1},{"i_long":106.86807400000001,"station_name":"Jatinegara","station_id":"JNG","time":3,"line":1,"transit":false,"distance":3395,"i_lat":-6.215091,"is_transit":false},{"i_lat":-6.212485,"i_long":106.858896,"line":1,"distance":1377,"station_name":"Matraman","transit":false,"station_id":"MTR","is_transit":false,"time":2},{"station_id":"MRI","transit":true,"is_transit":true,"i_long":106.84912,"time":2,"distance":1275,"i_lat":-6.209883,"line":2,"station_name":"Manggarai"},{"i_lat":-6.198556,"distance":1590,"station_id":"CKI","transit":false,"station_name":"Cikini","is_transit":false,"time":4,"i_long":106.840169,"line":2},{"time":3,"distance":1750,"i_lat":-6.186295,"line":2,"station_id":"GDD","transit":false,"station_name":"Gondangdia","is_transit":false,"i_long":106.832183},{"i_long":106.828284,"station_name":"Juanda","i_lat":-6.166716,"time":4,"transit":false,"is_transit":false,"station_id":"JUA","distance":2015,"line":2},{"i_long":106.827103,"time":2,"station_id":"SW","is_transit":false,"i_lat":-6.160725,"line":2,"distance":1149,"station_name":"Sawah Besar","transit":false},{"distance":906,"line":2,"i_lat":-6.149769,"time":2,"station_name":"Manggabesar","transit":false,"is_transit":false,"i_long":106.82482,"station_id":"MGB"},{"is_transit":false,"line":2,"i_lat":-6.141205,"time":2,"station_name":"Jayakarta","distance":1080,"i_long":106.820901,"transit":false,"station_id":"JAY"},{"is_transit":true,"station_id":"JAKK","i_long":106.812439,"line":2,"distance":1264,"i_lat":-6.137569,"time":4,"station_name":"Jakarta Kota","transit":true},{"distance":1364,"station_name":"Kampung Bandan","station_id":"KPB","is_transit":true,"i_lat":-6.132549,"i_long":106.826365,"time":3,"transit":true,"line":4},{"i_lat":-6.14505,"station_name":"Rajawali","time":3,"i_long":106.836569,"transit":false,"line":11,"is_transit":false,"distance":1444,"station_id":"RJW"},{"station_id":"KMO","distance":1901,"time":5,"line":11,"i_lat":-6.161728,"is_transit":false,"i_long":106.839204,"transit":false,"station_name":"Kemayoran"},{"station_name":"Pasar Senen","station_id":"PSE","is_transit":false,"distance":1436,"i_long":106.84368,"line":11,"transit":false,"time":4,"i_lat":-6.174784},{"is_transit":false,"station_id":"GST","line":11,"transit":false,"time":8,"i_long":106.850107,"station_name":"Gang Sentiong","i_lat":-6.185975,"distance":1567}]]}