{"data":[[{"i_lat":-6.258864,"is_transit":false,"transit":false,"time":0,"i_long":107.055722,"station_name":"Tambun","distance":0,"line":1,"station_id":"TB"},{"distance":4460,"i_lat":-6.248029,"station_id":"BKST","is_transit":false,"transit":false,"time":7,"i_long":107.016735,"line":1,"station_name":"Bekasi Timur"},{"station_name":"Bekasi","distance":2368,"i_lat":-6.236616,"time":2,"i_long":106.997013,"transit":false,"line":1,"station_id":"BKS","is_transit":false},{"time":4,"transit":false,"is_transit":false,"i_lat":-6.224515,"station_name":"Kranji","line":1,"station_id":"KRI","i_long":106.977657,"distance":2520},{"i_long":106.951283,"distance":3097,"station_id":"CUK","transit":false,"station_name":"Cakung","time":3,"line":1,"is_transit":false,"i_lat":-6.219053},{"distance":1385,"line":1,"transit":false,"i_lat":-6.217455,"station_name":"Klenderbaru","station_id":"KLDB","i_long":106.939679,"time":8,"is_transit":false},{"transit":false,"i_lat":-6.215568,"line":1,"is_transit":false,"station_name":"Buaran","time":1,"i_long":106.922662,"distance":1305,"station_id":"BUA"},{"station_id":"KLD","distance":3100,"transit":false,"i_lat":-6.2135,"i_long":106.899548,"is_transit":false,"station_name":"Klender","time":2,"line":1},{"station_name":"Jatinegara","is_transit":false,"time":3,"i_long":106.86807400000001,"i_lat":-6.215091,"line":1,"station_id":"JNG","transit":false,"distance":3395},{"is_transit":false,"line":1,"i_long":106.858896,"time":2,"transit":false,"distance":1377,"station_id":"MTR","station_name":"Matraman","i_lat":-6.212485},{"time":2,"i_long":106.84912,"station_id":"MRI","line":2,"transit":true,"i_lat":-6.209883,"is_transit":true,"distance":1275,"station_name":"Manggarai"},{"transit":false,"i_long":106.840169,"distance":1590,"station_name":"Cikini","station_id":"CKI","i_lat":-6.198556,"line":2,"time":4,"is_transit":false},{"transit":false,"distance":1750,"line":2,"is_transit":false,"i_lat":-6.186295,"time":3,"station_name":"Gondangdia","i_long":106.832183,"station_id":"GDD"}],[{"i_lat":-6.258864,"station_name":"Tambun","time":0,"transit":false,"station_id":"TB","distance":0,"is_transit":false,"i_long":107.055722,"line":1},{"station_id":"BKST","time":7,"distance":4460,"line":1,"station_name":"Bekasi Timur","transit":false,"i_lat":-6.248029,"is_transit":false,"i_long":107.016735},{"station_id":"BKS","i_lat":-6.236616,"time":2,"distance":2368,"is_transit":false,"i_long":106.997013,"line":1,"transit":false,"station_name":"Bekasi"},{"station_id":"KRI","i_lat":-6.224515,"is_transit":false,"distance":2520,"i_long":106.977657,"line":1,"time":4,"transit":false,"station_name":"Kranji"},{"is_transit":false,"station_name":"Cakung","transit":false,"distance":3097,"i_lat":-6.219053,"line":1,"station_id":"CUK","time":3,"i_long":106.951283},{"i_lat":-6.217455,"i_long":106.939679,"transit":false,"station_id":"KLDB","station_name":"Klenderbaru","line":1,"is_transit":false,"time":8,"distance":1385},{"time":1,"station_name":"Buaran","distance":1305,"station_id":"BUA","transit":false,"i_long":106.922662,"is_transit":false,"i_lat":-6.215568,"line":1},{"line":1,"station_name":"Klender","is_transit":false,"i_lat":-6.2135,"i_long":106.899548,"transit":false,"station_id":"KLD","time":2,"distance":3100},{"i_lat":-6.215091,"line":1,"is_transit":true,"transit":true,"station_name":"Jatinegara","distance":3395,"time":3,"i_long":106.86807400000001,"station_id":"JNG"},{"station_id":"POK","distance":1236,"i_long":106.861737,"is_transit":false,"line":11,"i_lat":-6.209188,"transit":false,"station_name":"Pondok Jati","time":2},{"station_id":"KMT","line":11,"time":2,"i_long":106.855437,"station_name":"Kramat","is_transit":false,"distance":1829,"transit":false,"i_lat":-6.193792},{"is_transit":false,"time":1,"distance":973,"line":11,"station_id":"GST","station_name":"Gang Sentiong","i_lat":-6.185975,"i_long":106.850107,"transit":false},{"time":8,"i_long":106.84368,"station_id":"PSE","i_lat":-6.174784,"line":11,"station_name":"Pasar Senen","transit":false,"distance":1567,"is_transit":false},{"i_lat":-6.161728,"i_long":106.839204,"transit":false,"time":4,"station_name":"Kemayoran","line":11,"is_transit":false,"distance":1436,"station_id":"KMO"},{"transit":false,"time":5,"distance":1901,"i_long":106.836569,"is_transit":false,"line":11,"i_lat":-6.14505,"station_name":"Rajawali","station_id":"RJW"},{"i_long":106.826365,"transit":true,"line":4,"station_name":"Kampung Bandan","station_id":"KPB","is_transit":true,"i_lat":-6.132549,"time":3,"distance":1444},{"distance":1364,"line":2,"station_id":"JAKK","i_lat":-6.137569,"time":3,"i_long":106.812439,"station_name":"Jakarta Kota","is_transit":true,"transit":true},{"transit":false,"distance":1264,"line":2,"i_lat":-6.141205,"time":4,"i_long":106.820901,"station_name":"Jayakarta","station_id":"JAY","is_transit":false},{"is_transit":false,"station_id":"MGB","distance":1080,"i_lat":-6.149769,"transit":false,"line":2,"time":2,"i_long":106.82482,"station_name":"Manggabesar"},{"is_transit":false,"i_lat":-6.160725,"transit":false,"time":2,"i_long":106.827103,"line":2,"station_name":"Sawah Besar","station_id":"SW","distance":906},{"time":2,"is_transit":false,"station_id":"JUA","i_lat":-6.166716,"transit":false,"station_name":"Juanda","line":2,"i_long":106.828284,"distance":1149},{"station_name":"Gondangdia","distance":2015,"i_long":106.832183,"line":2,"time":4,"i_lat":-6.186295,"station_id":"GDD","transit":false,"is_transit":false}],[{"distance":0,"time":0,"i_long":107.055722,"is_transit":false,"station_id":"TB","i_lat":-6.258864,"transit":false,"station_name":"Tambun","line":1},{"time":7,"transit":false,"is_transit":false,"i_long":107.016735,"station_name":"Bekasi Timur","distance":4460,"station_id":"BKST","i_lat":-6.248029,"line":1},{"transit":false,"i_lat":-6.236616,"line":1,"time":2,"station_name":"Bekasi","is_transit":false,"distance":2368,"station_id":"BKS","i_long":106.997013},{"i_long":106.977657,"station_id":"KRI","is_transit":false,"transit":false,"time":4,"line":1,"station_name":"Kranji","i_lat":-6.224515,"distance":2520},{"i_lat":-6.219053,"line":1,"station_name":"Cakung","is_transit":false,"transit":false,"distance":3097,"time":3,"station_id":"CUK","i_long":106.951283},{"line":1,"time":8,"transit":false,"is_transit":false,"station_id":"KLDB","distance":1385,"station_name":"Klenderbaru","i_long":106.939679,"i_lat":-6.217455},{"time":1,"line":1,"distance":1305,"transit":false,"station_name":"Buaran","is_transit":false,"i_long":106.922662,"i_lat":-6.215568,"station_id":"BUA"},{"distance":3100,"i_long":106.899548,"station_name":"Klender","line":1,"transit":false,"station_id":"KLD","is_transit":false,"time":2,"i_lat":-6.2135},{"i_lat":-6.215091,"transit":false,"station_id":"JNG","distance":3395,"station_name":"Jatinegara","i_long":106.86807400000001,"time":3,"is_transit":false,"line":1},{"i_lat":-6.212485,"is_transit":false,"time":2,"distance":1377,"station_id":"MTR","station_name":"Matraman","i_long":106.858896,"transit":false,"line":1},{"station_id":"MRI","line":2,"station_name":"Manggarai","is_transit":false,"i_lat":-6.209883,"transit":false,"time":2,"distance":1275,"i_long":106.84912},{"line":1,"transit":false,"is_transit":false,"station_id":"SUD","distance":3186,"i_long":106.822649,"station_name":"Sudirman","time":4,"i_lat":-6.202263},{"station_name":"Sudirman Baru","is_transit":false,"i_lat":-6.201433,"distance":280,"line":1,"i_long":106.819881,"transit":false,"time":1,"station_id":"SUDB"},{"i_lat":-6.20132,"line":1,"station_id":"KAT","time":1,"i_long":106.816351,"is_transit":false,"distance":471,"transit":false,"station_name":"Karet"},{"line":1,"i_lat":-6.185545,"station_id":"THB","distance":2029,"i_long":106.811091,"station_name":"Tanah Abang","is_transit":false,"time":5,"transit":false},{"station_id":"DU","time":8,"is_transit":false,"i_lat":-6.155215,"station_name":"Duri","distance":3632,"transit":false,"i_long":106.800832,"line":1},{"i_long":106.79867,"time":4,"station_name":"Angke","i_lat":-6.144674,"station_id":"AK","transit":false,"is_transit":false,"line":1,"distance":1230},{"i_lat":-6.132549,"station_name":"Kampung Bandan","i_long":106.826365,"transit":true,"line":4,"time":9,"is_transit":true,"distance":4102,"station_id":"KPB"},{"distance":1364,"line":2,"i_long":106.812439,"time":3,"is_transit":true,"station_name":"Jakarta Kota","station_id":"JAKK","transit":true,"i_lat":-6.137569},{"time":4,"i_lat":-6.141205,"transit":false,"is_transit":false,"station_name":"Jayakarta","station_id":"JAY","distance":1264,"line":2,"i_long":106.820901},{"i_long":106.82482,"distance":1080,"is_transit":false,"station_name":"Manggabesar","line":2,"time":2,"transit":false,"station_id":"MGB","i_lat":-6.149769},{"is_transit":false,"distance":906,"station_id":"SW","transit":false,"i_lat":-6.160725,"line":2,"station_name":"Sawah Besar","time":2,"i_long":106.827103},{"station_name":"Juanda","is_transit":false,"transit":false,"i_lat":-6.166716,"i_long":106.828284,"station_id":"JUA","distance":1149,"time":2,"line":2},{"transit":false,"time":4,"i_long":106.832183,"is_transit":false,"distance":2015,"station_name":"Gondangdia","station_id":"GDD","line":2,"i_lat":-6.186295}],[{"station_id":"TB","line":1,"transit":false,"is_transit":false,"station_name":"Tambun","i_long":107.055722,"i_lat":-6.258864,"time":0,"distance":0},{"is_transit":false,"transit":false,"distance":4460,"i_lat":-6.248029,"station_id":"BKST","station_name":"Bekasi Timur","line":1,"time":7,"i_long":107.016735},{"line":1,"transit":false,"i_long":106.997013,"station_name":"Bekasi","i_lat":-6.236616,"station_id":"BKS","time":2,"distance":2368,"is_transit":false},{"line":1,"i_long":106.977657,"distance":2520,"time":4,"transit":false,"i_lat":-6.224515,"is_transit":false,"station_id":"KRI","station_name":"Kranji"},{"line":1,"transit":false,"station_name":"Cakung","station_id":"CUK","time":3,"is_transit":false,"i_long":106.951283,"distance":3097,"i_lat":-6.219053},{"time":8,"distance":1385,"transit":false,"i_lat":-6.217455,"is_transit":false,"line":1,"i_long":106.939679,"station_name":"Klenderbaru","station_id":"KLDB"},{"transit":false,"line":1,"station_id":"BUA","distance":1305,"time":1,"is_transit":false,"i_long":106.922662,"i_lat":-6.215568,"station_name":"Buaran"},{"is_transit":false,"transit":false,"station_id":"KLD","time":2,"line":1,"station_name":"Klender","i_long":106.899548,"i_lat":-6.2135,"distance":3100},{"transit":true,"station_name":"Jatinegara","i_lat":-6.215091,"is_transit":true,"i_long":106.86807400000001,"time":3,"line":1,"station_id":"JNG","distance":3395},{"line":11,"time":2,"distance":1236,"station_name":"Pondok Jati","is_transit":false,"station_id":"POK","i_lat":-6.209188,"i_long":106.861737,"transit":false},{"is_transit":false,"station_name":"Kramat","line":11,"station_id":"KMT","distance":1829,"i_lat":-6.193792,"transit":false,"time":2,"i_long":106.855437},{"time":1,"transit":false,"line":11,"station_name":"Gang Sentiong","i_lat":-6.185975,"distance":973,"i_long":106.850107,"station_id":"GST","is_transit":false},{"transit":false,"is_transit":false,"distance":1567,"station_name":"Pasar Senen","line":11,"i_lat":-6.174784,"time":8,"station_id":"PSE","i_long":106.84368},{"i_lat":-6.161728,"distance":1436,"i_long":106.839204,"line":11,"transit":false,"is_transit":false,"time":4,"station_name":"Kemayoran","station_id":"KMO"},{"distance":1901,"station_name":"Rajawali","transit":false,"is_transit":false,"time":5,"i_lat":-6.14505,"i_long":106.836569,"line":11,"station_id":"RJW"},{"distance":1444,"transit":true,"is_transit":true,"i_long":106.826365,"line":4,"i_lat":-6.132549,"time":3,"station_name":"Kampung Bandan","station_id":"KPB"},{"transit":false,"station_id":"AK","distance":4102,"i_lat":-6.144674,"station_name":"Angke","i_long":106.79867,"is_transit":false,"time":9,"line":1},{"i_long":106.800832,"station_name":"Duri","is_transit":false,"time":4,"line":1,"transit":false,"station_id":"DU","distance":1230,"i_lat":-6.155215},{"distance":3632,"transit":false,"station_id":"THB","is_transit":false,"time":8,"i_lat":-6.185545,"line":1,"station_name":"Tanah Abang","i_long":106.811091},{"distance":2029,"is_transit":false,"station_name":"Karet","time":5,"transit":false,"i_lat":-6.20132,"station_id":"KAT","i_long":106.816351,"line":1},{"i_long":106.819881,"station_name":"Sudirman Baru","distance":471,"i_lat":-6.201433,"station_id":"SUDB","transit":false,"line":1,"time":1,"is_transit":false},{"is_transit":false,"transit":false,"station_id":"SUD","line":1,"i_long":106.822649,"time":1,"distance":280,"i_lat":-6.202263,"station_name":"Sudirman"},{"transit":true,"station_id":"MRI","is_transit":true,"distance":3186,"time":4,"i_lat":-6.209883,"station_name":"Manggarai","i_long":106.84912,"line":2},{"is_transit":false,"station_name":"Cikini","time":4,"i_lat":-6.198556,"line":2,"station_id":"CKI","distance":1590,"transit":false,"i_long":106.840169},{"station_name":"Gondangdia","distance":1750,"line":2,"is_transit":false,"time":3,"i_long":106.832183,"transit":false,"i_lat":-6.186295,"station_id":"GDD"}]]}