{"data":[[{"station_id":"TB","i_lat":-6.258864,"transit":false,"i_long":107.055722,"is_transit":false,"distance":0,"station_name":"Tambun","time":0,"line":1},{"distance":4460,"is_transit":false,"station_id":"BKST","i_lat":-6.248029,"transit":false,"line":0,"i_long":107.016735,"time":7,"station_name":"Bekasi Timur"},{"transit":false,"is_transit":false,"time":2,"i_lat":-6.236616,"i_long":106.997013,"line":0,"distance":2368,"station_name":"Bekasi","station_id":"BKS"},{"distance":2520,"is_transit":false,"i_lat":-6.224515,"station_name":"Kranji","time":4,"line":1,"station_id":"KRI","transit":false,"i_long":106.977657},{"time":3,"is_transit":false,"i_long":106.951283,"line":0,"distance":3097,"i_lat":-6.219053,"station_id":"CUK","station_name":"Cakung","transit":false},{"is_transit":false,"i_long":106.939679,"time":8,"line":1,"distance":1385,"station_name":"Klenderbaru","station_id":"KLDB","transit":false,"i_lat":-6.217455},{"is_transit":false,"line":0,"station_id":"BUA","distance":1305,"transit":false,"time":1,"i_lat":-6.215568,"i_long":106.922662,"station_name":"Buaran"},{"i_lat":-6.2135,"i_long":106.899548,"distance":3100,"station_id":"KLD","station_name":"Klender","time":2,"line":1,"transit":false,"is_transit":false},{"i_long":106.86807400000001,"is_transit":true,"station_id":"JNG","station_name":"Jatinegara","transit":false,"time":3,"i_lat":-6.215091,"distance":3395,"line":0},{"station_id":"MTR","i_lat":-6.212485,"line":1,"i_long":106.858896,"transit":false,"is_transit":false,"time":2,"distance":1377,"station_name":"Matraman"},{"station_name":"Manggarai","is_transit":true,"line":0,"station_id":"MRI","i_long":106.84912,"transit":true,"distance":1275,"i_lat":-6.209883,"time":2},{"transit":false,"station_id":"CKI","station_name":"Cikini","i_long":106.840169,"line":0,"distance":1590,"time":4,"is_transit":false,"i_lat":-6.198556},{"line":2,"distance":1750,"station_id":"GDD","i_long":106.832183,"time":3,"i_lat":-6.186295,"station_name":"Gondangdia","is_transit":false,"transit":false}],[{"transit":false,"time":0,"i_long":107.055722,"line":1,"station_id":"TB","station_name":"Tambun","i_lat":-6.258864,"is_transit":false,"distance":0},{"station_id":"BKST","transit":false,"i_lat":-6.248029,"line":0,"is_transit":false,"time":7,"i_long":107.016735,"station_name":"Bekasi Timur","distance":4460},{"station_id":"BKS","time":2,"i_long":106.997013,"line":0,"i_lat":-6.236616,"is_transit":false,"station_name":"Bekasi","transit":false,"distance":2368},{"distance":2520,"is_transit":false,"line":1,"station_id":"KRI","i_long":106.977657,"time":4,"transit":false,"i_lat":-6.224515,"station_name":"Kranji"},{"time":3,"line":0,"transit":false,"distance":3097,"station_id":"CUK","i_lat":-6.219053,"station_name":"Cakung","i_long":106.951283,"is_transit":false},{"station_id":"KLDB","i_long":106.939679,"line":1,"is_transit":false,"time":8,"distance":1385,"station_name":"Klenderbaru","transit":false,"i_lat":-6.217455},{"distance":1305,"station_id":"BUA","station_name":"Buaran","transit":false,"time":1,"i_long":106.922662,"line":0,"i_lat":-6.215568,"is_transit":false},{"is_transit":false,"station_id":"KLD","station_name":"Klender","transit":false,"line":1,"i_long":106.899548,"distance":3100,"time":2,"i_lat":-6.2135},{"time":3,"is_transit":true,"i_lat":-6.215091,"station_id":"JNG","line":0,"distance":3395,"station_name":"Jatinegara","i_long":106.86807400000001,"transit":true},{"i_lat":-6.209188,"station_name":"Pondok Jati","i_long":106.861737,"time":2,"line":11,"station_id":"POK","is_transit":false,"transit":false,"distance":1236},{"is_transit":false,"i_long":106.855437,"time":2,"i_lat":-6.193792,"line":11,"station_id":"KMT","distance":1829,"station_name":"Kramat","transit":false},{"distance":973,"is_transit":false,"transit":false,"station_id":"GST","time":1,"i_lat":-6.185975,"station_name":"Gang Sentiong","i_long":106.850107,"line":11},{"transit":false,"is_transit":false,"station_name":"Pasar Senen","i_long":106.84368,"distance":1567,"line":11,"station_id":"PSE","time":8,"i_lat":-6.174784},{"line":11,"is_transit":false,"i_long":106.839204,"distance":1436,"station_name":"Kemayoran","transit":false,"time":4,"i_lat":-6.161728,"station_id":"KMO"},{"station_id":"RJW","distance":1901,"i_lat":-6.14505,"transit":false,"i_long":106.836569,"line":11,"is_transit":false,"station_name":"Rajawali","time":5},{"distance":1444,"station_name":"Kampung Bandan","i_lat":-6.132549,"transit":true,"station_id":"KPB","line":0,"is_transit":true,"i_long":106.826365,"time":3},{"station_name":"Jakarta Kota","distance":1364,"station_id":"JAKK","i_lat":-6.137569,"i_long":106.812439,"line":0,"time":3,"is_transit":true,"transit":true},{"line":7,"transit":false,"i_lat":-6.141205,"time":4,"i_long":106.820901,"is_transit":false,"distance":1264,"station_id":"JAY","station_name":"Jayakarta"},{"time":2,"station_name":"Manggabesar","transit":false,"i_lat":-6.149769,"distance":1080,"i_long":106.82482,"is_transit":false,"line":2,"station_id":"MGB"},{"line":2,"is_transit":false,"i_lat":-6.160725,"i_long":106.827103,"transit":false,"distance":906,"station_id":"SW","time":2,"station_name":"Sawah Besar"},{"station_id":"JUA","station_name":"Juanda","i_long":106.828284,"is_transit":false,"line":2,"i_lat":-6.166716,"transit":false,"distance":1149,"time":2},{"i_long":106.832183,"line":2,"is_transit":false,"station_id":"GDD","time":4,"distance":2015,"station_name":"Gondangdia","i_lat":-6.186295,"transit":false}],[{"line":1,"time":0,"i_lat":-6.258864,"is_transit":false,"transit":false,"distance":0,"i_long":107.055722,"station_id":"TB","station_name":"Tambun"},{"transit":false,"station_id":"BKST","time":7,"i_long":107.016735,"line":0,"station_name":"Bekasi Timur","i_lat":-6.248029,"distance":4460,"is_transit":false},{"i_long":106.997013,"station_id":"BKS","transit":false,"i_lat":-6.236616,"line":0,"station_name":"Bekasi","time":2,"is_transit":false,"distance":2368},{"distance":2520,"i_long":106.977657,"station_id":"KRI","station_name":"Kranji","is_transit":false,"time":4,"transit":false,"i_lat":-6.224515,"line":1},{"time":3,"station_name":"Cakung","is_transit":false,"station_id":"CUK","i_long":106.951283,"distance":3097,"i_lat":-6.219053,"line":0,"transit":false},{"distance":1385,"i_lat":-6.217455,"i_long":106.939679,"is_transit":false,"station_name":"Klenderbaru","time":8,"line":1,"transit":false,"station_id":"KLDB"},{"distance":1305,"line":0,"station_id":"BUA","station_name":"Buaran","time":1,"i_long":106.922662,"transit":false,"i_lat":-6.215568,"is_transit":false},{"i_lat":-6.2135,"time":2,"line":1,"is_transit":false,"i_long":106.899548,"transit":false,"station_id":"KLD","distance":3100,"station_name":"Klender"},{"station_name":"Jatinegara","transit":false,"i_long":106.86807400000001,"i_lat":-6.215091,"distance":3395,"line":0,"station_id":"JNG","is_transit":true,"time":3},{"line":1,"transit":false,"distance":1377,"i_long":106.858896,"station_name":"Matraman","station_id":"MTR","time":2,"is_transit":false,"i_lat":-6.212485},{"station_id":"MRI","distance":1275,"is_transit":true,"time":2,"i_lat":-6.209883,"station_name":"Manggarai","line":0,"transit":false,"i_long":106.84912},{"station_name":"Sudirman","distance":3186,"time":4,"is_transit":false,"i_lat":-6.202263,"i_long":106.822649,"line":1,"station_id":"SUD","transit":false},{"time":1,"station_name":"Sudirman Baru","is_transit":false,"i_lat":-6.201433,"distance":280,"station_id":"SUDB","i_long":106.819881,"line":1,"transit":false},{"station_id":"KAT","station_name":"Karet","time":1,"distance":471,"i_long":106.816351,"i_lat":-6.20132,"line":1,"transit":false,"is_transit":false},{"station_id":"THB","i_lat":-6.185545,"i_long":106.811091,"time":5,"station_name":"Tanah Abang","is_transit":true,"transit":false,"distance":2029,"line":1},{"time":8,"distance":3632,"is_transit":true,"transit":true,"station_id":"DU","station_name":"Duri","i_long":106.800832,"i_lat":-6.155215,"line":1},{"transit":false,"distance":1230,"i_long":106.79867,"time":4,"line":0,"is_transit":false,"station_name":"Angke","station_id":"AK","i_lat":-6.144674},{"time":9,"i_lat":-6.132549,"line":0,"station_id":"KPB","is_transit":true,"distance":4102,"station_name":"Kampung Bandan","transit":false,"i_long":106.826365},{"station_id":"JAKK","line":0,"transit":true,"distance":1364,"time":3,"is_transit":true,"station_name":"Jakarta Kota","i_lat":-6.137569,"i_long":106.812439},{"line":7,"time":4,"i_long":106.820901,"i_lat":-6.141205,"distance":1264,"is_transit":false,"station_id":"JAY","transit":false,"station_name":"Jayakarta"},{"station_id":"MGB","station_name":"Manggabesar","time":2,"i_lat":-6.149769,"transit":false,"distance":1080,"i_long":106.82482,"line":2,"is_transit":false},{"distance":906,"time":2,"line":2,"station_name":"Sawah Besar","station_id":"SW","i_lat":-6.160725,"transit":false,"i_long":106.827103,"is_transit":false},{"station_id":"JUA","i_lat":-6.166716,"is_transit":false,"transit":false,"time":2,"line":2,"station_name":"Juanda","distance":1149,"i_long":106.828284},{"distance":2015,"station_name":"Gondangdia","station_id":"GDD","i_lat":-6.186295,"i_long":106.832183,"is_transit":false,"time":4,"line":2,"transit":false}],[{"is_transit":false,"line":1,"time":0,"station_name":"Tambun","transit":false,"distance":0,"i_long":107.055722,"station_id":"TB","i_lat":-6.258864},{"i_lat":-6.248029,"station_id":"BKST","distance":4460,"transit":false,"time":7,"i_long":107.016735,"is_transit":false,"station_name":"Bekasi Timur","line":0},{"is_transit":false,"line":0,"time":2,"i_lat":-6.236616,"distance":2368,"station_id":"BKS","station_name":"Bekasi","transit":false,"i_long":106.997013},{"i_lat":-6.224515,"station_id":"KRI","time":4,"is_transit":false,"station_name":"Kranji","i_long":106.977657,"line":1,"distance":2520,"transit":false},{"line":0,"station_name":"Cakung","time":3,"distance":3097,"transit":false,"i_long":106.951283,"is_transit":false,"station_id":"CUK","i_lat":-6.219053},{"line":1,"distance":1385,"i_lat":-6.217455,"transit":false,"station_id":"KLDB","is_transit":false,"station_name":"Klenderbaru","time":8,"i_long":106.939679},{"station_name":"Buaran","transit":false,"time":1,"line":0,"station_id":"BUA","i_lat":-6.215568,"i_long":106.922662,"distance":1305,"is_transit":false},{"is_transit":false,"line":1,"i_long":106.899548,"i_lat":-6.2135,"station_name":"Klender","distance":3100,"transit":false,"time":2,"station_id":"KLD"},{"i_long":106.86807400000001,"transit":true,"station_name":"Jatinegara","is_transit":true,"line":0,"time":3,"i_lat":-6.215091,"station_id":"JNG","distance":3395},{"station_name":"Pondok Jati","station_id":"POK","time":2,"i_long":106.861737,"i_lat":-6.209188,"line":11,"transit":false,"distance":1236,"is_transit":false},{"distance":1829,"time":2,"transit":false,"i_long":106.855437,"line":11,"station_id":"KMT","i_lat":-6.193792,"is_transit":false,"station_name":"Kramat"},{"i_long":106.850107,"station_name":"Gang Sentiong","time":1,"transit":false,"i_lat":-6.185975,"line":11,"distance":973,"station_id":"GST","is_transit":false},{"i_long":106.84368,"is_transit":false,"station_id":"PSE","station_name":"Pasar Senen","distance":1567,"time":8,"line":11,"transit":false,"i_lat":-6.174784},{"i_lat":-6.161728,"i_long":106.839204,"station_id":"KMO","line":11,"transit":false,"time":4,"is_transit":false,"station_name":"Kemayoran","distance":1436},{"distance":1901,"is_transit":false,"transit":false,"station_name":"Rajawali","line":11,"station_id":"RJW","time":5,"i_lat":-6.14505,"i_long":106.836569},{"distance":1444,"is_transit":true,"transit":true,"line":0,"time":3,"i_lat":-6.132549,"i_long":106.826365,"station_id":"KPB","station_name":"Kampung Bandan"},{"i_long":106.79867,"is_transit":false,"station_name":"Angke","distance":4102,"station_id":"AK","transit":false,"time":9,"line":0,"i_lat":-6.144674},{"transit":true,"station_name":"Duri","i_long":106.800832,"distance":1230,"station_id":"DU","time":4,"is_transit":true,"i_lat":-6.155215,"line":1},{"line":1,"transit":false,"i_long":106.811091,"is_transit":true,"i_lat":-6.185545,"time":8,"station_id":"THB","distance":3632,"station_name":"Tanah Abang"},{"time":5,"i_lat":-6.20132,"station_name":"Karet","i_long":106.816351,"line":1,"distance":2029,"is_transit":false,"transit":false,"station_id":"KAT"},{"station_id":"SUDB","time":1,"i_long":106.819881,"i_lat":-6.201433,"transit":false,"distance":471,"is_transit":false,"line":1,"station_name":"Sudirman Baru"},{"station_id":"SUD","line":1,"station_name":"Sudirman","distance":280,"time":1,"transit":false,"i_long":106.822649,"is_transit":false,"i_lat":-6.202263},{"line":0,"i_lat":-6.209883,"station_id":"MRI","transit":true,"distance":3186,"is_transit":true,"station_name":"Manggarai","time":4,"i_long":106.84912},{"transit":false,"station_name":"Cikini","station_id":"CKI","i_long":106.840169,"line":0,"is_transit":false,"i_lat":-6.198556,"distance":1590,"time":4},{"transit":false,"i_long":106.832183,"station_name":"Gondangdia","distance":1750,"station_id":"GDD","time":3,"i_lat":-6.186295,"line":2,"is_transit":false}]]}