{"data":[[{"station_name":"Tambun","is_transit":false,"line":1,"time":0,"transit":false,"station_id":"TB","i_long":107.055722,"i_lat":-6.258864,"distance":0},{"i_long":107.016735,"line":1,"is_transit":false,"transit":false,"station_name":"Bekasi Timur","time":7,"station_id":"BKST","i_lat":-6.248029,"distance":4460},{"is_transit":false,"i_lat":-6.236616,"line":1,"station_name":"Bekasi","station_id":"BKS","transit":false,"i_long":106.997013,"time":2,"distance":2368},{"line":1,"transit":false,"i_lat":-6.224515,"is_transit":false,"i_long":106.977657,"station_name":"Kranji","time":4,"station_id":"KRI","distance":2520},{"line":1,"station_id":"CUK","transit":false,"distance":3097,"i_lat":-6.219053,"station_name":"Cakung","is_transit":false,"time":3,"i_long":106.951283},{"time":8,"station_id":"KLDB","i_lat":-6.217455,"is_transit":false,"transit":false,"station_name":"Klenderbaru","distance":1385,"line":1,"i_long":106.939679},{"i_lat":-6.215568,"time":1,"is_transit":false,"line":1,"i_long":106.922662,"station_id":"BUA","station_name":"Buaran","transit":false,"distance":1305},{"is_transit":false,"station_name":"Klender","i_lat":-6.2135,"transit":false,"distance":3100,"line":1,"station_id":"KLD","time":2,"i_long":106.899548},{"i_long":106.86807400000001,"transit":false,"station_name":"Jatinegara","station_id":"JNG","time":3,"i_lat":-6.215091,"distance":3395,"is_transit":false,"line":1},{"line":1,"transit":false,"is_transit":false,"station_id":"MTR","distance":1377,"time":2,"i_lat":-6.212485,"station_name":"Matraman","i_long":106.858896},{"time":2,"station_id":"MRI","line":2,"i_long":106.84912,"transit":true,"station_name":"Manggarai","distance":1275,"i_lat":-6.209883,"is_transit":true},{"transit":false,"station_id":"CKI","is_transit":false,"i_lat":-6.198556,"i_long":106.840169,"time":4,"station_name":"Cikini","distance":1590,"line":2},{"i_long":106.832183,"station_name":"Gondangdia","distance":1750,"station_id":"GDD","line":2,"time":3,"i_lat":-6.186295,"is_transit":false,"transit":false}],[{"station_id":"TB","time":0,"is_transit":false,"distance":0,"station_name":"Tambun","i_lat":-6.258864,"line":1,"transit":false,"i_long":107.055722},{"is_transit":false,"i_long":107.016735,"distance":4460,"transit":false,"time":7,"station_id":"BKST","line":1,"station_name":"Bekasi Timur","i_lat":-6.248029},{"distance":2368,"time":2,"is_transit":false,"station_id":"BKS","i_lat":-6.236616,"transit":false,"i_long":106.997013,"station_name":"Bekasi","line":1},{"station_name":"Kranji","distance":2520,"line":1,"i_long":106.977657,"station_id":"KRI","is_transit":false,"transit":false,"time":4,"i_lat":-6.224515},{"transit":false,"i_long":106.951283,"distance":3097,"time":3,"i_lat":-6.219053,"is_transit":false,"line":1,"station_id":"CUK","station_name":"Cakung"},{"line":1,"i_lat":-6.217455,"station_name":"Klenderbaru","time":8,"distance":1385,"transit":false,"station_id":"KLDB","is_transit":false,"i_long":106.939679},{"line":1,"transit":false,"station_name":"Buaran","distance":1305,"time":1,"i_lat":-6.215568,"i_long":106.922662,"station_id":"BUA","is_transit":false},{"i_lat":-6.2135,"station_id":"KLD","line":1,"station_name":"Klender","is_transit":false,"time":2,"distance":3100,"transit":false,"i_long":106.899548},{"is_transit":true,"time":3,"i_long":106.86807400000001,"line":1,"distance":3395,"i_lat":-6.215091,"transit":true,"station_id":"JNG","station_name":"Jatinegara"},{"station_name":"Pondok Jati","i_lat":-6.209188,"line":11,"time":2,"is_transit":false,"i_long":106.861737,"distance":1236,"transit":false,"station_id":"POK"},{"station_name":"Kramat","time":2,"station_id":"KMT","i_lat":-6.193792,"i_long":106.855437,"line":11,"distance":1829,"transit":false,"is_transit":false},{"is_transit":false,"station_name":"Gang Sentiong","transit":false,"station_id":"GST","distance":973,"i_lat":-6.185975,"i_long":106.850107,"line":11,"time":1},{"transit":false,"station_name":"Pasar Senen","i_long":106.84368,"is_transit":false,"station_id":"PSE","time":8,"distance":1567,"i_lat":-6.174784,"line":11},{"i_lat":-6.161728,"is_transit":false,"distance":1436,"station_id":"KMO","line":11,"station_name":"Kemayoran","time":4,"transit":false,"i_long":106.839204},{"distance":1901,"i_long":106.836569,"station_name":"Rajawali","is_transit":false,"line":11,"transit":false,"station_id":"RJW","i_lat":-6.14505,"time":5},{"time":3,"station_name":"Kampung Bandan","is_transit":true,"i_long":106.826365,"distance":1444,"station_id":"KPB","line":4,"transit":true,"i_lat":-6.132549},{"i_long":106.812439,"transit":true,"station_id":"JAKK","distance":1364,"is_transit":true,"line":2,"i_lat":-6.137569,"station_name":"Jakarta Kota","time":3},{"time":4,"transit":false,"station_name":"Jayakarta","line":2,"i_lat":-6.141205,"station_id":"JAY","is_transit":false,"i_long":106.820901,"distance":1264},{"i_long":106.82482,"station_id":"MGB","station_name":"Manggabesar","is_transit":false,"distance":1080,"time":2,"line":2,"transit":false,"i_lat":-6.149769},{"is_transit":false,"time":2,"station_id":"SW","station_name":"Sawah Besar","distance":906,"i_lat":-6.160725,"line":2,"transit":false,"i_long":106.827103},{"i_long":106.828284,"line":2,"distance":1149,"transit":false,"station_id":"JUA","station_name":"Juanda","i_lat":-6.166716,"time":2,"is_transit":false},{"distance":2015,"line":2,"i_long":106.832183,"station_id":"GDD","i_lat":-6.186295,"time":4,"is_transit":false,"transit":false,"station_name":"Gondangdia"}],[{"station_name":"Tambun","is_transit":false,"station_id":"TB","line":1,"time":0,"i_lat":-6.258864,"transit":false,"i_long":107.055722,"distance":0},{"is_transit":false,"station_name":"Bekasi Timur","station_id":"BKST","transit":false,"i_lat":-6.248029,"time":7,"line":1,"i_long":107.016735,"distance":4460},{"station_id":"BKS","transit":false,"distance":2368,"time":2,"station_name":"Bekasi","i_lat":-6.236616,"i_long":106.997013,"line":1,"is_transit":false},{"station_id":"KRI","transit":false,"time":4,"is_transit":false,"distance":2520,"station_name":"Kranji","i_lat":-6.224515,"line":1,"i_long":106.977657},{"time":3,"is_transit":false,"i_long":106.951283,"station_id":"CUK","station_name":"Cakung","i_lat":-6.219053,"line":1,"transit":false,"distance":3097},{"i_lat":-6.217455,"transit":false,"station_name":"Klenderbaru","i_long":106.939679,"line":1,"distance":1385,"station_id":"KLDB","time":8,"is_transit":false},{"distance":1305,"i_lat":-6.215568,"line":1,"station_name":"Buaran","is_transit":false,"transit":false,"station_id":"BUA","time":1,"i_long":106.922662},{"is_transit":false,"time":2,"distance":3100,"station_id":"KLD","i_lat":-6.2135,"i_long":106.899548,"transit":false,"line":1,"station_name":"Klender"},{"station_name":"Jatinegara","time":3,"i_long":106.86807400000001,"transit":false,"is_transit":false,"station_id":"JNG","distance":3395,"i_lat":-6.215091,"line":1},{"i_lat":-6.212485,"station_id":"MTR","is_transit":false,"distance":1377,"i_long":106.858896,"station_name":"Matraman","transit":false,"time":2,"line":1},{"transit":false,"station_id":"MRI","is_transit":false,"i_lat":-6.209883,"time":2,"i_long":106.84912,"station_name":"Manggarai","line":2,"distance":1275},{"station_name":"Sudirman","i_long":106.822649,"time":4,"i_lat":-6.202263,"line":1,"is_transit":false,"transit":false,"distance":3186,"station_id":"SUD"},{"i_lat":-6.201433,"time":1,"station_id":"SUDB","distance":280,"i_long":106.819881,"line":1,"is_transit":false,"transit":false,"station_name":"Sudirman Baru"},{"i_lat":-6.20132,"is_transit":false,"i_long":106.816351,"line":1,"station_name":"Karet","station_id":"KAT","time":1,"transit":false,"distance":471},{"distance":2029,"line":1,"i_long":106.811091,"station_id":"THB","time":5,"station_name":"Tanah Abang","is_transit":false,"transit":false,"i_lat":-6.185545},{"line":1,"is_transit":false,"i_long":106.800832,"station_id":"DU","i_lat":-6.155215,"time":8,"transit":false,"station_name":"Duri","distance":3632},{"transit":false,"time":4,"is_transit":false,"station_id":"AK","distance":1230,"i_long":106.79867,"line":1,"station_name":"Angke","i_lat":-6.144674},{"transit":true,"distance":4102,"line":4,"station_name":"Kampung Bandan","i_lat":-6.132549,"time":9,"station_id":"KPB","is_transit":true,"i_long":106.826365},{"i_lat":-6.137569,"is_transit":true,"station_id":"JAKK","i_long":106.812439,"distance":1364,"station_name":"Jakarta Kota","time":3,"line":2,"transit":true},{"time":4,"station_name":"Jayakarta","is_transit":false,"distance":1264,"i_lat":-6.141205,"transit":false,"i_long":106.820901,"line":2,"station_id":"JAY"},{"line":2,"time":2,"distance":1080,"station_name":"Manggabesar","i_lat":-6.149769,"i_long":106.82482,"station_id":"MGB","is_transit":false,"transit":false},{"distance":906,"line":2,"transit":false,"is_transit":false,"station_id":"SW","station_name":"Sawah Besar","i_lat":-6.160725,"i_long":106.827103,"time":2},{"transit":false,"station_id":"JUA","time":2,"is_transit":false,"distance":1149,"station_name":"Juanda","i_lat":-6.166716,"line":2,"i_long":106.828284},{"distance":2015,"time":4,"line":2,"is_transit":false,"i_lat":-6.186295,"i_long":106.832183,"station_id":"GDD","station_name":"Gondangdia","transit":false}],[{"station_name":"Tambun","time":0,"i_long":107.055722,"is_transit":false,"distance":0,"station_id":"TB","line":1,"i_lat":-6.258864,"transit":false},{"distance":4460,"time":7,"i_lat":-6.248029,"transit":false,"line":1,"station_name":"Bekasi Timur","is_transit":false,"i_long":107.016735,"station_id":"BKST"},{"i_lat":-6.236616,"is_transit":false,"time":2,"distance":2368,"station_name":"Bekasi","transit":false,"line":1,"station_id":"BKS","i_long":106.997013},{"line":1,"time":4,"transit":false,"is_transit":false,"station_id":"KRI","distance":2520,"station_name":"Kranji","i_long":106.977657,"i_lat":-6.224515},{"station_id":"CUK","line":1,"transit":false,"time":3,"is_transit":false,"i_long":106.951283,"station_name":"Cakung","distance":3097,"i_lat":-6.219053},{"time":8,"station_id":"KLDB","is_transit":false,"distance":1385,"station_name":"Klenderbaru","i_long":106.939679,"line":1,"i_lat":-6.217455,"transit":false},{"transit":false,"station_id":"BUA","i_lat":-6.215568,"time":1,"station_name":"Buaran","i_long":106.922662,"distance":1305,"line":1,"is_transit":false},{"station_name":"Klender","station_id":"KLD","line":1,"transit":false,"distance":3100,"is_transit":false,"i_long":106.899548,"i_lat":-6.2135,"time":2},{"is_transit":true,"i_long":106.86807400000001,"time":3,"transit":true,"i_lat":-6.215091,"station_name":"Jatinegara","line":1,"station_id":"JNG","distance":3395},{"station_id":"POK","is_transit":false,"transit":false,"i_long":106.861737,"time":2,"distance":1236,"line":11,"station_name":"Pondok Jati","i_lat":-6.209188},{"station_name":"Kramat","is_transit":false,"line":11,"station_id":"KMT","i_long":106.855437,"distance":1829,"i_lat":-6.193792,"time":2,"transit":false},{"i_long":106.850107,"i_lat":-6.185975,"line":11,"station_id":"GST","transit":false,"is_transit":false,"station_name":"Gang Sentiong","time":1,"distance":973},{"is_transit":false,"transit":false,"station_name":"Pasar Senen","time":8,"i_long":106.84368,"distance":1567,"line":11,"station_id":"PSE","i_lat":-6.174784},{"station_name":"Kemayoran","i_lat":-6.161728,"line":11,"transit":false,"time":4,"i_long":106.839204,"station_id":"KMO","is_transit":false,"distance":1436},{"i_lat":-6.14505,"distance":1901,"station_id":"RJW","is_transit":false,"line":11,"transit":false,"time":5,"i_long":106.836569,"station_name":"Rajawali"},{"station_name":"Kampung Bandan","distance":1444,"i_lat":-6.132549,"is_transit":true,"transit":true,"time":3,"station_id":"KPB","line":4,"i_long":106.826365},{"distance":4102,"i_lat":-6.144674,"i_long":106.79867,"is_transit":false,"station_id":"AK","line":1,"transit":false,"time":9,"station_name":"Angke"},{"is_transit":false,"i_long":106.800832,"i_lat":-6.155215,"transit":false,"station_name":"Duri","distance":1230,"time":4,"line":1,"station_id":"DU"},{"station_name":"Tanah Abang","time":8,"i_lat":-6.185545,"is_transit":false,"transit":false,"i_long":106.811091,"distance":3632,"line":1,"station_id":"THB"},{"i_lat":-6.20132,"is_transit":false,"i_long":106.816351,"transit":false,"station_id":"KAT","time":5,"distance":2029,"line":1,"station_name":"Karet"},{"distance":471,"station_id":"SUDB","station_name":"Sudirman Baru","i_lat":-6.201433,"line":1,"transit":false,"time":1,"i_long":106.819881,"is_transit":false},{"transit":false,"time":1,"station_name":"Sudirman","station_id":"SUD","i_lat":-6.202263,"i_long":106.822649,"line":1,"distance":280,"is_transit":false},{"transit":true,"is_transit":true,"distance":3186,"line":2,"i_long":106.84912,"station_id":"MRI","i_lat":-6.209883,"station_name":"Manggarai","time":4},{"line":2,"i_lat":-6.198556,"i_long":106.840169,"is_transit":false,"distance":1590,"station_name":"Cikini","transit":false,"time":4,"station_id":"CKI"},{"is_transit":false,"distance":1750,"transit":false,"i_lat":-6.186295,"i_long":106.832183,"station_id":"GDD","station_name":"Gondangdia","line":2,"time":3}]]}