{"data":[[{"line":1,"station_name":"Tambun","time":0,"distance":0,"i_long":107.055722,"is_transit":false,"station_id":"TB","i_lat":-6.258864,"transit":false},{"i_lat":-6.248029,"line":1,"i_long":107.016735,"time":7,"station_name":"Bekasi Timur","is_transit":false,"station_id":"BKST","distance":4460,"transit":false},{"time":2,"line":1,"is_transit":false,"distance":2368,"transit":false,"station_id":"BKS","station_name":"Bekasi","i_lat":-6.236616,"i_long":106.997013},{"i_lat":-6.224515,"transit":false,"is_transit":false,"distance":2520,"station_id":"KRI","i_long":106.977657,"time":4,"station_name":"Kranji","line":1},{"distance":3097,"line":1,"station_id":"CUK","is_transit":false,"station_name":"Cakung","i_long":106.951283,"transit":false,"i_lat":-6.219053,"time":3},{"station_id":"KLDB","distance":1385,"i_long":106.939679,"time":8,"station_name":"Klenderbaru","line":1,"is_transit":false,"transit":false,"i_lat":-6.217455},{"transit":false,"i_lat":-6.215568,"is_transit":false,"station_id":"BUA","time":1,"distance":1305,"station_name":"Buaran","i_long":106.922662,"line":1},{"is_transit":false,"station_name":"Klender","i_lat":-6.2135,"distance":3100,"line":1,"station_id":"KLD","time":2,"transit":false,"i_long":106.899548},{"is_transit":false,"station_id":"JNG","transit":false,"i_long":106.86807400000001,"line":1,"time":3,"i_lat":-6.215091,"station_name":"Jatinegara","distance":3395}]]}