{"data":[[{"time":0,"line":1,"station_id":"TB","distance":0,"station_name":"Tambun","i_lat":-6.258864,"i_long":107.055722,"transit":false,"is_transit":false},{"transit":false,"station_name":"Bekasi Timur","station_id":"BKST","time":7,"i_lat":-6.248029,"i_long":107.016735,"line":1,"distance":4460,"is_transit":false},{"is_transit":false,"distance":2368,"station_id":"BKS","i_long":106.997013,"line":1,"station_name":"Bekasi","time":2,"i_lat":-6.236616,"transit":false},{"i_lat":-6.224515,"i_long":106.977657,"line":1,"is_transit":false,"station_name":"Kranji","distance":2520,"transit":false,"time":4,"station_id":"KRI"},{"time":3,"is_transit":false,"distance":3097,"line":1,"station_name":"Cakung","transit":false,"i_long":106.951283,"i_lat":-6.219053,"station_id":"CUK"},{"distance":1385,"transit":false,"station_name":"Klenderbaru","time":8,"i_lat":-6.217455,"station_id":"KLDB","i_long":106.939679,"is_transit":false,"line":1},{"time":1,"transit":false,"station_id":"BUA","distance":1305,"station_name":"Buaran","i_lat":-6.215568,"i_long":106.922662,"is_transit":false,"line":1},{"transit":false,"station_name":"Klender","is_transit":false,"time":2,"i_long":106.899548,"line":1,"station_id":"KLD","distance":3100,"i_lat":-6.2135},{"i_long":106.86807400000001,"distance":3395,"transit":false,"is_transit":false,"station_id":"JNG","station_name":"Jatinegara","i_lat":-6.215091,"line":1,"time":3}]]}