{"data":[[{"time":0,"station_id":"TB","transit":false,"i_lat":-6.258864,"is_transit":false,"i_long":107.055722,"distance":0,"line":1,"station_name":"Tambun"},{"station_name":"Bekasi Timur","i_long":107.016735,"i_lat":-6.248029,"line":1,"is_transit":false,"station_id":"BKST","time":7,"distance":4460,"transit":false},{"station_id":"BKS","time":2,"distance":2368,"line":1,"i_lat":-6.236616,"i_long":106.997013,"transit":false,"is_transit":false,"station_name":"Bekasi"},{"i_lat":-6.224515,"line":1,"station_id":"KRI","is_transit":false,"i_long":106.977657,"transit":false,"time":4,"station_name":"Kranji","distance":2520},{"line":1,"transit":false,"time":3,"station_id":"CUK","station_name":"Cakung","distance":3097,"i_long":106.951283,"i_lat":-6.219053,"is_transit":false},{"transit":false,"time":8,"station_name":"Klenderbaru","distance":1385,"i_lat":-6.217455,"i_long":106.939679,"station_id":"KLDB","is_transit":false,"line":1},{"station_name":"Buaran","transit":false,"time":1,"is_transit":false,"line":1,"i_long":106.922662,"station_id":"BUA","distance":1305,"i_lat":-6.215568},{"i_lat":-6.2135,"i_long":106.899548,"transit":false,"line":1,"station_name":"Klender","station_id":"KLD","distance":3100,"is_transit":false,"time":2},{"station_id":"JNG","is_transit":false,"i_lat":-6.215091,"station_name":"Jatinegara","distance":3395,"time":3,"transit":false,"i_long":106.86807400000001,"line":1}]]}