{"data":[[{"station_name":"Tambun","distance":0,"time":0,"line":1,"is_transit":false,"transit":false,"i_lat":-6.258864,"i_long":107.055722,"station_id":"TB"},{"station_name":"Bekasi Timur","station_id":"BKST","is_transit":false,"transit":false,"i_lat":-6.248029,"i_long":107.016735,"time":7,"line":0,"distance":4460},{"distance":2368,"station_id":"BKS","line":0,"is_transit":false,"time":2,"transit":false,"station_name":"Bekasi","i_long":106.997013,"i_lat":-6.236616},{"distance":2520,"i_lat":-6.224515,"time":4,"is_transit":false,"station_name":"Kranji","i_long":106.977657,"line":1,"transit":false,"station_id":"KRI"},{"station_name":"Cakung","time":3,"station_id":"CUK","i_lat":-6.219053,"distance":3097,"line":0,"is_transit":false,"i_long":106.951283,"transit":false},{"time":8,"distance":1385,"i_lat":-6.217455,"transit":false,"i_long":106.939679,"is_transit":false,"station_id":"KLDB","station_name":"Klenderbaru","line":1},{"distance":1305,"station_name":"Buaran","i_long":106.922662,"line":0,"time":1,"station_id":"BUA","transit":false,"i_lat":-6.215568,"is_transit":false},{"station_name":"Klender","time":2,"is_transit":false,"station_id":"KLD","i_lat":-6.2135,"line":1,"distance":3100,"transit":false,"i_long":106.899548},{"station_id":"JNG","i_long":106.86807400000001,"time":3,"i_lat":-6.215091,"transit":false,"is_transit":true,"line":0,"distance":3395,"station_name":"Jatinegara"}]]}