{
  "data": [
    [
      {
        "distance": 0,
        "i_lat": -6.258864,
        "i_long": 107.055722,
        "is_transit": false,
        "line": 1,
        "station_id": "TB",
        "station_name": "Tambun",
        "time": 0,
        "transit": false
      },
      {
        "distance": 4460,
        "i_lat": -6.248029,
        "i_long": 107.016735,
        "is_transit": false,
        "line": 1,
        "station_id": "BKST",
        "station_name": "Bekasi Timur",
        "time": 7,
        "transit": false
      },
      {
        "distance": 2368,
        "i_lat": -6.236616,
        "i_long": 106.997013,
        "is_transit": false,
        "line": 1,
        "station_id": "BKS",
        "station_name": "Bekasi",
        "time": 2,
        "transit": false
      },
      {
        "distance": 2520,
        "i_lat": -6.224515,
        "i_long": 106.977657,
        "is_transit": false,
        "line": 1,
        "station_id": "KRI",
        "station_name": "Kranji",
        "time": 4,
        "transit": false
      },
      {
        "distance": 3097,
        "i_lat": -6.219053,
        "i_long": 106.951283,
        "is_transit": false,
        "line": 1,
        "station_id": "CUK",
        "station_name": "Cakung",
        "time": 3,
        "transit": false
      },
      {
        "distance": 1385,
        "i_lat": -6.217455,
        "i_long": 106.939679,
        "is_transit": false,
        "line": 1,
        "station_id": "KLDB",
        "station_name": "Klenderbaru",
        "time": 8,
        "transit": false
      },
      {
        "distance": 1305,
        "i_lat": -6.215568,
        "i_long": 106.922662,
        "is_transit": false,
        "line": 1,
        "station_id": "BUA",
        "station_name": "Buaran",
        "time": 1,
        "transit": false
      },
      {
        "distance": 3100,
        "i_lat": -6.2135,
        "i_long": 106.899548,
        "is_transit": false,
        "line": 1,
        "station_id": "KLD",
        "station_name": "Klender",
        "time": 2,
        "transit": false
      },
      {
        "distance": 3395,
        "i_lat": -6.215091,
        "i_long": 106.86807400000001,
        "is_transit": false,
        "line": 1,
        "station_id": "JNG",
        "station_name": "Jatinegara",
        "time": 3,
        "transit": false
      }
    ]
  ]
}
