{"data":[[{"transit":false,"station_id":"TB","is_transit":false,"distance":0,"i_lat":-6.258864,"line":1,"i_long":107.055722,"station_name":"Tambun","time":0},{"station_name":"Bekasi Timur","transit":false,"distance":4460,"i_lat":-6.248029,"is_transit":false,"line":0,"station_id":"BKST","time":7,"i_long":107.016735},{"i_long":106.997013,"transit":false,"station_id":"BKS","is_transit":false,"distance":2368,"i_lat":-6.236616,"time":2,"station_name":"Bekasi","line":0},{"i_long":106.977657,"line":1,"time":4,"distance":2520,"station_id":"KRI","i_lat":-6.224515,"transit":false,"is_transit":false,"station_name":"Kranji"},{"time":3,"station_id":"CUK","is_transit":false,"distance":3097,"i_long":106.951283,"line":0,"station_name":"Cakung","transit":false,"i_lat":-6.219053},{"line":1,"i_long":106.939679,"station_name":"Klenderbaru","i_lat":-6.217455,"transit":false,"time":8,"is_transit":false,"station_id":"KLDB","distance":1385}]]}