{"data":[[{"station_name":"Tambun","distance":0,"line":1,"transit":false,"is_transit":false,"station_id":"TB","i_long":107.055722,"i_lat":-6.258864,"time":0},{"is_transit":false,"i_long":107.016735,"line":1,"station_id":"BKST","station_name":"Bekasi Timur","transit":false,"i_lat":-6.248029,"time":7,"distance":4460},{"distance":2368,"i_long":106.997013,"line":1,"transit":false,"time":2,"station_id":"BKS","i_lat":-6.236616,"station_name":"Bekasi","is_transit":false},{"line":1,"station_name":"Kranji","is_transit":false,"time":4,"distance":2520,"transit":false,"station_id":"KRI","i_long":106.977657,"i_lat":-6.224515},{"distance":3097,"time":3,"i_lat":-6.219053,"line":1,"station_id":"CUK","is_transit":false,"i_long":106.951283,"station_name":"Cakung","transit":false},{"is_transit":false,"time":8,"station_name":"Klenderbaru","i_long":106.939679,"i_lat":-6.217455,"station_id":"KLDB","distance":1385,"transit":false,"line":1},{"station_name":"Buaran","time":1,"i_lat":-6.215568,"station_id":"BUA","distance":1305,"line":1,"is_transit":false,"i_long":106.922662,"transit":false},{"station_id":"KLD","is_transit":false,"time":2,"line":1,"distance":3100,"station_name":"Klender","i_lat":-6.2135,"transit":false,"i_long":106.899548}]]}