{"data":[[{"distance":0,"station_id":"TB","is_transit":false,"time":0,"i_long":107.055722,"transit":false,"station_name":"Tambun","i_lat":-6.258864,"line":1},{"time":7,"i_long":107.016735,"line":1,"distance":4460,"is_transit":false,"station_name":"Bekasi Timur","transit":false,"i_lat":-6.248029,"station_id":"BKST"},{"time":2,"transit":false,"i_long":106.997013,"station_id":"BKS","is_transit":false,"i_lat":-6.236616,"line":1,"station_name":"Bekasi","distance":2368},{"distance":2520,"station_name":"Kranji","i_lat":-6.224515,"line":1,"station_id":"KRI","is_transit":false,"i_long":106.977657,"time":4,"transit":false},{"line":1,"transit":false,"station_id":"CUK","station_name":"Cakung","time":3,"i_long":106.951283,"i_lat":-6.219053,"is_transit":false,"distance":3097},{"station_name":"Klenderbaru","is_transit":false,"time":8,"distance":1385,"i_lat":-6.217455,"i_long":106.939679,"station_id":"KLDB","line":1,"transit":false}]]}