{"data":[[{"distance":0,"station_id":"TB","station_name":"Tambun","time":0,"is_transit":false,"transit":false,"i_long":107.055722,"line":1,"i_lat":-6.258864},{"line":1,"station_name":"Bekasi Timur","is_transit":false,"i_long":107.016735,"time":7,"transit":false,"station_id":"BKST","i_lat":-6.248029,"distance":4460},{"i_long":106.997013,"is_transit":false,"distance":2368,"time":2,"station_id":"BKS","transit":false,"station_name":"Bekasi","line":1,"i_lat":-6.236616},{"station_id":"KRI","transit":false,"distance":2520,"station_name":"Kranji","line":1,"i_lat":-6.224515,"is_transit":false,"i_long":106.977657,"time":4},{"is_transit":false,"station_name":"Cakung","time":3,"station_id":"CUK","distance":3097,"transit":false,"i_long":106.951283,"line":1,"i_lat":-6.219053},{"time":8,"i_lat":-6.217455,"line":1,"station_id":"KLDB","distance":1385,"is_transit":false,"transit":false,"i_long":106.939679,"station_name":"Klenderbaru"},{"time":1,"station_name":"Buaran","i_lat":-6.215568,"distance":1305,"station_id":"BUA","i_long":106.922662,"transit":false,"is_transit":false,"line":1},{"distance":3100,"line":1,"i_lat":-6.2135,"transit":false,"time":2,"station_name":"Klender","i_long":106.899548,"station_id":"KLD","is_transit":false}]]}