{"data":[[{"i_lat":-6.258864,"is_transit":false,"distance":0,"time":0,"station_name":"Tambun","i_long":107.055722,"station_id":"TB","line":1,"transit":false},{"time":7,"station_name":"Bekasi Timur","i_long":107.016735,"station_id":"BKST","is_transit":false,"i_lat":-6.248029,"line":1,"distance":4460,"transit":false},{"distance":2368,"time":2,"i_long":106.997013,"station_name":"Bekasi","line":1,"is_transit":false,"station_id":"BKS","transit":false,"i_lat":-6.236616},{"transit":false,"is_transit":false,"time":4,"station_name":"Kranji","i_long":106.977657,"line":1,"distance":2520,"station_id":"KRI","i_lat":-6.224515},{"distance":3097,"is_transit":false,"station_id":"CUK","i_lat":-6.219053,"i_long":106.951283,"station_name":"Cakung","transit":false,"line":1,"time":3},{"station_id":"KLDB","is_transit":false,"i_lat":-6.217455,"station_name":"Klenderbaru","i_long":106.939679,"time":8,"line":1,"distance":1385,"transit":false}]]}