{"data":[[{"is_transit":false,"time":0,"i_lat":-6.258864,"line":1,"i_long":107.055722,"station_name":"Tambun","station_id":"TB","transit":false,"distance":0},{"transit":false,"time":7,"line":0,"station_name":"Bekasi Timur","i_lat":-6.248029,"i_long":107.016735,"station_id":"BKST","is_transit":false,"distance":4460},{"station_name":"Bekasi","is_transit":false,"station_id":"BKS","transit":false,"distance":2368,"i_lat":-6.236616,"line":0,"time":2,"i_long":106.997013},{"is_transit":false,"station_id":"KRI","transit":false,"i_lat":-6.224515,"distance":2520,"line":1,"i_long":106.977657,"station_name":"Kranji","time":4},{"i_lat":-6.219053,"i_long":106.951283,"is_transit":false,"station_name":"Cakung","line":0,"distance":3097,"station_id":"CUK","transit":false,"time":3},{"distance":1385,"transit":false,"is_transit":false,"station_id":"KLDB","station_name":"Klenderbaru","i_lat":-6.217455,"time":8,"i_long":106.939679,"line":1},{"time":1,"distance":1305,"i_long":106.922662,"station_id":"BUA","line":0,"is_transit":false,"station_name":"Buaran","i_lat":-6.215568,"transit":false},{"time":2,"station_name":"Klender","is_transit":false,"transit":false,"i_long":106.899548,"line":1,"i_lat":-6.2135,"distance":3100,"station_id":"KLD"}]]}