{"data":[[{"is_transit":false,"station_name":"Tambun","time":0,"distance":0,"line":1,"i_lat":-6.258864,"i_long":107.055722,"station_id":"TB","transit":false},{"i_lat":-6.248029,"transit":false,"line":1,"station_name":"Bekasi Timur","time":7,"distance":4460,"is_transit":false,"i_long":107.016735,"station_id":"BKST"},{"station_id":"BKS","transit":false,"time":2,"i_lat":-6.236616,"distance":2368,"is_transit":false,"i_long":106.997013,"station_name":"Bekasi","line":1},{"i_lat":-6.224515,"is_transit":false,"station_name":"Kranji","distance":2520,"i_long":106.977657,"transit":false,"line":1,"station_id":"KRI","time":4},{"i_long":106.951283,"station_name":"Cakung","line":1,"transit":false,"time":3,"station_id":"CUK","distance":3097,"i_lat":-6.219053,"is_transit":false},{"distance":1385,"is_transit":false,"transit":false,"i_long":106.939679,"line":1,"i_lat":-6.217455,"station_name":"Klenderbaru","station_id":"KLDB","time":8}]]}