{"data":[[{"distance":0,"i_long":107.055722,"is_transit":false,"i_lat":-6.258864,"transit":false,"station_name":"Tambun","time":0,"station_id":"TB","line":1},{"station_name":"Bekasi Timur","is_transit":false,"station_id":"BKST","i_lat":-6.248029,"time":7,"distance":4460,"i_long":107.016735,"transit":false,"line":1},{"transit":false,"station_id":"BKS","distance":2368,"station_name":"Bekasi","i_lat":-6.236616,"i_long":106.997013,"line":1,"is_transit":false,"time":2},{"station_id":"KRI","i_long":106.977657,"station_name":"Kranji","line":1,"i_lat":-6.224515,"is_transit":false,"distance":2520,"time":4,"transit":false},{"line":1,"is_transit":false,"transit":false,"distance":3097,"station_name":"Cakung","time":3,"station_id":"CUK","i_long":106.951283,"i_lat":-6.219053},{"time":8,"i_lat":-6.217455,"i_long":106.939679,"station_name":"Klenderbaru","is_transit":false,"line":1,"station_id":"KLDB","distance":1385,"transit":false},{"is_transit":false,"i_long":106.922662,"time":1,"transit":false,"station_id":"BUA","i_lat":-6.215568,"station_name":"Buaran","distance":1305,"line":1},{"station_id":"KLD","station_name":"Klender","i_lat":-6.2135,"line":1,"transit":false,"is_transit":false,"i_long":106.899548,"distance":3100,"time":2}]]}