{"data":[[{"is_transit":false,"time":0,"i_long":107.055722,"station_name":"Tambun","transit":false,"station_id":"TB","distance":0,"i_lat":-6.258864,"line":1},{"line":0,"time":7,"distance":4460,"i_lat":-6.248029,"station_id":"BKST","station_name":"Bekasi Timur","is_transit":false,"i_long":107.016735,"transit":false},{"station_id":"BKS","station_name":"Bekasi","transit":false,"i_long":106.997013,"line":0,"i_lat":-6.236616,"time":2,"distance":2368,"is_transit":false},{"station_id":"KRI","station_name":"Kranji","time":4,"transit":false,"i_long":106.977657,"line":1,"i_lat":-6.224515,"distance":2520,"is_transit":false},{"station_id":"CUK","station_name":"Cakung","is_transit":false,"distance":3097,"i_lat":-6.219053,"i_long":106.951283,"line":0,"time":3,"transit":false},{"i_lat":-6.217455,"is_transit":false,"station_id":"KLDB","transit":false,"distance":1385,"time":8,"i_long":106.939679,"line":1,"station_name":"Klenderbaru"},{"line":0,"station_name":"Buaran","distance":1305,"time":1,"station_id":"BUA","i_lat":-6.215568,"is_transit":false,"i_long":106.922662,"transit":false},{"station_id":"KLD","station_name":"Klender","time":2,"distance":3100,"line":1,"i_lat":-6.2135,"is_transit":false,"i_long":106.899548,"transit":false},{"station_name":"Jatinegara","i_long":106.86807400000001,"transit":false,"time":3,"line":0,"station_id":"JNG","distance":3395,"is_transit":true,"i_lat":-6.215091},{"distance":1377,"transit":false,"time":2,"line":1,"i_lat":-6.212485,"is_transit":false,"station_id":"MTR","station_name":"Matraman","i_long":106.858896},{"line":0,"is_transit":true,"station_name":"Manggarai","distance":1275,"i_long":106.84912,"station_id":"MRI","transit":true,"i_lat":-6.209883,"time":2},{"time":4,"i_long":106.857948,"is_transit":false,"distance":2610,"i_lat":-6.226659,"station_name":"Tebet","station_id":"TEB","transit":false,"line":2},{"i_long":106.856607,"line":0,"time":2,"transit":false,"station_id":"CW","i_lat":-6.242512,"is_transit":false,"station_name":"Cawang","distance":1230},{"station_id":"DRN","time":3,"distance":1546,"transit":false,"i_lat":-6.255332,"station_name":"Duren Kalibata","i_long":106.85449,"line":0,"is_transit":false},{"i_lat":-6.263214,"transit":false,"i_long":106.851577,"station_name":"Pasar Minggu Baru","time":2,"station_id":"PSMB","is_transit":false,"distance":824,"line":2},{"i_long":106.843999,"transit":false,"is_transit":false,"distance":2380,"line":2,"station_id":"PSM","time":2,"i_lat":-6.2842400000000005,"station_name":"Pasar Minggu"},{"i_long":106.838896,"time":4,"transit":false,"station_name":"Tanjung Barat","i_lat":-6.3080680000000005,"distance":2820,"station_id":"TNT","is_transit":false,"line":2},{"transit":false,"distance":2671,"station_name":"Lenteng Agung","is_transit":false,"time":3,"i_lat":-6.330363,"i_long":106.832616,"line":2,"station_id":"LNA"}],[{"transit":false,"station_id":"TB","station_name":"Tambun","time":0,"distance":0,"i_long":107.055722,"is_transit":false,"i_lat":-6.258864,"line":1},{"distance":4460,"station_id":"BKST","i_lat":-6.248029,"station_name":"Bekasi Timur","is_transit":false,"i_long":107.016735,"time":7,"line":0,"transit":false},{"transit":false,"station_id":"BKS","station_name":"Bekasi","is_transit":false,"time":2,"distance":2368,"i_lat":-6.236616,"i_long":106.997013,"line":0},{"station_name":"Kranji","time":4,"is_transit":false,"i_lat":-6.224515,"distance":2520,"i_long":106.977657,"line":1,"transit":false,"station_id":"KRI"},{"distance":3097,"i_long":106.951283,"station_name":"Cakung","transit":false,"i_lat":-6.219053,"line":0,"is_transit":false,"station_id":"CUK","time":3},{"distance":1385,"station_id":"KLDB","station_name":"Klenderbaru","is_transit":false,"transit":false,"i_lat":-6.217455,"i_long":106.939679,"line":1,"time":8},{"station_id":"BUA","station_name":"Buaran","distance":1305,"i_long":106.922662,"time":1,"transit":false,"i_lat":-6.215568,"is_transit":false,"line":0},{"station_id":"KLD","i_lat":-6.2135,"time":2,"i_long":106.899548,"station_name":"Klender","transit":false,"distance":3100,"is_transit":false,"line":1},{"line":0,"transit":true,"i_lat":-6.215091,"station_id":"JNG","station_name":"Jatinegara","distance":3395,"is_transit":true,"time":3,"i_long":106.86807400000001},{"station_id":"POK","station_name":"Pondok Jati","distance":1236,"transit":false,"is_transit":false,"i_lat":-6.209188,"i_long":106.861737,"time":2,"line":11},{"station_name":"Kramat","distance":1829,"is_transit":false,"station_id":"KMT","i_long":106.855437,"line":11,"i_lat":-6.193792,"time":2,"transit":false},{"line":11,"i_long":106.850107,"station_name":"Gang Sentiong","i_lat":-6.185975,"distance":973,"station_id":"GST","time":1,"is_transit":false,"transit":false},{"i_lat":-6.174784,"station_id":"PSE","is_transit":false,"time":8,"i_long":106.84368,"line":11,"station_name":"Pasar Senen","transit":false,"distance":1567},{"line":11,"transit":false,"station_name":"Kemayoran","i_long":106.839204,"i_lat":-6.161728,"station_id":"KMO","is_transit":false,"distance":1436,"time":4},{"station_id":"RJW","station_name":"Rajawali","line":11,"is_transit":false,"transit":false,"i_long":106.836569,"time":5,"distance":1901,"i_lat":-6.14505},{"station_name":"Kampung Bandan","is_transit":true,"transit":true,"i_lat":-6.132549,"station_id":"KPB","distance":1444,"i_long":106.826365,"line":0,"time":3},{"distance":4102,"station_id":"AK","time":9,"i_long":106.79867,"line":0,"station_name":"Angke","transit":false,"i_lat":-6.144674,"is_transit":false},{"line":1,"transit":true,"station_name":"Duri","station_id":"DU","time":4,"i_long":106.800832,"distance":1230,"is_transit":true,"i_lat":-6.155215},{"time":8,"station_name":"Tanah Abang","station_id":"THB","is_transit":true,"distance":3632,"transit":false,"i_long":106.811091,"i_lat":-6.185545,"line":1},{"line":1,"station_id":"KAT","station_name":"Karet","distance":2029,"i_long":106.816351,"time":5,"transit":false,"is_transit":false,"i_lat":-6.20132},{"transit":false,"i_lat":-6.201433,"time":1,"station_id":"SUDB","is_transit":false,"distance":471,"station_name":"Sudirman Baru","i_long":106.819881,"line":1},{"time":1,"transit":false,"distance":280,"line":1,"is_transit":false,"i_lat":-6.202263,"i_long":106.822649,"station_id":"SUD","station_name":"Sudirman"},{"station_name":"Manggarai","i_lat":-6.209883,"transit":true,"line":0,"time":4,"i_long":106.84912,"station_id":"MRI","distance":3186,"is_transit":true},{"transit":false,"i_long":106.857948,"time":4,"line":2,"is_transit":false,"i_lat":-6.226659,"distance":2610,"station_name":"Tebet","station_id":"TEB"},{"i_long":106.856607,"station_name":"Cawang","time":2,"transit":false,"line":0,"station_id":"CW","distance":1230,"i_lat":-6.242512,"is_transit":false},{"line":0,"i_lat":-6.255332,"i_long":106.85449,"time":3,"distance":1546,"is_transit":false,"station_name":"Duren Kalibata","transit":false,"station_id":"DRN"},{"i_lat":-6.263214,"line":2,"i_long":106.851577,"station_name":"Pasar Minggu Baru","is_transit":false,"transit":false,"time":2,"distance":824,"station_id":"PSMB"},{"i_long":106.843999,"i_lat":-6.2842400000000005,"station_id":"PSM","station_name":"Pasar Minggu","time":2,"distance":2380,"line":2,"transit":false,"is_transit":false},{"station_name":"Tanjung Barat","station_id":"TNT","time":4,"is_transit":false,"transit":false,"i_lat":-6.3080680000000005,"i_long":106.838896,"line":2,"distance":2820},{"time":3,"i_lat":-6.330363,"i_long":106.832616,"line":2,"transit":false,"station_id":"LNA","distance":2671,"station_name":"Lenteng Agung","is_transit":false}],[{"is_transit":false,"station_name":"Tambun","station_id":"TB","i_lat":-6.258864,"i_long":107.055722,"line":1,"time":0,"distance":0,"transit":false},{"line":0,"station_name":"Bekasi Timur","transit":false,"i_long":107.016735,"i_lat":-6.248029,"time":7,"station_id":"BKST","is_transit":false,"distance":4460},{"is_transit":false,"time":2,"station_id":"BKS","station_name":"Bekasi","distance":2368,"transit":false,"i_lat":-6.236616,"i_long":106.997013,"line":0},{"transit":false,"time":4,"station_name":"Kranji","distance":2520,"i_long":106.977657,"i_lat":-6.224515,"station_id":"KRI","is_transit":false,"line":1},{"station_name":"Cakung","i_long":106.951283,"station_id":"CUK","distance":3097,"time":3,"transit":false,"i_lat":-6.219053,"line":0,"is_transit":false},{"i_long":106.939679,"transit":false,"is_transit":false,"time":8,"station_name":"Klenderbaru","line":1,"distance":1385,"station_id":"KLDB","i_lat":-6.217455},{"station_id":"BUA","line":0,"distance":1305,"i_long":106.922662,"time":1,"transit":false,"i_lat":-6.215568,"is_transit":false,"station_name":"Buaran"},{"station_name":"Klender","is_transit":false,"transit":false,"line":1,"i_long":106.899548,"distance":3100,"time":2,"station_id":"KLD","i_lat":-6.2135},{"i_lat":-6.215091,"line":0,"station_id":"JNG","station_name":"Jatinegara","distance":3395,"is_transit":true,"i_long":106.86807400000001,"time":3,"transit":true},{"time":2,"line":11,"station_id":"POK","distance":1236,"i_lat":-6.209188,"station_name":"Pondok Jati","is_transit":false,"transit":false,"i_long":106.861737},{"transit":false,"line":11,"distance":1829,"i_long":106.855437,"time":2,"i_lat":-6.193792,"station_name":"Kramat","is_transit":false,"station_id":"KMT"},{"station_id":"GST","is_transit":false,"time":1,"distance":973,"i_lat":-6.185975,"transit":false,"station_name":"Gang Sentiong","i_long":106.850107,"line":11},{"i_long":106.84368,"distance":1567,"i_lat":-6.174784,"time":8,"is_transit":false,"transit":false,"line":11,"station_name":"Pasar Senen","station_id":"PSE"},{"station_name":"Kemayoran","time":4,"distance":1436,"transit":false,"is_transit":false,"i_long":106.839204,"line":11,"station_id":"KMO","i_lat":-6.161728},{"transit":false,"line":11,"station_name":"Rajawali","station_id":"RJW","i_long":106.836569,"distance":1901,"i_lat":-6.14505,"is_transit":false,"time":5},{"time":3,"i_long":106.826365,"station_name":"Kampung Bandan","distance":1444,"line":0,"station_id":"KPB","i_lat":-6.132549,"is_transit":true,"transit":true},{"line":0,"station_name":"Jakarta Kota","time":3,"i_lat":-6.137569,"i_long":106.812439,"distance":1364,"station_id":"JAKK","transit":true,"is_transit":true},{"transit":false,"distance":1264,"i_lat":-6.141205,"i_long":106.820901,"line":7,"is_transit":false,"station_name":"Jayakarta","station_id":"JAY","time":4},{"i_lat":-6.149769,"transit":false,"station_name":"Manggabesar","line":2,"station_id":"MGB","i_long":106.82482,"is_transit":false,"time":2,"distance":1080},{"time":2,"transit":false,"station_name":"Sawah Besar","distance":906,"is_transit":false,"i_long":106.827103,"line":2,"station_id":"SW","i_lat":-6.160725},{"station_id":"JUA","transit":false,"station_name":"Juanda","is_transit":false,"distance":1149,"i_lat":-6.166716,"i_long":106.828284,"line":2,"time":2},{"distance":2015,"station_name":"Gondangdia","line":2,"station_id":"GDD","is_transit":false,"i_long":106.832183,"i_lat":-6.186295,"time":4,"transit":false},{"line":0,"i_long":106.840169,"i_lat":-6.198556,"station_name":"Cikini","time":3,"is_transit":false,"distance":1750,"station_id":"CKI","transit":false},{"time":4,"transit":true,"station_id":"MRI","i_long":106.84912,"is_transit":true,"distance":1590,"i_lat":-6.209883,"station_name":"Manggarai","line":0},{"i_long":106.857948,"time":4,"is_transit":false,"distance":2610,"station_id":"TEB","station_name":"Tebet","i_lat":-6.226659,"line":2,"transit":false},{"distance":1230,"i_lat":-6.242512,"station_id":"CW","time":2,"i_long":106.856607,"line":0,"is_transit":false,"station_name":"Cawang","transit":false},{"distance":1546,"transit":false,"i_long":106.85449,"line":0,"station_name":"Duren Kalibata","station_id":"DRN","is_transit":false,"time":3,"i_lat":-6.255332},{"station_name":"Pasar Minggu Baru","i_lat":-6.263214,"transit":false,"time":2,"i_long":106.851577,"is_transit":false,"station_id":"PSMB","distance":824,"line":2},{"time":2,"line":2,"transit":false,"distance":2380,"i_lat":-6.2842400000000005,"station_id":"PSM","station_name":"Pasar Minggu","i_long":106.843999,"is_transit":false},{"time":4,"station_name":"Tanjung Barat","i_long":106.838896,"distance":2820,"line":2,"i_lat":-6.3080680000000005,"is_transit":false,"station_id":"TNT","transit":false},{"i_long":106.832616,"station_name":"Lenteng Agung","line":2,"i_lat":-6.330363,"is_transit":false,"transit":false,"time":3,"station_id":"LNA","distance":2671}]]}