{"data":[[{"is_transit":false,"station_id":"TB","i_long":107.055722,"line":1,"transit":false,"time":0,"i_lat":-6.258864,"distance":0,"station_name":"Tambun"},{"time":7,"distance":4460,"i_long":107.016735,"line":1,"station_name":"Bekasi Timur","transit":false,"i_lat":-6.248029,"is_transit":false,"station_id":"BKST"},{"transit":false,"is_transit":false,"i_long":106.997013,"line":1,"time":2,"distance":2368,"station_id":"BKS","station_name":"Bekasi","i_lat":-6.236616},{"i_long":106.977657,"station_id":"KRI","transit":false,"distance":2520,"i_lat":-6.224515,"time":4,"line":1,"is_transit":false,"station_name":"Kranji"},{"station_id":"CUK","is_transit":false,"i_lat":-6.219053,"transit":false,"line":1,"i_long":106.951283,"distance":3097,"time":3,"station_name":"Cakung"},{"i_lat":-6.217455,"station_id":"KLDB","i_long":106.939679,"distance":1385,"time":8,"is_transit":false,"transit":false,"station_name":"Klenderbaru","line":1},{"station_id":"BUA","distance":1305,"station_name":"Buaran","transit":false,"time":1,"is_transit":false,"i_lat":-6.215568,"i_long":106.922662,"line":1},{"is_transit":false,"station_id":"KLD","station_name":"Klender","i_lat":-6.2135,"i_long":106.899548,"line":1,"distance":3100,"transit":false,"time":2},{"distance":3395,"transit":false,"is_transit":false,"line":1,"station_id":"JNG","time":3,"station_name":"Jatinegara","i_lat":-6.215091,"i_long":106.86807400000001},{"i_long":106.858896,"station_id":"MTR","time":2,"transit":false,"distance":1377,"is_transit":false,"i_lat":-6.212485,"line":1,"station_name":"Matraman"},{"station_name":"Manggarai","i_lat":-6.209883,"i_long":106.84912,"line":2,"time":2,"is_transit":true,"station_id":"MRI","transit":true,"distance":1275},{"station_name":"Tebet","transit":false,"i_long":106.857948,"i_lat":-6.226659,"distance":2610,"station_id":"TEB","line":2,"is_transit":false,"time":4},{"station_id":"CW","i_long":106.856607,"i_lat":-6.242512,"is_transit":false,"transit":false,"station_name":"Cawang","time":2,"distance":1230,"line":2},{"transit":false,"station_name":"Duren Kalibata","distance":1546,"i_long":106.85449,"is_transit":false,"i_lat":-6.255332,"station_id":"DRN","time":3,"line":2},{"i_lat":-6.263214,"is_transit":false,"i_long":106.851577,"distance":824,"line":2,"station_name":"Pasar Minggu Baru","station_id":"PSMB","transit":false,"time":2},{"i_long":106.843999,"line":2,"distance":2380,"transit":false,"station_id":"PSM","is_transit":false,"time":2,"i_lat":-6.2842400000000005,"station_name":"Pasar Minggu"},{"time":4,"is_transit":false,"transit":false,"station_name":"Tanjung Barat","i_long":106.838896,"line":2,"station_id":"TNT","distance":2820,"i_lat":-6.3080680000000005},{"i_lat":-6.330363,"i_long":106.832616,"line":2,"time":3,"is_transit":false,"station_id":"LNA","station_name":"Lenteng Agung","transit":false,"distance":2671}],[{"transit":false,"time":0,"i_lat":-6.258864,"line":1,"is_transit":false,"station_id":"TB","distance":0,"station_name":"Tambun","i_long":107.055722},{"line":1,"transit":false,"is_transit":false,"station_id":"BKST","station_name":"Bekasi Timur","i_lat":-6.248029,"i_long":107.016735,"time":7,"distance":4460},{"time":2,"line":1,"station_id":"BKS","station_name":"Bekasi","i_lat":-6.236616,"is_transit":false,"distance":2368,"i_long":106.997013,"transit":false},{"station_name":"Kranji","i_lat":-6.224515,"i_long":106.977657,"is_transit":false,"line":1,"station_id":"KRI","time":4,"transit":false,"distance":2520},{"station_id":"CUK","station_name":"Cakung","i_long":106.951283,"i_lat":-6.219053,"time":3,"transit":false,"distance":3097,"is_transit":false,"line":1},{"i_long":106.939679,"station_name":"Klenderbaru","transit":false,"is_transit":false,"line":1,"station_id":"KLDB","distance":1385,"i_lat":-6.217455,"time":8},{"distance":1305,"station_name":"Buaran","i_long":106.922662,"transit":false,"line":1,"is_transit":false,"i_lat":-6.215568,"time":1,"station_id":"BUA"},{"time":2,"distance":3100,"transit":false,"i_lat":-6.2135,"i_long":106.899548,"line":1,"station_id":"KLD","is_transit":false,"station_name":"Klender"},{"i_lat":-6.215091,"is_transit":true,"transit":true,"time":3,"distance":3395,"i_long":106.86807400000001,"station_name":"Jatinegara","station_id":"JNG","line":1},{"i_lat":-6.209188,"distance":1236,"transit":false,"is_transit":false,"station_name":"Pondok Jati","time":2,"line":11,"i_long":106.861737,"station_id":"POK"},{"station_id":"KMT","transit":false,"time":2,"i_lat":-6.193792,"is_transit":false,"distance":1829,"i_long":106.855437,"line":11,"station_name":"Kramat"},{"time":1,"i_lat":-6.185975,"station_name":"Gang Sentiong","is_transit":false,"line":11,"station_id":"GST","transit":false,"distance":973,"i_long":106.850107},{"i_long":106.84368,"station_name":"Pasar Senen","i_lat":-6.174784,"line":11,"time":8,"is_transit":false,"station_id":"PSE","transit":false,"distance":1567},{"distance":1436,"i_lat":-6.161728,"line":11,"is_transit":false,"i_long":106.839204,"time":4,"transit":false,"station_name":"Kemayoran","station_id":"KMO"},{"i_lat":-6.14505,"transit":false,"station_name":"Rajawali","station_id":"RJW","time":5,"distance":1901,"is_transit":false,"i_long":106.836569,"line":11},{"i_lat":-6.132549,"station_id":"KPB","transit":true,"distance":1444,"time":3,"is_transit":true,"station_name":"Kampung Bandan","i_long":106.826365,"line":4},{"transit":false,"time":9,"line":1,"i_lat":-6.144674,"station_id":"AK","distance":4102,"is_transit":false,"station_name":"Angke","i_long":106.79867},{"i_lat":-6.155215,"time":4,"is_transit":false,"distance":1230,"line":1,"transit":false,"station_id":"DU","station_name":"Duri","i_long":106.800832},{"is_transit":false,"station_name":"Tanah Abang","transit":false,"time":8,"line":1,"i_long":106.811091,"station_id":"THB","distance":3632,"i_lat":-6.185545},{"station_name":"Karet","distance":2029,"station_id":"KAT","i_lat":-6.20132,"is_transit":false,"i_long":106.816351,"line":1,"transit":false,"time":5},{"station_name":"Sudirman Baru","i_lat":-6.201433,"i_long":106.819881,"line":1,"station_id":"SUDB","transit":false,"is_transit":false,"distance":471,"time":1},{"transit":false,"line":1,"station_name":"Sudirman","is_transit":false,"station_id":"SUD","time":1,"i_lat":-6.202263,"i_long":106.822649,"distance":280},{"i_lat":-6.209883,"station_name":"Manggarai","i_long":106.84912,"is_transit":true,"station_id":"MRI","time":4,"transit":true,"distance":3186,"line":2},{"line":2,"distance":2610,"i_lat":-6.226659,"time":4,"transit":false,"is_transit":false,"station_name":"Tebet","station_id":"TEB","i_long":106.857948},{"station_id":"CW","is_transit":false,"line":2,"time":2,"distance":1230,"i_lat":-6.242512,"transit":false,"station_name":"Cawang","i_long":106.856607},{"time":3,"station_id":"DRN","transit":false,"is_transit":false,"station_name":"Duren Kalibata","i_lat":-6.255332,"distance":1546,"line":2,"i_long":106.85449},{"i_lat":-6.263214,"time":2,"transit":false,"line":2,"is_transit":false,"i_long":106.851577,"station_id":"PSMB","distance":824,"station_name":"Pasar Minggu Baru"},{"i_lat":-6.2842400000000005,"distance":2380,"i_long":106.843999,"station_name":"Pasar Minggu","time":2,"is_transit":false,"line":2,"station_id":"PSM","transit":false},{"time":4,"i_long":106.838896,"station_name":"Tanjung Barat","station_id":"TNT","transit":false,"distance":2820,"i_lat":-6.3080680000000005,"line":2,"is_transit":false},{"line":2,"i_lat":-6.330363,"station_name":"Lenteng Agung","time":3,"distance":2671,"i_long":106.832616,"transit":false,"is_transit":false,"station_id":"LNA"}],[{"distance":0,"is_transit":false,"time":0,"transit":false,"station_name":"Tambun","i_long":107.055722,"line":1,"i_lat":-6.258864,"station_id":"TB"},{"station_name":"Bekasi Timur","i_lat":-6.248029,"distance":4460,"line":1,"transit":false,"time":7,"is_transit":false,"i_long":107.016735,"station_id":"BKST"},{"time":2,"distance":2368,"station_name":"Bekasi","line":1,"i_lat":-6.236616,"station_id":"BKS","is_transit":false,"transit":false,"i_long":106.997013},{"time":4,"i_long":106.977657,"i_lat":-6.224515,"station_name":"Kranji","transit":false,"is_transit":false,"station_id":"KRI","line":1,"distance":2520},{"i_lat":-6.219053,"time":3,"distance":3097,"line":1,"station_id":"CUK","i_long":106.951283,"is_transit":false,"station_name":"Cakung","transit":false},{"station_id":"KLDB","line":1,"i_long":106.939679,"time":8,"station_name":"Klenderbaru","is_transit":false,"transit":false,"distance":1385,"i_lat":-6.217455},{"distance":1305,"i_lat":-6.215568,"line":1,"station_name":"Buaran","i_long":106.922662,"is_transit":false,"station_id":"BUA","time":1,"transit":false},{"distance":3100,"i_long":106.899548,"is_transit":false,"transit":false,"time":2,"station_name":"Klender","station_id":"KLD","i_lat":-6.2135,"line":1},{"time":3,"i_lat":-6.215091,"distance":3395,"transit":true,"line":1,"station_name":"Jatinegara","station_id":"JNG","is_transit":true,"i_long":106.86807400000001},{"i_long":106.861737,"time":2,"i_lat":-6.209188,"is_transit":false,"line":11,"distance":1236,"station_name":"Pondok Jati","transit":false,"station_id":"POK"},{"transit":false,"distance":1829,"i_long":106.855437,"line":11,"i_lat":-6.193792,"station_name":"Kramat","time":2,"station_id":"KMT","is_transit":false},{"station_name":"Gang Sentiong","i_long":106.850107,"station_id":"GST","line":11,"time":1,"is_transit":false,"i_lat":-6.185975,"distance":973,"transit":false},{"is_transit":false,"i_long":106.84368,"station_name":"Pasar Senen","i_lat":-6.174784,"station_id":"PSE","distance":1567,"time":8,"line":11,"transit":false},{"is_transit":false,"i_long":106.839204,"line":11,"station_id":"KMO","station_name":"Kemayoran","transit":false,"time":4,"distance":1436,"i_lat":-6.161728},{"station_id":"RJW","transit":false,"i_lat":-6.14505,"distance":1901,"is_transit":false,"i_long":106.836569,"line":11,"time":5,"station_name":"Rajawali"},{"station_id":"KPB","time":3,"distance":1444,"is_transit":true,"i_lat":-6.132549,"line":4,"station_name":"Kampung Bandan","transit":true,"i_long":106.826365},{"station_id":"JAKK","i_long":106.812439,"is_transit":true,"station_name":"Jakarta Kota","i_lat":-6.137569,"distance":1364,"line":2,"transit":true,"time":3},{"station_id":"JAY","is_transit":false,"line":2,"transit":false,"time":4,"distance":1264,"station_name":"Jayakarta","i_lat":-6.141205,"i_long":106.820901},{"i_lat":-6.149769,"is_transit":false,"transit":false,"i_long":106.82482,"distance":1080,"line":2,"station_id":"MGB","station_name":"Manggabesar","time":2},{"time":2,"distance":906,"is_transit":false,"i_lat":-6.160725,"i_long":106.827103,"line":2,"station_name":"Sawah Besar","station_id":"SW","transit":false},{"distance":1149,"time":2,"station_name":"Juanda","line":2,"i_lat":-6.166716,"is_transit":false,"i_long":106.828284,"station_id":"JUA","transit":false},{"i_long":106.832183,"time":4,"station_name":"Gondangdia","line":2,"is_transit":false,"i_lat":-6.186295,"distance":2015,"station_id":"GDD","transit":false},{"is_transit":false,"distance":1750,"station_name":"Cikini","i_lat":-6.198556,"line":2,"time":3,"transit":false,"i_long":106.840169,"station_id":"CKI"},{"is_transit":false,"distance":1590,"i_long":106.84912,"line":2,"time":4,"i_lat":-6.209883,"transit":false,"station_name":"Manggarai","station_id":"MRI"},{"station_name":"Tebet","station_id":"TEB","distance":2610,"i_lat":-6.226659,"transit":false,"i_long":106.857948,"time":4,"line":2,"is_transit":false},{"station_name":"Cawang","is_transit":false,"line":2,"station_id":"CW","i_long":106.856607,"distance":1230,"time":2,"i_lat":-6.242512,"transit":false},{"station_id":"DRN","transit":false,"i_long":106.85449,"is_transit":false,"station_name":"Duren Kalibata","i_lat":-6.255332,"time":3,"distance":1546,"line":2},{"transit":false,"station_name":"Pasar Minggu Baru","i_lat":-6.263214,"i_long":106.851577,"time":2,"distance":824,"is_transit":false,"line":2,"station_id":"PSMB"},{"is_transit":false,"station_name":"Pasar Minggu","i_long":106.843999,"transit":false,"time":2,"distance":2380,"i_lat":-6.2842400000000005,"station_id":"PSM","line":2},{"is_transit":false,"i_lat":-6.3080680000000005,"i_long":106.838896,"station_id":"TNT","distance":2820,"time":4,"station_name":"Tanjung Barat","line":2,"transit":false},{"is_transit":false,"transit":false,"station_name":"Lenteng Agung","distance":2671,"station_id":"LNA","i_lat":-6.330363,"i_long":106.832616,"line":2,"time":3}]]}