{"data":[[{"is_transit":false,"i_lat":-6.258864,"time":0,"station_id":"TB","line":1,"distance":0,"i_long":107.055722,"transit":false,"station_name":"Tambun"},{"i_long":107.016735,"time":7,"is_transit":false,"station_name":"Bekasi Timur","distance":4460,"i_lat":-6.248029,"station_id":"BKST","line":1,"transit":false},{"line":1,"i_lat":-6.236616,"station_name":"Bekasi","i_long":106.997013,"time":2,"is_transit":false,"station_id":"BKS","distance":2368,"transit":false},{"is_transit":false,"i_long":106.977657,"line":1,"station_id":"KRI","transit":false,"i_lat":-6.224515,"distance":2520,"station_name":"Kranji","time":4},{"is_transit":false,"transit":false,"station_name":"Cakung","station_id":"CUK","i_long":106.951283,"line":1,"time":3,"i_lat":-6.219053,"distance":3097},{"i_lat":-6.217455,"line":1,"time":8,"transit":false,"distance":1385,"i_long":106.939679,"station_id":"KLDB","is_transit":false,"station_name":"Klenderbaru"},{"i_long":106.922662,"station_id":"BUA","is_transit":false,"time":1,"station_name":"Buaran","line":1,"i_lat":-6.215568,"transit":false,"distance":1305},{"line":1,"i_lat":-6.2135,"time":2,"transit":false,"i_long":106.899548,"is_transit":false,"distance":3100,"station_name":"Klender","station_id":"KLD"},{"i_lat":-6.215091,"station_name":"Jatinegara","distance":3395,"is_transit":false,"line":1,"transit":false,"i_long":106.86807400000001,"station_id":"JNG","time":3},{"station_name":"Matraman","is_transit":false,"i_long":106.858896,"time":2,"i_lat":-6.212485,"station_id":"MTR","line":1,"transit":false,"distance":1377},{"line":2,"transit":true,"time":2,"i_lat":-6.209883,"station_id":"MRI","is_transit":true,"i_long":106.84912,"distance":1275,"station_name":"Manggarai"},{"is_transit":false,"transit":false,"station_name":"Tebet","i_lat":-6.226659,"i_long":106.857948,"distance":2610,"time":4,"station_id":"TEB","line":2},{"transit":false,"is_transit":false,"i_long":106.856607,"station_id":"CW","i_lat":-6.242512,"time":2,"line":2,"distance":1230,"station_name":"Cawang"},{"transit":false,"station_id":"DRN","distance":1546,"i_long":106.85449,"is_transit":false,"i_lat":-6.255332,"station_name":"Duren Kalibata","line":2,"time":3},{"time":2,"distance":824,"transit":false,"is_transit":false,"i_lat":-6.263214,"station_name":"Pasar Minggu Baru","i_long":106.851577,"line":2,"station_id":"PSMB"},{"i_long":106.843999,"station_name":"Pasar Minggu","line":2,"is_transit":false,"distance":2380,"station_id":"PSM","i_lat":-6.2842400000000005,"time":2,"transit":false},{"line":2,"i_lat":-6.3080680000000005,"transit":false,"distance":2820,"station_id":"TNT","time":4,"is_transit":false,"i_long":106.838896,"station_name":"Tanjung Barat"},{"distance":2671,"i_lat":-6.330363,"transit":false,"station_name":"Lenteng Agung","i_long":106.832616,"is_transit":false,"station_id":"LNA","line":2,"time":3}],[{"station_name":"Tambun","is_transit":false,"time":0,"line":1,"transit":false,"station_id":"TB","distance":0,"i_long":107.055722,"i_lat":-6.258864},{"line":1,"i_long":107.016735,"station_id":"BKST","transit":false,"is_transit":false,"time":7,"distance":4460,"station_name":"Bekasi Timur","i_lat":-6.248029},{"station_name":"Bekasi","line":1,"transit":false,"time":2,"i_lat":-6.236616,"is_transit":false,"i_long":106.997013,"distance":2368,"station_id":"BKS"},{"i_lat":-6.224515,"line":1,"transit":false,"i_long":106.977657,"station_name":"Kranji","is_transit":false,"distance":2520,"time":4,"station_id":"KRI"},{"transit":false,"time":3,"distance":3097,"i_long":106.951283,"station_id":"CUK","is_transit":false,"line":1,"i_lat":-6.219053,"station_name":"Cakung"},{"station_name":"Klenderbaru","distance":1385,"transit":false,"time":8,"i_lat":-6.217455,"line":1,"is_transit":false,"station_id":"KLDB","i_long":106.939679},{"distance":1305,"station_name":"Buaran","station_id":"BUA","i_lat":-6.215568,"transit":false,"i_long":106.922662,"time":1,"line":1,"is_transit":false},{"is_transit":false,"line":1,"i_long":106.899548,"distance":3100,"station_name":"Klender","station_id":"KLD","i_lat":-6.2135,"time":2,"transit":false},{"is_transit":true,"station_id":"JNG","line":1,"distance":3395,"station_name":"Jatinegara","time":3,"i_long":106.86807400000001,"i_lat":-6.215091,"transit":true},{"transit":false,"distance":1236,"is_transit":false,"i_long":106.861737,"i_lat":-6.209188,"line":11,"time":2,"station_name":"Pondok Jati","station_id":"POK"},{"i_lat":-6.193792,"is_transit":false,"station_id":"KMT","station_name":"Kramat","line":11,"i_long":106.855437,"transit":false,"time":2,"distance":1829},{"distance":973,"station_name":"Gang Sentiong","station_id":"GST","i_long":106.850107,"time":1,"transit":false,"i_lat":-6.185975,"is_transit":false,"line":11},{"is_transit":false,"distance":1567,"station_id":"PSE","i_long":106.84368,"line":11,"i_lat":-6.174784,"transit":false,"time":8,"station_name":"Pasar Senen"},{"station_name":"Kemayoran","station_id":"KMO","is_transit":false,"distance":1436,"i_lat":-6.161728,"i_long":106.839204,"time":4,"transit":false,"line":11},{"i_long":106.836569,"distance":1901,"transit":false,"station_id":"RJW","station_name":"Rajawali","is_transit":false,"line":11,"time":5,"i_lat":-6.14505},{"station_id":"KPB","i_long":106.826365,"line":4,"time":3,"distance":1444,"i_lat":-6.132549,"transit":true,"station_name":"Kampung Bandan","is_transit":true},{"i_lat":-6.144674,"i_long":106.79867,"line":1,"station_name":"Angke","station_id":"AK","time":9,"transit":false,"distance":4102,"is_transit":false},{"station_name":"Duri","is_transit":false,"distance":1230,"station_id":"DU","time":4,"i_lat":-6.155215,"i_long":106.800832,"transit":false,"line":1},{"i_lat":-6.185545,"is_transit":false,"line":1,"time":8,"i_long":106.811091,"station_name":"Tanah Abang","station_id":"THB","distance":3632,"transit":false},{"i_lat":-6.20132,"i_long":106.816351,"is_transit":false,"distance":2029,"station_name":"Karet","line":1,"station_id":"KAT","transit":false,"time":5},{"station_name":"Sudirman Baru","station_id":"SUDB","i_lat":-6.201433,"is_transit":false,"i_long":106.819881,"line":1,"transit":false,"time":1,"distance":471},{"is_transit":false,"transit":false,"station_id":"SUD","i_long":106.822649,"station_name":"Sudirman","distance":280,"time":1,"line":1,"i_lat":-6.202263},{"line":2,"i_long":106.84912,"time":4,"station_name":"Manggarai","transit":true,"is_transit":true,"i_lat":-6.209883,"distance":3186,"station_id":"MRI"},{"is_transit":false,"i_lat":-6.226659,"distance":2610,"time":4,"station_name":"Tebet","i_long":106.857948,"line":2,"station_id":"TEB","transit":false},{"station_id":"CW","line":2,"station_name":"Cawang","is_transit":false,"transit":false,"time":2,"i_lat":-6.242512,"i_long":106.856607,"distance":1230},{"is_transit":false,"line":2,"station_name":"Duren Kalibata","time":3,"distance":1546,"i_long":106.85449,"transit":false,"i_lat":-6.255332,"station_id":"DRN"},{"i_lat":-6.263214,"i_long":106.851577,"is_transit":false,"time":2,"station_id":"PSMB","line":2,"transit":false,"distance":824,"station_name":"Pasar Minggu Baru"},{"station_name":"Pasar Minggu","time":2,"is_transit":false,"i_lat":-6.2842400000000005,"distance":2380,"station_id":"PSM","i_long":106.843999,"line":2,"transit":false},{"is_transit":false,"i_long":106.838896,"distance":2820,"line":2,"station_name":"Tanjung Barat","station_id":"TNT","i_lat":-6.3080680000000005,"time":4,"transit":false},{"station_name":"Lenteng Agung","i_lat":-6.330363,"station_id":"LNA","distance":2671,"i_long":106.832616,"line":2,"is_transit":false,"time":3,"transit":false}],[{"transit":false,"line":1,"i_long":107.055722,"station_id":"TB","i_lat":-6.258864,"is_transit":false,"distance":0,"station_name":"Tambun","time":0},{"i_lat":-6.248029,"is_transit":false,"distance":4460,"transit":false,"time":7,"station_id":"BKST","line":1,"i_long":107.016735,"station_name":"Bekasi Timur"},{"station_name":"Bekasi","line":1,"i_lat":-6.236616,"is_transit":false,"transit":false,"time":2,"distance":2368,"station_id":"BKS","i_long":106.997013},{"distance":2520,"station_id":"KRI","line":1,"is_transit":false,"i_lat":-6.224515,"station_name":"Kranji","time":4,"transit":false,"i_long":106.977657},{"is_transit":false,"station_id":"CUK","line":1,"transit":false,"i_lat":-6.219053,"distance":3097,"station_name":"Cakung","i_long":106.951283,"time":3},{"station_name":"Klenderbaru","transit":false,"i_long":106.939679,"is_transit":false,"time":8,"i_lat":-6.217455,"line":1,"distance":1385,"station_id":"KLDB"},{"station_id":"BUA","i_long":106.922662,"i_lat":-6.215568,"is_transit":false,"time":1,"line":1,"distance":1305,"transit":false,"station_name":"Buaran"},{"is_transit":false,"time":2,"distance":3100,"station_id":"KLD","i_long":106.899548,"line":1,"transit":false,"station_name":"Klender","i_lat":-6.2135},{"time":3,"transit":true,"station_name":"Jatinegara","station_id":"JNG","i_lat":-6.215091,"is_transit":true,"i_long":106.86807400000001,"line":1,"distance":3395},{"station_id":"POK","i_long":106.861737,"time":2,"i_lat":-6.209188,"is_transit":false,"transit":false,"station_name":"Pondok Jati","distance":1236,"line":11},{"station_name":"Kramat","is_transit":false,"i_lat":-6.193792,"station_id":"KMT","distance":1829,"i_long":106.855437,"transit":false,"time":2,"line":11},{"transit":false,"i_lat":-6.185975,"time":1,"distance":973,"station_name":"Gang Sentiong","i_long":106.850107,"is_transit":false,"station_id":"GST","line":11},{"transit":false,"line":11,"distance":1567,"station_id":"PSE","i_long":106.84368,"i_lat":-6.174784,"is_transit":false,"time":8,"station_name":"Pasar Senen"},{"station_name":"Kemayoran","station_id":"KMO","is_transit":false,"line":11,"distance":1436,"i_lat":-6.161728,"i_long":106.839204,"time":4,"transit":false},{"is_transit":false,"station_id":"RJW","line":11,"i_long":106.836569,"time":5,"distance":1901,"transit":false,"station_name":"Rajawali","i_lat":-6.14505},{"distance":1444,"station_name":"Kampung Bandan","transit":true,"station_id":"KPB","is_transit":true,"time":3,"i_long":106.826365,"line":4,"i_lat":-6.132549},{"line":2,"i_lat":-6.137569,"time":3,"station_name":"Jakarta Kota","station_id":"JAKK","transit":true,"i_long":106.812439,"is_transit":true,"distance":1364},{"station_name":"Jayakarta","time":4,"line":2,"distance":1264,"station_id":"JAY","is_transit":false,"i_lat":-6.141205,"transit":false,"i_long":106.820901},{"time":2,"distance":1080,"station_name":"Manggabesar","station_id":"MGB","i_long":106.82482,"line":2,"is_transit":false,"i_lat":-6.149769,"transit":false},{"station_id":"SW","i_lat":-6.160725,"station_name":"Sawah Besar","is_transit":false,"distance":906,"i_long":106.827103,"time":2,"transit":false,"line":2},{"time":2,"station_name":"Juanda","i_long":106.828284,"line":2,"transit":false,"i_lat":-6.166716,"station_id":"JUA","distance":1149,"is_transit":false},{"i_long":106.832183,"is_transit":false,"i_lat":-6.186295,"line":2,"station_name":"Gondangdia","transit":false,"distance":2015,"station_id":"GDD","time":4},{"transit":false,"i_lat":-6.198556,"distance":1750,"station_name":"Cikini","i_long":106.840169,"station_id":"CKI","time":3,"is_transit":false,"line":2},{"line":2,"transit":false,"distance":1590,"is_transit":false,"i_lat":-6.209883,"i_long":106.84912,"time":4,"station_id":"MRI","station_name":"Manggarai"},{"time":4,"line":2,"station_name":"Tebet","i_lat":-6.226659,"is_transit":false,"i_long":106.857948,"transit":false,"station_id":"TEB","distance":2610},{"line":2,"station_id":"CW","i_long":106.856607,"station_name":"Cawang","time":2,"transit":false,"is_transit":false,"distance":1230,"i_lat":-6.242512},{"distance":1546,"i_long":106.85449,"line":2,"station_id":"DRN","transit":false,"time":3,"i_lat":-6.255332,"station_name":"Duren Kalibata","is_transit":false},{"distance":824,"is_transit":false,"station_id":"PSMB","i_lat":-6.263214,"line":2,"time":2,"station_name":"Pasar Minggu Baru","i_long":106.851577,"transit":false},{"is_transit":false,"i_long":106.843999,"distance":2380,"transit":false,"line":2,"station_name":"Pasar Minggu","time":2,"station_id":"PSM","i_lat":-6.2842400000000005},{"i_lat":-6.3080680000000005,"i_long":106.838896,"line":2,"station_id":"TNT","time":4,"transit":false,"station_name":"Tanjung Barat","is_transit":false,"distance":2820},{"i_lat":-6.330363,"station_name":"Lenteng Agung","line":2,"time":3,"is_transit":false,"station_id":"LNA","distance":2671,"i_long":106.832616,"transit":false}]]}