{"data":[[{"station_id":"TB","is_transit":false,"transit":false,"station_name":"Tambun","line":1,"time":0,"i_lat":-6.258864,"i_long":107.055722,"distance":0},{"station_name":"Bekasi Timur","transit":false,"line":1,"time":7,"i_lat":-6.248029,"station_id":"BKST","i_long":107.016735,"is_transit":false,"distance":4460},{"line":1,"transit":false,"distance":2368,"station_name":"Bekasi","i_lat":-6.236616,"i_long":106.997013,"time":2,"station_id":"BKS","is_transit":false},{"distance":2520,"station_id":"KRI","is_transit":false,"transit":false,"line":1,"i_lat":-6.224515,"time":4,"station_name":"Kranji","i_long":106.977657},{"i_long":106.951283,"station_id":"CUK","time":3,"is_transit":false,"station_name":"Cakung","distance":3097,"i_lat":-6.219053,"line":1,"transit":false},{"i_long":106.939679,"is_transit":false,"transit":false,"time":8,"station_name":"Klenderbaru","station_id":"KLDB","distance":1385,"i_lat":-6.217455,"line":1},{"station_name":"Buaran","i_lat":-6.215568,"i_long":106.922662,"line":1,"transit":false,"station_id":"BUA","time":1,"distance":1305,"is_transit":false},{"i_long":106.899548,"line":1,"station_name":"Klender","transit":false,"station_id":"KLD","is_transit":false,"time":2,"distance":3100,"i_lat":-6.2135},{"is_transit":false,"station_id":"JNG","station_name":"Jatinegara","transit":false,"i_long":106.86807400000001,"distance":3395,"time":3,"line":1,"i_lat":-6.215091},{"transit":false,"distance":1377,"station_name":"Matraman","i_long":106.858896,"line":1,"i_lat":-6.212485,"is_transit":false,"station_id":"MTR","time":2},{"station_name":"Manggarai","distance":1275,"i_lat":-6.209883,"transit":true,"time":2,"station_id":"MRI","i_long":106.84912,"is_transit":true,"line":2},{"i_lat":-6.226659,"transit":false,"station_name":"Tebet","i_long":106.857948,"station_id":"TEB","is_transit":false,"line":2,"time":4,"distance":2610},{"distance":1230,"i_long":106.856607,"station_id":"CW","is_transit":false,"line":2,"i_lat":-6.242512,"time":2,"transit":false,"station_name":"Cawang"},{"station_id":"DRN","is_transit":false,"station_name":"Duren Kalibata","i_lat":-6.255332,"line":2,"i_long":106.85449,"transit":false,"time":3,"distance":1546},{"station_id":"PSMB","station_name":"Pasar Minggu Baru","is_transit":false,"transit":false,"i_long":106.851577,"line":2,"time":2,"i_lat":-6.263214,"distance":824},{"i_lat":-6.2842400000000005,"station_name":"Pasar Minggu","distance":2380,"line":2,"time":2,"i_long":106.843999,"station_id":"PSM","transit":false,"is_transit":false},{"line":2,"i_long":106.838896,"distance":2820,"is_transit":false,"time":4,"station_id":"TNT","station_name":"Tanjung Barat","transit":false,"i_lat":-6.3080680000000005},{"station_name":"Lenteng Agung","station_id":"LNA","distance":2671,"line":2,"i_long":106.832616,"i_lat":-6.330363,"is_transit":false,"transit":false,"time":3}],[{"distance":0,"is_transit":false,"station_id":"TB","time":0,"transit":false,"station_name":"Tambun","i_long":107.055722,"i_lat":-6.258864,"line":1},{"i_long":107.016735,"transit":false,"station_id":"BKST","line":1,"is_transit":false,"time":7,"station_name":"Bekasi Timur","i_lat":-6.248029,"distance":4460},{"i_long":106.997013,"line":1,"is_transit":false,"distance":2368,"station_name":"Bekasi","station_id":"BKS","transit":false,"i_lat":-6.236616,"time":2},{"station_name":"Kranji","transit":false,"line":1,"is_transit":false,"time":4,"i_lat":-6.224515,"station_id":"KRI","distance":2520,"i_long":106.977657},{"time":3,"station_name":"Cakung","transit":false,"station_id":"CUK","i_lat":-6.219053,"line":1,"i_long":106.951283,"distance":3097,"is_transit":false},{"distance":1385,"station_name":"Klenderbaru","transit":false,"time":8,"is_transit":false,"i_lat":-6.217455,"station_id":"KLDB","i_long":106.939679,"line":1},{"line":1,"station_name":"Buaran","distance":1305,"is_transit":false,"i_long":106.922662,"i_lat":-6.215568,"station_id":"BUA","time":1,"transit":false},{"i_lat":-6.2135,"i_long":106.899548,"station_name":"Klender","is_transit":false,"distance":3100,"time":2,"station_id":"KLD","line":1,"transit":false},{"transit":true,"i_lat":-6.215091,"line":1,"time":3,"station_name":"Jatinegara","station_id":"JNG","distance":3395,"is_transit":true,"i_long":106.86807400000001},{"transit":false,"i_long":106.861737,"station_name":"Pondok Jati","distance":1236,"station_id":"POK","time":2,"line":11,"is_transit":false,"i_lat":-6.209188},{"time":2,"i_lat":-6.193792,"station_id":"KMT","transit":false,"line":11,"station_name":"Kramat","is_transit":false,"distance":1829,"i_long":106.855437},{"time":1,"station_name":"Gang Sentiong","i_lat":-6.185975,"transit":false,"line":11,"station_id":"GST","i_long":106.850107,"distance":973,"is_transit":false},{"i_long":106.84368,"is_transit":false,"line":11,"distance":1567,"station_id":"PSE","transit":false,"time":8,"i_lat":-6.174784,"station_name":"Pasar Senen"},{"station_id":"KMO","transit":false,"is_transit":false,"i_lat":-6.161728,"i_long":106.839204,"distance":1436,"station_name":"Kemayoran","line":11,"time":4},{"transit":false,"station_id":"RJW","i_lat":-6.14505,"i_long":106.836569,"distance":1901,"time":5,"is_transit":false,"line":11,"station_name":"Rajawali"},{"station_id":"KPB","distance":1444,"i_lat":-6.132549,"station_name":"Kampung Bandan","transit":true,"time":3,"i_long":106.826365,"is_transit":true,"line":4},{"station_name":"Angke","transit":false,"station_id":"AK","i_lat":-6.144674,"is_transit":false,"i_long":106.79867,"time":9,"distance":4102,"line":1},{"station_id":"DU","i_lat":-6.155215,"station_name":"Duri","line":1,"distance":1230,"i_long":106.800832,"is_transit":false,"time":4,"transit":false},{"time":8,"distance":3632,"station_name":"Tanah Abang","i_lat":-6.185545,"i_long":106.811091,"transit":false,"is_transit":false,"line":1,"station_id":"THB"},{"is_transit":false,"station_id":"KAT","station_name":"Karet","i_lat":-6.20132,"distance":2029,"line":1,"i_long":106.816351,"time":5,"transit":false},{"time":1,"is_transit":false,"i_long":106.819881,"distance":471,"station_id":"SUDB","i_lat":-6.201433,"station_name":"Sudirman Baru","transit":false,"line":1},{"i_long":106.822649,"i_lat":-6.202263,"transit":false,"distance":280,"is_transit":false,"line":1,"station_name":"Sudirman","station_id":"SUD","time":1},{"distance":3186,"transit":true,"is_transit":true,"station_id":"MRI","line":2,"time":4,"i_long":106.84912,"station_name":"Manggarai","i_lat":-6.209883},{"line":2,"transit":false,"station_name":"Tebet","i_lat":-6.226659,"station_id":"TEB","is_transit":false,"distance":2610,"time":4,"i_long":106.857948},{"i_lat":-6.242512,"distance":1230,"is_transit":false,"i_long":106.856607,"station_id":"CW","station_name":"Cawang","line":2,"transit":false,"time":2},{"line":2,"i_lat":-6.255332,"station_id":"DRN","time":3,"transit":false,"station_name":"Duren Kalibata","is_transit":false,"i_long":106.85449,"distance":1546},{"station_name":"Pasar Minggu Baru","i_lat":-6.263214,"distance":824,"time":2,"is_transit":false,"station_id":"PSMB","i_long":106.851577,"transit":false,"line":2},{"station_name":"Pasar Minggu","distance":2380,"i_long":106.843999,"is_transit":false,"i_lat":-6.2842400000000005,"station_id":"PSM","line":2,"transit":false,"time":2},{"time":4,"is_transit":false,"station_name":"Tanjung Barat","station_id":"TNT","distance":2820,"i_lat":-6.3080680000000005,"transit":false,"i_long":106.838896,"line":2},{"line":2,"time":3,"station_name":"Lenteng Agung","transit":false,"i_long":106.832616,"is_transit":false,"station_id":"LNA","i_lat":-6.330363,"distance":2671}],[{"distance":0,"station_id":"TB","i_long":107.055722,"is_transit":false,"transit":false,"line":1,"time":0,"station_name":"Tambun","i_lat":-6.258864},{"transit":false,"station_name":"Bekasi Timur","distance":4460,"line":1,"i_lat":-6.248029,"is_transit":false,"i_long":107.016735,"station_id":"BKST","time":7},{"time":2,"is_transit":false,"station_id":"BKS","i_long":106.997013,"line":1,"transit":false,"station_name":"Bekasi","distance":2368,"i_lat":-6.236616},{"station_name":"Kranji","distance":2520,"i_long":106.977657,"transit":false,"is_transit":false,"i_lat":-6.224515,"station_id":"KRI","time":4,"line":1},{"i_long":106.951283,"station_id":"CUK","time":3,"line":1,"station_name":"Cakung","is_transit":false,"distance":3097,"i_lat":-6.219053,"transit":false},{"transit":false,"distance":1385,"is_transit":false,"line":1,"time":8,"i_long":106.939679,"i_lat":-6.217455,"station_id":"KLDB","station_name":"Klenderbaru"},{"i_lat":-6.215568,"distance":1305,"time":1,"station_id":"BUA","line":1,"transit":false,"is_transit":false,"station_name":"Buaran","i_long":106.922662},{"is_transit":false,"i_lat":-6.2135,"transit":false,"i_long":106.899548,"line":1,"time":2,"distance":3100,"station_id":"KLD","station_name":"Klender"},{"is_transit":true,"distance":3395,"station_name":"Jatinegara","transit":true,"time":3,"station_id":"JNG","i_long":106.86807400000001,"i_lat":-6.215091,"line":1},{"i_lat":-6.209188,"time":2,"transit":false,"line":11,"is_transit":false,"i_long":106.861737,"distance":1236,"station_name":"Pondok Jati","station_id":"POK"},{"distance":1829,"line":11,"station_id":"KMT","transit":false,"is_transit":false,"i_lat":-6.193792,"station_name":"Kramat","i_long":106.855437,"time":2},{"i_lat":-6.185975,"station_id":"GST","is_transit":false,"distance":973,"i_long":106.850107,"line":11,"time":1,"station_name":"Gang Sentiong","transit":false},{"transit":false,"line":11,"distance":1567,"i_lat":-6.174784,"station_id":"PSE","i_long":106.84368,"time":8,"is_transit":false,"station_name":"Pasar Senen"},{"line":11,"transit":false,"distance":1436,"is_transit":false,"time":4,"station_id":"KMO","station_name":"Kemayoran","i_long":106.839204,"i_lat":-6.161728},{"i_lat":-6.14505,"time":5,"transit":false,"station_id":"RJW","is_transit":false,"distance":1901,"i_long":106.836569,"station_name":"Rajawali","line":11},{"station_id":"KPB","i_long":106.826365,"i_lat":-6.132549,"station_name":"Kampung Bandan","is_transit":true,"time":3,"line":4,"distance":1444,"transit":true},{"transit":true,"is_transit":true,"i_long":106.812439,"time":3,"line":2,"distance":1364,"i_lat":-6.137569,"station_id":"JAKK","station_name":"Jakarta Kota"},{"is_transit":false,"station_id":"JAY","distance":1264,"i_lat":-6.141205,"i_long":106.820901,"line":2,"time":4,"transit":false,"station_name":"Jayakarta"},{"station_name":"Manggabesar","time":2,"line":2,"station_id":"MGB","is_transit":false,"distance":1080,"i_lat":-6.149769,"transit":false,"i_long":106.82482},{"distance":906,"transit":false,"line":2,"station_name":"Sawah Besar","time":2,"is_transit":false,"i_lat":-6.160725,"i_long":106.827103,"station_id":"SW"},{"is_transit":false,"station_id":"JUA","i_long":106.828284,"transit":false,"station_name":"Juanda","time":2,"i_lat":-6.166716,"line":2,"distance":1149},{"time":4,"line":2,"station_name":"Gondangdia","distance":2015,"station_id":"GDD","i_lat":-6.186295,"i_long":106.832183,"transit":false,"is_transit":false},{"station_name":"Cikini","distance":1750,"i_long":106.840169,"line":2,"is_transit":false,"transit":false,"i_lat":-6.198556,"station_id":"CKI","time":3},{"time":4,"station_id":"MRI","is_transit":false,"distance":1590,"transit":false,"i_lat":-6.209883,"line":2,"i_long":106.84912,"station_name":"Manggarai"},{"i_lat":-6.226659,"i_long":106.857948,"station_id":"TEB","station_name":"Tebet","is_transit":false,"time":4,"distance":2610,"transit":false,"line":2},{"line":2,"station_id":"CW","station_name":"Cawang","time":2,"distance":1230,"transit":false,"is_transit":false,"i_lat":-6.242512,"i_long":106.856607},{"station_id":"DRN","is_transit":false,"i_long":106.85449,"transit":false,"distance":1546,"time":3,"station_name":"Duren Kalibata","line":2,"i_lat":-6.255332},{"i_long":106.851577,"is_transit":false,"line":2,"station_name":"Pasar Minggu Baru","transit":false,"station_id":"PSMB","distance":824,"time":2,"i_lat":-6.263214},{"distance":2380,"station_id":"PSM","i_lat":-6.2842400000000005,"transit":false,"station_name":"Pasar Minggu","i_long":106.843999,"line":2,"is_transit":false,"time":2},{"line":2,"time":4,"transit":false,"is_transit":false,"station_name":"Tanjung Barat","i_long":106.838896,"distance":2820,"station_id":"TNT","i_lat":-6.3080680000000005},{"time":3,"distance":2671,"transit":false,"is_transit":false,"i_lat":-6.330363,"station_name":"Lenteng Agung","station_id":"LNA","i_long":106.832616,"line":2}]]}