{"data":[[{"transit":false,"distance":0,"is_transit":false,"time":0,"station_name":"Tambun","line":1,"i_lat":-6.258864,"station_id":"TB","i_long":107.055722},{"distance":4460,"time":7,"station_id":"BKST","is_transit":false,"station_name":"Bekasi Timur","line":1,"transit":false,"i_lat":-6.248029,"i_long":107.016735},{"i_long":106.997013,"i_lat":-6.236616,"time":2,"is_transit":false,"station_name":"Bekasi","transit":false,"line":1,"distance":2368,"station_id":"BKS"},{"is_transit":false,"line":1,"station_id":"KRI","transit":false,"station_name":"Kranji","i_lat":-6.224515,"distance":2520,"i_long":106.977657,"time":4},{"time":3,"distance":3097,"station_id":"CUK","i_lat":-6.219053,"is_transit":false,"i_long":106.951283,"line":1,"transit":false,"station_name":"Cakung"},{"line":1,"time":8,"is_transit":false,"i_lat":-6.217455,"station_id":"KLDB","transit":false,"station_name":"Klenderbaru","i_long":106.939679,"distance":1385},{"distance":1305,"i_long":106.922662,"station_id":"BUA","line":1,"time":1,"is_transit":false,"station_name":"Buaran","i_lat":-6.215568,"transit":false},{"transit":false,"distance":3100,"is_transit":false,"line":1,"time":2,"station_id":"KLD","i_long":106.899548,"station_name":"Klender","i_lat":-6.2135},{"is_transit":false,"station_name":"Jatinegara","transit":false,"i_long":106.86807400000001,"time":3,"station_id":"JNG","distance":3395,"i_lat":-6.215091,"line":1},{"time":2,"distance":1377,"i_long":106.858896,"station_id":"MTR","transit":false,"line":1,"is_transit":false,"station_name":"Matraman","i_lat":-6.212485},{"line":2,"station_name":"Manggarai","transit":true,"is_transit":true,"distance":1275,"i_long":106.84912,"station_id":"MRI","i_lat":-6.209883,"time":2},{"time":4,"station_id":"TEB","transit":false,"is_transit":false,"i_lat":-6.226659,"i_long":106.857948,"distance":2610,"station_name":"Tebet","line":2},{"time":2,"is_transit":false,"i_long":106.856607,"transit":false,"station_id":"CW","station_name":"Cawang","i_lat":-6.242512,"line":2,"distance":1230},{"station_name":"Duren Kalibata","i_long":106.85449,"is_transit":false,"station_id":"DRN","time":3,"line":2,"transit":false,"i_lat":-6.255332,"distance":1546},{"i_long":106.851577,"is_transit":false,"station_name":"Pasar Minggu Baru","distance":824,"line":2,"station_id":"PSMB","i_lat":-6.263214,"transit":false,"time":2},{"i_lat":-6.2842400000000005,"distance":2380,"station_name":"Pasar Minggu","line":2,"transit":false,"station_id":"PSM","i_long":106.843999,"is_transit":false,"time":2},{"line":2,"time":4,"i_lat":-6.3080680000000005,"i_long":106.838896,"station_id":"TNT","transit":false,"station_name":"Tanjung Barat","is_transit":false,"distance":2820},{"station_name":"Lenteng Agung","i_long":106.832616,"distance":2671,"is_transit":false,"transit":false,"line":2,"time":3,"i_lat":-6.330363,"station_id":"LNA"},{"time":2,"line":2,"distance":1029,"transit":false,"station_name":"Univ. Pancasila","station_id":"UP","is_transit":false,"i_long":106.834175,"i_lat":-6.339291},{"time":3,"distance":2264,"station_id":"UI","transit":false,"line":2,"is_transit":false,"i_lat":-6.360749,"station_name":"Univ. Indonesia","i_long":106.831474},{"time":2,"transit":false,"is_transit":false,"i_lat":-6.369073,"distance":1109,"station_name":"Pondok Cina","station_id":"POC","i_long":106.831114,"line":2}],[{"station_name":"Tambun","station_id":"TB","transit":false,"i_long":107.055722,"line":1,"time":0,"distance":0,"is_transit":false,"i_lat":-6.258864},{"transit":false,"i_lat":-6.248029,"time":7,"station_name":"Bekasi Timur","i_long":107.016735,"station_id":"BKST","is_transit":false,"line":1,"distance":4460},{"time":2,"i_lat":-6.236616,"station_name":"Bekasi","station_id":"BKS","i_long":106.997013,"is_transit":false,"distance":2368,"line":1,"transit":false},{"transit":false,"station_id":"KRI","station_name":"Kranji","i_lat":-6.224515,"i_long":106.977657,"line":1,"is_transit":false,"distance":2520,"time":4},{"transit":false,"i_lat":-6.219053,"station_id":"CUK","distance":3097,"is_transit":false,"station_name":"Cakung","line":1,"time":3,"i_long":106.951283},{"distance":1385,"station_name":"Klenderbaru","is_transit":false,"time":8,"station_id":"KLDB","transit":false,"line":1,"i_lat":-6.217455,"i_long":106.939679},{"time":1,"distance":1305,"is_transit":false,"transit":false,"i_long":106.922662,"line":1,"i_lat":-6.215568,"station_id":"BUA","station_name":"Buaran"},{"time":2,"station_id":"KLD","is_transit":false,"transit":false,"station_name":"Klender","i_lat":-6.2135,"line":1,"distance":3100,"i_long":106.899548},{"time":3,"transit":true,"distance":3395,"i_lat":-6.215091,"i_long":106.86807400000001,"line":1,"is_transit":true,"station_name":"Jatinegara","station_id":"JNG"},{"station_name":"Pondok Jati","i_long":106.861737,"time":2,"station_id":"POK","line":11,"distance":1236,"transit":false,"is_transit":false,"i_lat":-6.209188},{"time":2,"is_transit":false,"i_lat":-6.193792,"station_id":"KMT","i_long":106.855437,"transit":false,"line":11,"distance":1829,"station_name":"Kramat"},{"is_transit":false,"line":11,"i_lat":-6.185975,"station_name":"Gang Sentiong","transit":false,"station_id":"GST","i_long":106.850107,"distance":973,"time":1},{"i_lat":-6.174784,"station_name":"Pasar Senen","transit":false,"time":8,"is_transit":false,"i_long":106.84368,"line":11,"distance":1567,"station_id":"PSE"},{"is_transit":false,"transit":false,"line":11,"station_name":"Kemayoran","time":4,"i_lat":-6.161728,"i_long":106.839204,"station_id":"KMO","distance":1436},{"time":5,"i_lat":-6.14505,"is_transit":false,"station_name":"Rajawali","i_long":106.836569,"line":11,"transit":false,"station_id":"RJW","distance":1901},{"is_transit":true,"distance":1444,"transit":true,"i_long":106.826365,"station_name":"Kampung Bandan","time":3,"i_lat":-6.132549,"line":4,"station_id":"KPB"},{"is_transit":false,"distance":4102,"station_name":"Angke","i_lat":-6.144674,"station_id":"AK","i_long":106.79867,"line":1,"time":9,"transit":false},{"station_name":"Duri","time":4,"line":1,"i_lat":-6.155215,"transit":false,"station_id":"DU","i_long":106.800832,"is_transit":false,"distance":1230},{"time":8,"station_name":"Tanah Abang","line":1,"i_lat":-6.185545,"i_long":106.811091,"station_id":"THB","distance":3632,"is_transit":false,"transit":false},{"line":1,"station_name":"Karet","i_lat":-6.20132,"distance":2029,"is_transit":false,"transit":false,"i_long":106.816351,"station_id":"KAT","time":5},{"line":1,"i_lat":-6.201433,"transit":false,"i_long":106.819881,"distance":471,"is_transit":false,"station_name":"Sudirman Baru","time":1,"station_id":"SUDB"},{"i_lat":-6.202263,"distance":280,"station_id":"SUD","is_transit":false,"transit":false,"i_long":106.822649,"time":1,"line":1,"station_name":"Sudirman"},{"transit":true,"distance":3186,"time":4,"is_transit":true,"station_name":"Manggarai","i_lat":-6.209883,"i_long":106.84912,"line":2,"station_id":"MRI"},{"transit":false,"i_lat":-6.226659,"time":4,"distance":2610,"line":2,"i_long":106.857948,"is_transit":false,"station_id":"TEB","station_name":"Tebet"},{"i_lat":-6.242512,"line":2,"i_long":106.856607,"distance":1230,"transit":false,"is_transit":false,"station_id":"CW","station_name":"Cawang","time":2},{"is_transit":false,"distance":1546,"i_long":106.85449,"transit":false,"time":3,"i_lat":-6.255332,"station_name":"Duren Kalibata","station_id":"DRN","line":2},{"transit":false,"time":2,"station_name":"Pasar Minggu Baru","line":2,"station_id":"PSMB","i_long":106.851577,"distance":824,"i_lat":-6.263214,"is_transit":false},{"time":2,"i_long":106.843999,"line":2,"distance":2380,"transit":false,"station_name":"Pasar Minggu","station_id":"PSM","i_lat":-6.2842400000000005,"is_transit":false},{"distance":2820,"station_name":"Tanjung Barat","line":2,"time":4,"i_lat":-6.3080680000000005,"transit":false,"is_transit":false,"i_long":106.838896,"station_id":"TNT"},{"transit":false,"is_transit":false,"station_id":"LNA","station_name":"Lenteng Agung","line":2,"distance":2671,"time":3,"i_lat":-6.330363,"i_long":106.832616},{"distance":1029,"transit":false,"line":2,"i_lat":-6.339291,"time":2,"station_name":"Univ. Pancasila","is_transit":false,"station_id":"UP","i_long":106.834175},{"i_lat":-6.360749,"station_id":"UI","i_long":106.831474,"station_name":"Univ. Indonesia","line":2,"time":3,"distance":2264,"transit":false,"is_transit":false},{"time":2,"distance":1109,"transit":false,"station_id":"POC","i_long":106.831114,"station_name":"Pondok Cina","i_lat":-6.369073,"is_transit":false,"line":2}],[{"transit":false,"is_transit":false,"line":1,"distance":0,"i_long":107.055722,"station_name":"Tambun","i_lat":-6.258864,"station_id":"TB","time":0},{"transit":false,"i_long":107.016735,"time":7,"is_transit":false,"station_id":"BKST","station_name":"Bekasi Timur","line":1,"distance":4460,"i_lat":-6.248029},{"is_transit":false,"i_long":106.997013,"transit":false,"time":2,"distance":2368,"i_lat":-6.236616,"station_name":"Bekasi","station_id":"BKS","line":1},{"transit":false,"station_name":"Kranji","i_lat":-6.224515,"line":1,"i_long":106.977657,"distance":2520,"station_id":"KRI","is_transit":false,"time":4},{"distance":3097,"line":1,"transit":false,"station_id":"CUK","station_name":"Cakung","is_transit":false,"time":3,"i_lat":-6.219053,"i_long":106.951283},{"transit":false,"i_lat":-6.217455,"is_transit":false,"time":8,"station_name":"Klenderbaru","i_long":106.939679,"distance":1385,"station_id":"KLDB","line":1},{"time":1,"station_id":"BUA","i_long":106.922662,"is_transit":false,"transit":false,"station_name":"Buaran","line":1,"distance":1305,"i_lat":-6.215568},{"station_id":"KLD","i_lat":-6.2135,"time":2,"transit":false,"station_name":"Klender","is_transit":false,"distance":3100,"i_long":106.899548,"line":1},{"transit":true,"time":3,"line":1,"i_lat":-6.215091,"station_id":"JNG","is_transit":true,"i_long":106.86807400000001,"distance":3395,"station_name":"Jatinegara"},{"time":2,"i_lat":-6.209188,"i_long":106.861737,"station_id":"POK","distance":1236,"is_transit":false,"transit":false,"station_name":"Pondok Jati","line":11},{"distance":1829,"line":11,"station_name":"Kramat","i_lat":-6.193792,"station_id":"KMT","is_transit":false,"time":2,"transit":false,"i_long":106.855437},{"time":1,"station_id":"GST","i_lat":-6.185975,"distance":973,"i_long":106.850107,"is_transit":false,"transit":false,"line":11,"station_name":"Gang Sentiong"},{"is_transit":false,"transit":false,"distance":1567,"i_lat":-6.174784,"line":11,"time":8,"station_id":"PSE","i_long":106.84368,"station_name":"Pasar Senen"},{"i_lat":-6.161728,"i_long":106.839204,"distance":1436,"transit":false,"station_name":"Kemayoran","station_id":"KMO","line":11,"is_transit":false,"time":4},{"i_long":106.836569,"station_id":"RJW","transit":false,"time":5,"distance":1901,"i_lat":-6.14505,"line":11,"is_transit":false,"station_name":"Rajawali"},{"i_long":106.826365,"time":3,"is_transit":true,"station_id":"KPB","transit":true,"station_name":"Kampung Bandan","distance":1444,"i_lat":-6.132549,"line":4},{"station_id":"JAKK","station_name":"Jakarta Kota","time":3,"line":2,"transit":true,"i_lat":-6.137569,"distance":1364,"i_long":106.812439,"is_transit":true},{"distance":1264,"station_name":"Jayakarta","i_long":106.820901,"time":4,"line":2,"is_transit":false,"transit":false,"station_id":"JAY","i_lat":-6.141205},{"i_long":106.82482,"station_id":"MGB","time":2,"station_name":"Manggabesar","line":2,"distance":1080,"is_transit":false,"i_lat":-6.149769,"transit":false},{"line":2,"distance":906,"station_id":"SW","i_lat":-6.160725,"is_transit":false,"time":2,"transit":false,"station_name":"Sawah Besar","i_long":106.827103},{"is_transit":false,"time":2,"i_lat":-6.166716,"distance":1149,"i_long":106.828284,"line":2,"transit":false,"station_id":"JUA","station_name":"Juanda"},{"transit":false,"station_name":"Gondangdia","distance":2015,"line":2,"i_lat":-6.186295,"time":4,"station_id":"GDD","i_long":106.832183,"is_transit":false},{"station_name":"Cikini","i_long":106.840169,"station_id":"CKI","distance":1750,"is_transit":false,"i_lat":-6.198556,"time":3,"transit":false,"line":2},{"i_lat":-6.209883,"transit":false,"time":4,"i_long":106.84912,"is_transit":false,"line":2,"station_id":"MRI","distance":1590,"station_name":"Manggarai"},{"distance":2610,"time":4,"station_id":"TEB","station_name":"Tebet","is_transit":false,"i_long":106.857948,"i_lat":-6.226659,"line":2,"transit":false},{"transit":false,"time":2,"distance":1230,"is_transit":false,"line":2,"i_lat":-6.242512,"station_name":"Cawang","i_long":106.856607,"station_id":"CW"},{"is_transit":false,"transit":false,"station_name":"Duren Kalibata","time":3,"i_lat":-6.255332,"i_long":106.85449,"line":2,"distance":1546,"station_id":"DRN"},{"i_long":106.851577,"distance":824,"station_name":"Pasar Minggu Baru","line":2,"time":2,"i_lat":-6.263214,"is_transit":false,"transit":false,"station_id":"PSMB"},{"i_long":106.843999,"i_lat":-6.2842400000000005,"time":2,"station_id":"PSM","station_name":"Pasar Minggu","line":2,"is_transit":false,"distance":2380,"transit":false},{"station_id":"TNT","i_long":106.838896,"time":4,"distance":2820,"transit":false,"is_transit":false,"station_name":"Tanjung Barat","i_lat":-6.3080680000000005,"line":2},{"i_long":106.832616,"line":2,"transit":false,"is_transit":false,"station_name":"Lenteng Agung","time":3,"station_id":"LNA","distance":2671,"i_lat":-6.330363},{"station_name":"Univ. Pancasila","i_lat":-6.339291,"line":2,"distance":1029,"i_long":106.834175,"transit":false,"time":2,"station_id":"UP","is_transit":false},{"distance":2264,"i_lat":-6.360749,"is_transit":false,"transit":false,"i_long":106.831474,"time":3,"station_name":"Univ. Indonesia","station_id":"UI","line":2},{"time":2,"is_transit":false,"transit":false,"i_lat":-6.369073,"line":2,"i_long":106.831114,"station_id":"POC","distance":1109,"station_name":"Pondok Cina"}]]}