{"data":[[{"distance":0,"line":1,"i_long":107.055722,"station_id":"TB","i_lat":-6.258864,"station_name":"Tambun","is_transit":false,"transit":false,"time":0},{"station_id":"BKST","i_long":107.016735,"i_lat":-6.248029,"line":1,"station_name":"Bekasi Timur","is_transit":false,"time":7,"transit":false,"distance":4460},{"transit":false,"distance":2368,"time":2,"i_lat":-6.236616,"station_id":"BKS","i_long":106.997013,"station_name":"Bekasi","is_transit":false,"line":1},{"station_id":"KRI","is_transit":false,"station_name":"Kranji","transit":false,"distance":2520,"time":4,"i_lat":-6.224515,"i_long":106.977657,"line":1},{"transit":false,"distance":3097,"i_long":106.951283,"station_id":"CUK","station_name":"Cakung","i_lat":-6.219053,"line":1,"time":3,"is_transit":false},{"station_name":"Klenderbaru","station_id":"KLDB","line":1,"distance":1385,"i_long":106.939679,"is_transit":false,"time":8,"i_lat":-6.217455,"transit":false},{"line":1,"station_id":"BUA","time":1,"transit":false,"i_lat":-6.215568,"i_long":106.922662,"station_name":"Buaran","is_transit":false,"distance":1305},{"station_id":"KLD","station_name":"Klender","distance":3100,"is_transit":false,"time":2,"i_lat":-6.2135,"line":1,"i_long":106.899548,"transit":false},{"i_lat":-6.215091,"is_transit":false,"transit":false,"distance":3395,"station_id":"JNG","i_long":106.86807400000001,"time":3,"line":1,"station_name":"Jatinegara"},{"station_name":"Matraman","is_transit":false,"line":1,"time":2,"i_long":106.858896,"distance":1377,"transit":false,"station_id":"MTR","i_lat":-6.212485},{"transit":false,"time":2,"is_transit":false,"station_id":"MRI","i_lat":-6.209883,"line":2,"distance":1275,"i_long":106.84912,"station_name":"Manggarai"},{"distance":3186,"station_id":"SUD","i_long":106.822649,"transit":false,"is_transit":false,"time":4,"i_lat":-6.202263,"station_name":"Sudirman","line":1},{"station_name":"Sudirman Baru","i_lat":-6.201433,"is_transit":false,"transit":false,"time":1,"distance":280,"i_long":106.819881,"line":1,"station_id":"SUDB"},{"i_long":106.816351,"transit":false,"is_transit":false,"distance":471,"time":1,"station_id":"KAT","line":1,"station_name":"Karet","i_lat":-6.20132},{"station_id":"THB","station_name":"Tanah Abang","i_lat":-6.185545,"distance":2029,"transit":true,"is_transit":true,"i_long":106.811091,"line":1,"time":5},{"line":6,"station_name":"Palmerah","is_transit":false,"distance":3191,"i_lat":-6.207404,"transit":false,"station_id":"PLM","i_long":106.79689,"time":6},{"i_lat":-6.237242,"i_long":106.780334,"line":6,"is_transit":false,"time":7,"station_id":"KBY","transit":false,"distance":3737,"station_name":"Kebayoran"},{"is_transit":false,"time":8,"distance":6218,"i_lat":-6.276362,"line":6,"transit":false,"station_name":"Pondokranji","i_long":106.74273,"station_id":"PDJ"},{"transit":false,"station_name":"Jurangmangu","time":3,"line":6,"i_lat":-6.288927,"station_id":"JMU","distance":2179,"is_transit":false,"i_long":106.728916},{"transit":false,"station_id":"SDM","time":4,"distance":1994,"i_long":106.712277,"i_lat":-6.296963,"station_name":"Sudimara","line":6,"is_transit":false},{"i_lat":-6.314823,"distance":4566,"station_name":"Rawa Buntu","is_transit":false,"line":6,"transit":false,"station_id":"RU","i_long":106.675475,"time":6},{"line":6,"i_long":106.66566,"is_transit":false,"time":4,"station_name":"Serpong","distance":2413,"i_lat":-6.319871,"transit":false,"station_id":"SRP"},{"i_lat":-6.32484,"time":4,"is_transit":false,"station_id":"CSK","i_long":106.640411,"distance":1784,"transit":false,"line":3,"station_name":"Cisauk"},{"station_id":"CC","transit":false,"i_lat":-6.329547,"i_long":106.617853,"time":4,"station_name":"Cicayur","line":3,"distance":2519,"is_transit":false},{"distance":5968,"station_id":"PRP","i_long":106.568863,"is_transit":false,"station_name":"Parung Panjang","time":8,"i_lat":-6.3441410000000005,"line":6,"transit":false}],[{"is_transit":false,"transit":false,"station_name":"Tambun","distance":0,"i_long":107.055722,"i_lat":-6.258864,"line":1,"time":0,"station_id":"TB"},{"station_id":"BKST","i_lat":-6.248029,"line":1,"i_long":107.016735,"time":7,"transit":false,"is_transit":false,"distance":4460,"station_name":"Bekasi Timur"},{"station_name":"Bekasi","time":2,"distance":2368,"station_id":"BKS","i_long":106.997013,"line":1,"i_lat":-6.236616,"transit":false,"is_transit":false},{"i_long":106.977657,"station_id":"KRI","transit":false,"time":4,"distance":2520,"is_transit":false,"line":1,"station_name":"Kranji","i_lat":-6.224515},{"station_name":"Cakung","station_id":"CUK","is_transit":false,"time":3,"i_lat":-6.219053,"i_long":106.951283,"distance":3097,"transit":false,"line":1},{"is_transit":false,"time":8,"transit":false,"i_long":106.939679,"station_name":"Klenderbaru","distance":1385,"station_id":"KLDB","i_lat":-6.217455,"line":1},{"station_name":"Buaran","is_transit":false,"time":1,"line":1,"i_lat":-6.215568,"i_long":106.922662,"distance":1305,"transit":false,"station_id":"BUA"},{"time":2,"station_name":"Klender","transit":false,"line":1,"is_transit":false,"distance":3100,"station_id":"KLD","i_lat":-6.2135,"i_long":106.899548},{"time":3,"line":1,"station_name":"Jatinegara","i_long":106.86807400000001,"is_transit":true,"transit":true,"i_lat":-6.215091,"distance":3395,"station_id":"JNG"},{"i_lat":-6.209188,"i_long":106.861737,"distance":1236,"line":11,"station_name":"Pondok Jati","time":2,"station_id":"POK","transit":false,"is_transit":false},{"is_transit":false,"distance":1829,"i_long":106.855437,"station_name":"Kramat","time":2,"i_lat":-6.193792,"line":11,"transit":false,"station_id":"KMT"},{"is_transit":false,"i_lat":-6.185975,"line":11,"time":1,"i_long":106.850107,"station_name":"Gang Sentiong","distance":973,"station_id":"GST","transit":false},{"is_transit":false,"i_lat":-6.174784,"line":11,"i_long":106.84368,"station_id":"PSE","time":8,"transit":false,"station_name":"Pasar Senen","distance":1567},{"is_transit":false,"station_name":"Kemayoran","i_lat":-6.161728,"i_long":106.839204,"line":11,"station_id":"KMO","transit":false,"time":4,"distance":1436},{"distance":1901,"station_name":"Rajawali","i_lat":-6.14505,"station_id":"RJW","i_long":106.836569,"line":11,"transit":false,"time":5,"is_transit":false},{"line":4,"is_transit":true,"station_id":"KPB","i_lat":-6.132549,"i_long":106.826365,"time":3,"station_name":"Kampung Bandan","transit":true,"distance":1444},{"station_name":"Angke","is_transit":false,"distance":4102,"transit":false,"i_lat":-6.144674,"i_long":106.79867,"time":9,"line":1,"station_id":"AK"},{"line":1,"station_id":"DU","is_transit":false,"i_lat":-6.155215,"distance":1230,"time":4,"transit":false,"i_long":106.800832,"station_name":"Duri"},{"transit":true,"station_id":"THB","i_lat":-6.185545,"line":1,"time":8,"station_name":"Tanah Abang","is_transit":true,"distance":3632,"i_long":106.811091},{"time":6,"distance":3191,"i_long":106.79689,"station_id":"PLM","transit":false,"i_lat":-6.207404,"is_transit":false,"line":6,"station_name":"Palmerah"},{"station_name":"Kebayoran","transit":false,"distance":3737,"time":7,"is_transit":false,"station_id":"KBY","i_lat":-6.237242,"i_long":106.780334,"line":6},{"station_id":"PDJ","is_transit":false,"line":6,"i_lat":-6.276362,"transit":false,"time":8,"i_long":106.74273,"distance":6218,"station_name":"Pondokranji"},{"i_lat":-6.288927,"distance":2179,"transit":false,"i_long":106.728916,"line":6,"station_name":"Jurangmangu","station_id":"JMU","time":3,"is_transit":false},{"station_name":"Sudimara","distance":1994,"i_lat":-6.296963,"i_long":106.712277,"station_id":"SDM","line":6,"is_transit":false,"time":4,"transit":false},{"station_id":"RU","i_long":106.675475,"station_name":"Rawa Buntu","i_lat":-6.314823,"transit":false,"is_transit":false,"line":6,"time":6,"distance":4566},{"station_id":"SRP","i_lat":-6.319871,"distance":2413,"i_long":106.66566,"line":6,"station_name":"Serpong","time":4,"is_transit":false,"transit":false},{"transit":false,"station_name":"Cisauk","i_lat":-6.32484,"line":3,"station_id":"CSK","distance":1784,"is_transit":false,"time":4,"i_long":106.640411},{"i_long":106.617853,"distance":2519,"line":3,"station_name":"Cicayur","time":4,"transit":false,"station_id":"CC","is_transit":false,"i_lat":-6.329547},{"transit":false,"time":8,"i_lat":-6.3441410000000005,"is_transit":false,"distance":5968,"station_name":"Parung Panjang","station_id":"PRP","line":6,"i_long":106.568863}],[{"transit":false,"station_name":"Tambun","station_id":"TB","i_lat":-6.258864,"line":1,"distance":0,"time":0,"is_transit":false,"i_long":107.055722},{"i_lat":-6.248029,"is_transit":false,"i_long":107.016735,"line":1,"station_name":"Bekasi Timur","station_id":"BKST","time":7,"distance":4460,"transit":false},{"i_long":106.997013,"station_name":"Bekasi","station_id":"BKS","time":2,"distance":2368,"line":1,"transit":false,"i_lat":-6.236616,"is_transit":false},{"is_transit":false,"line":1,"transit":false,"i_long":106.977657,"time":4,"distance":2520,"station_name":"Kranji","i_lat":-6.224515,"station_id":"KRI"},{"distance":3097,"i_lat":-6.219053,"i_long":106.951283,"station_name":"Cakung","transit":false,"is_transit":false,"line":1,"time":3,"station_id":"CUK"},{"is_transit":false,"time":8,"station_id":"KLDB","i_lat":-6.217455,"transit":false,"distance":1385,"station_name":"Klenderbaru","line":1,"i_long":106.939679},{"station_name":"Buaran","distance":1305,"transit":false,"i_long":106.922662,"time":1,"line":1,"i_lat":-6.215568,"station_id":"BUA","is_transit":false},{"i_long":106.899548,"distance":3100,"station_name":"Klender","is_transit":false,"i_lat":-6.2135,"line":1,"transit":false,"station_id":"KLD","time":2},{"line":1,"time":3,"station_id":"JNG","distance":3395,"i_lat":-6.215091,"station_name":"Jatinegara","transit":false,"i_long":106.86807400000001,"is_transit":false},{"distance":1377,"line":1,"station_name":"Matraman","time":2,"station_id":"MTR","is_transit":false,"i_lat":-6.212485,"transit":false,"i_long":106.858896},{"i_long":106.84912,"station_id":"MRI","station_name":"Manggarai","is_transit":true,"distance":1275,"line":2,"transit":true,"time":2,"i_lat":-6.209883},{"i_long":106.840169,"line":2,"station_id":"CKI","is_transit":false,"distance":1590,"time":4,"station_name":"Cikini","i_lat":-6.198556,"transit":false},{"station_name":"Gondangdia","distance":1750,"is_transit":false,"station_id":"GDD","time":3,"i_lat":-6.186295,"transit":false,"line":2,"i_long":106.832183},{"line":2,"is_transit":false,"i_lat":-6.166716,"station_id":"JUA","time":4,"station_name":"Juanda","transit":false,"distance":2015,"i_long":106.828284},{"i_lat":-6.160725,"is_transit":false,"station_id":"SW","time":2,"line":2,"transit":false,"station_name":"Sawah Besar","distance":1149,"i_long":106.827103},{"is_transit":false,"i_long":106.82482,"distance":906,"transit":false,"station_id":"MGB","station_name":"Manggabesar","time":2,"line":2,"i_lat":-6.149769},{"station_id":"JAY","transit":false,"is_transit":false,"i_lat":-6.141205,"distance":1080,"i_long":106.820901,"line":2,"time":2,"station_name":"Jayakarta"},{"line":2,"station_id":"JAKK","distance":1264,"i_lat":-6.137569,"transit":true,"time":4,"is_transit":true,"i_long":106.812439,"station_name":"Jakarta Kota"},{"i_lat":-6.132549,"line":4,"distance":1364,"station_name":"Kampung Bandan","time":3,"i_long":106.826365,"station_id":"KPB","is_transit":true,"transit":true},{"station_name":"Angke","station_id":"AK","i_lat":-6.144674,"time":9,"transit":false,"is_transit":false,"distance":4102,"i_long":106.79867,"line":1},{"transit":false,"distance":1230,"is_transit":false,"station_id":"DU","time":4,"i_long":106.800832,"i_lat":-6.155215,"station_name":"Duri","line":1},{"line":1,"time":8,"station_name":"Tanah Abang","i_long":106.811091,"is_transit":true,"distance":3632,"i_lat":-6.185545,"transit":true,"station_id":"THB"},{"i_long":106.79689,"transit":false,"is_transit":false,"distance":3191,"line":6,"station_name":"Palmerah","station_id":"PLM","i_lat":-6.207404,"time":6},{"is_transit":false,"i_lat":-6.237242,"line":6,"i_long":106.780334,"station_id":"KBY","distance":3737,"station_name":"Kebayoran","transit":false,"time":7},{"distance":6218,"transit":false,"station_id":"PDJ","is_transit":false,"i_lat":-6.276362,"line":6,"i_long":106.74273,"station_name":"Pondokranji","time":8},{"time":3,"i_long":106.728916,"is_transit":false,"i_lat":-6.288927,"line":6,"station_id":"JMU","transit":false,"station_name":"Jurangmangu","distance":2179},{"transit":false,"station_id":"SDM","distance":1994,"line":6,"time":4,"is_transit":false,"i_lat":-6.296963,"i_long":106.712277,"station_name":"Sudimara"},{"distance":4566,"line":6,"i_lat":-6.314823,"station_name":"Rawa Buntu","station_id":"RU","is_transit":false,"transit":false,"i_long":106.675475,"time":6},{"station_name":"Serpong","transit":false,"line":6,"station_id":"SRP","distance":2413,"is_transit":false,"time":4,"i_long":106.66566,"i_lat":-6.319871},{"line":3,"transit":false,"station_name":"Cisauk","distance":1784,"is_transit":false,"i_long":106.640411,"station_id":"CSK","i_lat":-6.32484,"time":4},{"station_name":"Cicayur","transit":false,"i_lat":-6.329547,"distance":2519,"i_long":106.617853,"station_id":"CC","time":4,"line":3,"is_transit":false},{"time":8,"station_id":"PRP","i_long":106.568863,"is_transit":false,"line":6,"distance":5968,"i_lat":-6.3441410000000005,"station_name":"Parung Panjang","transit":false}],[{"i_long":107.055722,"station_name":"Tambun","line":1,"time":0,"transit":false,"station_id":"TB","distance":0,"is_transit":false,"i_lat":-6.258864},{"distance":4460,"i_lat":-6.248029,"line":1,"transit":false,"station_id":"BKST","station_name":"Bekasi Timur","i_long":107.016735,"time":7,"is_transit":false},{"line":1,"is_transit":false,"i_lat":-6.236616,"transit":false,"station_name":"Bekasi","i_long":106.997013,"station_id":"BKS","time":2,"distance":2368},{"i_lat":-6.224515,"is_transit":false,"distance":2520,"i_long":106.977657,"station_id":"KRI","line":1,"time":4,"transit":false,"station_name":"Kranji"},{"station_name":"Cakung","station_id":"CUK","i_long":106.951283,"line":1,"is_transit":false,"distance":3097,"i_lat":-6.219053,"time":3,"transit":false},{"time":8,"line":1,"transit":false,"i_long":106.939679,"i_lat":-6.217455,"distance":1385,"station_name":"Klenderbaru","station_id":"KLDB","is_transit":false},{"line":1,"is_transit":false,"time":1,"station_name":"Buaran","i_long":106.922662,"i_lat":-6.215568,"distance":1305,"transit":false,"station_id":"BUA"},{"station_name":"Klender","is_transit":false,"i_lat":-6.2135,"line":1,"i_long":106.899548,"distance":3100,"time":2,"station_id":"KLD","transit":false},{"station_id":"JNG","transit":true,"i_lat":-6.215091,"i_long":106.86807400000001,"distance":3395,"line":1,"is_transit":true,"time":3,"station_name":"Jatinegara"},{"i_lat":-6.209188,"station_name":"Pondok Jati","distance":1236,"line":11,"station_id":"POK","transit":false,"is_transit":false,"time":2,"i_long":106.861737},{"i_long":106.855437,"distance":1829,"transit":false,"is_transit":false,"line":11,"time":2,"station_name":"Kramat","station_id":"KMT","i_lat":-6.193792},{"station_id":"GST","transit":false,"distance":973,"i_long":106.850107,"station_name":"Gang Sentiong","i_lat":-6.185975,"time":1,"line":11,"is_transit":false},{"station_name":"Pasar Senen","i_long":106.84368,"is_transit":false,"transit":false,"line":11,"time":8,"station_id":"PSE","i_lat":-6.174784,"distance":1567},{"is_transit":false,"station_id":"KMO","distance":1436,"station_name":"Kemayoran","transit":false,"time":4,"i_lat":-6.161728,"i_long":106.839204,"line":11},{"distance":1901,"time":5,"i_lat":-6.14505,"line":11,"station_name":"Rajawali","station_id":"RJW","i_long":106.836569,"transit":false,"is_transit":false},{"station_id":"KPB","transit":true,"is_transit":true,"time":3,"line":4,"station_name":"Kampung Bandan","i_long":106.826365,"distance":1444,"i_lat":-6.132549},{"i_lat":-6.137569,"i_long":106.812439,"transit":true,"station_id":"JAKK","is_transit":true,"line":2,"distance":1364,"time":3,"station_name":"Jakarta Kota"},{"distance":1264,"time":4,"i_long":106.820901,"line":2,"transit":false,"station_id":"JAY","i_lat":-6.141205,"is_transit":false,"station_name":"Jayakarta"},{"line":2,"is_transit":false,"distance":1080,"transit":false,"station_id":"MGB","station_name":"Manggabesar","time":2,"i_lat":-6.149769,"i_long":106.82482},{"i_long":106.827103,"time":2,"distance":906,"is_transit":false,"transit":false,"station_name":"Sawah Besar","i_lat":-6.160725,"station_id":"SW","line":2},{"transit":false,"distance":1149,"is_transit":false,"station_name":"Juanda","station_id":"JUA","i_long":106.828284,"time":2,"line":2,"i_lat":-6.166716},{"station_id":"GDD","i_long":106.832183,"transit":false,"is_transit":false,"time":4,"line":2,"station_name":"Gondangdia","distance":2015,"i_lat":-6.186295},{"i_long":106.840169,"time":3,"transit":false,"i_lat":-6.198556,"station_name":"Cikini","station_id":"CKI","is_transit":false,"line":2,"distance":1750},{"station_id":"MRI","distance":1590,"is_transit":true,"i_long":106.84912,"transit":true,"station_name":"Manggarai","time":4,"i_lat":-6.209883,"line":2},{"distance":3186,"is_transit":false,"transit":false,"station_id":"SUD","time":4,"i_lat":-6.202263,"line":1,"station_name":"Sudirman","i_long":106.822649},{"i_lat":-6.201433,"station_id":"SUDB","is_transit":false,"station_name":"Sudirman Baru","i_long":106.819881,"line":1,"transit":false,"time":1,"distance":280},{"transit":false,"is_transit":false,"time":1,"line":1,"distance":471,"station_id":"KAT","i_long":106.816351,"station_name":"Karet","i_lat":-6.20132},{"station_id":"THB","distance":2029,"time":5,"transit":true,"i_long":106.811091,"line":1,"i_lat":-6.185545,"is_transit":true,"station_name":"Tanah Abang"},{"i_long":106.79689,"line":6,"station_name":"Palmerah","i_lat":-6.207404,"transit":false,"time":6,"is_transit":false,"distance":3191,"station_id":"PLM"},{"time":7,"transit":false,"station_id":"KBY","distance":3737,"i_long":106.780334,"line":6,"is_transit":false,"i_lat":-6.237242,"station_name":"Kebayoran"},{"time":8,"transit":false,"is_transit":false,"line":6,"distance":6218,"station_name":"Pondokranji","i_long":106.74273,"i_lat":-6.276362,"station_id":"PDJ"},{"transit":false,"i_lat":-6.288927,"station_name":"Jurangmangu","time":3,"station_id":"JMU","is_transit":false,"distance":2179,"i_long":106.728916,"line":6},{"line":6,"is_transit":false,"transit":false,"distance":1994,"station_id":"SDM","i_lat":-6.296963,"i_long":106.712277,"station_name":"Sudimara","time":4},{"station_name":"Rawa Buntu","time":6,"distance":4566,"line":6,"is_transit":false,"i_lat":-6.314823,"transit":false,"i_long":106.675475,"station_id":"RU"},{"station_id":"SRP","time":4,"transit":false,"distance":2413,"i_lat":-6.319871,"i_long":106.66566,"line":6,"station_name":"Serpong","is_transit":false},{"i_long":106.640411,"time":4,"station_name":"Cisauk","station_id":"CSK","distance":1784,"is_transit":false,"transit":false,"i_lat":-6.32484,"line":3},{"line":3,"is_transit":false,"station_id":"CC","i_lat":-6.329547,"station_name":"Cicayur","time":4,"i_long":106.617853,"transit":false,"distance":2519},{"distance":5968,"station_name":"Parung Panjang","transit":false,"time":8,"i_long":106.568863,"i_lat":-6.3441410000000005,"is_transit":false,"line":6,"station_id":"PRP"}]]}