{"data":[[{"line":1,"distance":0,"station_name":"Tambun","time":0,"i_long":107.055722,"is_transit":false,"transit":false,"i_lat":-6.258864,"station_id":"TB"},{"is_transit":false,"station_id":"BKST","time":7,"line":1,"station_name":"Bekasi Timur","transit":false,"distance":4460,"i_lat":-6.248029,"i_long":107.016735},{"distance":2368,"line":1,"station_id":"BKS","time":2,"i_lat":-6.236616,"i_long":106.997013,"transit":false,"is_transit":false,"station_name":"Bekasi"},{"distance":2520,"station_id":"KRI","i_long":106.977657,"i_lat":-6.224515,"transit":false,"is_transit":false,"line":1,"station_name":"Kranji","time":4},{"line":1,"time":3,"distance":3097,"station_id":"CUK","i_long":106.951283,"i_lat":-6.219053,"station_name":"Cakung","is_transit":false,"transit":false},{"station_id":"KLDB","is_transit":false,"i_lat":-6.217455,"station_name":"Klenderbaru","distance":1385,"transit":false,"time":8,"line":1,"i_long":106.939679},{"i_long":106.922662,"time":1,"station_name":"Buaran","i_lat":-6.215568,"is_transit":false,"station_id":"BUA","line":1,"transit":false,"distance":1305},{"station_id":"KLD","station_name":"Klender","transit":false,"is_transit":false,"i_lat":-6.2135,"line":1,"time":2,"i_long":106.899548,"distance":3100},{"station_id":"JNG","distance":3395,"line":1,"time":3,"i_long":106.86807400000001,"transit":false,"station_name":"Jatinegara","is_transit":false,"i_lat":-6.215091},{"i_lat":-6.212485,"distance":1377,"time":2,"station_name":"Matraman","is_transit":false,"transit":false,"i_long":106.858896,"line":1,"station_id":"MTR"},{"line":2,"i_lat":-6.209883,"is_transit":true,"time":2,"station_id":"MRI","distance":1275,"station_name":"Manggarai","i_long":106.84912,"transit":true},{"i_lat":-6.226659,"line":2,"i_long":106.857948,"station_id":"TEB","station_name":"Tebet","transit":false,"time":4,"distance":2610,"is_transit":false},{"i_long":106.856607,"is_transit":false,"line":2,"station_id":"CW","transit":false,"time":2,"i_lat":-6.242512,"station_name":"Cawang","distance":1230},{"i_lat":-6.255332,"station_id":"DRN","time":3,"station_name":"Duren Kalibata","distance":1546,"is_transit":false,"transit":false,"i_long":106.85449,"line":2},{"distance":824,"is_transit":false,"i_long":106.851577,"station_name":"Pasar Minggu Baru","transit":false,"station_id":"PSMB","time":2,"line":2,"i_lat":-6.263214},{"station_name":"Pasar Minggu","distance":2380,"transit":false,"is_transit":false,"i_lat":-6.2842400000000005,"station_id":"PSM","time":2,"line":2,"i_long":106.843999},{"i_long":106.838896,"line":2,"transit":false,"station_name":"Tanjung Barat","station_id":"TNT","is_transit":false,"distance":2820,"time":4,"i_lat":-6.3080680000000005},{"time":3,"transit":false,"i_long":106.832616,"is_transit":false,"distance":2671,"station_id":"LNA","i_lat":-6.330363,"station_name":"Lenteng Agung","line":2},{"time":2,"distance":1029,"transit":false,"station_name":"Univ. Pancasila","i_long":106.834175,"station_id":"UP","is_transit":false,"line":2,"i_lat":-6.339291},{"line":2,"station_id":"UI","i_long":106.831474,"station_name":"Univ. Indonesia","is_transit":false,"time":3,"i_lat":-6.360749,"transit":false,"distance":2264},{"i_lat":-6.369073,"station_name":"Pondok Cina","is_transit":false,"distance":1109,"line":2,"transit":false,"station_id":"POC","i_long":106.831114,"time":2}],[{"i_long":107.055722,"line":1,"is_transit":false,"station_id":"TB","transit":false,"station_name":"Tambun","time":0,"i_lat":-6.258864,"distance":0},{"is_transit":false,"i_lat":-6.248029,"time":7,"line":1,"distance":4460,"transit":false,"i_long":107.016735,"station_name":"Bekasi Timur","station_id":"BKST"},{"i_long":106.997013,"time":2,"is_transit":false,"transit":false,"station_id":"BKS","station_name":"Bekasi","line":1,"distance":2368,"i_lat":-6.236616},{"is_transit":false,"i_long":106.977657,"distance":2520,"i_lat":-6.224515,"time":4,"station_name":"Kranji","line":1,"transit":false,"station_id":"KRI"},{"is_transit":false,"station_name":"Cakung","transit":false,"line":1,"station_id":"CUK","distance":3097,"i_lat":-6.219053,"i_long":106.951283,"time":3},{"time":8,"line":1,"is_transit":false,"distance":1385,"i_lat":-6.217455,"station_name":"Klenderbaru","transit":false,"station_id":"KLDB","i_long":106.939679},{"line":1,"station_id":"BUA","distance":1305,"station_name":"Buaran","time":1,"i_long":106.922662,"i_lat":-6.215568,"is_transit":false,"transit":false},{"line":1,"station_id":"KLD","distance":3100,"i_long":106.899548,"transit":false,"is_transit":false,"station_name":"Klender","time":2,"i_lat":-6.2135},{"line":1,"station_name":"Jatinegara","transit":true,"is_transit":true,"time":3,"i_long":106.86807400000001,"station_id":"JNG","distance":3395,"i_lat":-6.215091},{"station_id":"POK","i_lat":-6.209188,"transit":false,"i_long":106.861737,"line":11,"station_name":"Pondok Jati","is_transit":false,"time":2,"distance":1236},{"station_name":"Kramat","transit":false,"i_lat":-6.193792,"i_long":106.855437,"line":11,"is_transit":false,"time":2,"station_id":"KMT","distance":1829},{"transit":false,"i_lat":-6.185975,"station_name":"Gang Sentiong","is_transit":false,"i_long":106.850107,"time":1,"distance":973,"line":11,"station_id":"GST"},{"station_name":"Pasar Senen","station_id":"PSE","line":11,"i_long":106.84368,"time":8,"distance":1567,"transit":false,"is_transit":false,"i_lat":-6.174784},{"is_transit":false,"i_long":106.839204,"i_lat":-6.161728,"station_name":"Kemayoran","station_id":"KMO","time":4,"line":11,"transit":false,"distance":1436},{"station_name":"Rajawali","station_id":"RJW","distance":1901,"time":5,"i_long":106.836569,"line":11,"is_transit":false,"i_lat":-6.14505,"transit":false},{"i_lat":-6.132549,"station_name":"Kampung Bandan","is_transit":true,"i_long":106.826365,"time":3,"station_id":"KPB","line":4,"transit":true,"distance":1444},{"i_long":106.79867,"is_transit":false,"transit":false,"station_id":"AK","i_lat":-6.144674,"distance":4102,"station_name":"Angke","line":1,"time":9},{"station_id":"DU","station_name":"Duri","time":4,"i_long":106.800832,"distance":1230,"transit":false,"i_lat":-6.155215,"is_transit":false,"line":1},{"time":8,"is_transit":false,"station_id":"THB","i_lat":-6.185545,"transit":false,"station_name":"Tanah Abang","distance":3632,"line":1,"i_long":106.811091},{"is_transit":false,"station_name":"Karet","station_id":"KAT","time":5,"transit":false,"line":1,"distance":2029,"i_lat":-6.20132,"i_long":106.816351},{"station_name":"Sudirman Baru","is_transit":false,"distance":471,"i_long":106.819881,"transit":false,"line":1,"station_id":"SUDB","i_lat":-6.201433,"time":1},{"line":1,"i_long":106.822649,"station_id":"SUD","distance":280,"is_transit":false,"transit":false,"station_name":"Sudirman","time":1,"i_lat":-6.202263},{"i_lat":-6.209883,"station_id":"MRI","transit":true,"is_transit":true,"station_name":"Manggarai","time":4,"distance":3186,"line":2,"i_long":106.84912},{"i_lat":-6.226659,"station_id":"TEB","i_long":106.857948,"transit":false,"station_name":"Tebet","is_transit":false,"time":4,"line":2,"distance":2610},{"station_name":"Cawang","is_transit":false,"time":2,"i_long":106.856607,"transit":false,"i_lat":-6.242512,"distance":1230,"station_id":"CW","line":2},{"is_transit":false,"i_lat":-6.255332,"station_id":"DRN","i_long":106.85449,"transit":false,"line":2,"distance":1546,"station_name":"Duren Kalibata","time":3},{"distance":824,"station_id":"PSMB","transit":false,"station_name":"Pasar Minggu Baru","i_lat":-6.263214,"line":2,"i_long":106.851577,"time":2,"is_transit":false},{"station_id":"PSM","station_name":"Pasar Minggu","i_long":106.843999,"time":2,"line":2,"transit":false,"distance":2380,"is_transit":false,"i_lat":-6.2842400000000005},{"station_id":"TNT","i_long":106.838896,"distance":2820,"transit":false,"is_transit":false,"i_lat":-6.3080680000000005,"line":2,"station_name":"Tanjung Barat","time":4},{"transit":false,"station_name":"Lenteng Agung","line":2,"station_id":"LNA","time":3,"distance":2671,"i_lat":-6.330363,"is_transit":false,"i_long":106.832616},{"transit":false,"i_long":106.834175,"is_transit":false,"time":2,"distance":1029,"station_name":"Univ. Pancasila","station_id":"UP","i_lat":-6.339291,"line":2},{"time":3,"station_name":"Univ. Indonesia","distance":2264,"line":2,"is_transit":false,"transit":false,"station_id":"UI","i_lat":-6.360749,"i_long":106.831474},{"is_transit":false,"station_name":"Pondok Cina","i_lat":-6.369073,"distance":1109,"transit":false,"i_long":106.831114,"station_id":"POC","time":2,"line":2}],[{"i_long":107.055722,"line":1,"is_transit":false,"station_name":"Tambun","station_id":"TB","time":0,"transit":false,"i_lat":-6.258864,"distance":0},{"time":7,"station_name":"Bekasi Timur","distance":4460,"is_transit":false,"transit":false,"i_long":107.016735,"i_lat":-6.248029,"line":1,"station_id":"BKST"},{"line":1,"i_long":106.997013,"station_id":"BKS","transit":false,"time":2,"distance":2368,"i_lat":-6.236616,"is_transit":false,"station_name":"Bekasi"},{"i_lat":-6.224515,"station_id":"KRI","time":4,"station_name":"Kranji","distance":2520,"line":1,"is_transit":false,"i_long":106.977657,"transit":false},{"station_id":"CUK","station_name":"Cakung","distance":3097,"i_lat":-6.219053,"i_long":106.951283,"line":1,"time":3,"transit":false,"is_transit":false},{"station_name":"Klenderbaru","transit":false,"time":8,"distance":1385,"i_lat":-6.217455,"i_long":106.939679,"line":1,"is_transit":false,"station_id":"KLDB"},{"distance":1305,"transit":false,"station_id":"BUA","i_lat":-6.215568,"station_name":"Buaran","line":1,"is_transit":false,"time":1,"i_long":106.922662},{"station_name":"Klender","station_id":"KLD","is_transit":false,"transit":false,"distance":3100,"i_lat":-6.2135,"line":1,"time":2,"i_long":106.899548},{"line":1,"time":3,"distance":3395,"is_transit":true,"i_lat":-6.215091,"station_id":"JNG","station_name":"Jatinegara","transit":true,"i_long":106.86807400000001},{"station_id":"POK","time":2,"distance":1236,"line":11,"station_name":"Pondok Jati","i_long":106.861737,"is_transit":false,"transit":false,"i_lat":-6.209188},{"transit":false,"i_lat":-6.193792,"station_id":"KMT","distance":1829,"i_long":106.855437,"station_name":"Kramat","time":2,"line":11,"is_transit":false},{"is_transit":false,"i_long":106.850107,"station_id":"GST","time":1,"distance":973,"station_name":"Gang Sentiong","i_lat":-6.185975,"transit":false,"line":11},{"distance":1567,"is_transit":false,"i_long":106.84368,"station_name":"Pasar Senen","time":8,"line":11,"station_id":"PSE","i_lat":-6.174784,"transit":false},{"station_id":"KMO","time":4,"is_transit":false,"i_long":106.839204,"line":11,"distance":1436,"i_lat":-6.161728,"transit":false,"station_name":"Kemayoran"},{"station_name":"Rajawali","transit":false,"distance":1901,"station_id":"RJW","is_transit":false,"line":11,"i_long":106.836569,"time":5,"i_lat":-6.14505},{"station_id":"KPB","distance":1444,"station_name":"Kampung Bandan","is_transit":true,"i_long":106.826365,"line":4,"i_lat":-6.132549,"transit":true,"time":3},{"station_id":"JAKK","time":3,"line":2,"distance":1364,"station_name":"Jakarta Kota","i_lat":-6.137569,"transit":true,"is_transit":true,"i_long":106.812439},{"transit":false,"is_transit":false,"time":4,"i_lat":-6.141205,"station_name":"Jayakarta","station_id":"JAY","i_long":106.820901,"distance":1264,"line":2},{"transit":false,"station_id":"MGB","time":2,"is_transit":false,"distance":1080,"i_lat":-6.149769,"line":2,"i_long":106.82482,"station_name":"Manggabesar"},{"i_lat":-6.160725,"station_name":"Sawah Besar","i_long":106.827103,"time":2,"line":2,"station_id":"SW","distance":906,"transit":false,"is_transit":false},{"distance":1149,"station_id":"JUA","time":2,"transit":false,"station_name":"Juanda","is_transit":false,"i_lat":-6.166716,"i_long":106.828284,"line":2},{"distance":2015,"i_lat":-6.186295,"line":2,"station_id":"GDD","transit":false,"station_name":"Gondangdia","time":4,"i_long":106.832183,"is_transit":false},{"i_lat":-6.198556,"station_id":"CKI","line":2,"distance":1750,"i_long":106.840169,"transit":false,"time":3,"station_name":"Cikini","is_transit":false},{"station_name":"Manggarai","time":4,"i_long":106.84912,"transit":false,"i_lat":-6.209883,"is_transit":false,"distance":1590,"station_id":"MRI","line":2},{"station_name":"Tebet","time":4,"i_long":106.857948,"transit":false,"distance":2610,"i_lat":-6.226659,"is_transit":false,"station_id":"TEB","line":2},{"time":2,"i_lat":-6.242512,"station_name":"Cawang","i_long":106.856607,"distance":1230,"transit":false,"line":2,"station_id":"CW","is_transit":false},{"time":3,"i_long":106.85449,"transit":false,"line":2,"station_name":"Duren Kalibata","station_id":"DRN","distance":1546,"is_transit":false,"i_lat":-6.255332},{"is_transit":false,"i_lat":-6.263214,"station_name":"Pasar Minggu Baru","distance":824,"time":2,"line":2,"i_long":106.851577,"station_id":"PSMB","transit":false},{"is_transit":false,"time":2,"transit":false,"i_lat":-6.2842400000000005,"station_name":"Pasar Minggu","distance":2380,"i_long":106.843999,"station_id":"PSM","line":2},{"station_id":"TNT","i_long":106.838896,"i_lat":-6.3080680000000005,"line":2,"transit":false,"time":4,"distance":2820,"is_transit":false,"station_name":"Tanjung Barat"},{"time":3,"transit":false,"line":2,"i_long":106.832616,"is_transit":false,"station_name":"Lenteng Agung","i_lat":-6.330363,"station_id":"LNA","distance":2671},{"i_lat":-6.339291,"station_name":"Univ. Pancasila","time":2,"line":2,"station_id":"UP","i_long":106.834175,"transit":false,"is_transit":false,"distance":1029},{"i_lat":-6.360749,"station_name":"Univ. Indonesia","line":2,"station_id":"UI","distance":2264,"time":3,"transit":false,"is_transit":false,"i_long":106.831474},{"is_transit":false,"distance":1109,"transit":false,"time":2,"station_id":"POC","line":2,"station_name":"Pondok Cina","i_lat":-6.369073,"i_long":106.831114}]]}