{"data":[[{"i_lat":-6.258864,"line":1,"is_transit":false,"station_id":"TB","time":0,"transit":false,"station_name":"Tambun","distance":0,"i_long":107.055722},{"distance":4460,"is_transit":false,"line":1,"transit":false,"station_id":"BKST","i_long":107.016735,"i_lat":-6.248029,"station_name":"Bekasi Timur","time":7},{"i_lat":-6.236616,"station_name":"Bekasi","is_transit":false,"line":1,"distance":2368,"station_id":"BKS","time":2,"i_long":106.997013,"transit":false},{"transit":false,"station_id":"KRI","line":1,"is_transit":false,"i_lat":-6.224515,"time":4,"station_name":"Kranji","distance":2520,"i_long":106.977657},{"i_long":106.951283,"i_lat":-6.219053,"station_name":"Cakung","transit":false,"is_transit":false,"line":1,"distance":3097,"time":3,"station_id":"CUK"},{"i_lat":-6.217455,"station_name":"Klenderbaru","station_id":"KLDB","line":1,"is_transit":false,"i_long":106.939679,"distance":1385,"transit":false,"time":8},{"transit":false,"time":1,"station_id":"BUA","station_name":"Buaran","line":1,"distance":1305,"i_long":106.922662,"i_lat":-6.215568,"is_transit":false},{"station_name":"Klender","station_id":"KLD","i_lat":-6.2135,"is_transit":false,"i_long":106.899548,"transit":false,"line":1,"time":2,"distance":3100},{"line":1,"time":3,"station_name":"Jatinegara","is_transit":false,"station_id":"JNG","i_lat":-6.215091,"transit":false,"distance":3395,"i_long":106.86807400000001},{"distance":1377,"is_transit":false,"station_name":"Matraman","i_lat":-6.212485,"line":1,"station_id":"MTR","transit":false,"i_long":106.858896,"time":2},{"station_id":"MRI","is_transit":false,"distance":1275,"line":2,"transit":false,"time":2,"station_name":"Manggarai","i_long":106.84912,"i_lat":-6.209883},{"station_name":"Sudirman","time":4,"transit":false,"line":1,"is_transit":false,"i_lat":-6.202263,"i_long":106.822649,"station_id":"SUD","distance":3186},{"is_transit":false,"distance":280,"station_name":"Sudirman Baru","transit":false,"line":1,"station_id":"SUDB","time":1,"i_lat":-6.201433,"i_long":106.819881},{"distance":471,"station_name":"Karet","i_long":106.816351,"transit":false,"is_transit":false,"time":1,"i_lat":-6.20132,"line":1,"station_id":"KAT"},{"station_id":"THB","station_name":"Tanah Abang","i_lat":-6.185545,"i_long":106.811091,"line":1,"distance":2029,"time":5,"is_transit":false,"transit":false},{"line":1,"is_transit":true,"station_id":"DU","time":8,"distance":3632,"i_lat":-6.155215,"i_long":106.800832,"station_name":"Duri","transit":true},{"time":3,"transit":false,"distance":1700,"station_id":"GRG","is_transit":false,"i_lat":-6.162021,"line":5,"i_long":106.788277,"station_name":"Grogol"},{"time":2,"station_name":"Pesing","transit":false,"station_id":"PSG","i_long":106.771379,"i_lat":-6.161433,"line":5,"distance":2036,"is_transit":false},{"station_name":"Taman Kota","i_long":106.756522,"transit":false,"station_id":"TKO","distance":1614,"time":2,"is_transit":false,"line":5,"i_lat":-6.1587309999999995},{"time":2,"transit":false,"station_name":"Bojongindah","i_long":106.737035,"is_transit":false,"i_lat":-6.159876,"distance":2334,"line":5,"station_id":"BOI"},{"i_long":106.723064,"line":5,"time":4,"i_lat":-6.162758,"station_name":"Rawa Buaya","distance":1152,"station_id":"RW","is_transit":false,"transit":false},{"line":5,"station_id":"KDS","is_transit":false,"distance":2504,"station_name":"Kalideres","i_lat":-6.166068,"i_long":106.701612,"time":3,"transit":false},{"line":5,"time":3,"transit":false,"i_lat":-6.169933,"i_long":106.679458,"distance":2548,"station_id":"PI","station_name":"Poris","is_transit":false}],[{"transit":false,"is_transit":false,"time":0,"station_id":"TB","station_name":"Tambun","i_lat":-6.258864,"i_long":107.055722,"line":1,"distance":0},{"transit":false,"i_lat":-6.248029,"station_id":"BKST","distance":4460,"is_transit":false,"i_long":107.016735,"station_name":"Bekasi Timur","line":1,"time":7},{"distance":2368,"station_id":"BKS","transit":false,"i_long":106.997013,"time":2,"i_lat":-6.236616,"line":1,"is_transit":false,"station_name":"Bekasi"},{"time":4,"transit":false,"is_transit":false,"station_name":"Kranji","i_long":106.977657,"i_lat":-6.224515,"station_id":"KRI","line":1,"distance":2520},{"distance":3097,"time":3,"i_lat":-6.219053,"i_long":106.951283,"line":1,"station_name":"Cakung","transit":false,"is_transit":false,"station_id":"CUK"},{"i_lat":-6.217455,"distance":1385,"station_id":"KLDB","line":1,"is_transit":false,"time":8,"i_long":106.939679,"transit":false,"station_name":"Klenderbaru"},{"distance":1305,"time":1,"station_id":"BUA","line":1,"i_lat":-6.215568,"station_name":"Buaran","transit":false,"is_transit":false,"i_long":106.922662},{"i_long":106.899548,"distance":3100,"i_lat":-6.2135,"line":1,"time":2,"transit":false,"station_id":"KLD","is_transit":false,"station_name":"Klender"},{"station_id":"JNG","distance":3395,"is_transit":true,"station_name":"Jatinegara","line":1,"i_lat":-6.215091,"i_long":106.86807400000001,"time":3,"transit":true},{"transit":false,"i_long":106.861737,"station_id":"POK","distance":1236,"i_lat":-6.209188,"time":2,"line":11,"station_name":"Pondok Jati","is_transit":false},{"transit":false,"time":2,"i_long":106.855437,"station_name":"Kramat","distance":1829,"station_id":"KMT","line":11,"i_lat":-6.193792,"is_transit":false},{"station_name":"Gang Sentiong","station_id":"GST","time":1,"is_transit":false,"line":11,"transit":false,"i_lat":-6.185975,"distance":973,"i_long":106.850107},{"line":11,"i_long":106.84368,"time":8,"distance":1567,"i_lat":-6.174784,"station_id":"PSE","is_transit":false,"station_name":"Pasar Senen","transit":false},{"time":4,"station_id":"KMO","line":11,"i_lat":-6.161728,"i_long":106.839204,"is_transit":false,"transit":false,"station_name":"Kemayoran","distance":1436},{"distance":1901,"transit":false,"time":5,"i_lat":-6.14505,"station_id":"RJW","station_name":"Rajawali","i_long":106.836569,"is_transit":false,"line":11},{"station_id":"KPB","distance":1444,"i_lat":-6.132549,"is_transit":true,"transit":true,"line":4,"time":3,"station_name":"Kampung Bandan","i_long":106.826365},{"line":1,"is_transit":false,"station_id":"AK","station_name":"Angke","transit":false,"i_long":106.79867,"time":9,"i_lat":-6.144674,"distance":4102},{"transit":true,"line":1,"i_long":106.800832,"station_name":"Duri","i_lat":-6.155215,"station_id":"DU","distance":1230,"time":4,"is_transit":true},{"is_transit":false,"i_lat":-6.162021,"i_long":106.788277,"station_id":"GRG","station_name":"Grogol","distance":1700,"time":3,"transit":false,"line":5},{"station_name":"Pesing","line":5,"i_long":106.771379,"time":2,"station_id":"PSG","i_lat":-6.161433,"is_transit":false,"distance":2036,"transit":false},{"i_lat":-6.1587309999999995,"is_transit":false,"distance":1614,"transit":false,"station_name":"Taman Kota","station_id":"TKO","i_long":106.756522,"time":2,"line":5},{"distance":2334,"is_transit":false,"i_long":106.737035,"station_id":"BOI","line":5,"time":2,"transit":false,"station_name":"Bojongindah","i_lat":-6.159876},{"station_id":"RW","is_transit":false,"station_name":"Rawa Buaya","i_lat":-6.162758,"time":4,"i_long":106.723064,"line":5,"distance":1152,"transit":false},{"station_id":"KDS","time":3,"is_transit":false,"i_lat":-6.166068,"distance":2504,"station_name":"Kalideres","i_long":106.701612,"line":5,"transit":false},{"i_long":106.679458,"distance":2548,"time":3,"transit":false,"line":5,"station_name":"Poris","station_id":"PI","i_lat":-6.169933,"is_transit":false}],[{"station_id":"TB","is_transit":false,"time":0,"transit":false,"station_name":"Tambun","distance":0,"i_lat":-6.258864,"line":1,"i_long":107.055722},{"is_transit":false,"time":7,"i_long":107.016735,"line":1,"station_id":"BKST","transit":false,"distance":4460,"station_name":"Bekasi Timur","i_lat":-6.248029},{"distance":2368,"time":2,"station_id":"BKS","station_name":"Bekasi","i_long":106.997013,"line":1,"i_lat":-6.236616,"is_transit":false,"transit":false},{"time":4,"transit":false,"station_name":"Kranji","distance":2520,"station_id":"KRI","is_transit":false,"i_lat":-6.224515,"line":1,"i_long":106.977657},{"is_transit":false,"transit":false,"station_id":"CUK","i_long":106.951283,"distance":3097,"line":1,"time":3,"station_name":"Cakung","i_lat":-6.219053},{"transit":false,"is_transit":false,"i_lat":-6.217455,"time":8,"station_id":"KLDB","distance":1385,"station_name":"Klenderbaru","i_long":106.939679,"line":1},{"i_lat":-6.215568,"station_name":"Buaran","i_long":106.922662,"line":1,"transit":false,"is_transit":false,"distance":1305,"station_id":"BUA","time":1},{"time":2,"is_transit":false,"transit":false,"station_name":"Klender","i_lat":-6.2135,"i_long":106.899548,"line":1,"distance":3100,"station_id":"KLD"},{"distance":3395,"station_name":"Jatinegara","transit":false,"is_transit":false,"time":3,"i_lat":-6.215091,"i_long":106.86807400000001,"line":1,"station_id":"JNG"},{"distance":1377,"i_long":106.858896,"transit":false,"station_name":"Matraman","i_lat":-6.212485,"is_transit":false,"line":1,"station_id":"MTR","time":2},{"transit":true,"time":2,"distance":1275,"i_lat":-6.209883,"is_transit":true,"line":2,"station_id":"MRI","station_name":"Manggarai","i_long":106.84912},{"line":2,"time":4,"i_long":106.840169,"station_id":"CKI","transit":false,"distance":1590,"i_lat":-6.198556,"is_transit":false,"station_name":"Cikini"},{"station_id":"GDD","distance":1750,"station_name":"Gondangdia","transit":false,"is_transit":false,"i_lat":-6.186295,"time":3,"i_long":106.832183,"line":2},{"time":4,"is_transit":false,"i_lat":-6.166716,"station_id":"JUA","transit":false,"line":2,"i_long":106.828284,"station_name":"Juanda","distance":2015},{"is_transit":false,"i_long":106.827103,"station_name":"Sawah Besar","station_id":"SW","distance":1149,"time":2,"line":2,"transit":false,"i_lat":-6.160725},{"i_lat":-6.149769,"station_id":"MGB","distance":906,"is_transit":false,"transit":false,"time":2,"line":2,"station_name":"Manggabesar","i_long":106.82482},{"line":2,"station_name":"Jayakarta","i_long":106.820901,"distance":1080,"is_transit":false,"station_id":"JAY","i_lat":-6.141205,"transit":false,"time":2},{"station_name":"Jakarta Kota","distance":1264,"i_long":106.812439,"is_transit":true,"station_id":"JAKK","line":2,"transit":true,"time":4,"i_lat":-6.137569},{"i_lat":-6.132549,"station_id":"KPB","transit":true,"is_transit":true,"time":3,"station_name":"Kampung Bandan","distance":1364,"line":4,"i_long":106.826365},{"i_lat":-6.144674,"is_transit":false,"station_id":"AK","transit":false,"line":1,"station_name":"Angke","distance":4102,"time":9,"i_long":106.79867},{"transit":true,"station_name":"Duri","distance":1230,"time":4,"i_long":106.800832,"is_transit":true,"station_id":"DU","i_lat":-6.155215,"line":1},{"station_name":"Grogol","line":5,"i_long":106.788277,"distance":1700,"time":3,"i_lat":-6.162021,"station_id":"GRG","transit":false,"is_transit":false},{"line":5,"station_name":"Pesing","is_transit":false,"station_id":"PSG","transit":false,"distance":2036,"i_lat":-6.161433,"time":2,"i_long":106.771379},{"i_lat":-6.1587309999999995,"station_id":"TKO","transit":false,"station_name":"Taman Kota","is_transit":false,"line":5,"distance":1614,"i_long":106.756522,"time":2},{"time":2,"i_lat":-6.159876,"station_name":"Bojongindah","i_long":106.737035,"is_transit":false,"line":5,"station_id":"BOI","distance":2334,"transit":false},{"station_id":"RW","line":5,"distance":1152,"time":4,"station_name":"Rawa Buaya","transit":false,"i_long":106.723064,"is_transit":false,"i_lat":-6.162758},{"distance":2504,"is_transit":false,"i_lat":-6.166068,"transit":false,"station_name":"Kalideres","line":5,"time":3,"i_long":106.701612,"station_id":"KDS"},{"distance":2548,"time":3,"station_name":"Poris","station_id":"PI","i_lat":-6.169933,"i_long":106.679458,"line":5,"is_transit":false,"transit":false}],[{"station_name":"Tambun","transit":false,"distance":0,"i_long":107.055722,"station_id":"TB","is_transit":false,"line":1,"i_lat":-6.258864,"time":0},{"station_id":"BKST","distance":4460,"station_name":"Bekasi Timur","time":7,"is_transit":false,"i_lat":-6.248029,"i_long":107.016735,"transit":false,"line":1},{"line":1,"is_transit":false,"i_lat":-6.236616,"station_name":"Bekasi","i_long":106.997013,"station_id":"BKS","time":2,"distance":2368,"transit":false},{"is_transit":false,"line":1,"station_id":"KRI","i_lat":-6.224515,"distance":2520,"i_long":106.977657,"station_name":"Kranji","time":4,"transit":false},{"time":3,"line":1,"station_name":"Cakung","i_lat":-6.219053,"station_id":"CUK","is_transit":false,"i_long":106.951283,"distance":3097,"transit":false},{"is_transit":false,"station_name":"Klenderbaru","i_long":106.939679,"distance":1385,"line":1,"station_id":"KLDB","time":8,"i_lat":-6.217455,"transit":false},{"i_long":106.922662,"time":1,"transit":false,"line":1,"station_id":"BUA","i_lat":-6.215568,"is_transit":false,"distance":1305,"station_name":"Buaran"},{"i_long":106.899548,"line":1,"time":2,"station_name":"Klender","i_lat":-6.2135,"station_id":"KLD","distance":3100,"is_transit":false,"transit":false},{"i_long":106.86807400000001,"time":3,"station_name":"Jatinegara","line":1,"distance":3395,"i_lat":-6.215091,"is_transit":true,"transit":true,"station_id":"JNG"},{"distance":1236,"transit":false,"is_transit":false,"i_lat":-6.209188,"line":11,"i_long":106.861737,"time":2,"station_id":"POK","station_name":"Pondok Jati"},{"time":2,"is_transit":false,"i_lat":-6.193792,"i_long":106.855437,"line":11,"station_id":"KMT","distance":1829,"station_name":"Kramat","transit":false},{"line":11,"station_name":"Gang Sentiong","station_id":"GST","distance":973,"is_transit":false,"i_lat":-6.185975,"transit":false,"i_long":106.850107,"time":1},{"line":11,"is_transit":false,"i_long":106.84368,"transit":false,"distance":1567,"time":8,"station_id":"PSE","station_name":"Pasar Senen","i_lat":-6.174784},{"distance":1436,"line":11,"station_id":"KMO","is_transit":false,"station_name":"Kemayoran","time":4,"transit":false,"i_lat":-6.161728,"i_long":106.839204},{"transit":false,"i_lat":-6.14505,"i_long":106.836569,"is_transit":false,"line":11,"distance":1901,"time":5,"station_name":"Rajawali","station_id":"RJW"},{"i_long":106.826365,"time":3,"line":4,"transit":true,"station_name":"Kampung Bandan","station_id":"KPB","i_lat":-6.132549,"distance":1444,"is_transit":true},{"is_transit":true,"time":3,"i_long":106.812439,"i_lat":-6.137569,"line":2,"station_name":"Jakarta Kota","station_id":"JAKK","distance":1364,"transit":true},{"transit":false,"time":4,"station_name":"Jayakarta","station_id":"JAY","i_long":106.820901,"line":2,"i_lat":-6.141205,"distance":1264,"is_transit":false},{"time":2,"transit":false,"station_name":"Manggabesar","i_long":106.82482,"is_transit":false,"distance":1080,"line":2,"station_id":"MGB","i_lat":-6.149769},{"time":2,"transit":false,"distance":906,"station_id":"SW","station_name":"Sawah Besar","i_lat":-6.160725,"is_transit":false,"i_long":106.827103,"line":2},{"transit":false,"station_name":"Juanda","line":2,"is_transit":false,"i_long":106.828284,"station_id":"JUA","i_lat":-6.166716,"time":2,"distance":1149},{"station_name":"Gondangdia","time":4,"i_lat":-6.186295,"is_transit":false,"transit":false,"distance":2015,"station_id":"GDD","i_long":106.832183,"line":2},{"i_long":106.840169,"is_transit":false,"transit":false,"line":2,"station_id":"CKI","time":3,"station_name":"Cikini","distance":1750,"i_lat":-6.198556},{"i_long":106.84912,"line":2,"distance":1590,"station_id":"MRI","is_transit":true,"i_lat":-6.209883,"time":4,"transit":true,"station_name":"Manggarai"},{"transit":false,"is_transit":false,"i_lat":-6.202263,"station_id":"SUD","distance":3186,"time":4,"i_long":106.822649,"line":1,"station_name":"Sudirman"},{"transit":false,"i_long":106.819881,"is_transit":false,"station_name":"Sudirman Baru","i_lat":-6.201433,"time":1,"line":1,"station_id":"SUDB","distance":280},{"station_id":"KAT","is_transit":false,"i_long":106.816351,"line":1,"transit":false,"time":1,"distance":471,"station_name":"Karet","i_lat":-6.20132},{"line":1,"distance":2029,"time":5,"i_lat":-6.185545,"station_name":"Tanah Abang","i_long":106.811091,"transit":false,"station_id":"THB","is_transit":false},{"is_transit":true,"transit":true,"i_lat":-6.155215,"time":8,"line":1,"distance":3632,"station_name":"Duri","i_long":106.800832,"station_id":"DU"},{"distance":1700,"is_transit":false,"time":3,"transit":false,"line":5,"station_id":"GRG","station_name":"Grogol","i_long":106.788277,"i_lat":-6.162021},{"i_lat":-6.161433,"transit":false,"station_id":"PSG","time":2,"distance":2036,"line":5,"is_transit":false,"station_name":"Pesing","i_long":106.771379},{"is_transit":false,"station_id":"TKO","distance":1614,"transit":false,"i_lat":-6.1587309999999995,"i_long":106.756522,"time":2,"station_name":"Taman Kota","line":5},{"i_long":106.737035,"station_id":"BOI","transit":false,"station_name":"Bojongindah","line":5,"i_lat":-6.159876,"time":2,"distance":2334,"is_transit":false},{"line":5,"time":4,"is_transit":false,"transit":false,"i_long":106.723064,"station_id":"RW","i_lat":-6.162758,"station_name":"Rawa Buaya","distance":1152},{"station_name":"Kalideres","time":3,"is_transit":false,"transit":false,"i_lat":-6.166068,"line":5,"distance":2504,"i_long":106.701612,"station_id":"KDS"},{"station_id":"PI","time":3,"station_name":"Poris","i_lat":-6.169933,"transit":false,"is_transit":false,"i_long":106.679458,"distance":2548,"line":5}]]}