{"data":[[{"i_lat":-6.258864,"time":0,"line":1,"station_id":"TB","i_long":107.055722,"distance":0,"is_transit":false,"transit":false,"station_name":"Tambun"},{"is_transit":false,"transit":false,"i_long":107.016735,"i_lat":-6.248029,"station_name":"Bekasi Timur","station_id":"BKST","time":7,"distance":4460,"line":1},{"transit":false,"line":1,"is_transit":false,"distance":2368,"station_id":"BKS","i_lat":-6.236616,"i_long":106.997013,"time":2,"station_name":"Bekasi"},{"line":1,"station_id":"KRI","distance":2520,"station_name":"Kranji","is_transit":false,"time":4,"transit":false,"i_lat":-6.224515,"i_long":106.977657},{"distance":3097,"is_transit":false,"i_lat":-6.219053,"station_name":"Cakung","i_long":106.951283,"line":1,"time":3,"transit":false,"station_id":"CUK"},{"time":8,"station_id":"KLDB","distance":1385,"station_name":"Klenderbaru","is_transit":false,"i_long":106.939679,"line":1,"i_lat":-6.217455,"transit":false},{"distance":1305,"i_long":106.922662,"transit":false,"station_name":"Buaran","i_lat":-6.215568,"time":1,"station_id":"BUA","line":1,"is_transit":false},{"transit":false,"station_id":"KLD","station_name":"Klender","time":2,"is_transit":false,"i_long":106.899548,"line":1,"distance":3100,"i_lat":-6.2135},{"station_name":"Jatinegara","station_id":"JNG","time":3,"distance":3395,"line":1,"is_transit":false,"i_long":106.86807400000001,"transit":false,"i_lat":-6.215091},{"i_long":106.858896,"time":2,"distance":1377,"station_id":"MTR","i_lat":-6.212485,"station_name":"Matraman","line":1,"is_transit":false,"transit":false},{"time":2,"is_transit":false,"station_id":"MRI","line":2,"station_name":"Manggarai","i_lat":-6.209883,"distance":1275,"i_long":106.84912,"transit":false},{"time":4,"i_long":106.822649,"transit":false,"station_id":"SUD","line":1,"station_name":"Sudirman","is_transit":false,"i_lat":-6.202263,"distance":3186},{"distance":280,"i_lat":-6.201433,"is_transit":false,"i_long":106.819881,"station_name":"Sudirman Baru","transit":false,"time":1,"line":1,"station_id":"SUDB"},{"is_transit":false,"line":1,"time":1,"station_id":"KAT","i_long":106.816351,"transit":false,"station_name":"Karet","distance":471,"i_lat":-6.20132},{"time":5,"distance":2029,"i_lat":-6.185545,"station_id":"THB","is_transit":true,"i_long":106.811091,"transit":true,"line":1,"station_name":"Tanah Abang"},{"i_long":106.79689,"transit":false,"distance":3191,"station_name":"Palmerah","time":6,"line":6,"is_transit":false,"i_lat":-6.207404,"station_id":"PLM"},{"time":7,"line":6,"station_name":"Kebayoran","transit":false,"distance":3737,"station_id":"KBY","i_lat":-6.237242,"i_long":106.780334,"is_transit":false},{"station_id":"PDJ","i_long":106.74273,"time":8,"is_transit":false,"distance":6218,"transit":false,"i_lat":-6.276362,"station_name":"Pondokranji","line":6},{"transit":false,"distance":2179,"i_long":106.728916,"station_name":"Jurangmangu","is_transit":false,"station_id":"JMU","i_lat":-6.288927,"time":3,"line":6},{"time":4,"i_long":106.712277,"is_transit":false,"distance":1994,"transit":false,"i_lat":-6.296963,"line":6,"station_id":"SDM","station_name":"Sudimara"},{"station_name":"Rawa Buntu","is_transit":false,"line":6,"station_id":"RU","time":6,"i_long":106.675475,"distance":4566,"transit":false,"i_lat":-6.314823},{"station_name":"Serpong","time":4,"i_lat":-6.319871,"is_transit":false,"distance":2413,"i_long":106.66566,"line":6,"transit":false,"station_id":"SRP"},{"distance":1784,"i_long":106.640411,"line":3,"station_name":"Cisauk","station_id":"CSK","time":4,"i_lat":-6.32484,"is_transit":false,"transit":false},{"station_name":"Cicayur","is_transit":false,"station_id":"CC","transit":false,"i_lat":-6.329547,"time":4,"i_long":106.617853,"distance":2519,"line":3},{"is_transit":false,"time":8,"transit":false,"station_name":"Parung Panjang","distance":5968,"i_lat":-6.3441410000000005,"i_long":106.568863,"station_id":"PRP","line":6}],[{"is_transit":false,"transit":false,"i_lat":-6.258864,"distance":0,"i_long":107.055722,"station_name":"Tambun","time":0,"station_id":"TB","line":1},{"distance":4460,"is_transit":false,"station_name":"Bekasi Timur","transit":false,"i_long":107.016735,"time":7,"i_lat":-6.248029,"station_id":"BKST","line":1},{"transit":false,"line":1,"i_lat":-6.236616,"distance":2368,"time":2,"station_id":"BKS","station_name":"Bekasi","is_transit":false,"i_long":106.997013},{"i_lat":-6.224515,"line":1,"station_name":"Kranji","i_long":106.977657,"is_transit":false,"transit":false,"distance":2520,"time":4,"station_id":"KRI"},{"is_transit":false,"i_long":106.951283,"distance":3097,"transit":false,"time":3,"i_lat":-6.219053,"line":1,"station_id":"CUK","station_name":"Cakung"},{"is_transit":false,"station_name":"Klenderbaru","transit":false,"i_long":106.939679,"line":1,"i_lat":-6.217455,"station_id":"KLDB","time":8,"distance":1385},{"station_id":"BUA","distance":1305,"is_transit":false,"station_name":"Buaran","time":1,"transit":false,"i_lat":-6.215568,"i_long":106.922662,"line":1},{"line":1,"time":2,"distance":3100,"transit":false,"station_name":"Klender","is_transit":false,"i_lat":-6.2135,"i_long":106.899548,"station_id":"KLD"},{"distance":3395,"line":1,"time":3,"is_transit":true,"station_name":"Jatinegara","transit":true,"i_lat":-6.215091,"i_long":106.86807400000001,"station_id":"JNG"},{"i_long":106.861737,"line":11,"station_id":"POK","transit":false,"is_transit":false,"distance":1236,"station_name":"Pondok Jati","time":2,"i_lat":-6.209188},{"i_lat":-6.193792,"i_long":106.855437,"distance":1829,"station_name":"Kramat","station_id":"KMT","time":2,"is_transit":false,"transit":false,"line":11},{"transit":false,"i_long":106.850107,"station_id":"GST","time":1,"i_lat":-6.185975,"station_name":"Gang Sentiong","line":11,"distance":973,"is_transit":false},{"i_lat":-6.174784,"line":11,"i_long":106.84368,"transit":false,"distance":1567,"station_id":"PSE","station_name":"Pasar Senen","time":8,"is_transit":false},{"is_transit":false,"i_lat":-6.161728,"station_name":"Kemayoran","transit":false,"i_long":106.839204,"time":4,"station_id":"KMO","distance":1436,"line":11},{"transit":false,"station_name":"Rajawali","time":5,"i_long":106.836569,"line":11,"station_id":"RJW","is_transit":false,"i_lat":-6.14505,"distance":1901},{"time":3,"station_id":"KPB","distance":1444,"transit":true,"station_name":"Kampung Bandan","is_transit":true,"line":4,"i_long":106.826365,"i_lat":-6.132549},{"station_id":"AK","distance":4102,"i_long":106.79867,"line":1,"transit":false,"i_lat":-6.144674,"station_name":"Angke","time":9,"is_transit":false},{"line":1,"time":4,"station_id":"DU","is_transit":false,"i_lat":-6.155215,"distance":1230,"station_name":"Duri","transit":false,"i_long":106.800832},{"time":8,"distance":3632,"transit":true,"station_id":"THB","line":1,"station_name":"Tanah Abang","is_transit":true,"i_long":106.811091,"i_lat":-6.185545},{"time":6,"station_id":"PLM","is_transit":false,"i_lat":-6.207404,"distance":3191,"i_long":106.79689,"line":6,"station_name":"Palmerah","transit":false},{"is_transit":false,"i_long":106.780334,"time":7,"i_lat":-6.237242,"line":6,"distance":3737,"transit":false,"station_name":"Kebayoran","station_id":"KBY"},{"distance":6218,"i_lat":-6.276362,"station_id":"PDJ","time":8,"i_long":106.74273,"line":6,"is_transit":false,"transit":false,"station_name":"Pondokranji"},{"time":3,"line":6,"i_lat":-6.288927,"i_long":106.728916,"station_name":"Jurangmangu","station_id":"JMU","is_transit":false,"transit":false,"distance":2179},{"line":6,"i_lat":-6.296963,"time":4,"i_long":106.712277,"distance":1994,"is_transit":false,"station_name":"Sudimara","transit":false,"station_id":"SDM"},{"time":6,"transit":false,"station_id":"RU","is_transit":false,"line":6,"station_name":"Rawa Buntu","i_long":106.675475,"i_lat":-6.314823,"distance":4566},{"station_id":"SRP","i_long":106.66566,"station_name":"Serpong","distance":2413,"line":6,"time":4,"is_transit":false,"transit":false,"i_lat":-6.319871},{"is_transit":false,"i_lat":-6.32484,"line":3,"transit":false,"i_long":106.640411,"station_name":"Cisauk","station_id":"CSK","time":4,"distance":1784},{"line":3,"station_id":"CC","time":4,"station_name":"Cicayur","is_transit":false,"i_long":106.617853,"transit":false,"distance":2519,"i_lat":-6.329547},{"distance":5968,"line":6,"time":8,"transit":false,"i_long":106.568863,"is_transit":false,"station_name":"Parung Panjang","i_lat":-6.3441410000000005,"station_id":"PRP"}],[{"is_transit":false,"time":0,"station_id":"TB","transit":false,"line":1,"station_name":"Tambun","distance":0,"i_lat":-6.258864,"i_long":107.055722},{"station_name":"Bekasi Timur","distance":4460,"time":7,"station_id":"BKST","i_lat":-6.248029,"transit":false,"line":1,"is_transit":false,"i_long":107.016735},{"station_id":"BKS","time":2,"station_name":"Bekasi","is_transit":false,"distance":2368,"line":1,"transit":false,"i_long":106.997013,"i_lat":-6.236616},{"transit":false,"station_name":"Kranji","i_long":106.977657,"i_lat":-6.224515,"is_transit":false,"time":4,"distance":2520,"line":1,"station_id":"KRI"},{"time":3,"i_long":106.951283,"station_name":"Cakung","is_transit":false,"line":1,"distance":3097,"i_lat":-6.219053,"transit":false,"station_id":"CUK"},{"i_long":106.939679,"station_name":"Klenderbaru","time":8,"distance":1385,"i_lat":-6.217455,"station_id":"KLDB","transit":false,"line":1,"is_transit":false},{"i_lat":-6.215568,"time":1,"station_id":"BUA","is_transit":false,"station_name":"Buaran","transit":false,"distance":1305,"i_long":106.922662,"line":1},{"i_lat":-6.2135,"is_transit":false,"station_id":"KLD","i_long":106.899548,"distance":3100,"line":1,"transit":false,"time":2,"station_name":"Klender"},{"station_id":"JNG","distance":3395,"i_lat":-6.215091,"time":3,"is_transit":false,"station_name":"Jatinegara","i_long":106.86807400000001,"line":1,"transit":false},{"station_id":"MTR","station_name":"Matraman","i_long":106.858896,"time":2,"distance":1377,"is_transit":false,"transit":false,"i_lat":-6.212485,"line":1},{"is_transit":true,"station_id":"MRI","distance":1275,"station_name":"Manggarai","time":2,"transit":true,"i_lat":-6.209883,"i_long":106.84912,"line":2},{"time":4,"transit":false,"line":2,"is_transit":false,"i_long":106.840169,"i_lat":-6.198556,"station_id":"CKI","distance":1590,"station_name":"Cikini"},{"is_transit":false,"i_lat":-6.186295,"transit":false,"i_long":106.832183,"station_id":"GDD","station_name":"Gondangdia","line":2,"time":3,"distance":1750},{"line":2,"distance":2015,"station_id":"JUA","is_transit":false,"transit":false,"station_name":"Juanda","i_lat":-6.166716,"i_long":106.828284,"time":4},{"transit":false,"line":2,"station_id":"SW","station_name":"Sawah Besar","is_transit":false,"i_long":106.827103,"time":2,"i_lat":-6.160725,"distance":1149},{"time":2,"is_transit":false,"station_name":"Manggabesar","i_lat":-6.149769,"line":2,"i_long":106.82482,"transit":false,"station_id":"MGB","distance":906},{"distance":1080,"station_id":"JAY","is_transit":false,"station_name":"Jayakarta","line":2,"transit":false,"i_long":106.820901,"i_lat":-6.141205,"time":2},{"i_long":106.812439,"station_name":"Jakarta Kota","station_id":"JAKK","time":4,"i_lat":-6.137569,"line":2,"is_transit":true,"transit":true,"distance":1264},{"transit":true,"i_long":106.826365,"is_transit":true,"time":3,"line":4,"i_lat":-6.132549,"distance":1364,"station_name":"Kampung Bandan","station_id":"KPB"},{"i_long":106.79867,"transit":false,"line":1,"time":9,"station_name":"Angke","i_lat":-6.144674,"distance":4102,"is_transit":false,"station_id":"AK"},{"i_lat":-6.155215,"line":1,"distance":1230,"station_name":"Duri","time":4,"is_transit":false,"transit":false,"station_id":"DU","i_long":106.800832},{"distance":3632,"line":1,"i_long":106.811091,"station_name":"Tanah Abang","time":8,"is_transit":true,"transit":true,"i_lat":-6.185545,"station_id":"THB"},{"i_lat":-6.207404,"station_id":"PLM","is_transit":false,"line":6,"time":6,"i_long":106.79689,"distance":3191,"station_name":"Palmerah","transit":false},{"transit":false,"station_name":"Kebayoran","station_id":"KBY","line":6,"i_long":106.780334,"distance":3737,"time":7,"i_lat":-6.237242,"is_transit":false},{"i_long":106.74273,"station_name":"Pondokranji","time":8,"i_lat":-6.276362,"transit":false,"distance":6218,"line":6,"station_id":"PDJ","is_transit":false},{"i_lat":-6.288927,"i_long":106.728916,"line":6,"time":3,"distance":2179,"is_transit":false,"station_id":"JMU","station_name":"Jurangmangu","transit":false},{"time":4,"station_name":"Sudimara","is_transit":false,"transit":false,"i_lat":-6.296963,"line":6,"i_long":106.712277,"distance":1994,"station_id":"SDM"},{"line":6,"i_long":106.675475,"station_id":"RU","is_transit":false,"station_name":"Rawa Buntu","i_lat":-6.314823,"time":6,"distance":4566,"transit":false},{"transit":false,"is_transit":false,"time":4,"line":6,"station_id":"SRP","station_name":"Serpong","i_lat":-6.319871,"i_long":106.66566,"distance":2413},{"i_lat":-6.32484,"is_transit":false,"time":4,"distance":1784,"station_id":"CSK","i_long":106.640411,"transit":false,"station_name":"Cisauk","line":3},{"i_lat":-6.329547,"station_id":"CC","time":4,"distance":2519,"line":3,"transit":false,"i_long":106.617853,"station_name":"Cicayur","is_transit":false},{"distance":5968,"station_name":"Parung Panjang","is_transit":false,"line":6,"station_id":"PRP","transit":false,"time":8,"i_lat":-6.3441410000000005,"i_long":106.568863}],[{"distance":0,"station_id":"TB","is_transit":false,"i_lat":-6.258864,"station_name":"Tambun","time":0,"transit":false,"i_long":107.055722,"line":1},{"i_lat":-6.248029,"station_id":"BKST","is_transit":false,"station_name":"Bekasi Timur","distance":4460,"transit":false,"time":7,"i_long":107.016735,"line":1},{"transit":false,"station_id":"BKS","line":1,"station_name":"Bekasi","time":2,"distance":2368,"is_transit":false,"i_long":106.997013,"i_lat":-6.236616},{"station_id":"KRI","distance":2520,"is_transit":false,"station_name":"Kranji","i_lat":-6.224515,"time":4,"transit":false,"i_long":106.977657,"line":1},{"time":3,"station_id":"CUK","i_lat":-6.219053,"i_long":106.951283,"station_name":"Cakung","is_transit":false,"transit":false,"distance":3097,"line":1},{"station_name":"Klenderbaru","i_lat":-6.217455,"time":8,"station_id":"KLDB","is_transit":false,"transit":false,"distance":1385,"line":1,"i_long":106.939679},{"i_lat":-6.215568,"time":1,"is_transit":false,"line":1,"i_long":106.922662,"station_name":"Buaran","distance":1305,"transit":false,"station_id":"BUA"},{"time":2,"line":1,"i_lat":-6.2135,"is_transit":false,"station_name":"Klender","transit":false,"distance":3100,"i_long":106.899548,"station_id":"KLD"},{"is_transit":true,"time":3,"i_long":106.86807400000001,"transit":true,"distance":3395,"i_lat":-6.215091,"station_id":"JNG","station_name":"Jatinegara","line":1},{"i_lat":-6.209188,"station_id":"POK","i_long":106.861737,"is_transit":false,"time":2,"station_name":"Pondok Jati","transit":false,"distance":1236,"line":11},{"station_id":"KMT","i_lat":-6.193792,"station_name":"Kramat","time":2,"i_long":106.855437,"distance":1829,"transit":false,"line":11,"is_transit":false},{"transit":false,"distance":973,"is_transit":false,"i_long":106.850107,"station_name":"Gang Sentiong","station_id":"GST","time":1,"line":11,"i_lat":-6.185975},{"line":11,"station_name":"Pasar Senen","i_long":106.84368,"transit":false,"time":8,"station_id":"PSE","distance":1567,"is_transit":false,"i_lat":-6.174784},{"station_name":"Kemayoran","i_long":106.839204,"station_id":"KMO","distance":1436,"transit":false,"line":11,"i_lat":-6.161728,"is_transit":false,"time":4},{"is_transit":false,"line":11,"station_id":"RJW","station_name":"Rajawali","transit":false,"i_long":106.836569,"time":5,"distance":1901,"i_lat":-6.14505},{"time":3,"station_name":"Kampung Bandan","station_id":"KPB","i_lat":-6.132549,"transit":true,"i_long":106.826365,"is_transit":true,"distance":1444,"line":4},{"distance":1364,"time":3,"is_transit":true,"line":2,"station_id":"JAKK","i_lat":-6.137569,"station_name":"Jakarta Kota","i_long":106.812439,"transit":true},{"i_long":106.820901,"time":4,"station_id":"JAY","station_name":"Jayakarta","is_transit":false,"transit":false,"line":2,"i_lat":-6.141205,"distance":1264},{"station_id":"MGB","i_long":106.82482,"time":2,"is_transit":false,"i_lat":-6.149769,"station_name":"Manggabesar","transit":false,"line":2,"distance":1080},{"time":2,"is_transit":false,"distance":906,"station_id":"SW","i_long":106.827103,"line":2,"transit":false,"station_name":"Sawah Besar","i_lat":-6.160725},{"station_id":"JUA","distance":1149,"time":2,"is_transit":false,"line":2,"i_lat":-6.166716,"station_name":"Juanda","transit":false,"i_long":106.828284},{"time":4,"distance":2015,"station_name":"Gondangdia","i_lat":-6.186295,"transit":false,"is_transit":false,"station_id":"GDD","line":2,"i_long":106.832183},{"transit":false,"station_name":"Cikini","i_lat":-6.198556,"is_transit":false,"i_long":106.840169,"distance":1750,"line":2,"time":3,"station_id":"CKI"},{"station_id":"MRI","is_transit":true,"transit":true,"time":4,"line":2,"distance":1590,"i_long":106.84912,"station_name":"Manggarai","i_lat":-6.209883},{"line":1,"i_lat":-6.202263,"station_id":"SUD","time":4,"station_name":"Sudirman","is_transit":false,"transit":false,"i_long":106.822649,"distance":3186},{"line":1,"is_transit":false,"station_name":"Sudirman Baru","distance":280,"station_id":"SUDB","i_lat":-6.201433,"i_long":106.819881,"transit":false,"time":1},{"line":1,"is_transit":false,"i_lat":-6.20132,"i_long":106.816351,"transit":false,"station_id":"KAT","station_name":"Karet","time":1,"distance":471},{"i_lat":-6.185545,"station_id":"THB","time":5,"station_name":"Tanah Abang","distance":2029,"i_long":106.811091,"line":1,"transit":true,"is_transit":true},{"station_name":"Palmerah","i_lat":-6.207404,"transit":false,"time":6,"is_transit":false,"i_long":106.79689,"distance":3191,"station_id":"PLM","line":6},{"i_long":106.780334,"line":6,"station_name":"Kebayoran","time":7,"transit":false,"i_lat":-6.237242,"is_transit":false,"station_id":"KBY","distance":3737},{"time":8,"line":6,"station_name":"Pondokranji","is_transit":false,"i_lat":-6.276362,"i_long":106.74273,"distance":6218,"transit":false,"station_id":"PDJ"},{"i_lat":-6.288927,"time":3,"station_id":"JMU","is_transit":false,"station_name":"Jurangmangu","distance":2179,"transit":false,"i_long":106.728916,"line":6},{"i_lat":-6.296963,"is_transit":false,"time":4,"distance":1994,"transit":false,"line":6,"station_id":"SDM","station_name":"Sudimara","i_long":106.712277},{"station_id":"RU","i_lat":-6.314823,"line":6,"transit":false,"time":6,"distance":4566,"is_transit":false,"i_long":106.675475,"station_name":"Rawa Buntu"},{"line":6,"is_transit":false,"distance":2413,"transit":false,"time":4,"station_id":"SRP","i_lat":-6.319871,"i_long":106.66566,"station_name":"Serpong"},{"station_name":"Cisauk","i_long":106.640411,"time":4,"i_lat":-6.32484,"transit":false,"is_transit":false,"line":3,"distance":1784,"station_id":"CSK"},{"line":3,"time":4,"transit":false,"station_name":"Cicayur","is_transit":false,"station_id":"CC","i_long":106.617853,"distance":2519,"i_lat":-6.329547},{"line":6,"is_transit":false,"station_name":"Parung Panjang","distance":5968,"i_lat":-6.3441410000000005,"i_long":106.568863,"station_id":"PRP","time":8,"transit":false}]]}