{"data":[[{"i_lat":-6.258864,"i_long":107.055722,"line":1,"is_transit":false,"transit":false,"station_id":"TB","station_name":"Tambun","time":0,"distance":0},{"transit":false,"is_transit":false,"distance":4460,"station_name":"Bekasi Timur","time":7,"i_lat":-6.248029,"i_long":107.016735,"line":0,"station_id":"BKST"},{"station_id":"BKS","station_name":"Bekasi","time":2,"transit":false,"i_long":106.997013,"i_lat":-6.236616,"is_transit":false,"line":0,"distance":2368},{"i_long":106.977657,"i_lat":-6.224515,"distance":2520,"is_transit":false,"station_id":"KRI","station_name":"Kranji","transit":false,"time":4,"line":1},{"station_id":"CUK","line":0,"is_transit":false,"i_lat":-6.219053,"transit":false,"time":3,"distance":3097,"i_long":106.951283,"station_name":"Cakung"},{"time":8,"station_id":"KLDB","station_name":"Klenderbaru","line":1,"distance":1385,"i_long":106.939679,"is_transit":false,"transit":false,"i_lat":-6.217455},{"time":1,"i_lat":-6.215568,"line":0,"transit":false,"is_transit":false,"station_id":"BUA","i_long":106.922662,"distance":1305,"station_name":"Buaran"},{"transit":false,"line":1,"is_transit":false,"station_id":"KLD","i_long":106.899548,"time":2,"distance":3100,"station_name":"Klender","i_lat":-6.2135},{"i_lat":-6.215091,"transit":false,"station_name":"Jatinegara","distance":3395,"station_id":"JNG","i_long":106.86807400000001,"line":0,"is_transit":true,"time":3},{"time":2,"is_transit":false,"station_id":"MTR","i_lat":-6.212485,"line":1,"i_long":106.858896,"station_name":"Matraman","distance":1377,"transit":false},{"distance":1275,"is_transit":true,"station_id":"MRI","transit":false,"station_name":"Manggarai","time":2,"i_lat":-6.209883,"i_long":106.84912,"line":0},{"station_id":"SUD","i_lat":-6.202263,"time":4,"i_long":106.822649,"line":1,"is_transit":false,"station_name":"Sudirman","transit":false,"distance":3186},{"i_lat":-6.201433,"line":1,"transit":false,"is_transit":false,"time":1,"station_name":"Sudirman Baru","distance":280,"i_long":106.819881,"station_id":"SUDB"},{"i_long":106.816351,"line":1,"station_id":"KAT","time":1,"distance":471,"station_name":"Karet","transit":false,"i_lat":-6.20132,"is_transit":false},{"station_id":"THB","is_transit":true,"distance":2029,"time":5,"transit":false,"i_lat":-6.185545,"line":1,"i_long":106.811091,"station_name":"Tanah Abang"},{"time":8,"i_long":106.800832,"station_id":"DU","is_transit":true,"station_name":"Duri","transit":true,"i_lat":-6.155215,"line":1,"distance":3632},{"station_id":"GGL","i_long":106.788277,"station_name":"Grogol","distance":1700,"time":3,"i_lat":-6.162021,"is_transit":false,"transit":false,"line":5},{"is_transit":false,"i_long":106.771379,"station_id":"PSG","station_name":"Pesing","time":2,"distance":2036,"i_lat":-6.161433,"line":5,"transit":false},{"line":5,"is_transit":false,"i_long":106.756522,"station_name":"Taman Kota","station_id":"TKO","transit":false,"time":2,"distance":1614,"i_lat":-6.1587309999999995},{"i_lat":-6.159876,"time":2,"is_transit":false,"station_name":"Bojongindah","distance":2334,"transit":false,"station_id":"BOI","line":0,"i_long":106.737035},{"station_id":"RW","station_name":"Rawa Buaya","i_long":106.723064,"i_lat":-6.162758,"distance":1152,"is_transit":false,"time":4,"transit":false,"line":5},{"transit":false,"line":5,"is_transit":false,"distance":2504,"i_lat":-6.166068,"station_name":"Kalideres","time":3,"i_long":106.701612,"station_id":"KDS"},{"station_id":"PI","time":3,"transit":false,"i_long":106.679458,"i_lat":-6.169933,"distance":2548,"is_transit":false,"station_name":"Poris","line":5}],[{"distance":0,"station_name":"Tambun","i_lat":-6.258864,"is_transit":false,"line":1,"i_long":107.055722,"transit":false,"station_id":"TB","time":0},{"line":0,"time":7,"i_long":107.016735,"station_id":"BKST","is_transit":false,"i_lat":-6.248029,"station_name":"Bekasi Timur","transit":false,"distance":4460},{"transit":false,"is_transit":false,"station_id":"BKS","i_long":106.997013,"line":0,"station_name":"Bekasi","distance":2368,"i_lat":-6.236616,"time":2},{"i_long":106.977657,"station_id":"KRI","station_name":"Kranji","is_transit":false,"i_lat":-6.224515,"transit":false,"distance":2520,"time":4,"line":1},{"i_lat":-6.219053,"line":0,"is_transit":false,"distance":3097,"station_name":"Cakung","transit":false,"station_id":"CUK","time":3,"i_long":106.951283},{"i_long":106.939679,"transit":false,"time":8,"line":1,"station_name":"Klenderbaru","station_id":"KLDB","distance":1385,"is_transit":false,"i_lat":-6.217455},{"i_lat":-6.215568,"line":0,"is_transit":false,"distance":1305,"station_name":"Buaran","station_id":"BUA","transit":false,"i_long":106.922662,"time":1},{"i_lat":-6.2135,"distance":3100,"station_name":"Klender","i_long":106.899548,"line":1,"is_transit":false,"station_id":"KLD","transit":false,"time":2},{"distance":3395,"i_long":106.86807400000001,"line":0,"is_transit":true,"time":3,"station_name":"Jatinegara","station_id":"JNG","i_lat":-6.215091,"transit":true},{"distance":1236,"time":2,"is_transit":false,"i_lat":-6.209188,"i_long":106.861737,"line":11,"transit":false,"station_id":"POK","station_name":"Pondok Jati"},{"station_name":"Kramat","station_id":"KMT","i_lat":-6.193792,"time":2,"transit":false,"line":11,"is_transit":false,"distance":1829,"i_long":106.855437},{"i_long":106.850107,"line":11,"is_transit":false,"i_lat":-6.185975,"transit":false,"time":1,"station_id":"GST","station_name":"Gang Sentiong","distance":973},{"time":8,"station_name":"Pasar Senen","transit":false,"i_long":106.84368,"distance":1567,"line":11,"is_transit":false,"i_lat":-6.174784,"station_id":"PSE"},{"is_transit":false,"transit":false,"i_lat":-6.161728,"line":11,"distance":1436,"i_long":106.839204,"station_id":"KMO","station_name":"Kemayoran","time":4},{"line":11,"station_id":"RJW","transit":false,"is_transit":false,"time":5,"i_long":106.836569,"i_lat":-6.14505,"station_name":"Rajawali","distance":1901},{"station_name":"Kampung Bandan","transit":true,"i_lat":-6.132549,"line":0,"is_transit":true,"distance":1444,"station_id":"KPB","time":3,"i_long":106.826365},{"line":0,"time":9,"is_transit":false,"station_name":"Angke","transit":false,"i_long":106.79867,"distance":4102,"station_id":"AK","i_lat":-6.144674},{"distance":1230,"i_lat":-6.155215,"station_name":"Duri","station_id":"DU","time":4,"line":1,"is_transit":true,"i_long":106.800832,"transit":true},{"distance":1700,"time":3,"i_long":106.788277,"is_transit":false,"transit":false,"i_lat":-6.162021,"line":5,"station_name":"Grogol","station_id":"GGL"},{"time":2,"i_lat":-6.161433,"station_id":"PSG","i_long":106.771379,"distance":2036,"station_name":"Pesing","transit":false,"line":5,"is_transit":false},{"transit":false,"i_long":106.756522,"distance":1614,"station_name":"Taman Kota","station_id":"TKO","line":5,"time":2,"i_lat":-6.1587309999999995,"is_transit":false},{"i_lat":-6.159876,"station_id":"BOI","distance":2334,"station_name":"Bojongindah","transit":false,"time":2,"i_long":106.737035,"is_transit":false,"line":0},{"line":5,"station_id":"RW","is_transit":false,"distance":1152,"i_long":106.723064,"transit":false,"time":4,"station_name":"Rawa Buaya","i_lat":-6.162758},{"line":5,"station_name":"Kalideres","transit":false,"i_lat":-6.166068,"is_transit":false,"station_id":"KDS","time":3,"distance":2504,"i_long":106.701612},{"distance":2548,"time":3,"is_transit":false,"station_id":"PI","i_lat":-6.169933,"station_name":"Poris","i_long":106.679458,"line":5,"transit":false}],[{"i_long":107.055722,"station_name":"Tambun","transit":false,"station_id":"TB","distance":0,"is_transit":false,"line":1,"i_lat":-6.258864,"time":0},{"transit":false,"distance":4460,"station_id":"BKST","station_name":"Bekasi Timur","is_transit":false,"time":7,"i_long":107.016735,"line":0,"i_lat":-6.248029},{"station_name":"Bekasi","distance":2368,"time":2,"station_id":"BKS","i_lat":-6.236616,"is_transit":false,"i_long":106.997013,"line":0,"transit":false},{"transit":false,"time":4,"distance":2520,"i_long":106.977657,"station_id":"KRI","line":1,"i_lat":-6.224515,"station_name":"Kranji","is_transit":false},{"transit":false,"station_name":"Cakung","i_lat":-6.219053,"time":3,"i_long":106.951283,"line":0,"distance":3097,"is_transit":false,"station_id":"CUK"},{"line":1,"station_name":"Klenderbaru","i_lat":-6.217455,"distance":1385,"time":8,"is_transit":false,"station_id":"KLDB","transit":false,"i_long":106.939679},{"transit":false,"i_long":106.922662,"distance":1305,"station_name":"Buaran","is_transit":false,"station_id":"BUA","time":1,"i_lat":-6.215568,"line":0},{"distance":3100,"i_lat":-6.2135,"line":1,"is_transit":false,"station_name":"Klender","i_long":106.899548,"station_id":"KLD","transit":false,"time":2},{"i_lat":-6.215091,"station_id":"JNG","line":0,"is_transit":true,"station_name":"Jatinegara","distance":3395,"transit":false,"i_long":106.86807400000001,"time":3},{"transit":false,"distance":1377,"i_long":106.858896,"station_name":"Matraman","station_id":"MTR","i_lat":-6.212485,"time":2,"is_transit":false,"line":1},{"distance":1275,"line":0,"station_id":"MRI","station_name":"Manggarai","time":2,"i_lat":-6.209883,"i_long":106.84912,"is_transit":true,"transit":true},{"transit":false,"line":0,"station_id":"CKI","is_transit":false,"i_lat":-6.198556,"distance":1590,"time":4,"station_name":"Cikini","i_long":106.840169},{"station_name":"Gondangdia","station_id":"GDD","transit":false,"distance":1750,"line":2,"i_lat":-6.186295,"i_long":106.832183,"is_transit":false,"time":3},{"i_lat":-6.166716,"i_long":106.828284,"transit":false,"station_name":"Juanda","time":4,"is_transit":false,"line":2,"distance":2015,"station_id":"JUA"},{"transit":false,"distance":1149,"station_id":"SW","i_lat":-6.160725,"i_long":106.827103,"is_transit":false,"time":2,"line":2,"station_name":"Sawah Besar"},{"is_transit":false,"transit":false,"time":2,"station_name":"Manggabesar","i_long":106.82482,"station_id":"MGB","distance":906,"i_lat":-6.149769,"line":2},{"transit":false,"distance":1080,"time":2,"station_id":"JAY","station_name":"Jayakarta","is_transit":false,"i_lat":-6.141205,"i_long":106.820901,"line":7},{"is_transit":true,"time":4,"line":0,"i_lat":-6.137569,"station_id":"JAKK","station_name":"Jakarta Kota","transit":true,"distance":1264,"i_long":106.812439},{"time":3,"i_long":106.826365,"is_transit":true,"distance":1364,"transit":false,"station_name":"Kampung Bandan","i_lat":-6.132549,"station_id":"KPB","line":0},{"station_name":"Angke","transit":false,"station_id":"AK","i_lat":-6.144674,"i_long":106.79867,"distance":4102,"time":9,"line":0,"is_transit":false},{"line":1,"station_name":"Duri","is_transit":true,"i_lat":-6.155215,"station_id":"DU","transit":true,"i_long":106.800832,"distance":1230,"time":4},{"station_name":"Grogol","time":3,"i_lat":-6.162021,"i_long":106.788277,"transit":false,"line":5,"station_id":"GGL","distance":1700,"is_transit":false},{"is_transit":false,"distance":2036,"i_lat":-6.161433,"line":5,"station_name":"Pesing","time":2,"station_id":"PSG","i_long":106.771379,"transit":false},{"transit":false,"is_transit":false,"station_id":"TKO","station_name":"Taman Kota","line":5,"i_lat":-6.1587309999999995,"time":2,"i_long":106.756522,"distance":1614},{"station_name":"Bojongindah","station_id":"BOI","is_transit":false,"i_lat":-6.159876,"line":0,"i_long":106.737035,"time":2,"transit":false,"distance":2334},{"is_transit":false,"station_id":"RW","line":5,"transit":false,"station_name":"Rawa Buaya","time":4,"i_long":106.723064,"distance":1152,"i_lat":-6.162758},{"i_long":106.701612,"time":3,"distance":2504,"is_transit":false,"i_lat":-6.166068,"line":5,"station_name":"Kalideres","station_id":"KDS","transit":false},{"is_transit":false,"transit":false,"i_long":106.679458,"i_lat":-6.169933,"line":5,"time":3,"station_name":"Poris","station_id":"PI","distance":2548}],[{"distance":0,"i_lat":-6.258864,"is_transit":false,"station_name":"Tambun","i_long":107.055722,"line":1,"transit":false,"station_id":"TB","time":0},{"distance":4460,"station_name":"Bekasi Timur","i_lat":-6.248029,"is_transit":false,"transit":false,"i_long":107.016735,"line":0,"station_id":"BKST","time":7},{"station_id":"BKS","transit":false,"i_lat":-6.236616,"station_name":"Bekasi","is_transit":false,"distance":2368,"time":2,"i_long":106.997013,"line":0},{"is_transit":false,"line":1,"station_id":"KRI","i_long":106.977657,"station_name":"Kranji","distance":2520,"transit":false,"i_lat":-6.224515,"time":4},{"i_long":106.951283,"time":3,"distance":3097,"station_name":"Cakung","line":0,"i_lat":-6.219053,"station_id":"CUK","transit":false,"is_transit":false},{"i_long":106.939679,"line":1,"time":8,"is_transit":false,"station_name":"Klenderbaru","distance":1385,"i_lat":-6.217455,"station_id":"KLDB","transit":false},{"i_long":106.922662,"station_name":"Buaran","line":0,"distance":1305,"is_transit":false,"station_id":"BUA","transit":false,"i_lat":-6.215568,"time":1},{"transit":false,"time":2,"station_name":"Klender","line":1,"station_id":"KLD","i_lat":-6.2135,"is_transit":false,"distance":3100,"i_long":106.899548},{"line":0,"distance":3395,"is_transit":true,"station_id":"JNG","transit":true,"time":3,"i_long":106.86807400000001,"station_name":"Jatinegara","i_lat":-6.215091},{"i_long":106.861737,"time":2,"line":11,"station_name":"Pondok Jati","is_transit":false,"transit":false,"i_lat":-6.209188,"distance":1236,"station_id":"POK"},{"station_name":"Kramat","line":11,"time":2,"station_id":"KMT","i_lat":-6.193792,"i_long":106.855437,"distance":1829,"is_transit":false,"transit":false},{"is_transit":false,"time":1,"i_lat":-6.185975,"station_id":"GST","transit":false,"line":11,"i_long":106.850107,"station_name":"Gang Sentiong","distance":973},{"distance":1567,"i_lat":-6.174784,"line":11,"station_id":"PSE","transit":false,"time":8,"is_transit":false,"i_long":106.84368,"station_name":"Pasar Senen"},{"transit":false,"station_id":"KMO","time":4,"line":11,"station_name":"Kemayoran","is_transit":false,"i_long":106.839204,"distance":1436,"i_lat":-6.161728},{"transit":false,"time":5,"i_long":106.836569,"station_name":"Rajawali","distance":1901,"i_lat":-6.14505,"station_id":"RJW","line":11,"is_transit":false},{"i_lat":-6.132549,"station_id":"KPB","time":3,"station_name":"Kampung Bandan","distance":1444,"transit":true,"i_long":106.826365,"line":0,"is_transit":true},{"transit":true,"time":3,"distance":1364,"i_long":106.812439,"is_transit":true,"station_id":"JAKK","i_lat":-6.137569,"station_name":"Jakarta Kota","line":0},{"i_long":106.820901,"time":4,"line":7,"distance":1264,"station_id":"JAY","station_name":"Jayakarta","i_lat":-6.141205,"is_transit":false,"transit":false},{"i_long":106.82482,"distance":1080,"station_name":"Manggabesar","transit":false,"i_lat":-6.149769,"is_transit":false,"station_id":"MGB","time":2,"line":2},{"station_id":"SW","station_name":"Sawah Besar","transit":false,"time":2,"distance":906,"i_long":106.827103,"line":2,"is_transit":false,"i_lat":-6.160725},{"distance":1149,"i_lat":-6.166716,"is_transit":false,"station_id":"JUA","time":2,"line":2,"transit":false,"i_long":106.828284,"station_name":"Juanda"},{"transit":false,"distance":2015,"station_name":"Gondangdia","time":4,"i_lat":-6.186295,"line":2,"i_long":106.832183,"is_transit":false,"station_id":"GDD"},{"i_lat":-6.198556,"distance":1750,"is_transit":false,"station_id":"CKI","time":3,"i_long":106.840169,"station_name":"Cikini","transit":false,"line":0},{"station_name":"Manggarai","is_transit":true,"station_id":"MRI","time":4,"line":0,"i_long":106.84912,"i_lat":-6.209883,"transit":true,"distance":1590},{"i_long":106.822649,"distance":3186,"is_transit":false,"station_id":"SUD","transit":false,"station_name":"Sudirman","time":4,"i_lat":-6.202263,"line":1},{"distance":280,"station_id":"SUDB","transit":false,"line":1,"is_transit":false,"i_long":106.819881,"i_lat":-6.201433,"station_name":"Sudirman Baru","time":1},{"transit":false,"time":1,"station_name":"Karet","is_transit":false,"i_lat":-6.20132,"i_long":106.816351,"station_id":"KAT","line":1,"distance":471},{"i_long":106.811091,"station_name":"Tanah Abang","time":5,"is_transit":true,"station_id":"THB","i_lat":-6.185545,"line":1,"distance":2029,"transit":false},{"station_id":"DU","time":8,"i_lat":-6.155215,"line":1,"station_name":"Duri","transit":true,"i_long":106.800832,"distance":3632,"is_transit":true},{"distance":1700,"is_transit":false,"station_name":"Grogol","station_id":"GGL","transit":false,"time":3,"i_lat":-6.162021,"i_long":106.788277,"line":5},{"transit":false,"i_lat":-6.161433,"i_long":106.771379,"line":5,"distance":2036,"is_transit":false,"time":2,"station_id":"PSG","station_name":"Pesing"},{"i_long":106.756522,"line":5,"transit":false,"i_lat":-6.1587309999999995,"distance":1614,"time":2,"is_transit":false,"station_id":"TKO","station_name":"Taman Kota"},{"time":2,"i_lat":-6.159876,"line":0,"station_id":"BOI","station_name":"Bojongindah","i_long":106.737035,"distance":2334,"is_transit":false,"transit":false},{"is_transit":false,"station_name":"Rawa Buaya","station_id":"RW","line":5,"transit":false,"i_lat":-6.162758,"i_long":106.723064,"time":4,"distance":1152},{"station_id":"KDS","i_lat":-6.166068,"station_name":"Kalideres","is_transit":false,"time":3,"line":5,"i_long":106.701612,"distance":2504,"transit":false},{"transit":false,"i_lat":-6.169933,"i_long":106.679458,"is_transit":false,"station_name":"Poris","distance":2548,"station_id":"PI","time":3,"line":5}]]}