{"data":[[{"is_transit":false,"i_long":107.055722,"time":0,"line":1,"transit":false,"i_lat":-6.258864,"distance":0,"station_name":"Tambun","station_id":"TB"},{"i_lat":-6.248029,"transit":false,"station_id":"BKST","time":7,"station_name":"Bekasi Timur","i_long":107.016735,"is_transit":false,"distance":4460,"line":0},{"distance":2368,"transit":false,"i_lat":-6.236616,"station_name":"Bekasi","time":2,"line":0,"i_long":106.997013,"is_transit":false,"station_id":"BKS"},{"station_id":"KRI","station_name":"Kranji","time":4,"i_lat":-6.224515,"line":1,"is_transit":false,"i_long":106.977657,"transit":false,"distance":2520},{"i_long":106.951283,"time":3,"i_lat":-6.219053,"line":0,"station_name":"Cakung","distance":3097,"station_id":"CUK","transit":false,"is_transit":false},{"i_long":106.939679,"transit":false,"line":1,"distance":1385,"is_transit":false,"station_id":"KLDB","station_name":"Klenderbaru","time":8,"i_lat":-6.217455},{"transit":false,"station_name":"Buaran","time":1,"i_long":106.922662,"is_transit":false,"station_id":"BUA","distance":1305,"i_lat":-6.215568,"line":0},{"is_transit":false,"station_id":"KLD","i_lat":-6.2135,"time":2,"i_long":106.899548,"transit":false,"station_name":"Klender","distance":3100,"line":1},{"station_id":"JNG","distance":3395,"transit":false,"station_name":"Jatinegara","i_lat":-6.215091,"line":0,"is_transit":true,"i_long":106.86807400000001,"time":3},{"distance":1377,"i_long":106.858896,"station_name":"Matraman","line":1,"is_transit":false,"time":2,"i_lat":-6.212485,"transit":false,"station_id":"MTR"},{"i_long":106.84912,"time":2,"line":0,"station_name":"Manggarai","is_transit":true,"i_lat":-6.209883,"distance":1275,"transit":false,"station_id":"MRI"},{"i_lat":-6.202263,"distance":3186,"station_id":"SUD","time":4,"station_name":"Sudirman","line":1,"is_transit":false,"transit":false,"i_long":106.822649},{"transit":false,"is_transit":false,"station_name":"Sudirman Baru","i_lat":-6.201433,"station_id":"SUDB","time":1,"distance":280,"line":1,"i_long":106.819881},{"time":1,"i_long":106.816351,"station_id":"KAT","distance":471,"station_name":"Karet","i_lat":-6.20132,"line":1,"is_transit":false,"transit":false},{"i_lat":-6.185545,"distance":2029,"time":5,"transit":false,"i_long":106.811091,"line":1,"is_transit":true,"station_name":"Tanah Abang","station_id":"THB"},{"station_id":"DU","is_transit":true,"line":1,"i_lat":-6.155215,"station_name":"Duri","transit":true,"distance":3632,"i_long":106.800832,"time":8},{"station_id":"GGL","transit":false,"i_lat":-6.162021,"i_long":106.788277,"line":5,"is_transit":false,"time":3,"station_name":"Grogol","distance":1700},{"is_transit":false,"i_long":106.771379,"line":5,"distance":2036,"transit":false,"station_name":"Pesing","time":2,"i_lat":-6.161433,"station_id":"PSG"}],[{"is_transit":false,"time":0,"i_lat":-6.258864,"i_long":107.055722,"station_id":"TB","transit":false,"line":1,"station_name":"Tambun","distance":0},{"time":7,"station_name":"Bekasi Timur","distance":4460,"is_transit":false,"transit":false,"line":0,"i_lat":-6.248029,"station_id":"BKST","i_long":107.016735},{"transit":false,"station_name":"Bekasi","i_lat":-6.236616,"station_id":"BKS","time":2,"distance":2368,"i_long":106.997013,"line":0,"is_transit":false},{"distance":2520,"is_transit":false,"station_name":"Kranji","transit":false,"time":4,"i_long":106.977657,"station_id":"KRI","i_lat":-6.224515,"line":1},{"distance":3097,"i_long":106.951283,"transit":false,"station_id":"CUK","is_transit":false,"station_name":"Cakung","i_lat":-6.219053,"line":0,"time":3},{"transit":false,"is_transit":false,"line":1,"time":8,"station_id":"KLDB","distance":1385,"i_long":106.939679,"station_name":"Klenderbaru","i_lat":-6.217455},{"is_transit":false,"transit":false,"time":1,"station_name":"Buaran","i_long":106.922662,"station_id":"BUA","line":0,"i_lat":-6.215568,"distance":1305},{"line":1,"transit":false,"station_id":"KLD","distance":3100,"is_transit":false,"i_lat":-6.2135,"station_name":"Klender","time":2,"i_long":106.899548},{"station_id":"JNG","distance":3395,"is_transit":true,"time":3,"transit":true,"i_long":106.86807400000001,"line":0,"i_lat":-6.215091,"station_name":"Jatinegara"},{"i_lat":-6.209188,"station_name":"Pondok Jati","time":2,"is_transit":false,"station_id":"POK","transit":false,"line":11,"i_long":106.861737,"distance":1236},{"i_lat":-6.193792,"station_id":"KMT","line":11,"distance":1829,"i_long":106.855437,"time":2,"transit":false,"station_name":"Kramat","is_transit":false},{"station_name":"Gang Sentiong","i_long":106.850107,"line":11,"i_lat":-6.185975,"is_transit":false,"transit":false,"distance":973,"station_id":"GST","time":1},{"distance":1567,"transit":false,"line":11,"i_long":106.84368,"i_lat":-6.174784,"station_id":"PSE","time":8,"station_name":"Pasar Senen","is_transit":false},{"transit":false,"line":11,"station_id":"KMO","i_lat":-6.161728,"distance":1436,"time":4,"i_long":106.839204,"is_transit":false,"station_name":"Kemayoran"},{"time":5,"station_id":"RJW","line":11,"i_long":106.836569,"station_name":"Rajawali","is_transit":false,"i_lat":-6.14505,"transit":false,"distance":1901},{"line":0,"is_transit":true,"transit":true,"time":3,"i_long":106.826365,"i_lat":-6.132549,"station_id":"KPB","station_name":"Kampung Bandan","distance":1444},{"transit":false,"i_long":106.79867,"is_transit":false,"line":0,"station_id":"AK","time":9,"i_lat":-6.144674,"distance":4102,"station_name":"Angke"},{"distance":1230,"i_lat":-6.155215,"i_long":106.800832,"line":1,"station_name":"Duri","is_transit":true,"transit":true,"time":4,"station_id":"DU"},{"station_name":"Grogol","station_id":"GGL","transit":false,"time":3,"i_lat":-6.162021,"i_long":106.788277,"line":5,"distance":1700,"is_transit":false},{"distance":2036,"is_transit":false,"time":2,"i_lat":-6.161433,"station_name":"Pesing","line":5,"i_long":106.771379,"transit":false,"station_id":"PSG"}],[{"time":0,"line":1,"transit":false,"is_transit":false,"i_long":107.055722,"station_name":"Tambun","station_id":"TB","i_lat":-6.258864,"distance":0},{"distance":4460,"i_long":107.016735,"line":0,"station_name":"Bekasi Timur","is_transit":false,"station_id":"BKST","i_lat":-6.248029,"time":7,"transit":false},{"distance":2368,"station_name":"Bekasi","station_id":"BKS","line":0,"time":2,"i_lat":-6.236616,"transit":false,"is_transit":false,"i_long":106.997013},{"transit":false,"time":4,"i_long":106.977657,"distance":2520,"station_name":"Kranji","station_id":"KRI","line":1,"i_lat":-6.224515,"is_transit":false},{"i_lat":-6.219053,"i_long":106.951283,"line":0,"is_transit":false,"station_name":"Cakung","transit":false,"distance":3097,"station_id":"CUK","time":3},{"distance":1385,"i_lat":-6.217455,"is_transit":false,"line":1,"station_name":"Klenderbaru","i_long":106.939679,"station_id":"KLDB","transit":false,"time":8},{"station_id":"BUA","i_lat":-6.215568,"station_name":"Buaran","transit":false,"time":1,"i_long":106.922662,"distance":1305,"line":0,"is_transit":false},{"line":1,"station_name":"Klender","distance":3100,"i_long":106.899548,"is_transit":false,"station_id":"KLD","time":2,"i_lat":-6.2135,"transit":false},{"time":3,"line":0,"distance":3395,"is_transit":true,"i_long":106.86807400000001,"i_lat":-6.215091,"station_id":"JNG","transit":false,"station_name":"Jatinegara"},{"distance":1377,"station_id":"MTR","line":1,"time":2,"i_lat":-6.212485,"is_transit":false,"station_name":"Matraman","i_long":106.858896,"transit":false},{"transit":true,"i_lat":-6.209883,"time":2,"line":0,"station_id":"MRI","i_long":106.84912,"is_transit":true,"distance":1275,"station_name":"Manggarai"},{"distance":1590,"line":0,"station_id":"CKI","station_name":"Cikini","i_long":106.840169,"transit":false,"time":4,"i_lat":-6.198556,"is_transit":false},{"is_transit":false,"station_id":"GDD","distance":1750,"time":3,"i_long":106.832183,"line":2,"i_lat":-6.186295,"transit":false,"station_name":"Gondangdia"},{"transit":false,"time":4,"station_id":"JUA","is_transit":false,"station_name":"Juanda","i_lat":-6.166716,"line":2,"i_long":106.828284,"distance":2015},{"i_long":106.827103,"time":2,"distance":1149,"station_name":"Sawah Besar","is_transit":false,"transit":false,"i_lat":-6.160725,"line":2,"station_id":"SW"},{"i_long":106.82482,"distance":906,"i_lat":-6.149769,"station_id":"MGB","line":2,"is_transit":false,"transit":false,"station_name":"Manggabesar","time":2},{"station_name":"Jayakarta","transit":false,"i_lat":-6.141205,"distance":1080,"time":2,"is_transit":false,"station_id":"JAY","i_long":106.820901,"line":7},{"station_id":"JAKK","distance":1264,"station_name":"Jakarta Kota","i_lat":-6.137569,"i_long":106.812439,"line":0,"transit":true,"is_transit":true,"time":4},{"is_transit":true,"distance":1364,"station_id":"KPB","i_long":106.826365,"station_name":"Kampung Bandan","transit":false,"time":3,"i_lat":-6.132549,"line":0},{"i_long":106.79867,"transit":false,"station_id":"AK","line":0,"is_transit":false,"i_lat":-6.144674,"distance":4102,"station_name":"Angke","time":9},{"is_transit":true,"i_long":106.800832,"transit":true,"time":4,"i_lat":-6.155215,"station_id":"DU","line":1,"station_name":"Duri","distance":1230},{"station_id":"GGL","station_name":"Grogol","transit":false,"i_lat":-6.162021,"i_long":106.788277,"line":5,"distance":1700,"time":3,"is_transit":false},{"transit":false,"station_name":"Pesing","i_lat":-6.161433,"is_transit":false,"time":2,"distance":2036,"station_id":"PSG","i_long":106.771379,"line":5}],[{"is_transit":false,"i_long":107.055722,"distance":0,"station_id":"TB","i_lat":-6.258864,"station_name":"Tambun","transit":false,"time":0,"line":1},{"station_id":"BKST","i_long":107.016735,"is_transit":false,"station_name":"Bekasi Timur","time":7,"distance":4460,"line":0,"transit":false,"i_lat":-6.248029},{"station_name":"Bekasi","i_long":106.997013,"distance":2368,"line":0,"transit":false,"is_transit":false,"i_lat":-6.236616,"time":2,"station_id":"BKS"},{"time":4,"i_lat":-6.224515,"transit":false,"distance":2520,"i_long":106.977657,"station_name":"Kranji","line":1,"is_transit":false,"station_id":"KRI"},{"i_lat":-6.219053,"station_id":"CUK","distance":3097,"station_name":"Cakung","transit":false,"i_long":106.951283,"line":0,"is_transit":false,"time":3},{"station_name":"Klenderbaru","transit":false,"time":8,"station_id":"KLDB","distance":1385,"i_lat":-6.217455,"line":1,"i_long":106.939679,"is_transit":false},{"line":0,"time":1,"station_name":"Buaran","is_transit":false,"station_id":"BUA","i_lat":-6.215568,"distance":1305,"i_long":106.922662,"transit":false},{"is_transit":false,"station_name":"Klender","transit":false,"station_id":"KLD","i_lat":-6.2135,"distance":3100,"i_long":106.899548,"time":2,"line":1},{"i_long":106.86807400000001,"station_id":"JNG","time":3,"transit":true,"i_lat":-6.215091,"distance":3395,"is_transit":true,"line":0,"station_name":"Jatinegara"},{"i_lat":-6.209188,"time":2,"station_name":"Pondok Jati","i_long":106.861737,"transit":false,"line":11,"is_transit":false,"distance":1236,"station_id":"POK"},{"transit":false,"i_lat":-6.193792,"station_name":"Kramat","time":2,"i_long":106.855437,"distance":1829,"is_transit":false,"station_id":"KMT","line":11},{"time":1,"i_lat":-6.185975,"line":11,"station_name":"Gang Sentiong","i_long":106.850107,"distance":973,"transit":false,"station_id":"GST","is_transit":false},{"is_transit":false,"station_id":"PSE","time":8,"station_name":"Pasar Senen","i_long":106.84368,"transit":false,"i_lat":-6.174784,"line":11,"distance":1567},{"is_transit":false,"station_name":"Kemayoran","i_lat":-6.161728,"transit":false,"station_id":"KMO","i_long":106.839204,"time":4,"line":11,"distance":1436},{"time":5,"i_long":106.836569,"line":11,"distance":1901,"i_lat":-6.14505,"transit":false,"is_transit":false,"station_id":"RJW","station_name":"Rajawali"},{"station_id":"KPB","distance":1444,"transit":true,"i_lat":-6.132549,"time":3,"i_long":106.826365,"line":0,"is_transit":true,"station_name":"Kampung Bandan"},{"station_name":"Jakarta Kota","time":3,"distance":1364,"transit":true,"i_lat":-6.137569,"line":0,"i_long":106.812439,"is_transit":true,"station_id":"JAKK"},{"i_lat":-6.141205,"transit":false,"station_id":"JAY","time":4,"i_long":106.820901,"line":7,"distance":1264,"is_transit":false,"station_name":"Jayakarta"},{"transit":false,"is_transit":false,"station_id":"MGB","station_name":"Manggabesar","distance":1080,"i_lat":-6.149769,"time":2,"i_long":106.82482,"line":2},{"distance":906,"time":2,"i_long":106.827103,"is_transit":false,"station_id":"SW","i_lat":-6.160725,"station_name":"Sawah Besar","line":2,"transit":false},{"time":2,"i_long":106.828284,"station_id":"JUA","station_name":"Juanda","distance":1149,"transit":false,"line":2,"i_lat":-6.166716,"is_transit":false},{"distance":2015,"transit":false,"is_transit":false,"i_lat":-6.186295,"time":4,"i_long":106.832183,"station_id":"GDD","station_name":"Gondangdia","line":2},{"distance":1750,"i_long":106.840169,"line":0,"station_id":"CKI","station_name":"Cikini","transit":false,"time":3,"is_transit":false,"i_lat":-6.198556},{"station_id":"MRI","station_name":"Manggarai","time":4,"line":0,"i_long":106.84912,"distance":1590,"i_lat":-6.209883,"is_transit":true,"transit":true},{"time":4,"distance":3186,"station_name":"Sudirman","station_id":"SUD","i_lat":-6.202263,"line":1,"is_transit":false,"i_long":106.822649,"transit":false},{"i_lat":-6.201433,"is_transit":false,"time":1,"line":1,"i_long":106.819881,"station_id":"SUDB","distance":280,"station_name":"Sudirman Baru","transit":false},{"transit":false,"station_id":"KAT","station_name":"Karet","is_transit":false,"i_long":106.816351,"line":1,"time":1,"i_lat":-6.20132,"distance":471},{"i_lat":-6.185545,"i_long":106.811091,"station_id":"THB","distance":2029,"station_name":"Tanah Abang","transit":false,"time":5,"line":1,"is_transit":true},{"distance":3632,"station_id":"DU","line":1,"is_transit":true,"i_long":106.800832,"time":8,"i_lat":-6.155215,"station_name":"Duri","transit":true},{"line":5,"distance":1700,"is_transit":false,"i_long":106.788277,"time":3,"transit":false,"station_id":"GGL","station_name":"Grogol","i_lat":-6.162021},{"distance":2036,"station_name":"Pesing","transit":false,"time":2,"station_id":"PSG","i_long":106.771379,"is_transit":false,"i_lat":-6.161433,"line":5}]]}