{"data":[[{"i_lat":-6.258864,"line":1,"transit":false,"distance":0,"station_id":"TB","i_long":107.055722,"is_transit":false,"station_name":"Tambun","time":0},{"i_long":107.016735,"line":0,"time":7,"transit":false,"is_transit":false,"i_lat":-6.248029,"distance":4460,"station_id":"BKST","station_name":"Bekasi Timur"},{"station_name":"Bekasi","is_transit":false,"station_id":"BKS","transit":false,"i_lat":-6.236616,"i_long":106.997013,"time":2,"line":0,"distance":2368},{"station_id":"KRI","transit":false,"line":1,"distance":2520,"i_lat":-6.224515,"i_long":106.977657,"station_name":"Kranji","time":4,"is_transit":false},{"transit":false,"distance":3097,"station_name":"Cakung","time":3,"i_lat":-6.219053,"i_long":106.951283,"station_id":"CUK","line":0,"is_transit":false},{"i_long":106.939679,"station_id":"KLDB","station_name":"Klenderbaru","line":1,"transit":false,"time":8,"i_lat":-6.217455,"distance":1385,"is_transit":false},{"i_long":106.922662,"i_lat":-6.215568,"is_transit":false,"line":0,"distance":1305,"transit":false,"station_id":"BUA","station_name":"Buaran","time":1},{"transit":false,"distance":3100,"station_name":"Klender","station_id":"KLD","time":2,"is_transit":false,"i_lat":-6.2135,"i_long":106.899548,"line":1},{"time":3,"station_id":"JNG","distance":3395,"transit":false,"i_lat":-6.215091,"station_name":"Jatinegara","i_long":106.86807400000001,"is_transit":true,"line":0},{"i_long":106.858896,"is_transit":false,"distance":1377,"station_id":"MTR","i_lat":-6.212485,"station_name":"Matraman","line":1,"time":2,"transit":false},{"station_name":"Manggarai","station_id":"MRI","i_lat":-6.209883,"line":0,"distance":1275,"transit":true,"i_long":106.84912,"time":2,"is_transit":true},{"i_lat":-6.226659,"i_long":106.857948,"transit":false,"line":2,"station_id":"TEB","time":4,"is_transit":false,"station_name":"Tebet","distance":2610},{"transit":false,"is_transit":false,"station_id":"CW","time":2,"distance":1230,"i_lat":-6.242512,"i_long":106.856607,"line":0,"station_name":"Cawang"},{"is_transit":false,"time":3,"transit":false,"i_lat":-6.255332,"i_long":106.85449,"station_name":"Duren Kalibata","line":0,"distance":1546,"station_id":"DRN"},{"distance":824,"time":2,"transit":false,"line":2,"is_transit":false,"i_lat":-6.263214,"station_id":"PSMB","i_long":106.851577,"station_name":"Pasar Minggu Baru"},{"transit":false,"station_name":"Pasar Minggu","time":2,"distance":2380,"i_lat":-6.2842400000000005,"line":2,"is_transit":false,"i_long":106.843999,"station_id":"PSM"},{"transit":false,"distance":2820,"station_id":"TNT","i_lat":-6.3080680000000005,"i_long":106.838896,"station_name":"Tanjung Barat","is_transit":false,"line":2,"time":4},{"station_id":"LNA","distance":2671,"i_long":106.832616,"station_name":"Lenteng Agung","time":3,"i_lat":-6.330363,"line":2,"is_transit":false,"transit":false},{"transit":false,"i_long":106.834175,"line":2,"distance":1029,"time":2,"i_lat":-6.339291,"station_id":"UP","station_name":"Univ. Pancasila","is_transit":false},{"station_id":"UI","station_name":"Univ. Indonesia","line":2,"time":3,"i_lat":-6.360749,"distance":2264,"i_long":106.831474,"is_transit":false,"transit":false},{"distance":1109,"is_transit":false,"i_long":106.831114,"station_name":"Pondok Cina","i_lat":-6.369073,"time":2,"station_id":"POC","transit":false,"line":2}],[{"distance":0,"station_name":"Tambun","is_transit":false,"i_lat":-6.258864,"time":0,"line":1,"station_id":"TB","transit":false,"i_long":107.055722},{"is_transit":false,"transit":false,"station_name":"Bekasi Timur","i_lat":-6.248029,"station_id":"BKST","time":7,"i_long":107.016735,"line":0,"distance":4460},{"distance":2368,"i_long":106.997013,"i_lat":-6.236616,"transit":false,"station_name":"Bekasi","line":0,"is_transit":false,"time":2,"station_id":"BKS"},{"transit":false,"i_lat":-6.224515,"i_long":106.977657,"is_transit":false,"time":4,"line":1,"distance":2520,"station_name":"Kranji","station_id":"KRI"},{"line":0,"i_lat":-6.219053,"transit":false,"station_id":"CUK","distance":3097,"is_transit":false,"time":3,"i_long":106.951283,"station_name":"Cakung"},{"line":1,"station_id":"KLDB","is_transit":false,"i_lat":-6.217455,"station_name":"Klenderbaru","transit":false,"distance":1385,"i_long":106.939679,"time":8},{"i_lat":-6.215568,"line":0,"station_name":"Buaran","distance":1305,"i_long":106.922662,"station_id":"BUA","is_transit":false,"transit":false,"time":1},{"station_name":"Klender","i_long":106.899548,"line":1,"i_lat":-6.2135,"is_transit":false,"station_id":"KLD","transit":false,"time":2,"distance":3100},{"station_id":"JNG","is_transit":true,"transit":true,"station_name":"Jatinegara","i_long":106.86807400000001,"i_lat":-6.215091,"time":3,"line":0,"distance":3395},{"station_id":"POK","i_long":106.861737,"distance":1236,"transit":false,"time":2,"i_lat":-6.209188,"station_name":"Pondok Jati","is_transit":false,"line":11},{"distance":1829,"is_transit":false,"station_id":"KMT","station_name":"Kramat","line":11,"transit":false,"i_long":106.855437,"time":2,"i_lat":-6.193792},{"i_lat":-6.185975,"i_long":106.850107,"station_id":"GST","is_transit":false,"transit":false,"time":1,"line":11,"station_name":"Gang Sentiong","distance":973},{"transit":false,"distance":1567,"is_transit":false,"time":8,"i_lat":-6.174784,"i_long":106.84368,"station_name":"Pasar Senen","station_id":"PSE","line":11},{"line":11,"transit":false,"station_name":"Kemayoran","i_lat":-6.161728,"distance":1436,"station_id":"KMO","time":4,"is_transit":false,"i_long":106.839204},{"i_long":106.836569,"i_lat":-6.14505,"line":11,"transit":false,"distance":1901,"station_name":"Rajawali","time":5,"station_id":"RJW","is_transit":false},{"is_transit":true,"station_id":"KPB","i_long":106.826365,"transit":true,"line":0,"station_name":"Kampung Bandan","i_lat":-6.132549,"distance":1444,"time":3},{"line":0,"station_name":"Angke","station_id":"AK","transit":false,"i_long":106.79867,"is_transit":false,"distance":4102,"i_lat":-6.144674,"time":9},{"time":4,"i_lat":-6.155215,"station_name":"Duri","is_transit":true,"transit":true,"i_long":106.800832,"line":1,"station_id":"DU","distance":1230},{"station_id":"THB","time":8,"is_transit":true,"station_name":"Tanah Abang","distance":3632,"i_long":106.811091,"i_lat":-6.185545,"line":1,"transit":false},{"is_transit":false,"i_long":106.816351,"line":1,"distance":2029,"station_id":"KAT","time":5,"i_lat":-6.20132,"transit":false,"station_name":"Karet"},{"distance":471,"is_transit":false,"i_long":106.819881,"station_name":"Sudirman Baru","time":1,"i_lat":-6.201433,"line":1,"transit":false,"station_id":"SUDB"},{"time":1,"transit":false,"station_name":"Sudirman","is_transit":false,"i_long":106.822649,"line":1,"distance":280,"station_id":"SUD","i_lat":-6.202263},{"is_transit":true,"station_name":"Manggarai","time":4,"station_id":"MRI","distance":3186,"i_lat":-6.209883,"i_long":106.84912,"line":0,"transit":true},{"i_long":106.857948,"distance":2610,"time":4,"is_transit":false,"station_id":"TEB","i_lat":-6.226659,"transit":false,"station_name":"Tebet","line":2},{"distance":1230,"time":2,"station_id":"CW","transit":false,"i_lat":-6.242512,"is_transit":false,"i_long":106.856607,"line":0,"station_name":"Cawang"},{"is_transit":false,"time":3,"line":0,"i_lat":-6.255332,"station_name":"Duren Kalibata","station_id":"DRN","transit":false,"i_long":106.85449,"distance":1546},{"i_lat":-6.263214,"station_id":"PSMB","i_long":106.851577,"transit":false,"distance":824,"station_name":"Pasar Minggu Baru","line":2,"time":2,"is_transit":false},{"line":2,"is_transit":false,"station_id":"PSM","station_name":"Pasar Minggu","i_long":106.843999,"i_lat":-6.2842400000000005,"transit":false,"distance":2380,"time":2},{"i_long":106.838896,"station_id":"TNT","transit":false,"distance":2820,"station_name":"Tanjung Barat","i_lat":-6.3080680000000005,"line":2,"is_transit":false,"time":4},{"station_id":"LNA","transit":false,"line":2,"station_name":"Lenteng Agung","is_transit":false,"i_long":106.832616,"i_lat":-6.330363,"distance":2671,"time":3},{"i_long":106.834175,"distance":1029,"station_id":"UP","i_lat":-6.339291,"is_transit":false,"time":2,"line":2,"station_name":"Univ. Pancasila","transit":false},{"line":2,"time":3,"distance":2264,"is_transit":false,"transit":false,"station_id":"UI","i_long":106.831474,"station_name":"Univ. Indonesia","i_lat":-6.360749},{"is_transit":false,"station_id":"POC","i_long":106.831114,"transit":false,"time":2,"line":2,"distance":1109,"station_name":"Pondok Cina","i_lat":-6.369073}],[{"distance":0,"is_transit":false,"transit":false,"line":1,"time":0,"i_lat":-6.258864,"i_long":107.055722,"station_id":"TB","station_name":"Tambun"},{"i_long":107.016735,"is_transit":false,"station_name":"Bekasi Timur","distance":4460,"station_id":"BKST","transit":false,"time":7,"line":0,"i_lat":-6.248029},{"time":2,"distance":2368,"i_lat":-6.236616,"line":0,"station_name":"Bekasi","station_id":"BKS","is_transit":false,"transit":false,"i_long":106.997013},{"line":1,"distance":2520,"transit":false,"is_transit":false,"time":4,"station_id":"KRI","station_name":"Kranji","i_lat":-6.224515,"i_long":106.977657},{"is_transit":false,"i_lat":-6.219053,"time":3,"transit":false,"station_id":"CUK","distance":3097,"i_long":106.951283,"line":0,"station_name":"Cakung"},{"is_transit":false,"station_name":"Klenderbaru","line":1,"transit":false,"distance":1385,"time":8,"i_lat":-6.217455,"i_long":106.939679,"station_id":"KLDB"},{"is_transit":false,"time":1,"transit":false,"i_long":106.922662,"distance":1305,"station_id":"BUA","station_name":"Buaran","line":0,"i_lat":-6.215568},{"time":2,"transit":false,"i_long":106.899548,"distance":3100,"line":1,"is_transit":false,"i_lat":-6.2135,"station_id":"KLD","station_name":"Klender"},{"is_transit":true,"station_id":"JNG","i_lat":-6.215091,"transit":true,"distance":3395,"time":3,"i_long":106.86807400000001,"line":0,"station_name":"Jatinegara"},{"station_id":"POK","distance":1236,"station_name":"Pondok Jati","i_lat":-6.209188,"is_transit":false,"i_long":106.861737,"line":11,"transit":false,"time":2},{"distance":1829,"is_transit":false,"transit":false,"time":2,"station_name":"Kramat","line":11,"station_id":"KMT","i_long":106.855437,"i_lat":-6.193792},{"i_lat":-6.185975,"distance":973,"station_name":"Gang Sentiong","i_long":106.850107,"time":1,"line":11,"transit":false,"is_transit":false,"station_id":"GST"},{"i_lat":-6.174784,"station_name":"Pasar Senen","station_id":"PSE","time":8,"is_transit":false,"i_long":106.84368,"line":11,"transit":false,"distance":1567},{"distance":1436,"transit":false,"station_name":"Kemayoran","station_id":"KMO","time":4,"is_transit":false,"i_long":106.839204,"line":11,"i_lat":-6.161728},{"i_long":106.836569,"transit":false,"distance":1901,"station_name":"Rajawali","is_transit":false,"time":5,"station_id":"RJW","line":11,"i_lat":-6.14505},{"station_id":"KPB","transit":true,"distance":1444,"time":3,"station_name":"Kampung Bandan","i_lat":-6.132549,"i_long":106.826365,"line":0,"is_transit":true},{"transit":true,"distance":1364,"time":3,"is_transit":true,"i_long":106.812439,"line":0,"station_id":"JAKK","station_name":"Jakarta Kota","i_lat":-6.137569},{"is_transit":false,"time":4,"transit":false,"station_name":"Jayakarta","station_id":"JAY","i_lat":-6.141205,"distance":1264,"line":7,"i_long":106.820901},{"is_transit":false,"station_id":"MGB","i_lat":-6.149769,"time":2,"transit":false,"station_name":"Manggabesar","line":2,"i_long":106.82482,"distance":1080},{"line":2,"distance":906,"station_id":"SW","time":2,"station_name":"Sawah Besar","i_lat":-6.160725,"is_transit":false,"transit":false,"i_long":106.827103},{"i_lat":-6.166716,"is_transit":false,"station_name":"Juanda","i_long":106.828284,"line":2,"time":2,"station_id":"JUA","transit":false,"distance":1149},{"is_transit":false,"time":4,"i_lat":-6.186295,"station_name":"Gondangdia","i_long":106.832183,"line":2,"station_id":"GDD","distance":2015,"transit":false},{"i_long":106.840169,"distance":1750,"line":0,"time":3,"station_id":"CKI","is_transit":false,"station_name":"Cikini","i_lat":-6.198556,"transit":false},{"line":0,"distance":1590,"transit":true,"is_transit":true,"time":4,"i_lat":-6.209883,"station_name":"Manggarai","station_id":"MRI","i_long":106.84912},{"station_name":"Tebet","i_lat":-6.226659,"station_id":"TEB","line":2,"transit":false,"time":4,"distance":2610,"i_long":106.857948,"is_transit":false},{"station_id":"CW","station_name":"Cawang","distance":1230,"transit":false,"i_long":106.856607,"i_lat":-6.242512,"line":0,"is_transit":false,"time":2},{"station_name":"Duren Kalibata","time":3,"is_transit":false,"station_id":"DRN","line":0,"i_lat":-6.255332,"distance":1546,"i_long":106.85449,"transit":false},{"i_lat":-6.263214,"transit":false,"time":2,"line":2,"station_name":"Pasar Minggu Baru","is_transit":false,"station_id":"PSMB","i_long":106.851577,"distance":824},{"transit":false,"station_id":"PSM","station_name":"Pasar Minggu","is_transit":false,"time":2,"i_lat":-6.2842400000000005,"distance":2380,"line":2,"i_long":106.843999},{"is_transit":false,"time":4,"transit":false,"distance":2820,"i_long":106.838896,"i_lat":-6.3080680000000005,"line":2,"station_name":"Tanjung Barat","station_id":"TNT"},{"i_long":106.832616,"time":3,"distance":2671,"is_transit":false,"line":2,"station_name":"Lenteng Agung","transit":false,"station_id":"LNA","i_lat":-6.330363},{"station_name":"Univ. Pancasila","is_transit":false,"transit":false,"station_id":"UP","distance":1029,"time":2,"i_long":106.834175,"line":2,"i_lat":-6.339291},{"i_long":106.831474,"time":3,"is_transit":false,"i_lat":-6.360749,"station_name":"Univ. Indonesia","station_id":"UI","transit":false,"line":2,"distance":2264},{"line":2,"station_id":"POC","station_name":"Pondok Cina","transit":false,"i_lat":-6.369073,"is_transit":false,"distance":1109,"time":2,"i_long":106.831114}]]}