{"data":[[{"station_id":"TB","distance":0,"line":1,"is_transit":false,"i_lat":-6.258864,"time":0,"i_long":107.055722,"station_name":"Tambun","transit":false},{"station_name":"Bekasi Timur","distance":4460,"i_long":107.016735,"is_transit":false,"time":7,"i_lat":-6.248029,"transit":false,"station_id":"BKST","line":0},{"i_lat":-6.236616,"station_name":"Bekasi","line":0,"transit":false,"station_id":"BKS","time":2,"is_transit":false,"i_long":106.997013,"distance":2368},{"transit":false,"i_lat":-6.224515,"station_id":"KRI","time":4,"i_long":106.977657,"station_name":"Kranji","line":1,"is_transit":false,"distance":2520},{"i_lat":-6.219053,"station_name":"Cakung","line":0,"i_long":106.951283,"station_id":"CUK","is_transit":false,"transit":false,"time":3,"distance":3097},{"transit":false,"i_long":106.939679,"line":1,"distance":1385,"time":8,"is_transit":false,"station_id":"KLDB","station_name":"Klenderbaru","i_lat":-6.217455},{"is_transit":false,"distance":1305,"transit":false,"i_lat":-6.215568,"line":0,"station_name":"Buaran","time":1,"i_long":106.922662,"station_id":"BUA"},{"i_lat":-6.2135,"distance":3100,"is_transit":false,"station_id":"KLD","station_name":"Klender","i_long":106.899548,"line":1,"transit":false,"time":2},{"is_transit":true,"i_long":106.86807400000001,"distance":3395,"station_id":"JNG","station_name":"Jatinegara","i_lat":-6.215091,"transit":false,"time":3,"line":0},{"transit":false,"line":1,"distance":1377,"is_transit":false,"i_lat":-6.212485,"station_id":"MTR","station_name":"Matraman","time":2,"i_long":106.858896},{"station_name":"Manggarai","transit":false,"is_transit":true,"time":2,"i_lat":-6.209883,"i_long":106.84912,"distance":1275,"line":0,"station_id":"MRI"},{"is_transit":false,"transit":false,"line":1,"station_name":"Sudirman","distance":3186,"i_lat":-6.202263,"i_long":106.822649,"station_id":"SUD","time":4},{"is_transit":false,"transit":false,"i_lat":-6.201433,"station_id":"SUDB","distance":280,"time":1,"i_long":106.819881,"station_name":"Sudirman Baru","line":1},{"transit":false,"time":1,"line":1,"station_name":"Karet","i_long":106.816351,"distance":471,"i_lat":-6.20132,"station_id":"KAT","is_transit":false},{"time":5,"i_long":106.811091,"line":1,"distance":2029,"station_id":"THB","i_lat":-6.185545,"is_transit":true,"station_name":"Tanah Abang","transit":true},{"station_id":"PLM","is_transit":false,"station_name":"Palmerah","i_lat":-6.207404,"transit":false,"i_long":106.79689,"distance":3191,"time":6,"line":6},{"line":6,"distance":3737,"transit":false,"i_long":106.780334,"station_name":"Kebayoran","station_id":"KBY","time":7,"i_lat":-6.237242,"is_transit":false},{"station_id":"PDJ","time":8,"distance":6218,"transit":false,"line":6,"i_long":106.74273,"station_name":"Pondokranji","is_transit":false,"i_lat":-6.276362},{"time":3,"line":6,"transit":false,"i_lat":-6.288927,"station_name":"Jurangmangu","i_long":106.728916,"distance":2179,"is_transit":false,"station_id":"JMU"},{"line":6,"station_id":"SDM","distance":1994,"is_transit":false,"time":4,"i_lat":-6.296963,"i_long":106.712277,"transit":false,"station_name":"Sudimara"},{"time":6,"station_id":"RU","is_transit":false,"line":6,"i_lat":-6.314823,"station_name":"Rawa Buntu","transit":false,"distance":4566,"i_long":106.675475},{"line":6,"station_id":"SRP","transit":false,"time":4,"i_lat":-6.319871,"i_long":106.66566,"distance":2413,"is_transit":false,"station_name":"Serpong"},{"i_lat":-6.32484,"i_long":106.640411,"line":0,"station_name":"Cisauk","transit":false,"station_id":"CSK","time":4,"is_transit":false,"distance":1784},{"line":0,"is_transit":false,"transit":false,"station_id":"CC","time":4,"i_long":106.617853,"station_name":"Cicayur","distance":2519,"i_lat":-6.329547},{"transit":false,"distance":5968,"time":8,"i_long":106.568863,"is_transit":false,"station_id":"PRP","line":6,"station_name":"Parung Panjang","i_lat":-6.3441410000000005}],[{"line":1,"i_lat":-6.258864,"station_name":"Tambun","transit":false,"distance":0,"time":0,"is_transit":false,"station_id":"TB","i_long":107.055722},{"time":7,"station_id":"BKST","station_name":"Bekasi Timur","line":0,"transit":false,"i_lat":-6.248029,"i_long":107.016735,"is_transit":false,"distance":4460},{"is_transit":false,"station_name":"Bekasi","station_id":"BKS","transit":false,"distance":2368,"time":2,"i_lat":-6.236616,"i_long":106.997013,"line":0},{"time":4,"i_lat":-6.224515,"station_name":"Kranji","i_long":106.977657,"line":1,"transit":false,"is_transit":false,"distance":2520,"station_id":"KRI"},{"i_lat":-6.219053,"i_long":106.951283,"station_name":"Cakung","distance":3097,"time":3,"is_transit":false,"line":0,"station_id":"CUK","transit":false},{"station_id":"KLDB","i_long":106.939679,"time":8,"transit":false,"line":1,"distance":1385,"station_name":"Klenderbaru","is_transit":false,"i_lat":-6.217455},{"transit":false,"i_long":106.922662,"line":0,"station_id":"BUA","time":1,"distance":1305,"is_transit":false,"station_name":"Buaran","i_lat":-6.215568},{"is_transit":false,"time":2,"station_id":"KLD","i_lat":-6.2135,"station_name":"Klender","transit":false,"i_long":106.899548,"distance":3100,"line":1},{"i_lat":-6.215091,"station_name":"Jatinegara","is_transit":true,"line":0,"transit":true,"time":3,"i_long":106.86807400000001,"station_id":"JNG","distance":3395},{"i_lat":-6.209188,"line":11,"i_long":106.861737,"station_id":"POK","distance":1236,"time":2,"station_name":"Pondok Jati","is_transit":false,"transit":false},{"i_lat":-6.193792,"i_long":106.855437,"line":11,"station_name":"Kramat","transit":false,"distance":1829,"is_transit":false,"station_id":"KMT","time":2},{"distance":973,"station_name":"Gang Sentiong","station_id":"GST","time":1,"i_lat":-6.185975,"line":11,"transit":false,"is_transit":false,"i_long":106.850107},{"is_transit":false,"line":11,"i_lat":-6.174784,"time":8,"distance":1567,"transit":false,"station_id":"PSE","i_long":106.84368,"station_name":"Pasar Senen"},{"transit":false,"time":4,"i_long":106.839204,"station_name":"Kemayoran","line":11,"i_lat":-6.161728,"distance":1436,"station_id":"KMO","is_transit":false},{"station_id":"RJW","station_name":"Rajawali","line":11,"i_long":106.836569,"time":5,"is_transit":false,"transit":false,"distance":1901,"i_lat":-6.14505},{"distance":1444,"station_name":"Kampung Bandan","transit":true,"time":3,"is_transit":true,"i_lat":-6.132549,"station_id":"KPB","i_long":106.826365,"line":0},{"station_name":"Angke","transit":false,"station_id":"AK","i_lat":-6.144674,"i_long":106.79867,"distance":4102,"is_transit":false,"line":0,"time":9},{"i_long":106.800832,"distance":1230,"i_lat":-6.155215,"station_name":"Duri","transit":true,"station_id":"DU","time":4,"line":1,"is_transit":true},{"i_lat":-6.185545,"station_id":"THB","station_name":"Tanah Abang","i_long":106.811091,"time":8,"distance":3632,"line":1,"is_transit":true,"transit":true},{"is_transit":false,"i_lat":-6.207404,"station_name":"Palmerah","i_long":106.79689,"distance":3191,"line":6,"time":6,"transit":false,"station_id":"PLM"},{"i_lat":-6.237242,"station_name":"Kebayoran","time":7,"is_transit":false,"transit":false,"i_long":106.780334,"station_id":"KBY","line":6,"distance":3737},{"line":6,"station_name":"Pondokranji","time":8,"distance":6218,"is_transit":false,"transit":false,"i_long":106.74273,"station_id":"PDJ","i_lat":-6.276362},{"time":3,"station_name":"Jurangmangu","i_lat":-6.288927,"is_transit":false,"distance":2179,"transit":false,"station_id":"JMU","line":6,"i_long":106.728916},{"time":4,"is_transit":false,"i_lat":-6.296963,"station_id":"SDM","line":6,"station_name":"Sudimara","distance":1994,"transit":false,"i_long":106.712277},{"station_name":"Rawa Buntu","time":6,"distance":4566,"i_lat":-6.314823,"i_long":106.675475,"line":6,"transit":false,"station_id":"RU","is_transit":false},{"station_id":"SRP","line":6,"station_name":"Serpong","transit":false,"distance":2413,"is_transit":false,"time":4,"i_lat":-6.319871,"i_long":106.66566},{"time":4,"distance":1784,"i_lat":-6.32484,"i_long":106.640411,"station_id":"CSK","is_transit":false,"transit":false,"station_name":"Cisauk","line":0},{"i_lat":-6.329547,"is_transit":false,"i_long":106.617853,"time":4,"station_id":"CC","station_name":"Cicayur","distance":2519,"transit":false,"line":0},{"station_name":"Parung Panjang","is_transit":false,"time":8,"line":6,"station_id":"PRP","transit":false,"i_lat":-6.3441410000000005,"i_long":106.568863,"distance":5968}],[{"i_long":107.055722,"transit":false,"distance":0,"line":1,"time":0,"station_name":"Tambun","is_transit":false,"station_id":"TB","i_lat":-6.258864},{"station_id":"BKST","line":0,"time":7,"station_name":"Bekasi Timur","transit":false,"is_transit":false,"i_long":107.016735,"distance":4460,"i_lat":-6.248029},{"station_id":"BKS","distance":2368,"i_long":106.997013,"line":0,"transit":false,"time":2,"is_transit":false,"i_lat":-6.236616,"station_name":"Bekasi"},{"is_transit":false,"transit":false,"line":1,"distance":2520,"i_long":106.977657,"station_name":"Kranji","time":4,"i_lat":-6.224515,"station_id":"KRI"},{"is_transit":false,"station_name":"Cakung","station_id":"CUK","transit":false,"line":0,"time":3,"i_lat":-6.219053,"i_long":106.951283,"distance":3097},{"transit":false,"is_transit":false,"i_lat":-6.217455,"i_long":106.939679,"station_id":"KLDB","distance":1385,"line":1,"time":8,"station_name":"Klenderbaru"},{"i_long":106.922662,"time":1,"station_name":"Buaran","line":0,"is_transit":false,"station_id":"BUA","distance":1305,"transit":false,"i_lat":-6.215568},{"station_name":"Klender","line":1,"distance":3100,"i_long":106.899548,"time":2,"is_transit":false,"transit":false,"i_lat":-6.2135,"station_id":"KLD"},{"time":3,"line":0,"i_lat":-6.215091,"distance":3395,"station_name":"Jatinegara","transit":false,"station_id":"JNG","i_long":106.86807400000001,"is_transit":true},{"station_id":"MTR","distance":1377,"i_lat":-6.212485,"line":1,"time":2,"transit":false,"is_transit":false,"i_long":106.858896,"station_name":"Matraman"},{"distance":1275,"transit":true,"station_id":"MRI","i_lat":-6.209883,"line":0,"time":2,"i_long":106.84912,"is_transit":true,"station_name":"Manggarai"},{"station_name":"Cikini","distance":1590,"transit":false,"is_transit":false,"i_lat":-6.198556,"time":4,"i_long":106.840169,"line":0,"station_id":"CKI"},{"i_lat":-6.186295,"time":3,"station_name":"Gondangdia","i_long":106.832183,"transit":false,"station_id":"GDD","distance":1750,"is_transit":false,"line":2},{"i_long":106.828284,"station_id":"JUA","line":2,"distance":2015,"is_transit":false,"station_name":"Juanda","transit":false,"i_lat":-6.166716,"time":4},{"transit":false,"is_transit":false,"station_name":"Sawah Besar","time":2,"line":2,"distance":1149,"station_id":"SW","i_lat":-6.160725,"i_long":106.827103},{"distance":906,"line":2,"i_long":106.82482,"station_id":"MGB","is_transit":false,"i_lat":-6.149769,"time":2,"station_name":"Manggabesar","transit":false},{"i_lat":-6.141205,"transit":false,"line":7,"distance":1080,"i_long":106.820901,"is_transit":false,"station_id":"JAY","station_name":"Jayakarta","time":2},{"i_lat":-6.137569,"is_transit":true,"station_name":"Jakarta Kota","station_id":"JAKK","line":0,"distance":1264,"time":4,"transit":true,"i_long":106.812439},{"time":3,"transit":false,"i_long":106.826365,"i_lat":-6.132549,"distance":1364,"station_name":"Kampung Bandan","line":0,"station_id":"KPB","is_transit":true},{"time":9,"i_lat":-6.144674,"distance":4102,"station_id":"AK","station_name":"Angke","is_transit":false,"transit":false,"i_long":106.79867,"line":0},{"station_name":"Duri","transit":true,"is_transit":true,"distance":1230,"time":4,"i_lat":-6.155215,"i_long":106.800832,"line":1,"station_id":"DU"},{"time":8,"distance":3632,"is_transit":true,"station_id":"THB","station_name":"Tanah Abang","i_long":106.811091,"transit":true,"i_lat":-6.185545,"line":1},{"is_transit":false,"station_id":"PLM","transit":false,"time":6,"i_lat":-6.207404,"station_name":"Palmerah","line":6,"i_long":106.79689,"distance":3191},{"time":7,"line":6,"i_lat":-6.237242,"i_long":106.780334,"distance":3737,"transit":false,"is_transit":false,"station_id":"KBY","station_name":"Kebayoran"},{"station_id":"PDJ","time":8,"distance":6218,"i_long":106.74273,"is_transit":false,"station_name":"Pondokranji","transit":false,"i_lat":-6.276362,"line":6},{"transit":false,"time":3,"station_name":"Jurangmangu","is_transit":false,"i_lat":-6.288927,"distance":2179,"line":6,"i_long":106.728916,"station_id":"JMU"},{"line":6,"distance":1994,"is_transit":false,"transit":false,"i_long":106.712277,"station_name":"Sudimara","i_lat":-6.296963,"time":4,"station_id":"SDM"},{"i_long":106.675475,"is_transit":false,"line":6,"station_id":"RU","station_name":"Rawa Buntu","distance":4566,"transit":false,"i_lat":-6.314823,"time":6},{"station_id":"SRP","time":4,"distance":2413,"is_transit":false,"transit":false,"line":6,"i_long":106.66566,"i_lat":-6.319871,"station_name":"Serpong"},{"transit":false,"distance":1784,"station_id":"CSK","time":4,"i_long":106.640411,"is_transit":false,"i_lat":-6.32484,"line":0,"station_name":"Cisauk"},{"i_lat":-6.329547,"line":0,"station_name":"Cicayur","distance":2519,"i_long":106.617853,"time":4,"is_transit":false,"station_id":"CC","transit":false},{"station_name":"Parung Panjang","is_transit":false,"distance":5968,"transit":false,"time":8,"i_lat":-6.3441410000000005,"i_long":106.568863,"line":6,"station_id":"PRP"}],[{"station_name":"Tambun","station_id":"TB","transit":false,"line":1,"i_long":107.055722,"i_lat":-6.258864,"distance":0,"is_transit":false,"time":0},{"i_long":107.016735,"station_id":"BKST","i_lat":-6.248029,"time":7,"is_transit":false,"distance":4460,"transit":false,"station_name":"Bekasi Timur","line":0},{"is_transit":false,"transit":false,"i_long":106.997013,"station_id":"BKS","line":0,"i_lat":-6.236616,"distance":2368,"time":2,"station_name":"Bekasi"},{"line":1,"station_name":"Kranji","transit":false,"is_transit":false,"i_lat":-6.224515,"i_long":106.977657,"time":4,"station_id":"KRI","distance":2520},{"is_transit":false,"transit":false,"station_id":"CUK","i_lat":-6.219053,"time":3,"station_name":"Cakung","line":0,"distance":3097,"i_long":106.951283},{"station_name":"Klenderbaru","distance":1385,"i_long":106.939679,"i_lat":-6.217455,"station_id":"KLDB","time":8,"transit":false,"line":1,"is_transit":false},{"distance":1305,"transit":false,"station_name":"Buaran","station_id":"BUA","time":1,"i_lat":-6.215568,"is_transit":false,"i_long":106.922662,"line":0},{"station_name":"Klender","is_transit":false,"i_long":106.899548,"transit":false,"line":1,"time":2,"i_lat":-6.2135,"station_id":"KLD","distance":3100},{"station_name":"Jatinegara","line":0,"transit":true,"station_id":"JNG","time":3,"i_lat":-6.215091,"is_transit":true,"i_long":106.86807400000001,"distance":3395},{"i_lat":-6.209188,"i_long":106.861737,"transit":false,"is_transit":false,"line":11,"time":2,"station_id":"POK","distance":1236,"station_name":"Pondok Jati"},{"distance":1829,"i_long":106.855437,"station_name":"Kramat","transit":false,"line":11,"is_transit":false,"i_lat":-6.193792,"station_id":"KMT","time":2},{"station_id":"GST","transit":false,"i_lat":-6.185975,"station_name":"Gang Sentiong","is_transit":false,"i_long":106.850107,"line":11,"time":1,"distance":973},{"is_transit":false,"station_id":"PSE","time":8,"i_lat":-6.174784,"distance":1567,"line":11,"i_long":106.84368,"station_name":"Pasar Senen","transit":false},{"is_transit":false,"distance":1436,"station_name":"Kemayoran","i_lat":-6.161728,"time":4,"station_id":"KMO","transit":false,"i_long":106.839204,"line":11},{"station_id":"RJW","transit":false,"i_lat":-6.14505,"station_name":"Rajawali","i_long":106.836569,"line":11,"distance":1901,"is_transit":false,"time":5},{"station_name":"Kampung Bandan","is_transit":true,"time":3,"line":0,"transit":true,"i_lat":-6.132549,"i_long":106.826365,"distance":1444,"station_id":"KPB"},{"distance":1364,"transit":true,"station_id":"JAKK","is_transit":true,"i_long":106.812439,"line":0,"station_name":"Jakarta Kota","i_lat":-6.137569,"time":3},{"distance":1264,"time":4,"station_name":"Jayakarta","transit":false,"is_transit":false,"line":7,"station_id":"JAY","i_long":106.820901,"i_lat":-6.141205},{"station_id":"MGB","station_name":"Manggabesar","is_transit":false,"i_lat":-6.149769,"time":2,"transit":false,"line":2,"distance":1080,"i_long":106.82482},{"distance":906,"i_lat":-6.160725,"line":2,"i_long":106.827103,"station_id":"SW","station_name":"Sawah Besar","is_transit":false,"time":2,"transit":false},{"i_long":106.828284,"line":2,"station_id":"JUA","station_name":"Juanda","is_transit":false,"time":2,"i_lat":-6.166716,"distance":1149,"transit":false},{"transit":false,"i_lat":-6.186295,"i_long":106.832183,"is_transit":false,"station_name":"Gondangdia","distance":2015,"station_id":"GDD","time":4,"line":2},{"line":0,"station_id":"CKI","transit":false,"i_long":106.840169,"station_name":"Cikini","i_lat":-6.198556,"is_transit":false,"distance":1750,"time":3},{"station_name":"Manggarai","line":0,"i_lat":-6.209883,"station_id":"MRI","transit":true,"time":4,"i_long":106.84912,"distance":1590,"is_transit":true},{"station_name":"Sudirman","time":4,"i_lat":-6.202263,"transit":false,"i_long":106.822649,"line":1,"is_transit":false,"station_id":"SUD","distance":3186},{"time":1,"line":1,"i_lat":-6.201433,"is_transit":false,"distance":280,"station_name":"Sudirman Baru","i_long":106.819881,"station_id":"SUDB","transit":false},{"time":1,"transit":false,"is_transit":false,"station_name":"Karet","i_lat":-6.20132,"station_id":"KAT","distance":471,"line":1,"i_long":106.816351},{"time":5,"station_name":"Tanah Abang","is_transit":true,"distance":2029,"i_lat":-6.185545,"station_id":"THB","i_long":106.811091,"transit":true,"line":1},{"distance":3191,"is_transit":false,"time":6,"station_name":"Palmerah","i_long":106.79689,"station_id":"PLM","transit":false,"i_lat":-6.207404,"line":6},{"distance":3737,"is_transit":false,"transit":false,"line":6,"station_name":"Kebayoran","time":7,"i_lat":-6.237242,"station_id":"KBY","i_long":106.780334},{"distance":6218,"is_transit":false,"transit":false,"line":6,"station_name":"Pondokranji","station_id":"PDJ","time":8,"i_long":106.74273,"i_lat":-6.276362},{"time":3,"i_long":106.728916,"is_transit":false,"station_id":"JMU","transit":false,"i_lat":-6.288927,"line":6,"distance":2179,"station_name":"Jurangmangu"},{"transit":false,"time":4,"i_lat":-6.296963,"is_transit":false,"distance":1994,"i_long":106.712277,"line":6,"station_name":"Sudimara","station_id":"SDM"},{"time":6,"i_long":106.675475,"is_transit":false,"station_name":"Rawa Buntu","i_lat":-6.314823,"line":6,"transit":false,"distance":4566,"station_id":"RU"},{"time":4,"station_name":"Serpong","station_id":"SRP","i_long":106.66566,"line":6,"transit":false,"i_lat":-6.319871,"distance":2413,"is_transit":false},{"line":0,"transit":false,"time":4,"distance":1784,"is_transit":false,"station_id":"CSK","station_name":"Cisauk","i_long":106.640411,"i_lat":-6.32484},{"station_name":"Cicayur","time":4,"i_lat":-6.329547,"transit":false,"line":0,"i_long":106.617853,"distance":2519,"is_transit":false,"station_id":"CC"},{"station_id":"PRP","time":8,"line":6,"transit":false,"is_transit":false,"i_lat":-6.3441410000000005,"i_long":106.568863,"distance":5968,"station_name":"Parung Panjang"}]]}