{"data":[[{"line":1,"station_id":"TB","i_lat":-6.258864,"station_name":"Tambun","transit":false,"is_transit":false,"i_long":107.055722,"distance":0,"time":0},{"station_name":"Bekasi Timur","line":1,"station_id":"BKST","distance":4460,"is_transit":false,"time":7,"i_long":107.016735,"i_lat":-6.248029,"transit":false},{"station_name":"Bekasi","is_transit":false,"distance":2368,"transit":false,"i_lat":-6.236616,"line":1,"station_id":"BKS","time":2,"i_long":106.997013},{"time":4,"distance":2520,"i_long":106.977657,"i_lat":-6.224515,"is_transit":false,"line":1,"station_name":"Kranji","transit":false,"station_id":"KRI"},{"station_id":"CUK","is_transit":false,"time":3,"station_name":"Cakung","transit":false,"distance":3097,"i_long":106.951283,"i_lat":-6.219053,"line":1},{"station_name":"Klenderbaru","is_transit":false,"time":8,"i_lat":-6.217455,"line":1,"transit":false,"i_long":106.939679,"distance":1385,"station_id":"KLDB"},{"line":1,"transit":false,"station_id":"BUA","station_name":"Buaran","is_transit":false,"i_long":106.922662,"time":1,"i_lat":-6.215568,"distance":1305},{"station_id":"KLD","i_long":106.899548,"time":2,"station_name":"Klender","transit":false,"i_lat":-6.2135,"distance":3100,"is_transit":false,"line":1},{"transit":false,"distance":3395,"station_id":"JNG","i_lat":-6.215091,"time":3,"line":1,"i_long":106.86807400000001,"station_name":"Jatinegara","is_transit":false},{"line":1,"station_id":"MTR","i_long":106.858896,"i_lat":-6.212485,"distance":1377,"transit":false,"station_name":"Matraman","time":2,"is_transit":false},{"station_name":"Manggarai","time":2,"i_lat":-6.209883,"i_long":106.84912,"line":2,"is_transit":false,"distance":1275,"transit":false,"station_id":"MRI"},{"line":1,"transit":false,"distance":3186,"station_name":"Sudirman","station_id":"SUD","i_long":106.822649,"is_transit":false,"i_lat":-6.202263,"time":4},{"station_id":"SUDB","time":1,"i_lat":-6.201433,"station_name":"Sudirman Baru","line":1,"distance":280,"i_long":106.819881,"is_transit":false,"transit":false},{"station_id":"KAT","distance":471,"station_name":"Karet","is_transit":false,"i_lat":-6.20132,"transit":false,"time":1,"i_long":106.816351,"line":1},{"i_lat":-6.185545,"i_long":106.811091,"station_name":"Tanah Abang","distance":2029,"is_transit":true,"line":1,"transit":true,"station_id":"THB","time":5},{"time":6,"is_transit":false,"i_long":106.79689,"line":6,"i_lat":-6.207404,"transit":false,"distance":3191,"station_name":"Palmerah","station_id":"PLM"}],[{"line":1,"station_name":"Tambun","distance":0,"i_long":107.055722,"is_transit":false,"station_id":"TB","i_lat":-6.258864,"transit":false,"time":0},{"line":1,"i_long":107.016735,"transit":false,"station_id":"BKST","is_transit":false,"distance":4460,"i_lat":-6.248029,"time":7,"station_name":"Bekasi Timur"},{"line":1,"transit":false,"station_name":"Bekasi","i_lat":-6.236616,"distance":2368,"i_long":106.997013,"station_id":"BKS","is_transit":false,"time":2},{"transit":false,"i_lat":-6.224515,"line":1,"station_name":"Kranji","station_id":"KRI","distance":2520,"i_long":106.977657,"is_transit":false,"time":4},{"i_long":106.951283,"station_id":"CUK","is_transit":false,"time":3,"transit":false,"i_lat":-6.219053,"station_name":"Cakung","distance":3097,"line":1},{"station_id":"KLDB","station_name":"Klenderbaru","i_lat":-6.217455,"i_long":106.939679,"line":1,"transit":false,"is_transit":false,"time":8,"distance":1385},{"station_id":"BUA","transit":false,"is_transit":false,"line":1,"time":1,"i_lat":-6.215568,"station_name":"Buaran","i_long":106.922662,"distance":1305},{"transit":false,"i_long":106.899548,"time":2,"station_name":"Klender","line":1,"i_lat":-6.2135,"station_id":"KLD","is_transit":false,"distance":3100},{"i_lat":-6.215091,"i_long":106.86807400000001,"station_id":"JNG","is_transit":true,"line":1,"station_name":"Jatinegara","time":3,"transit":true,"distance":3395},{"transit":false,"i_long":106.861737,"line":11,"i_lat":-6.209188,"time":2,"station_id":"POK","station_name":"Pondok Jati","is_transit":false,"distance":1236},{"is_transit":false,"time":2,"i_lat":-6.193792,"station_name":"Kramat","i_long":106.855437,"transit":false,"line":11,"distance":1829,"station_id":"KMT"},{"distance":973,"transit":false,"i_lat":-6.185975,"station_id":"GST","is_transit":false,"i_long":106.850107,"line":11,"station_name":"Gang Sentiong","time":1},{"transit":false,"is_transit":false,"station_id":"PSE","time":8,"i_lat":-6.174784,"station_name":"Pasar Senen","line":11,"distance":1567,"i_long":106.84368},{"time":4,"i_lat":-6.161728,"station_name":"Kemayoran","distance":1436,"is_transit":false,"line":11,"station_id":"KMO","transit":false,"i_long":106.839204},{"i_lat":-6.14505,"transit":false,"line":11,"is_transit":false,"i_long":106.836569,"station_id":"RJW","time":5,"distance":1901,"station_name":"Rajawali"},{"i_long":106.826365,"station_id":"KPB","station_name":"Kampung Bandan","distance":1444,"i_lat":-6.132549,"is_transit":true,"transit":true,"time":3,"line":4},{"station_id":"AK","transit":false,"i_long":106.79867,"distance":4102,"line":1,"is_transit":false,"time":9,"i_lat":-6.144674,"station_name":"Angke"},{"time":4,"i_long":106.800832,"station_id":"DU","line":1,"transit":false,"is_transit":false,"station_name":"Duri","distance":1230,"i_lat":-6.155215},{"is_transit":true,"line":1,"station_id":"THB","i_lat":-6.185545,"distance":3632,"i_long":106.811091,"station_name":"Tanah Abang","transit":true,"time":8},{"line":6,"is_transit":false,"i_lat":-6.207404,"transit":false,"station_name":"Palmerah","distance":3191,"station_id":"PLM","time":6,"i_long":106.79689}],[{"station_name":"Tambun","transit":false,"line":1,"i_lat":-6.258864,"i_long":107.055722,"time":0,"station_id":"TB","is_transit":false,"distance":0},{"station_name":"Bekasi Timur","i_long":107.016735,"line":1,"station_id":"BKST","transit":false,"distance":4460,"i_lat":-6.248029,"is_transit":false,"time":7},{"distance":2368,"station_id":"BKS","transit":false,"i_lat":-6.236616,"i_long":106.997013,"line":1,"is_transit":false,"station_name":"Bekasi","time":2},{"i_lat":-6.224515,"distance":2520,"station_id":"KRI","line":1,"i_long":106.977657,"time":4,"is_transit":false,"station_name":"Kranji","transit":false},{"is_transit":false,"i_long":106.951283,"i_lat":-6.219053,"transit":false,"station_name":"Cakung","distance":3097,"time":3,"line":1,"station_id":"CUK"},{"station_name":"Klenderbaru","time":8,"i_lat":-6.217455,"is_transit":false,"transit":false,"i_long":106.939679,"distance":1385,"line":1,"station_id":"KLDB"},{"i_lat":-6.215568,"is_transit":false,"i_long":106.922662,"station_id":"BUA","transit":false,"time":1,"distance":1305,"line":1,"station_name":"Buaran"},{"is_transit":false,"station_id":"KLD","station_name":"Klender","i_lat":-6.2135,"line":1,"transit":false,"time":2,"i_long":106.899548,"distance":3100},{"transit":false,"time":3,"station_name":"Jatinegara","station_id":"JNG","i_lat":-6.215091,"i_long":106.86807400000001,"line":1,"distance":3395,"is_transit":false},{"transit":false,"is_transit":false,"distance":1377,"line":1,"i_long":106.858896,"station_id":"MTR","i_lat":-6.212485,"station_name":"Matraman","time":2},{"line":2,"i_lat":-6.209883,"i_long":106.84912,"is_transit":true,"distance":1275,"station_name":"Manggarai","transit":true,"time":2,"station_id":"MRI"},{"distance":1590,"is_transit":false,"transit":false,"i_lat":-6.198556,"i_long":106.840169,"station_id":"CKI","station_name":"Cikini","line":2,"time":4},{"i_lat":-6.186295,"i_long":106.832183,"transit":false,"is_transit":false,"line":2,"station_name":"Gondangdia","station_id":"GDD","distance":1750,"time":3},{"is_transit":false,"station_id":"JUA","time":4,"transit":false,"station_name":"Juanda","i_lat":-6.166716,"distance":2015,"i_long":106.828284,"line":2},{"station_id":"SW","line":2,"i_long":106.827103,"time":2,"station_name":"Sawah Besar","is_transit":false,"transit":false,"i_lat":-6.160725,"distance":1149},{"transit":false,"i_long":106.82482,"is_transit":false,"i_lat":-6.149769,"station_id":"MGB","station_name":"Manggabesar","distance":906,"line":2,"time":2},{"is_transit":false,"i_long":106.820901,"station_id":"JAY","distance":1080,"station_name":"Jayakarta","line":2,"transit":false,"i_lat":-6.141205,"time":2},{"distance":1264,"station_name":"Jakarta Kota","i_lat":-6.137569,"time":4,"station_id":"JAKK","is_transit":true,"line":2,"transit":true,"i_long":106.812439},{"i_long":106.826365,"station_name":"Kampung Bandan","line":4,"distance":1364,"station_id":"KPB","is_transit":true,"time":3,"i_lat":-6.132549,"transit":true},{"station_name":"Angke","is_transit":false,"i_long":106.79867,"line":1,"i_lat":-6.144674,"station_id":"AK","transit":false,"time":9,"distance":4102},{"station_name":"Duri","distance":1230,"i_lat":-6.155215,"i_long":106.800832,"is_transit":false,"station_id":"DU","transit":false,"time":4,"line":1},{"station_name":"Tanah Abang","i_long":106.811091,"i_lat":-6.185545,"time":8,"transit":true,"is_transit":true,"line":1,"distance":3632,"station_id":"THB"},{"i_lat":-6.207404,"is_transit":false,"line":6,"time":6,"distance":3191,"station_id":"PLM","station_name":"Palmerah","i_long":106.79689,"transit":false}],[{"i_lat":-6.258864,"is_transit":false,"station_id":"TB","transit":false,"i_long":107.055722,"time":0,"distance":0,"line":1,"station_name":"Tambun"},{"transit":false,"station_name":"Bekasi Timur","line":1,"i_long":107.016735,"time":7,"distance":4460,"i_lat":-6.248029,"is_transit":false,"station_id":"BKST"},{"is_transit":false,"station_id":"BKS","station_name":"Bekasi","transit":false,"line":1,"i_long":106.997013,"time":2,"i_lat":-6.236616,"distance":2368},{"distance":2520,"station_id":"KRI","transit":false,"i_lat":-6.224515,"i_long":106.977657,"time":4,"station_name":"Kranji","is_transit":false,"line":1},{"distance":3097,"line":1,"is_transit":false,"station_id":"CUK","transit":false,"station_name":"Cakung","time":3,"i_lat":-6.219053,"i_long":106.951283},{"station_id":"KLDB","transit":false,"i_long":106.939679,"distance":1385,"line":1,"i_lat":-6.217455,"is_transit":false,"station_name":"Klenderbaru","time":8},{"time":1,"station_name":"Buaran","station_id":"BUA","i_lat":-6.215568,"is_transit":false,"i_long":106.922662,"line":1,"distance":1305,"transit":false},{"distance":3100,"time":2,"station_id":"KLD","transit":false,"i_long":106.899548,"i_lat":-6.2135,"is_transit":false,"line":1,"station_name":"Klender"},{"line":1,"transit":true,"station_id":"JNG","time":3,"distance":3395,"is_transit":true,"i_lat":-6.215091,"station_name":"Jatinegara","i_long":106.86807400000001},{"station_name":"Pondok Jati","transit":false,"line":11,"time":2,"station_id":"POK","i_lat":-6.209188,"distance":1236,"i_long":106.861737,"is_transit":false},{"time":2,"is_transit":false,"i_lat":-6.193792,"station_name":"Kramat","station_id":"KMT","distance":1829,"i_long":106.855437,"transit":false,"line":11},{"time":1,"distance":973,"i_lat":-6.185975,"i_long":106.850107,"is_transit":false,"line":11,"station_id":"GST","transit":false,"station_name":"Gang Sentiong"},{"i_lat":-6.174784,"station_id":"PSE","is_transit":false,"station_name":"Pasar Senen","i_long":106.84368,"distance":1567,"line":11,"transit":false,"time":8},{"i_long":106.839204,"station_name":"Kemayoran","time":4,"i_lat":-6.161728,"transit":false,"line":11,"station_id":"KMO","is_transit":false,"distance":1436},{"station_name":"Rajawali","station_id":"RJW","distance":1901,"is_transit":false,"i_long":106.836569,"i_lat":-6.14505,"time":5,"line":11,"transit":false},{"transit":true,"station_id":"KPB","distance":1444,"is_transit":true,"station_name":"Kampung Bandan","time":3,"i_lat":-6.132549,"i_long":106.826365,"line":4},{"i_lat":-6.137569,"is_transit":true,"station_name":"Jakarta Kota","i_long":106.812439,"station_id":"JAKK","transit":true,"time":3,"line":2,"distance":1364},{"is_transit":false,"i_lat":-6.141205,"i_long":106.820901,"time":4,"line":2,"station_name":"Jayakarta","transit":false,"distance":1264,"station_id":"JAY"},{"station_name":"Manggabesar","station_id":"MGB","i_long":106.82482,"is_transit":false,"distance":1080,"i_lat":-6.149769,"line":2,"transit":false,"time":2},{"is_transit":false,"station_name":"Sawah Besar","time":2,"distance":906,"transit":false,"i_long":106.827103,"line":2,"station_id":"SW","i_lat":-6.160725},{"transit":false,"i_long":106.828284,"station_id":"JUA","distance":1149,"time":2,"is_transit":false,"station_name":"Juanda","line":2,"i_lat":-6.166716},{"is_transit":false,"station_id":"GDD","transit":false,"i_long":106.832183,"time":4,"distance":2015,"station_name":"Gondangdia","i_lat":-6.186295,"line":2},{"station_id":"CKI","line":2,"station_name":"Cikini","i_long":106.840169,"distance":1750,"time":3,"transit":false,"i_lat":-6.198556,"is_transit":false},{"station_name":"Manggarai","i_lat":-6.209883,"distance":1590,"i_long":106.84912,"transit":true,"line":2,"time":4,"is_transit":true,"station_id":"MRI"},{"i_lat":-6.202263,"station_id":"SUD","station_name":"Sudirman","time":4,"line":1,"is_transit":false,"distance":3186,"transit":false,"i_long":106.822649},{"transit":false,"line":1,"station_name":"Sudirman Baru","time":1,"i_lat":-6.201433,"station_id":"SUDB","i_long":106.819881,"distance":280,"is_transit":false},{"distance":471,"transit":false,"is_transit":false,"line":1,"station_name":"Karet","i_long":106.816351,"time":1,"station_id":"KAT","i_lat":-6.20132},{"i_long":106.811091,"time":5,"station_name":"Tanah Abang","i_lat":-6.185545,"is_transit":true,"distance":2029,"transit":true,"station_id":"THB","line":1},{"station_id":"PLM","station_name":"Palmerah","is_transit":false,"time":6,"line":6,"transit":false,"i_lat":-6.207404,"i_long":106.79689,"distance":3191}]]}