{"data":[[{"station_name":"Tambun","distance":0,"transit":false,"line":1,"station_id":"TB","i_lat":-6.258864,"i_long":107.055722,"time":0,"is_transit":false},{"station_id":"BKST","station_name":"Bekasi Timur","line":1,"i_lat":-6.248029,"is_transit":false,"i_long":107.016735,"time":7,"transit":false,"distance":4460},{"is_transit":false,"time":2,"distance":2368,"station_name":"Bekasi","i_long":106.997013,"station_id":"BKS","line":1,"i_lat":-6.236616,"transit":false},{"transit":false,"distance":2520,"station_name":"Kranji","station_id":"KRI","i_long":106.977657,"time":4,"is_transit":false,"i_lat":-6.224515,"line":1},{"line":1,"distance":3097,"is_transit":false,"station_name":"Cakung","i_long":106.951283,"station_id":"CUK","transit":false,"i_lat":-6.219053,"time":3},{"station_id":"KLDB","is_transit":false,"station_name":"Klenderbaru","line":1,"distance":1385,"transit":false,"i_lat":-6.217455,"i_long":106.939679,"time":8},{"station_id":"BUA","time":1,"i_long":106.922662,"is_transit":false,"distance":1305,"i_lat":-6.215568,"transit":false,"station_name":"Buaran","line":1},{"transit":false,"i_long":106.899548,"time":2,"i_lat":-6.2135,"station_name":"Klender","line":1,"station_id":"KLD","is_transit":false,"distance":3100},{"distance":3395,"is_transit":false,"i_long":106.86807400000001,"station_name":"Jatinegara","time":3,"transit":false,"line":1,"station_id":"JNG","i_lat":-6.215091},{"transit":false,"line":1,"distance":1377,"i_lat":-6.212485,"is_transit":false,"station_name":"Matraman","station_id":"MTR","time":2,"i_long":106.858896},{"transit":false,"time":2,"i_lat":-6.209883,"distance":1275,"station_id":"MRI","is_transit":false,"i_long":106.84912,"line":2,"station_name":"Manggarai"},{"distance":3186,"is_transit":false,"transit":false,"line":1,"i_lat":-6.202263,"i_long":106.822649,"time":4,"station_id":"SUD","station_name":"Sudirman"},{"time":1,"station_id":"SUDB","station_name":"Sudirman Baru","i_lat":-6.201433,"i_long":106.819881,"transit":false,"is_transit":false,"distance":280,"line":1},{"station_id":"KAT","i_long":106.816351,"time":1,"is_transit":false,"line":1,"i_lat":-6.20132,"station_name":"Karet","transit":false,"distance":471},{"i_long":106.811091,"line":1,"distance":2029,"station_id":"THB","station_name":"Tanah Abang","transit":true,"i_lat":-6.185545,"time":5,"is_transit":true},{"i_long":106.79689,"i_lat":-6.207404,"line":6,"is_transit":false,"station_id":"PLM","transit":false,"distance":3191,"time":6,"station_name":"Palmerah"}],[{"i_lat":-6.258864,"distance":0,"station_name":"Tambun","line":1,"time":0,"transit":false,"station_id":"TB","i_long":107.055722,"is_transit":false},{"time":7,"station_name":"Bekasi Timur","distance":4460,"i_lat":-6.248029,"station_id":"BKST","transit":false,"line":1,"is_transit":false,"i_long":107.016735},{"i_long":106.997013,"line":1,"transit":false,"time":2,"station_id":"BKS","station_name":"Bekasi","i_lat":-6.236616,"distance":2368,"is_transit":false},{"distance":2520,"transit":false,"station_name":"Kranji","i_lat":-6.224515,"is_transit":false,"i_long":106.977657,"line":1,"time":4,"station_id":"KRI"},{"station_id":"CUK","transit":false,"i_long":106.951283,"distance":3097,"time":3,"station_name":"Cakung","is_transit":false,"line":1,"i_lat":-6.219053},{"distance":1385,"i_lat":-6.217455,"is_transit":false,"i_long":106.939679,"line":1,"station_id":"KLDB","station_name":"Klenderbaru","time":8,"transit":false},{"time":1,"i_lat":-6.215568,"distance":1305,"station_id":"BUA","transit":false,"station_name":"Buaran","line":1,"i_long":106.922662,"is_transit":false},{"transit":false,"distance":3100,"line":1,"station_name":"Klender","is_transit":false,"station_id":"KLD","i_lat":-6.2135,"time":2,"i_long":106.899548},{"is_transit":true,"line":1,"i_lat":-6.215091,"station_id":"JNG","station_name":"Jatinegara","distance":3395,"time":3,"transit":true,"i_long":106.86807400000001},{"i_lat":-6.209188,"i_long":106.861737,"station_id":"POK","distance":1236,"time":2,"line":11,"is_transit":false,"station_name":"Pondok Jati","transit":false},{"time":2,"station_id":"KMT","transit":false,"line":11,"station_name":"Kramat","i_lat":-6.193792,"i_long":106.855437,"distance":1829,"is_transit":false},{"distance":973,"is_transit":false,"transit":false,"i_lat":-6.185975,"station_name":"Gang Sentiong","line":11,"station_id":"GST","i_long":106.850107,"time":1},{"line":11,"station_id":"PSE","time":8,"is_transit":false,"i_lat":-6.174784,"i_long":106.84368,"transit":false,"distance":1567,"station_name":"Pasar Senen"},{"station_id":"KMO","distance":1436,"i_lat":-6.161728,"transit":false,"line":11,"time":4,"station_name":"Kemayoran","i_long":106.839204,"is_transit":false},{"station_name":"Rajawali","station_id":"RJW","i_long":106.836569,"i_lat":-6.14505,"line":11,"time":5,"is_transit":false,"distance":1901,"transit":false},{"distance":1444,"station_id":"KPB","line":4,"transit":true,"i_lat":-6.132549,"i_long":106.826365,"time":3,"is_transit":true,"station_name":"Kampung Bandan"},{"distance":4102,"is_transit":false,"i_lat":-6.144674,"station_id":"AK","transit":false,"station_name":"Angke","i_long":106.79867,"line":1,"time":9},{"is_transit":false,"time":4,"station_id":"DU","i_long":106.800832,"transit":false,"line":1,"distance":1230,"i_lat":-6.155215,"station_name":"Duri"},{"transit":true,"distance":3632,"i_lat":-6.185545,"station_name":"Tanah Abang","line":1,"station_id":"THB","i_long":106.811091,"time":8,"is_transit":true},{"line":6,"i_long":106.79689,"station_name":"Palmerah","transit":false,"i_lat":-6.207404,"time":6,"station_id":"PLM","distance":3191,"is_transit":false}],[{"station_name":"Tambun","i_lat":-6.258864,"time":0,"distance":0,"is_transit":false,"transit":false,"i_long":107.055722,"station_id":"TB","line":1},{"station_name":"Bekasi Timur","is_transit":false,"i_long":107.016735,"distance":4460,"station_id":"BKST","time":7,"transit":false,"i_lat":-6.248029,"line":1},{"transit":false,"time":2,"i_lat":-6.236616,"line":1,"i_long":106.997013,"station_id":"BKS","is_transit":false,"distance":2368,"station_name":"Bekasi"},{"station_id":"KRI","line":1,"station_name":"Kranji","time":4,"is_transit":false,"i_long":106.977657,"i_lat":-6.224515,"distance":2520,"transit":false},{"station_id":"CUK","i_long":106.951283,"time":3,"is_transit":false,"line":1,"transit":false,"station_name":"Cakung","distance":3097,"i_lat":-6.219053},{"is_transit":false,"i_long":106.939679,"line":1,"i_lat":-6.217455,"transit":false,"time":8,"station_name":"Klenderbaru","distance":1385,"station_id":"KLDB"},{"station_name":"Buaran","distance":1305,"time":1,"i_lat":-6.215568,"line":1,"station_id":"BUA","transit":false,"i_long":106.922662,"is_transit":false},{"distance":3100,"station_id":"KLD","transit":false,"i_long":106.899548,"line":1,"is_transit":false,"time":2,"station_name":"Klender","i_lat":-6.2135},{"station_id":"JNG","distance":3395,"line":1,"transit":false,"i_lat":-6.215091,"time":3,"station_name":"Jatinegara","is_transit":false,"i_long":106.86807400000001},{"station_id":"MTR","is_transit":false,"station_name":"Matraman","i_lat":-6.212485,"transit":false,"i_long":106.858896,"line":1,"time":2,"distance":1377},{"line":2,"time":2,"distance":1275,"station_id":"MRI","i_lat":-6.209883,"transit":true,"i_long":106.84912,"station_name":"Manggarai","is_transit":true},{"distance":1590,"station_name":"Cikini","is_transit":false,"station_id":"CKI","transit":false,"i_lat":-6.198556,"time":4,"line":2,"i_long":106.840169},{"time":3,"station_id":"GDD","i_long":106.832183,"is_transit":false,"distance":1750,"station_name":"Gondangdia","transit":false,"i_lat":-6.186295,"line":2},{"time":4,"transit":false,"line":2,"distance":2015,"station_name":"Juanda","station_id":"JUA","is_transit":false,"i_lat":-6.166716,"i_long":106.828284},{"is_transit":false,"distance":1149,"line":2,"transit":false,"station_id":"SW","station_name":"Sawah Besar","i_lat":-6.160725,"i_long":106.827103,"time":2},{"station_name":"Manggabesar","distance":906,"i_long":106.82482,"i_lat":-6.149769,"station_id":"MGB","time":2,"line":2,"is_transit":false,"transit":false},{"station_id":"JAY","time":2,"transit":false,"i_long":106.820901,"station_name":"Jayakarta","distance":1080,"i_lat":-6.141205,"is_transit":false,"line":2},{"station_id":"JAKK","distance":1264,"time":4,"i_long":106.812439,"line":2,"transit":true,"station_name":"Jakarta Kota","i_lat":-6.137569,"is_transit":true},{"time":3,"transit":true,"distance":1364,"line":4,"station_name":"Kampung Bandan","i_lat":-6.132549,"is_transit":true,"station_id":"KPB","i_long":106.826365},{"station_id":"AK","i_long":106.79867,"time":9,"station_name":"Angke","distance":4102,"transit":false,"line":1,"i_lat":-6.144674,"is_transit":false},{"station_id":"DU","distance":1230,"time":4,"transit":false,"i_lat":-6.155215,"station_name":"Duri","is_transit":false,"i_long":106.800832,"line":1},{"station_id":"THB","i_lat":-6.185545,"line":1,"time":8,"station_name":"Tanah Abang","is_transit":true,"distance":3632,"transit":true,"i_long":106.811091},{"i_long":106.79689,"station_name":"Palmerah","line":6,"station_id":"PLM","time":6,"transit":false,"i_lat":-6.207404,"is_transit":false,"distance":3191}],[{"distance":0,"transit":false,"i_lat":-6.258864,"i_long":107.055722,"station_id":"TB","station_name":"Tambun","line":1,"time":0,"is_transit":false},{"station_id":"BKST","line":1,"time":7,"station_name":"Bekasi Timur","distance":4460,"i_lat":-6.248029,"i_long":107.016735,"is_transit":false,"transit":false},{"station_id":"BKS","distance":2368,"is_transit":false,"station_name":"Bekasi","transit":false,"i_lat":-6.236616,"time":2,"i_long":106.997013,"line":1},{"i_long":106.977657,"i_lat":-6.224515,"is_transit":false,"line":1,"transit":false,"station_name":"Kranji","station_id":"KRI","time":4,"distance":2520},{"time":3,"is_transit":false,"line":1,"station_name":"Cakung","station_id":"CUK","i_lat":-6.219053,"i_long":106.951283,"distance":3097,"transit":false},{"i_long":106.939679,"time":8,"station_name":"Klenderbaru","i_lat":-6.217455,"is_transit":false,"distance":1385,"transit":false,"line":1,"station_id":"KLDB"},{"transit":false,"station_name":"Buaran","station_id":"BUA","distance":1305,"i_lat":-6.215568,"line":1,"time":1,"is_transit":false,"i_long":106.922662},{"station_name":"Klender","time":2,"station_id":"KLD","transit":false,"line":1,"i_lat":-6.2135,"is_transit":false,"i_long":106.899548,"distance":3100},{"distance":3395,"transit":true,"line":1,"station_name":"Jatinegara","station_id":"JNG","is_transit":true,"i_lat":-6.215091,"time":3,"i_long":106.86807400000001},{"distance":1236,"station_id":"POK","station_name":"Pondok Jati","i_lat":-6.209188,"is_transit":false,"time":2,"transit":false,"i_long":106.861737,"line":11},{"i_lat":-6.193792,"line":11,"station_name":"Kramat","station_id":"KMT","distance":1829,"time":2,"is_transit":false,"transit":false,"i_long":106.855437},{"station_name":"Gang Sentiong","transit":false,"i_long":106.850107,"station_id":"GST","line":11,"time":1,"distance":973,"is_transit":false,"i_lat":-6.185975},{"i_long":106.84368,"station_id":"PSE","line":11,"transit":false,"time":8,"distance":1567,"station_name":"Pasar Senen","i_lat":-6.174784,"is_transit":false},{"station_name":"Kemayoran","station_id":"KMO","transit":false,"distance":1436,"i_long":106.839204,"i_lat":-6.161728,"time":4,"line":11,"is_transit":false},{"time":5,"is_transit":false,"line":11,"distance":1901,"station_id":"RJW","station_name":"Rajawali","i_lat":-6.14505,"transit":false,"i_long":106.836569},{"station_name":"Kampung Bandan","transit":true,"time":3,"i_long":106.826365,"i_lat":-6.132549,"line":4,"station_id":"KPB","distance":1444,"is_transit":true},{"time":3,"station_name":"Jakarta Kota","is_transit":true,"station_id":"JAKK","i_long":106.812439,"i_lat":-6.137569,"distance":1364,"line":2,"transit":true},{"i_long":106.820901,"line":2,"station_id":"JAY","time":4,"distance":1264,"i_lat":-6.141205,"is_transit":false,"station_name":"Jayakarta","transit":false},{"station_name":"Manggabesar","line":2,"distance":1080,"station_id":"MGB","is_transit":false,"transit":false,"time":2,"i_long":106.82482,"i_lat":-6.149769},{"is_transit":false,"time":2,"line":2,"station_name":"Sawah Besar","distance":906,"i_long":106.827103,"transit":false,"station_id":"SW","i_lat":-6.160725},{"is_transit":false,"line":2,"station_name":"Juanda","i_lat":-6.166716,"transit":false,"time":2,"distance":1149,"station_id":"JUA","i_long":106.828284},{"line":2,"i_lat":-6.186295,"distance":2015,"is_transit":false,"transit":false,"station_id":"GDD","time":4,"i_long":106.832183,"station_name":"Gondangdia"},{"station_name":"Cikini","is_transit":false,"i_long":106.840169,"i_lat":-6.198556,"line":2,"distance":1750,"transit":false,"station_id":"CKI","time":3},{"time":4,"distance":1590,"is_transit":true,"station_name":"Manggarai","transit":true,"i_long":106.84912,"line":2,"i_lat":-6.209883,"station_id":"MRI"},{"i_long":106.822649,"is_transit":false,"time":4,"line":1,"distance":3186,"transit":false,"station_name":"Sudirman","i_lat":-6.202263,"station_id":"SUD"},{"station_name":"Sudirman Baru","line":1,"transit":false,"is_transit":false,"i_long":106.819881,"station_id":"SUDB","time":1,"i_lat":-6.201433,"distance":280},{"line":1,"time":1,"i_long":106.816351,"distance":471,"station_name":"Karet","is_transit":false,"transit":false,"station_id":"KAT","i_lat":-6.20132},{"station_id":"THB","time":5,"distance":2029,"station_name":"Tanah Abang","is_transit":true,"i_lat":-6.185545,"transit":true,"i_long":106.811091,"line":1},{"line":6,"i_long":106.79689,"distance":3191,"transit":false,"is_transit":false,"i_lat":-6.207404,"time":6,"station_name":"Palmerah","station_id":"PLM"}]]}