{"data":[[{"i_lat":-6.258864,"i_long":107.055722,"line":1,"station_name":"Tambun","is_transit":false,"station_id":"TB","time":0,"transit":false,"distance":0},{"station_name":"Bekasi Timur","is_transit":false,"line":1,"station_id":"BKST","time":7,"i_lat":-6.248029,"transit":false,"distance":4460,"i_long":107.016735},{"line":1,"transit":false,"station_name":"Bekasi","time":2,"distance":2368,"i_lat":-6.236616,"station_id":"BKS","i_long":106.997013,"is_transit":false},{"line":1,"station_name":"Kranji","time":4,"i_long":106.977657,"distance":2520,"transit":false,"i_lat":-6.224515,"is_transit":false,"station_id":"KRI"},{"is_transit":false,"line":1,"i_long":106.951283,"i_lat":-6.219053,"station_id":"CUK","transit":false,"station_name":"Cakung","time":3,"distance":3097},{"station_id":"KLDB","station_name":"Klenderbaru","transit":false,"distance":1385,"line":1,"i_long":106.939679,"time":8,"i_lat":-6.217455,"is_transit":false},{"station_name":"Buaran","distance":1305,"i_lat":-6.215568,"i_long":106.922662,"station_id":"BUA","time":1,"transit":false,"line":1,"is_transit":false},{"station_id":"KLD","station_name":"Klender","distance":3100,"is_transit":false,"i_lat":-6.2135,"line":1,"i_long":106.899548,"time":2,"transit":false},{"is_transit":false,"distance":3395,"i_lat":-6.215091,"line":1,"station_name":"Jatinegara","time":3,"transit":false,"station_id":"JNG","i_long":106.86807400000001},{"i_lat":-6.212485,"time":2,"station_name":"Matraman","distance":1377,"line":1,"transit":false,"is_transit":false,"station_id":"MTR","i_long":106.858896},{"is_transit":false,"i_long":106.84912,"line":2,"transit":false,"distance":1275,"station_name":"Manggarai","time":2,"station_id":"MRI","i_lat":-6.209883},{"station_name":"Sudirman","is_transit":false,"i_lat":-6.202263,"line":1,"station_id":"SUD","i_long":106.822649,"transit":false,"distance":3186,"time":4},{"i_long":106.819881,"line":1,"is_transit":false,"transit":false,"station_id":"SUDB","time":1,"distance":280,"i_lat":-6.201433,"station_name":"Sudirman Baru"},{"distance":471,"line":1,"station_name":"Karet","i_long":106.816351,"transit":false,"i_lat":-6.20132,"is_transit":false,"time":1,"station_id":"KAT"},{"line":1,"distance":2029,"station_name":"Tanah Abang","is_transit":false,"time":5,"station_id":"THB","transit":false,"i_lat":-6.185545,"i_long":106.811091},{"transit":true,"line":1,"i_lat":-6.155215,"is_transit":true,"station_id":"DU","time":8,"i_long":106.800832,"distance":3632,"station_name":"Duri"},{"transit":false,"is_transit":false,"time":3,"line":5,"distance":1700,"i_lat":-6.162021,"i_long":106.788277,"station_name":"Grogol","station_id":"GGL"},{"time":2,"transit":false,"station_name":"Pesing","distance":2036,"station_id":"PSG","i_lat":-6.161433,"i_long":106.771379,"line":5,"is_transit":false}],[{"is_transit":false,"transit":false,"distance":0,"i_lat":-6.258864,"time":0,"station_id":"TB","i_long":107.055722,"line":1,"station_name":"Tambun"},{"line":1,"transit":false,"station_id":"BKST","time":7,"station_name":"Bekasi Timur","i_lat":-6.248029,"is_transit":false,"distance":4460,"i_long":107.016735},{"station_name":"Bekasi","transit":false,"i_long":106.997013,"is_transit":false,"station_id":"BKS","line":1,"time":2,"distance":2368,"i_lat":-6.236616},{"is_transit":false,"transit":false,"station_id":"KRI","time":4,"station_name":"Kranji","distance":2520,"i_lat":-6.224515,"line":1,"i_long":106.977657},{"station_name":"Cakung","station_id":"CUK","time":3,"line":1,"i_long":106.951283,"distance":3097,"is_transit":false,"i_lat":-6.219053,"transit":false},{"is_transit":false,"line":1,"station_name":"Klenderbaru","time":8,"transit":false,"i_lat":-6.217455,"station_id":"KLDB","i_long":106.939679,"distance":1385},{"station_name":"Buaran","time":1,"i_lat":-6.215568,"i_long":106.922662,"transit":false,"distance":1305,"station_id":"BUA","is_transit":false,"line":1},{"is_transit":false,"i_lat":-6.2135,"station_name":"Klender","i_long":106.899548,"station_id":"KLD","line":1,"transit":false,"distance":3100,"time":2},{"i_long":106.86807400000001,"distance":3395,"line":1,"is_transit":true,"station_id":"JNG","time":3,"i_lat":-6.215091,"transit":true,"station_name":"Jatinegara"},{"is_transit":false,"station_name":"Pondok Jati","time":2,"station_id":"POK","line":11,"transit":false,"distance":1236,"i_long":106.861737,"i_lat":-6.209188},{"i_long":106.855437,"station_id":"KMT","transit":false,"station_name":"Kramat","distance":1829,"line":11,"is_transit":false,"i_lat":-6.193792,"time":2},{"line":11,"i_long":106.850107,"distance":973,"transit":false,"time":1,"i_lat":-6.185975,"station_name":"Gang Sentiong","station_id":"GST","is_transit":false},{"i_long":106.84368,"station_id":"PSE","distance":1567,"is_transit":false,"transit":false,"time":8,"i_lat":-6.174784,"line":11,"station_name":"Pasar Senen"},{"line":11,"i_lat":-6.161728,"i_long":106.839204,"station_id":"KMO","is_transit":false,"station_name":"Kemayoran","time":4,"distance":1436,"transit":false},{"station_name":"Rajawali","time":5,"distance":1901,"station_id":"RJW","line":11,"is_transit":false,"i_lat":-6.14505,"i_long":106.836569,"transit":false},{"station_name":"Kampung Bandan","i_long":106.826365,"is_transit":true,"station_id":"KPB","transit":true,"line":4,"time":3,"distance":1444,"i_lat":-6.132549},{"station_name":"Angke","distance":4102,"i_long":106.79867,"time":9,"i_lat":-6.144674,"is_transit":false,"station_id":"AK","line":1,"transit":false},{"i_long":106.800832,"time":4,"line":1,"distance":1230,"is_transit":true,"i_lat":-6.155215,"transit":true,"station_name":"Duri","station_id":"DU"},{"is_transit":false,"i_lat":-6.162021,"i_long":106.788277,"distance":1700,"line":5,"station_id":"GGL","time":3,"transit":false,"station_name":"Grogol"},{"line":5,"station_id":"PSG","i_lat":-6.161433,"transit":false,"station_name":"Pesing","time":2,"is_transit":false,"i_long":106.771379,"distance":2036}],[{"distance":0,"i_lat":-6.258864,"line":1,"time":0,"i_long":107.055722,"is_transit":false,"transit":false,"station_id":"TB","station_name":"Tambun"},{"time":7,"i_lat":-6.248029,"transit":false,"line":1,"i_long":107.016735,"station_name":"Bekasi Timur","is_transit":false,"distance":4460,"station_id":"BKST"},{"i_lat":-6.236616,"is_transit":false,"time":2,"distance":2368,"transit":false,"i_long":106.997013,"station_name":"Bekasi","station_id":"BKS","line":1},{"time":4,"line":1,"is_transit":false,"i_lat":-6.224515,"i_long":106.977657,"transit":false,"distance":2520,"station_name":"Kranji","station_id":"KRI"},{"distance":3097,"line":1,"i_lat":-6.219053,"time":3,"transit":false,"station_name":"Cakung","i_long":106.951283,"station_id":"CUK","is_transit":false},{"transit":false,"i_lat":-6.217455,"station_name":"Klenderbaru","station_id":"KLDB","i_long":106.939679,"line":1,"is_transit":false,"time":8,"distance":1385},{"transit":false,"i_lat":-6.215568,"distance":1305,"time":1,"i_long":106.922662,"is_transit":false,"station_id":"BUA","line":1,"station_name":"Buaran"},{"station_name":"Klender","line":1,"transit":false,"is_transit":false,"i_lat":-6.2135,"distance":3100,"time":2,"station_id":"KLD","i_long":106.899548},{"time":3,"transit":false,"station_name":"Jatinegara","i_lat":-6.215091,"distance":3395,"station_id":"JNG","is_transit":false,"i_long":106.86807400000001,"line":1},{"station_name":"Matraman","line":1,"transit":false,"station_id":"MTR","i_lat":-6.212485,"distance":1377,"i_long":106.858896,"is_transit":false,"time":2},{"is_transit":true,"time":2,"distance":1275,"station_id":"MRI","line":2,"transit":true,"station_name":"Manggarai","i_lat":-6.209883,"i_long":106.84912},{"distance":1590,"line":2,"is_transit":false,"time":4,"i_long":106.840169,"transit":false,"station_id":"CKI","i_lat":-6.198556,"station_name":"Cikini"},{"station_name":"Gondangdia","i_lat":-6.186295,"transit":false,"line":2,"station_id":"GDD","is_transit":false,"time":3,"distance":1750,"i_long":106.832183},{"distance":2015,"line":2,"i_long":106.828284,"i_lat":-6.166716,"station_name":"Juanda","transit":false,"station_id":"JUA","time":4,"is_transit":false},{"i_long":106.827103,"transit":false,"station_name":"Sawah Besar","is_transit":false,"distance":1149,"station_id":"SW","time":2,"line":2,"i_lat":-6.160725},{"transit":false,"station_id":"MGB","distance":906,"station_name":"Manggabesar","i_long":106.82482,"time":2,"i_lat":-6.149769,"line":2,"is_transit":false},{"line":2,"i_long":106.820901,"transit":false,"time":2,"station_name":"Jayakarta","station_id":"JAY","i_lat":-6.141205,"distance":1080,"is_transit":false},{"i_long":106.812439,"is_transit":true,"i_lat":-6.137569,"transit":true,"station_id":"JAKK","time":4,"line":2,"station_name":"Jakarta Kota","distance":1264},{"i_lat":-6.132549,"transit":true,"is_transit":true,"station_name":"Kampung Bandan","line":4,"time":3,"i_long":106.826365,"station_id":"KPB","distance":1364},{"i_long":106.79867,"time":9,"station_name":"Angke","transit":false,"i_lat":-6.144674,"is_transit":false,"distance":4102,"line":1,"station_id":"AK"},{"is_transit":true,"line":1,"station_id":"DU","transit":true,"time":4,"distance":1230,"i_long":106.800832,"station_name":"Duri","i_lat":-6.155215},{"distance":1700,"transit":false,"station_name":"Grogol","station_id":"GGL","i_long":106.788277,"is_transit":false,"i_lat":-6.162021,"line":5,"time":3},{"i_long":106.771379,"line":5,"time":2,"station_name":"Pesing","distance":2036,"station_id":"PSG","is_transit":false,"transit":false,"i_lat":-6.161433}],[{"transit":false,"station_id":"TB","is_transit":false,"i_long":107.055722,"station_name":"Tambun","time":0,"i_lat":-6.258864,"line":1,"distance":0},{"time":7,"station_name":"Bekasi Timur","station_id":"BKST","i_long":107.016735,"line":1,"is_transit":false,"i_lat":-6.248029,"distance":4460,"transit":false},{"is_transit":false,"station_id":"BKS","distance":2368,"time":2,"transit":false,"i_lat":-6.236616,"station_name":"Bekasi","line":1,"i_long":106.997013},{"distance":2520,"time":4,"station_name":"Kranji","i_lat":-6.224515,"station_id":"KRI","transit":false,"line":1,"i_long":106.977657,"is_transit":false},{"station_name":"Cakung","distance":3097,"line":1,"transit":false,"i_long":106.951283,"i_lat":-6.219053,"station_id":"CUK","is_transit":false,"time":3},{"is_transit":false,"i_long":106.939679,"i_lat":-6.217455,"station_name":"Klenderbaru","line":1,"transit":false,"time":8,"distance":1385,"station_id":"KLDB"},{"i_long":106.922662,"distance":1305,"station_name":"Buaran","station_id":"BUA","line":1,"transit":false,"is_transit":false,"time":1,"i_lat":-6.215568},{"time":2,"i_lat":-6.2135,"distance":3100,"transit":false,"station_id":"KLD","is_transit":false,"i_long":106.899548,"line":1,"station_name":"Klender"},{"i_long":106.86807400000001,"is_transit":true,"transit":true,"time":3,"distance":3395,"station_name":"Jatinegara","station_id":"JNG","i_lat":-6.215091,"line":1},{"transit":false,"station_name":"Pondok Jati","station_id":"POK","i_long":106.861737,"time":2,"distance":1236,"i_lat":-6.209188,"is_transit":false,"line":11},{"station_name":"Kramat","i_long":106.855437,"i_lat":-6.193792,"is_transit":false,"transit":false,"line":11,"station_id":"KMT","time":2,"distance":1829},{"station_id":"GST","is_transit":false,"time":1,"transit":false,"distance":973,"i_long":106.850107,"station_name":"Gang Sentiong","line":11,"i_lat":-6.185975},{"is_transit":false,"i_long":106.84368,"i_lat":-6.174784,"station_id":"PSE","line":11,"transit":false,"station_name":"Pasar Senen","time":8,"distance":1567},{"station_name":"Kemayoran","time":4,"distance":1436,"transit":false,"station_id":"KMO","i_lat":-6.161728,"i_long":106.839204,"line":11,"is_transit":false},{"distance":1901,"is_transit":false,"time":5,"transit":false,"station_name":"Rajawali","station_id":"RJW","i_long":106.836569,"line":11,"i_lat":-6.14505},{"station_name":"Kampung Bandan","station_id":"KPB","distance":1444,"i_lat":-6.132549,"i_long":106.826365,"is_transit":true,"line":4,"transit":true,"time":3},{"is_transit":true,"i_long":106.812439,"station_name":"Jakarta Kota","distance":1364,"line":2,"transit":true,"station_id":"JAKK","time":3,"i_lat":-6.137569},{"i_lat":-6.141205,"transit":false,"is_transit":false,"station_id":"JAY","time":4,"station_name":"Jayakarta","distance":1264,"i_long":106.820901,"line":2},{"is_transit":false,"i_lat":-6.149769,"transit":false,"line":2,"distance":1080,"station_name":"Manggabesar","time":2,"station_id":"MGB","i_long":106.82482},{"time":2,"station_name":"Sawah Besar","i_long":106.827103,"line":2,"station_id":"SW","i_lat":-6.160725,"is_transit":false,"transit":false,"distance":906},{"transit":false,"i_long":106.828284,"i_lat":-6.166716,"distance":1149,"station_id":"JUA","station_name":"Juanda","line":2,"is_transit":false,"time":2},{"is_transit":false,"line":2,"transit":false,"station_id":"GDD","distance":2015,"i_long":106.832183,"i_lat":-6.186295,"time":4,"station_name":"Gondangdia"},{"i_long":106.840169,"i_lat":-6.198556,"distance":1750,"time":3,"line":2,"transit":false,"station_name":"Cikini","is_transit":false,"station_id":"CKI"},{"time":4,"transit":true,"distance":1590,"i_lat":-6.209883,"line":2,"is_transit":true,"i_long":106.84912,"station_name":"Manggarai","station_id":"MRI"},{"i_lat":-6.202263,"station_name":"Sudirman","distance":3186,"i_long":106.822649,"station_id":"SUD","line":1,"is_transit":false,"transit":false,"time":4},{"station_name":"Sudirman Baru","i_lat":-6.201433,"i_long":106.819881,"transit":false,"distance":280,"time":1,"station_id":"SUDB","is_transit":false,"line":1},{"time":1,"distance":471,"station_id":"KAT","i_lat":-6.20132,"is_transit":false,"i_long":106.816351,"line":1,"station_name":"Karet","transit":false},{"i_lat":-6.185545,"station_name":"Tanah Abang","is_transit":false,"i_long":106.811091,"line":1,"transit":false,"station_id":"THB","distance":2029,"time":5},{"is_transit":true,"i_lat":-6.155215,"i_long":106.800832,"transit":true,"time":8,"station_name":"Duri","station_id":"DU","distance":3632,"line":1},{"line":5,"time":3,"station_id":"GGL","station_name":"Grogol","is_transit":false,"i_long":106.788277,"transit":false,"distance":1700,"i_lat":-6.162021},{"line":5,"distance":2036,"transit":false,"station_name":"Pesing","i_lat":-6.161433,"is_transit":false,"i_long":106.771379,"station_id":"PSG","time":2}]]}