{"data":[[{"station_name":"Tambun","i_lat":-6.258864,"transit":false,"station_id":"TB","line":1,"distance":0,"i_long":107.055722,"is_transit":false,"time":0},{"is_transit":false,"i_lat":-6.248029,"transit":false,"i_long":107.016735,"station_id":"BKST","station_name":"Bekasi Timur","distance":4460,"time":7,"line":1},{"transit":false,"distance":2368,"i_lat":-6.236616,"time":2,"station_id":"BKS","is_transit":false,"station_name":"Bekasi","line":1,"i_long":106.997013},{"i_lat":-6.224515,"time":4,"line":1,"is_transit":false,"station_id":"KRI","station_name":"Kranji","distance":2520,"transit":false,"i_long":106.977657},{"is_transit":false,"time":3,"station_name":"Cakung","transit":false,"i_lat":-6.219053,"i_long":106.951283,"station_id":"CUK","line":1,"distance":3097},{"transit":false,"line":1,"is_transit":false,"station_name":"Klenderbaru","time":8,"distance":1385,"station_id":"KLDB","i_lat":-6.217455,"i_long":106.939679},{"time":1,"transit":false,"distance":1305,"is_transit":false,"station_id":"BUA","line":1,"i_lat":-6.215568,"i_long":106.922662,"station_name":"Buaran"},{"station_name":"Klender","line":1,"transit":false,"is_transit":false,"time":2,"station_id":"KLD","distance":3100,"i_lat":-6.2135,"i_long":106.899548},{"is_transit":false,"time":3,"distance":3395,"station_id":"JNG","i_lat":-6.215091,"line":1,"i_long":106.86807400000001,"station_name":"Jatinegara","transit":false},{"station_id":"MTR","transit":false,"i_lat":-6.212485,"i_long":106.858896,"is_transit":false,"time":2,"line":1,"station_name":"Matraman","distance":1377},{"station_name":"Manggarai","distance":1275,"i_lat":-6.209883,"line":2,"transit":false,"time":2,"i_long":106.84912,"is_transit":false,"station_id":"MRI"},{"distance":3186,"station_id":"SUD","line":1,"station_name":"Sudirman","is_transit":false,"time":4,"i_lat":-6.202263,"i_long":106.822649,"transit":false},{"line":1,"time":1,"station_id":"SUDB","transit":false,"i_lat":-6.201433,"is_transit":false,"distance":280,"i_long":106.819881,"station_name":"Sudirman Baru"},{"time":1,"line":1,"i_long":106.816351,"transit":false,"station_name":"Karet","distance":471,"station_id":"KAT","i_lat":-6.20132,"is_transit":false},{"i_lat":-6.185545,"transit":true,"station_name":"Tanah Abang","i_long":106.811091,"station_id":"THB","is_transit":true,"distance":2029,"time":5,"line":1},{"i_long":106.79689,"station_id":"PLM","i_lat":-6.207404,"time":6,"line":6,"station_name":"Palmerah","distance":3191,"transit":false,"is_transit":false}],[{"station_name":"Tambun","station_id":"TB","i_lat":-6.258864,"i_long":107.055722,"distance":0,"time":0,"transit":false,"is_transit":false,"line":1},{"line":1,"i_lat":-6.248029,"station_id":"BKST","distance":4460,"i_long":107.016735,"station_name":"Bekasi Timur","is_transit":false,"time":7,"transit":false},{"is_transit":false,"time":2,"transit":false,"station_name":"Bekasi","station_id":"BKS","distance":2368,"i_lat":-6.236616,"line":1,"i_long":106.997013},{"line":1,"is_transit":false,"time":4,"transit":false,"distance":2520,"i_lat":-6.224515,"i_long":106.977657,"station_id":"KRI","station_name":"Kranji"},{"i_lat":-6.219053,"time":3,"i_long":106.951283,"transit":false,"distance":3097,"station_id":"CUK","station_name":"Cakung","line":1,"is_transit":false},{"is_transit":false,"station_name":"Klenderbaru","transit":false,"distance":1385,"line":1,"time":8,"station_id":"KLDB","i_lat":-6.217455,"i_long":106.939679},{"station_id":"BUA","line":1,"distance":1305,"i_lat":-6.215568,"time":1,"is_transit":false,"i_long":106.922662,"station_name":"Buaran","transit":false},{"i_lat":-6.2135,"i_long":106.899548,"transit":false,"is_transit":false,"line":1,"time":2,"station_name":"Klender","distance":3100,"station_id":"KLD"},{"station_name":"Jatinegara","station_id":"JNG","is_transit":true,"transit":true,"time":3,"i_long":106.86807400000001,"line":1,"distance":3395,"i_lat":-6.215091},{"transit":false,"station_id":"POK","i_lat":-6.209188,"i_long":106.861737,"is_transit":false,"time":2,"distance":1236,"station_name":"Pondok Jati","line":11},{"transit":false,"i_long":106.855437,"is_transit":false,"station_name":"Kramat","time":2,"station_id":"KMT","distance":1829,"i_lat":-6.193792,"line":11},{"i_long":106.850107,"station_name":"Gang Sentiong","i_lat":-6.185975,"time":1,"distance":973,"line":11,"is_transit":false,"transit":false,"station_id":"GST"},{"transit":false,"station_id":"PSE","i_long":106.84368,"i_lat":-6.174784,"station_name":"Pasar Senen","is_transit":false,"distance":1567,"line":11,"time":8},{"distance":1436,"i_lat":-6.161728,"station_id":"KMO","is_transit":false,"station_name":"Kemayoran","transit":false,"time":4,"i_long":106.839204,"line":11},{"station_id":"RJW","i_long":106.836569,"i_lat":-6.14505,"transit":false,"time":5,"is_transit":false,"distance":1901,"line":11,"station_name":"Rajawali"},{"transit":true,"station_id":"KPB","i_long":106.826365,"station_name":"Kampung Bandan","is_transit":true,"line":4,"distance":1444,"i_lat":-6.132549,"time":3},{"transit":false,"time":9,"station_id":"AK","i_long":106.79867,"line":1,"station_name":"Angke","distance":4102,"i_lat":-6.144674,"is_transit":false},{"is_transit":false,"i_long":106.800832,"station_name":"Duri","time":4,"transit":false,"distance":1230,"station_id":"DU","i_lat":-6.155215,"line":1},{"i_lat":-6.185545,"station_name":"Tanah Abang","i_long":106.811091,"is_transit":true,"distance":3632,"line":1,"station_id":"THB","transit":true,"time":8},{"time":6,"transit":false,"is_transit":false,"distance":3191,"line":6,"station_id":"PLM","i_lat":-6.207404,"i_long":106.79689,"station_name":"Palmerah"}],[{"station_id":"TB","transit":false,"distance":0,"i_lat":-6.258864,"i_long":107.055722,"line":1,"time":0,"station_name":"Tambun","is_transit":false},{"is_transit":false,"i_lat":-6.248029,"i_long":107.016735,"line":1,"distance":4460,"time":7,"transit":false,"station_id":"BKST","station_name":"Bekasi Timur"},{"i_long":106.997013,"distance":2368,"station_id":"BKS","i_lat":-6.236616,"time":2,"is_transit":false,"transit":false,"station_name":"Bekasi","line":1},{"time":4,"station_id":"KRI","transit":false,"station_name":"Kranji","i_long":106.977657,"is_transit":false,"line":1,"i_lat":-6.224515,"distance":2520},{"station_id":"CUK","station_name":"Cakung","distance":3097,"is_transit":false,"line":1,"time":3,"transit":false,"i_long":106.951283,"i_lat":-6.219053},{"station_id":"KLDB","is_transit":false,"station_name":"Klenderbaru","i_lat":-6.217455,"time":8,"line":1,"i_long":106.939679,"transit":false,"distance":1385},{"time":1,"line":1,"i_lat":-6.215568,"i_long":106.922662,"station_name":"Buaran","transit":false,"distance":1305,"is_transit":false,"station_id":"BUA"},{"i_lat":-6.2135,"time":2,"transit":false,"distance":3100,"is_transit":false,"station_name":"Klender","i_long":106.899548,"station_id":"KLD","line":1},{"distance":3395,"i_long":106.86807400000001,"transit":false,"station_name":"Jatinegara","station_id":"JNG","i_lat":-6.215091,"line":1,"is_transit":false,"time":3},{"station_name":"Matraman","distance":1377,"is_transit":false,"station_id":"MTR","time":2,"i_lat":-6.212485,"i_long":106.858896,"transit":false,"line":1},{"i_long":106.84912,"time":2,"station_id":"MRI","line":2,"transit":true,"is_transit":true,"station_name":"Manggarai","i_lat":-6.209883,"distance":1275},{"line":2,"station_id":"CKI","distance":1590,"station_name":"Cikini","is_transit":false,"time":4,"transit":false,"i_lat":-6.198556,"i_long":106.840169},{"station_id":"GDD","distance":1750,"i_lat":-6.186295,"time":3,"station_name":"Gondangdia","is_transit":false,"line":2,"i_long":106.832183,"transit":false},{"transit":false,"station_id":"JUA","i_lat":-6.166716,"i_long":106.828284,"station_name":"Juanda","distance":2015,"time":4,"is_transit":false,"line":2},{"station_id":"SW","transit":false,"i_lat":-6.160725,"station_name":"Sawah Besar","is_transit":false,"i_long":106.827103,"line":2,"time":2,"distance":1149},{"station_name":"Manggabesar","is_transit":false,"time":2,"transit":false,"i_long":106.82482,"i_lat":-6.149769,"line":2,"station_id":"MGB","distance":906},{"line":2,"distance":1080,"i_lat":-6.141205,"station_name":"Jayakarta","i_long":106.820901,"is_transit":false,"station_id":"JAY","time":2,"transit":false},{"is_transit":true,"station_id":"JAKK","distance":1264,"i_lat":-6.137569,"transit":true,"station_name":"Jakarta Kota","i_long":106.812439,"line":2,"time":4},{"station_id":"KPB","distance":1364,"line":4,"i_long":106.826365,"is_transit":true,"station_name":"Kampung Bandan","time":3,"transit":true,"i_lat":-6.132549},{"distance":4102,"time":9,"is_transit":false,"line":1,"i_lat":-6.144674,"station_name":"Angke","transit":false,"station_id":"AK","i_long":106.79867},{"distance":1230,"station_id":"DU","time":4,"i_long":106.800832,"i_lat":-6.155215,"line":1,"station_name":"Duri","is_transit":false,"transit":false},{"is_transit":true,"station_name":"Tanah Abang","i_lat":-6.185545,"transit":true,"station_id":"THB","distance":3632,"i_long":106.811091,"line":1,"time":8},{"line":6,"is_transit":false,"transit":false,"station_id":"PLM","distance":3191,"station_name":"Palmerah","i_lat":-6.207404,"time":6,"i_long":106.79689}],[{"distance":0,"station_name":"Tambun","i_long":107.055722,"station_id":"TB","transit":false,"is_transit":false,"time":0,"i_lat":-6.258864,"line":1},{"i_lat":-6.248029,"i_long":107.016735,"is_transit":false,"station_id":"BKST","line":1,"station_name":"Bekasi Timur","time":7,"distance":4460,"transit":false},{"time":2,"distance":2368,"transit":false,"line":1,"i_lat":-6.236616,"is_transit":false,"station_name":"Bekasi","i_long":106.997013,"station_id":"BKS"},{"station_name":"Kranji","distance":2520,"i_lat":-6.224515,"i_long":106.977657,"time":4,"line":1,"is_transit":false,"transit":false,"station_id":"KRI"},{"distance":3097,"transit":false,"time":3,"i_lat":-6.219053,"i_long":106.951283,"station_id":"CUK","line":1,"station_name":"Cakung","is_transit":false},{"i_long":106.939679,"time":8,"transit":false,"line":1,"station_name":"Klenderbaru","station_id":"KLDB","is_transit":false,"i_lat":-6.217455,"distance":1385},{"i_lat":-6.215568,"line":1,"i_long":106.922662,"time":1,"distance":1305,"station_name":"Buaran","station_id":"BUA","transit":false,"is_transit":false},{"line":1,"is_transit":false,"i_lat":-6.2135,"station_id":"KLD","transit":false,"distance":3100,"station_name":"Klender","time":2,"i_long":106.899548},{"station_id":"JNG","time":3,"is_transit":true,"i_long":106.86807400000001,"line":1,"station_name":"Jatinegara","transit":true,"i_lat":-6.215091,"distance":3395},{"distance":1236,"line":11,"station_name":"Pondok Jati","time":2,"i_long":106.861737,"i_lat":-6.209188,"transit":false,"is_transit":false,"station_id":"POK"},{"line":11,"station_id":"KMT","transit":false,"station_name":"Kramat","i_long":106.855437,"i_lat":-6.193792,"time":2,"is_transit":false,"distance":1829},{"station_id":"GST","is_transit":false,"i_lat":-6.185975,"transit":false,"distance":973,"station_name":"Gang Sentiong","i_long":106.850107,"line":11,"time":1},{"station_id":"PSE","distance":1567,"station_name":"Pasar Senen","transit":false,"time":8,"i_lat":-6.174784,"i_long":106.84368,"is_transit":false,"line":11},{"station_id":"KMO","i_lat":-6.161728,"i_long":106.839204,"transit":false,"is_transit":false,"station_name":"Kemayoran","line":11,"distance":1436,"time":4},{"station_id":"RJW","time":5,"i_long":106.836569,"line":11,"is_transit":false,"transit":false,"station_name":"Rajawali","distance":1901,"i_lat":-6.14505},{"station_id":"KPB","time":3,"station_name":"Kampung Bandan","i_lat":-6.132549,"is_transit":true,"i_long":106.826365,"distance":1444,"line":4,"transit":true},{"line":2,"station_name":"Jakarta Kota","i_long":106.812439,"transit":true,"is_transit":true,"station_id":"JAKK","time":3,"distance":1364,"i_lat":-6.137569},{"time":4,"station_id":"JAY","is_transit":false,"transit":false,"distance":1264,"station_name":"Jayakarta","line":2,"i_long":106.820901,"i_lat":-6.141205},{"i_lat":-6.149769,"station_name":"Manggabesar","i_long":106.82482,"transit":false,"line":2,"is_transit":false,"station_id":"MGB","distance":1080,"time":2},{"time":2,"station_name":"Sawah Besar","distance":906,"station_id":"SW","is_transit":false,"i_lat":-6.160725,"transit":false,"i_long":106.827103,"line":2},{"line":2,"transit":false,"is_transit":false,"distance":1149,"i_lat":-6.166716,"i_long":106.828284,"station_id":"JUA","time":2,"station_name":"Juanda"},{"line":2,"station_name":"Gondangdia","i_lat":-6.186295,"time":4,"i_long":106.832183,"station_id":"GDD","distance":2015,"is_transit":false,"transit":false},{"line":2,"time":3,"transit":false,"station_id":"CKI","distance":1750,"station_name":"Cikini","is_transit":false,"i_long":106.840169,"i_lat":-6.198556},{"is_transit":true,"time":4,"distance":1590,"station_name":"Manggarai","i_long":106.84912,"station_id":"MRI","transit":true,"i_lat":-6.209883,"line":2},{"station_id":"SUD","is_transit":false,"station_name":"Sudirman","transit":false,"distance":3186,"line":1,"i_lat":-6.202263,"i_long":106.822649,"time":4},{"is_transit":false,"distance":280,"transit":false,"time":1,"line":1,"i_long":106.819881,"station_id":"SUDB","station_name":"Sudirman Baru","i_lat":-6.201433},{"i_lat":-6.20132,"is_transit":false,"time":1,"distance":471,"line":1,"station_id":"KAT","i_long":106.816351,"station_name":"Karet","transit":false},{"is_transit":true,"distance":2029,"time":5,"transit":true,"station_id":"THB","station_name":"Tanah Abang","i_lat":-6.185545,"i_long":106.811091,"line":1},{"transit":false,"i_long":106.79689,"is_transit":false,"distance":3191,"i_lat":-6.207404,"time":6,"station_id":"PLM","line":6,"station_name":"Palmerah"}]]}