{"data":[[{"i_long":107.055722,"line":1,"time":0,"transit":false,"distance":0,"station_name":"Tambun","is_transit":false,"i_lat":-6.258864,"station_id":"TB"},{"i_long":107.016735,"distance":4460,"i_lat":-6.248029,"transit":false,"time":7,"is_transit":false,"station_id":"BKST","line":1,"station_name":"Bekasi Timur"},{"i_lat":-6.236616,"line":1,"is_transit":false,"time":2,"station_id":"BKS","i_long":106.997013,"distance":2368,"transit":false,"station_name":"Bekasi"},{"transit":false,"is_transit":false,"distance":2520,"i_lat":-6.224515,"station_id":"KRI","station_name":"Kranji","line":1,"i_long":106.977657,"time":4},{"line":1,"station_id":"CUK","time":3,"i_lat":-6.219053,"transit":false,"i_long":106.951283,"is_transit":false,"station_name":"Cakung","distance":3097},{"line":1,"is_transit":false,"station_id":"KLDB","time":8,"i_lat":-6.217455,"station_name":"Klenderbaru","distance":1385,"transit":false,"i_long":106.939679},{"line":1,"is_transit":false,"time":1,"i_long":106.922662,"transit":false,"station_name":"Buaran","i_lat":-6.215568,"distance":1305,"station_id":"BUA"},{"transit":false,"distance":3100,"time":2,"i_lat":-6.2135,"line":1,"i_long":106.899548,"station_name":"Klender","station_id":"KLD","is_transit":false},{"i_long":106.86807400000001,"transit":false,"station_name":"Jatinegara","line":1,"i_lat":-6.215091,"station_id":"JNG","time":3,"distance":3395,"is_transit":false},{"station_id":"MTR","station_name":"Matraman","line":1,"is_transit":false,"transit":false,"distance":1377,"i_lat":-6.212485,"i_long":106.858896,"time":2},{"transit":false,"i_long":106.84912,"station_id":"MRI","time":2,"is_transit":false,"distance":1275,"station_name":"Manggarai","i_lat":-6.209883,"line":2},{"time":4,"i_long":106.822649,"station_name":"Sudirman","i_lat":-6.202263,"line":1,"is_transit":false,"distance":3186,"transit":false,"station_id":"SUD"},{"station_name":"Sudirman Baru","i_lat":-6.201433,"is_transit":false,"distance":280,"i_long":106.819881,"station_id":"SUDB","line":1,"time":1,"transit":false},{"is_transit":false,"time":1,"station_name":"Karet","line":1,"transit":false,"distance":471,"station_id":"KAT","i_lat":-6.20132,"i_long":106.816351},{"station_name":"Tanah Abang","time":5,"i_lat":-6.185545,"is_transit":false,"line":1,"transit":false,"distance":2029,"i_long":106.811091,"station_id":"THB"},{"distance":3632,"line":1,"transit":true,"station_id":"DU","station_name":"Duri","is_transit":true,"i_lat":-6.155215,"time":8,"i_long":106.800832},{"station_name":"Grogol","is_transit":false,"distance":1700,"i_long":106.788277,"i_lat":-6.162021,"line":5,"station_id":"GGL","time":3,"transit":false},{"station_id":"PSG","i_lat":-6.161433,"station_name":"Pesing","line":5,"distance":2036,"i_long":106.771379,"is_transit":false,"time":2,"transit":false}],[{"time":0,"distance":0,"station_name":"Tambun","i_lat":-6.258864,"i_long":107.055722,"transit":false,"is_transit":false,"line":1,"station_id":"TB"},{"is_transit":false,"station_id":"BKST","station_name":"Bekasi Timur","i_lat":-6.248029,"distance":4460,"line":1,"i_long":107.016735,"time":7,"transit":false},{"time":2,"is_transit":false,"i_long":106.997013,"distance":2368,"station_id":"BKS","i_lat":-6.236616,"station_name":"Bekasi","transit":false,"line":1},{"i_long":106.977657,"i_lat":-6.224515,"transit":false,"is_transit":false,"distance":2520,"line":1,"station_name":"Kranji","time":4,"station_id":"KRI"},{"distance":3097,"is_transit":false,"transit":false,"station_id":"CUK","line":1,"time":3,"i_long":106.951283,"station_name":"Cakung","i_lat":-6.219053},{"line":1,"transit":false,"station_name":"Klenderbaru","i_lat":-6.217455,"is_transit":false,"station_id":"KLDB","distance":1385,"time":8,"i_long":106.939679},{"i_lat":-6.215568,"is_transit":false,"distance":1305,"i_long":106.922662,"station_id":"BUA","station_name":"Buaran","line":1,"transit":false,"time":1},{"line":1,"i_lat":-6.2135,"transit":false,"time":2,"station_id":"KLD","station_name":"Klender","is_transit":false,"i_long":106.899548,"distance":3100},{"station_name":"Jatinegara","i_lat":-6.215091,"distance":3395,"time":3,"is_transit":true,"station_id":"JNG","i_long":106.86807400000001,"transit":true,"line":1},{"distance":1236,"station_name":"Pondok Jati","i_long":106.861737,"is_transit":false,"i_lat":-6.209188,"station_id":"POK","line":11,"transit":false,"time":2},{"time":2,"is_transit":false,"station_name":"Kramat","station_id":"KMT","distance":1829,"i_lat":-6.193792,"transit":false,"i_long":106.855437,"line":11},{"line":11,"time":1,"station_name":"Gang Sentiong","transit":false,"i_long":106.850107,"is_transit":false,"station_id":"GST","i_lat":-6.185975,"distance":973},{"distance":1567,"station_id":"PSE","i_long":106.84368,"is_transit":false,"transit":false,"line":11,"time":8,"station_name":"Pasar Senen","i_lat":-6.174784},{"transit":false,"station_name":"Kemayoran","distance":1436,"line":11,"i_lat":-6.161728,"is_transit":false,"i_long":106.839204,"time":4,"station_id":"KMO"},{"time":5,"is_transit":false,"station_id":"RJW","i_long":106.836569,"line":11,"transit":false,"station_name":"Rajawali","distance":1901,"i_lat":-6.14505},{"station_name":"Kampung Bandan","distance":1444,"i_long":106.826365,"transit":true,"is_transit":true,"i_lat":-6.132549,"time":3,"station_id":"KPB","line":4},{"i_long":106.79867,"time":9,"station_id":"AK","line":1,"is_transit":false,"station_name":"Angke","distance":4102,"i_lat":-6.144674,"transit":false},{"is_transit":true,"station_name":"Duri","i_lat":-6.155215,"line":1,"i_long":106.800832,"transit":true,"time":4,"distance":1230,"station_id":"DU"},{"time":3,"i_lat":-6.162021,"distance":1700,"i_long":106.788277,"station_name":"Grogol","is_transit":false,"line":5,"station_id":"GGL","transit":false},{"station_id":"PSG","i_long":106.771379,"station_name":"Pesing","is_transit":false,"i_lat":-6.161433,"distance":2036,"transit":false,"line":5,"time":2}],[{"station_id":"TB","station_name":"Tambun","i_lat":-6.258864,"i_long":107.055722,"line":1,"transit":false,"distance":0,"is_transit":false,"time":0},{"time":7,"station_id":"BKST","line":1,"i_long":107.016735,"distance":4460,"is_transit":false,"station_name":"Bekasi Timur","i_lat":-6.248029,"transit":false},{"line":1,"station_name":"Bekasi","is_transit":false,"distance":2368,"transit":false,"i_long":106.997013,"station_id":"BKS","i_lat":-6.236616,"time":2},{"line":1,"is_transit":false,"distance":2520,"station_name":"Kranji","i_long":106.977657,"time":4,"transit":false,"station_id":"KRI","i_lat":-6.224515},{"distance":3097,"station_id":"CUK","i_lat":-6.219053,"i_long":106.951283,"line":1,"time":3,"station_name":"Cakung","is_transit":false,"transit":false},{"i_lat":-6.217455,"transit":false,"distance":1385,"station_id":"KLDB","i_long":106.939679,"is_transit":false,"station_name":"Klenderbaru","time":8,"line":1},{"line":1,"station_id":"BUA","station_name":"Buaran","i_lat":-6.215568,"i_long":106.922662,"time":1,"is_transit":false,"transit":false,"distance":1305},{"transit":false,"station_name":"Klender","station_id":"KLD","is_transit":false,"time":2,"i_lat":-6.2135,"line":1,"i_long":106.899548,"distance":3100},{"station_id":"JNG","transit":false,"is_transit":false,"distance":3395,"i_long":106.86807400000001,"i_lat":-6.215091,"line":1,"time":3,"station_name":"Jatinegara"},{"is_transit":false,"distance":1377,"station_id":"MTR","i_lat":-6.212485,"i_long":106.858896,"line":1,"time":2,"transit":false,"station_name":"Matraman"},{"station_name":"Manggarai","time":2,"line":2,"is_transit":true,"station_id":"MRI","distance":1275,"i_lat":-6.209883,"transit":true,"i_long":106.84912},{"distance":1590,"transit":false,"line":2,"station_name":"Cikini","time":4,"is_transit":false,"i_lat":-6.198556,"i_long":106.840169,"station_id":"CKI"},{"is_transit":false,"station_id":"GDD","i_long":106.832183,"transit":false,"station_name":"Gondangdia","time":3,"i_lat":-6.186295,"line":2,"distance":1750},{"time":4,"line":2,"distance":2015,"station_name":"Juanda","station_id":"JUA","i_lat":-6.166716,"i_long":106.828284,"transit":false,"is_transit":false},{"distance":1149,"station_name":"Sawah Besar","i_long":106.827103,"line":2,"is_transit":false,"transit":false,"i_lat":-6.160725,"station_id":"SW","time":2},{"time":2,"station_id":"MGB","is_transit":false,"distance":906,"transit":false,"i_lat":-6.149769,"line":2,"i_long":106.82482,"station_name":"Manggabesar"},{"i_lat":-6.141205,"i_long":106.820901,"station_id":"JAY","is_transit":false,"station_name":"Jayakarta","time":2,"distance":1080,"transit":false,"line":2},{"station_id":"JAKK","i_long":106.812439,"distance":1264,"line":2,"is_transit":true,"station_name":"Jakarta Kota","i_lat":-6.137569,"transit":true,"time":4},{"i_lat":-6.132549,"i_long":106.826365,"is_transit":true,"transit":true,"station_id":"KPB","station_name":"Kampung Bandan","line":4,"distance":1364,"time":3},{"transit":false,"station_name":"Angke","line":1,"i_long":106.79867,"is_transit":false,"i_lat":-6.144674,"distance":4102,"station_id":"AK","time":9},{"time":4,"station_id":"DU","i_lat":-6.155215,"station_name":"Duri","line":1,"is_transit":true,"i_long":106.800832,"distance":1230,"transit":true},{"distance":1700,"i_lat":-6.162021,"transit":false,"is_transit":false,"station_id":"GGL","line":5,"time":3,"i_long":106.788277,"station_name":"Grogol"},{"distance":2036,"i_lat":-6.161433,"station_name":"Pesing","station_id":"PSG","time":2,"i_long":106.771379,"is_transit":false,"transit":false,"line":5}],[{"station_id":"TB","is_transit":false,"distance":0,"i_lat":-6.258864,"station_name":"Tambun","line":1,"transit":false,"time":0,"i_long":107.055722},{"distance":4460,"station_id":"BKST","station_name":"Bekasi Timur","line":1,"i_lat":-6.248029,"transit":false,"is_transit":false,"i_long":107.016735,"time":7},{"transit":false,"is_transit":false,"time":2,"i_long":106.997013,"line":1,"distance":2368,"station_id":"BKS","station_name":"Bekasi","i_lat":-6.236616},{"line":1,"is_transit":false,"distance":2520,"transit":false,"station_id":"KRI","station_name":"Kranji","i_lat":-6.224515,"i_long":106.977657,"time":4},{"transit":false,"time":3,"station_name":"Cakung","line":1,"is_transit":false,"i_long":106.951283,"station_id":"CUK","i_lat":-6.219053,"distance":3097},{"time":8,"distance":1385,"i_long":106.939679,"i_lat":-6.217455,"line":1,"station_id":"KLDB","station_name":"Klenderbaru","is_transit":false,"transit":false},{"i_lat":-6.215568,"line":1,"station_name":"Buaran","distance":1305,"station_id":"BUA","transit":false,"is_transit":false,"i_long":106.922662,"time":1},{"distance":3100,"i_long":106.899548,"station_name":"Klender","transit":false,"line":1,"station_id":"KLD","i_lat":-6.2135,"is_transit":false,"time":2},{"i_long":106.86807400000001,"line":1,"is_transit":true,"i_lat":-6.215091,"distance":3395,"station_id":"JNG","transit":true,"time":3,"station_name":"Jatinegara"},{"time":2,"transit":false,"i_long":106.861737,"station_name":"Pondok Jati","is_transit":false,"line":11,"distance":1236,"station_id":"POK","i_lat":-6.209188},{"is_transit":false,"distance":1829,"line":11,"time":2,"station_id":"KMT","station_name":"Kramat","i_lat":-6.193792,"i_long":106.855437,"transit":false},{"station_name":"Gang Sentiong","i_lat":-6.185975,"line":11,"distance":973,"i_long":106.850107,"transit":false,"is_transit":false,"station_id":"GST","time":1},{"station_id":"PSE","line":11,"transit":false,"i_lat":-6.174784,"distance":1567,"i_long":106.84368,"is_transit":false,"time":8,"station_name":"Pasar Senen"},{"i_lat":-6.161728,"is_transit":false,"i_long":106.839204,"station_name":"Kemayoran","time":4,"distance":1436,"transit":false,"line":11,"station_id":"KMO"},{"transit":false,"time":5,"is_transit":false,"i_long":106.836569,"distance":1901,"station_id":"RJW","i_lat":-6.14505,"station_name":"Rajawali","line":11},{"distance":1444,"transit":true,"is_transit":true,"station_name":"Kampung Bandan","line":4,"time":3,"station_id":"KPB","i_lat":-6.132549,"i_long":106.826365},{"is_transit":true,"distance":1364,"i_long":106.812439,"i_lat":-6.137569,"station_id":"JAKK","time":3,"station_name":"Jakarta Kota","transit":true,"line":2},{"transit":false,"distance":1264,"time":4,"i_lat":-6.141205,"is_transit":false,"line":2,"i_long":106.820901,"station_id":"JAY","station_name":"Jayakarta"},{"is_transit":false,"line":2,"distance":1080,"i_long":106.82482,"time":2,"i_lat":-6.149769,"transit":false,"station_id":"MGB","station_name":"Manggabesar"},{"i_lat":-6.160725,"distance":906,"station_id":"SW","line":2,"transit":false,"station_name":"Sawah Besar","i_long":106.827103,"is_transit":false,"time":2},{"transit":false,"time":2,"station_id":"JUA","station_name":"Juanda","i_long":106.828284,"i_lat":-6.166716,"is_transit":false,"line":2,"distance":1149},{"distance":2015,"i_long":106.832183,"time":4,"transit":false,"station_id":"GDD","is_transit":false,"i_lat":-6.186295,"line":2,"station_name":"Gondangdia"},{"distance":1750,"is_transit":false,"transit":false,"station_id":"CKI","time":3,"station_name":"Cikini","i_lat":-6.198556,"line":2,"i_long":106.840169},{"line":2,"time":4,"distance":1590,"transit":true,"is_transit":true,"station_id":"MRI","i_long":106.84912,"station_name":"Manggarai","i_lat":-6.209883},{"station_name":"Sudirman","is_transit":false,"distance":3186,"transit":false,"station_id":"SUD","i_lat":-6.202263,"i_long":106.822649,"line":1,"time":4},{"time":1,"distance":280,"station_name":"Sudirman Baru","line":1,"is_transit":false,"transit":false,"station_id":"SUDB","i_lat":-6.201433,"i_long":106.819881},{"is_transit":false,"station_name":"Karet","line":1,"distance":471,"time":1,"i_lat":-6.20132,"station_id":"KAT","i_long":106.816351,"transit":false},{"is_transit":false,"transit":false,"i_lat":-6.185545,"i_long":106.811091,"distance":2029,"time":5,"station_name":"Tanah Abang","station_id":"THB","line":1},{"time":8,"transit":true,"station_name":"Duri","distance":3632,"is_transit":true,"station_id":"DU","i_lat":-6.155215,"line":1,"i_long":106.800832},{"distance":1700,"time":3,"station_id":"GGL","i_long":106.788277,"station_name":"Grogol","transit":false,"is_transit":false,"i_lat":-6.162021,"line":5},{"line":5,"station_name":"Pesing","is_transit":false,"distance":2036,"station_id":"PSG","transit":false,"time":2,"i_long":106.771379,"i_lat":-6.161433}]]}