{"data":[[{"line":1,"station_name":"Tambun","station_id":"TB","is_transit":false,"i_lat":-6.258864,"transit":false,"time":0,"distance":0,"i_long":107.055722},{"i_long":107.016735,"transit":false,"time":7,"is_transit":false,"station_id":"BKST","station_name":"Bekasi Timur","i_lat":-6.248029,"distance":4460,"line":1},{"station_name":"Bekasi","distance":2368,"i_lat":-6.236616,"station_id":"BKS","i_long":106.997013,"line":1,"time":2,"transit":false,"is_transit":false},{"i_lat":-6.224515,"line":1,"station_id":"KRI","time":4,"is_transit":false,"i_long":106.977657,"transit":false,"distance":2520,"station_name":"Kranji"},{"i_long":106.951283,"station_id":"CUK","time":3,"station_name":"Cakung","is_transit":false,"line":1,"transit":false,"distance":3097,"i_lat":-6.219053},{"i_lat":-6.217455,"line":1,"is_transit":false,"station_name":"Klenderbaru","distance":1385,"i_long":106.939679,"transit":false,"time":8,"station_id":"KLDB"},{"transit":false,"time":1,"line":1,"i_lat":-6.215568,"station_name":"Buaran","is_transit":false,"i_long":106.922662,"station_id":"BUA","distance":1305},{"time":2,"station_id":"KLD","transit":false,"i_lat":-6.2135,"distance":3100,"i_long":106.899548,"station_name":"Klender","line":1,"is_transit":false},{"i_long":106.86807400000001,"is_transit":false,"station_name":"Jatinegara","distance":3395,"i_lat":-6.215091,"transit":false,"station_id":"JNG","line":1,"time":3},{"i_long":106.858896,"distance":1377,"station_id":"MTR","line":1,"i_lat":-6.212485,"station_name":"Matraman","transit":false,"is_transit":false,"time":2},{"transit":true,"station_id":"MRI","distance":1275,"i_lat":-6.209883,"station_name":"Manggarai","i_long":106.84912,"is_transit":true,"time":2,"line":2},{"distance":2610,"i_long":106.857948,"station_id":"TEB","is_transit":false,"time":4,"transit":false,"i_lat":-6.226659,"station_name":"Tebet","line":2},{"i_lat":-6.242512,"station_name":"Cawang","i_long":106.856607,"station_id":"CW","line":2,"transit":false,"time":2,"is_transit":false,"distance":1230},{"transit":false,"i_lat":-6.255332,"distance":1546,"line":2,"time":3,"is_transit":false,"station_name":"Duren Kalibata","i_long":106.85449,"station_id":"DRN"},{"station_name":"Pasar Minggu Baru","is_transit":false,"line":2,"station_id":"PSMB","i_lat":-6.263214,"transit":false,"time":2,"distance":824,"i_long":106.851577},{"i_long":106.843999,"station_id":"PSM","time":2,"station_name":"Pasar Minggu","transit":false,"is_transit":false,"i_lat":-6.2842400000000005,"line":2,"distance":2380},{"transit":false,"i_lat":-6.3080680000000005,"station_id":"TNT","station_name":"Tanjung Barat","is_transit":false,"time":4,"i_long":106.838896,"line":2,"distance":2820},{"distance":2671,"line":2,"transit":false,"is_transit":false,"station_id":"LNA","i_long":106.832616,"station_name":"Lenteng Agung","time":3,"i_lat":-6.330363},{"station_name":"Univ. Pancasila","line":2,"time":2,"i_lat":-6.339291,"distance":1029,"transit":false,"is_transit":false,"i_long":106.834175,"station_id":"UP"},{"i_long":106.831474,"time":3,"distance":2264,"station_name":"Univ. Indonesia","i_lat":-6.360749,"line":2,"station_id":"UI","is_transit":false,"transit":false},{"station_id":"POC","line":2,"is_transit":false,"station_name":"Pondok Cina","distance":1109,"i_lat":-6.369073,"transit":false,"i_long":106.831114,"time":2}],[{"is_transit":false,"i_lat":-6.258864,"time":0,"line":1,"i_long":107.055722,"station_id":"TB","station_name":"Tambun","transit":false,"distance":0},{"i_lat":-6.248029,"time":7,"is_transit":false,"transit":false,"station_name":"Bekasi Timur","distance":4460,"line":1,"station_id":"BKST","i_long":107.016735},{"transit":false,"is_transit":false,"i_lat":-6.236616,"i_long":106.997013,"time":2,"station_id":"BKS","line":1,"distance":2368,"station_name":"Bekasi"},{"is_transit":false,"station_id":"KRI","station_name":"Kranji","transit":false,"i_lat":-6.224515,"line":1,"time":4,"i_long":106.977657,"distance":2520},{"station_id":"CUK","i_lat":-6.219053,"station_name":"Cakung","transit":false,"distance":3097,"is_transit":false,"line":1,"time":3,"i_long":106.951283},{"transit":false,"is_transit":false,"distance":1385,"time":8,"i_lat":-6.217455,"line":1,"station_name":"Klenderbaru","i_long":106.939679,"station_id":"KLDB"},{"distance":1305,"is_transit":false,"transit":false,"i_lat":-6.215568,"station_name":"Buaran","time":1,"station_id":"BUA","i_long":106.922662,"line":1},{"distance":3100,"i_lat":-6.2135,"station_name":"Klender","is_transit":false,"line":1,"station_id":"KLD","i_long":106.899548,"transit":false,"time":2},{"distance":3395,"transit":true,"time":3,"i_lat":-6.215091,"is_transit":true,"station_name":"Jatinegara","station_id":"JNG","i_long":106.86807400000001,"line":1},{"i_lat":-6.209188,"line":11,"i_long":106.861737,"transit":false,"distance":1236,"station_name":"Pondok Jati","is_transit":false,"time":2,"station_id":"POK"},{"time":2,"station_id":"KMT","station_name":"Kramat","i_lat":-6.193792,"i_long":106.855437,"line":11,"distance":1829,"transit":false,"is_transit":false},{"station_id":"GST","transit":false,"time":1,"i_lat":-6.185975,"station_name":"Gang Sentiong","distance":973,"line":11,"i_long":106.850107,"is_transit":false},{"i_long":106.84368,"station_name":"Pasar Senen","transit":false,"station_id":"PSE","distance":1567,"is_transit":false,"time":8,"line":11,"i_lat":-6.174784},{"is_transit":false,"station_name":"Kemayoran","distance":1436,"station_id":"KMO","i_lat":-6.161728,"transit":false,"time":4,"i_long":106.839204,"line":11},{"station_name":"Rajawali","distance":1901,"transit":false,"station_id":"RJW","time":5,"line":11,"is_transit":false,"i_lat":-6.14505,"i_long":106.836569},{"transit":true,"station_id":"KPB","time":3,"distance":1444,"i_lat":-6.132549,"is_transit":true,"line":4,"station_name":"Kampung Bandan","i_long":106.826365},{"i_lat":-6.144674,"is_transit":false,"i_long":106.79867,"transit":false,"time":9,"distance":4102,"station_name":"Angke","station_id":"AK","line":1},{"station_id":"DU","station_name":"Duri","line":1,"i_long":106.800832,"is_transit":false,"transit":false,"distance":1230,"time":4,"i_lat":-6.155215},{"i_lat":-6.185545,"i_long":106.811091,"time":8,"distance":3632,"line":1,"station_name":"Tanah Abang","transit":false,"station_id":"THB","is_transit":false},{"i_long":106.816351,"station_id":"KAT","transit":false,"time":5,"distance":2029,"is_transit":false,"i_lat":-6.20132,"station_name":"Karet","line":1},{"station_id":"SUDB","transit":false,"time":1,"line":1,"i_long":106.819881,"distance":471,"station_name":"Sudirman Baru","i_lat":-6.201433,"is_transit":false},{"station_id":"SUD","transit":false,"is_transit":false,"i_lat":-6.202263,"time":1,"i_long":106.822649,"line":1,"distance":280,"station_name":"Sudirman"},{"transit":true,"station_id":"MRI","line":2,"station_name":"Manggarai","i_lat":-6.209883,"is_transit":true,"time":4,"i_long":106.84912,"distance":3186},{"line":2,"station_id":"TEB","i_lat":-6.226659,"station_name":"Tebet","transit":false,"is_transit":false,"distance":2610,"time":4,"i_long":106.857948},{"transit":false,"line":2,"station_name":"Cawang","i_long":106.856607,"distance":1230,"station_id":"CW","is_transit":false,"time":2,"i_lat":-6.242512},{"i_lat":-6.255332,"line":2,"distance":1546,"transit":false,"is_transit":false,"i_long":106.85449,"station_name":"Duren Kalibata","station_id":"DRN","time":3},{"station_id":"PSMB","i_lat":-6.263214,"time":2,"is_transit":false,"distance":824,"i_long":106.851577,"line":2,"transit":false,"station_name":"Pasar Minggu Baru"},{"transit":false,"is_transit":false,"distance":2380,"time":2,"station_id":"PSM","i_lat":-6.2842400000000005,"i_long":106.843999,"station_name":"Pasar Minggu","line":2},{"distance":2820,"i_lat":-6.3080680000000005,"station_id":"TNT","time":4,"transit":false,"i_long":106.838896,"line":2,"station_name":"Tanjung Barat","is_transit":false},{"i_lat":-6.330363,"station_name":"Lenteng Agung","is_transit":false,"time":3,"line":2,"i_long":106.832616,"station_id":"LNA","distance":2671,"transit":false},{"station_id":"UP","time":2,"transit":false,"station_name":"Univ. Pancasila","i_long":106.834175,"is_transit":false,"line":2,"distance":1029,"i_lat":-6.339291},{"distance":2264,"transit":false,"i_long":106.831474,"line":2,"is_transit":false,"i_lat":-6.360749,"station_id":"UI","station_name":"Univ. Indonesia","time":3},{"station_id":"POC","i_long":106.831114,"distance":1109,"i_lat":-6.369073,"line":2,"station_name":"Pondok Cina","transit":false,"is_transit":false,"time":2}],[{"transit":false,"station_id":"TB","is_transit":false,"time":0,"distance":0,"i_long":107.055722,"station_name":"Tambun","i_lat":-6.258864,"line":1},{"station_name":"Bekasi Timur","i_lat":-6.248029,"time":7,"station_id":"BKST","transit":false,"line":1,"distance":4460,"i_long":107.016735,"is_transit":false},{"is_transit":false,"i_lat":-6.236616,"transit":false,"line":1,"station_name":"Bekasi","station_id":"BKS","distance":2368,"time":2,"i_long":106.997013},{"is_transit":false,"station_name":"Kranji","distance":2520,"station_id":"KRI","transit":false,"i_lat":-6.224515,"line":1,"i_long":106.977657,"time":4},{"station_name":"Cakung","station_id":"CUK","is_transit":false,"i_lat":-6.219053,"i_long":106.951283,"time":3,"line":1,"distance":3097,"transit":false},{"time":8,"distance":1385,"station_id":"KLDB","transit":false,"line":1,"i_lat":-6.217455,"i_long":106.939679,"station_name":"Klenderbaru","is_transit":false},{"is_transit":false,"time":1,"line":1,"station_name":"Buaran","transit":false,"distance":1305,"i_lat":-6.215568,"station_id":"BUA","i_long":106.922662},{"transit":false,"time":2,"line":1,"i_lat":-6.2135,"distance":3100,"station_id":"KLD","station_name":"Klender","is_transit":false,"i_long":106.899548},{"i_long":106.86807400000001,"station_name":"Jatinegara","station_id":"JNG","line":1,"time":3,"i_lat":-6.215091,"distance":3395,"transit":true,"is_transit":true},{"station_name":"Pondok Jati","distance":1236,"transit":false,"time":2,"i_lat":-6.209188,"is_transit":false,"i_long":106.861737,"station_id":"POK","line":11},{"line":11,"is_transit":false,"transit":false,"i_long":106.855437,"time":2,"i_lat":-6.193792,"distance":1829,"station_name":"Kramat","station_id":"KMT"},{"is_transit":false,"i_lat":-6.185975,"i_long":106.850107,"transit":false,"station_id":"GST","time":1,"station_name":"Gang Sentiong","distance":973,"line":11},{"time":8,"i_lat":-6.174784,"line":11,"station_id":"PSE","distance":1567,"i_long":106.84368,"transit":false,"station_name":"Pasar Senen","is_transit":false},{"i_long":106.839204,"line":11,"station_name":"Kemayoran","is_transit":false,"time":4,"i_lat":-6.161728,"station_id":"KMO","distance":1436,"transit":false},{"time":5,"is_transit":false,"i_lat":-6.14505,"i_long":106.836569,"distance":1901,"transit":false,"line":11,"station_id":"RJW","station_name":"Rajawali"},{"line":4,"i_lat":-6.132549,"i_long":106.826365,"station_name":"Kampung Bandan","station_id":"KPB","is_transit":true,"distance":1444,"time":3,"transit":true},{"i_lat":-6.137569,"line":2,"time":3,"distance":1364,"station_name":"Jakarta Kota","transit":true,"is_transit":true,"i_long":106.812439,"station_id":"JAKK"},{"line":2,"time":4,"station_name":"Jayakarta","station_id":"JAY","distance":1264,"is_transit":false,"transit":false,"i_lat":-6.141205,"i_long":106.820901},{"i_long":106.82482,"station_name":"Manggabesar","station_id":"MGB","time":2,"i_lat":-6.149769,"line":2,"transit":false,"is_transit":false,"distance":1080},{"transit":false,"i_long":106.827103,"is_transit":false,"time":2,"line":2,"i_lat":-6.160725,"distance":906,"station_name":"Sawah Besar","station_id":"SW"},{"i_long":106.828284,"transit":false,"line":2,"time":2,"station_name":"Juanda","i_lat":-6.166716,"distance":1149,"is_transit":false,"station_id":"JUA"},{"i_lat":-6.186295,"line":2,"distance":2015,"station_name":"Gondangdia","time":4,"is_transit":false,"transit":false,"station_id":"GDD","i_long":106.832183},{"distance":1750,"line":2,"i_long":106.840169,"station_name":"Cikini","is_transit":false,"transit":false,"time":3,"i_lat":-6.198556,"station_id":"CKI"},{"i_lat":-6.209883,"station_id":"MRI","is_transit":false,"line":2,"time":4,"i_long":106.84912,"distance":1590,"station_name":"Manggarai","transit":false},{"transit":false,"station_name":"Tebet","station_id":"TEB","line":2,"i_long":106.857948,"distance":2610,"time":4,"i_lat":-6.226659,"is_transit":false},{"i_long":106.856607,"station_name":"Cawang","time":2,"i_lat":-6.242512,"transit":false,"distance":1230,"line":2,"station_id":"CW","is_transit":false},{"i_lat":-6.255332,"i_long":106.85449,"line":2,"distance":1546,"is_transit":false,"time":3,"station_id":"DRN","station_name":"Duren Kalibata","transit":false},{"transit":false,"station_name":"Pasar Minggu Baru","is_transit":false,"time":2,"i_lat":-6.263214,"line":2,"i_long":106.851577,"distance":824,"station_id":"PSMB"},{"line":2,"i_long":106.843999,"station_id":"PSM","is_transit":false,"station_name":"Pasar Minggu","i_lat":-6.2842400000000005,"distance":2380,"transit":false,"time":2},{"transit":false,"is_transit":false,"time":4,"line":2,"station_id":"TNT","station_name":"Tanjung Barat","i_lat":-6.3080680000000005,"i_long":106.838896,"distance":2820},{"i_lat":-6.330363,"is_transit":false,"time":3,"distance":2671,"station_id":"LNA","i_long":106.832616,"transit":false,"station_name":"Lenteng Agung","line":2},{"i_lat":-6.339291,"distance":1029,"station_id":"UP","time":2,"line":2,"transit":false,"i_long":106.834175,"station_name":"Univ. Pancasila","is_transit":false},{"distance":2264,"station_name":"Univ. Indonesia","is_transit":false,"line":2,"station_id":"UI","transit":false,"time":3,"i_lat":-6.360749,"i_long":106.831474},{"is_transit":false,"i_lat":-6.369073,"time":2,"station_name":"Pondok Cina","station_id":"POC","i_long":106.831114,"transit":false,"line":2,"distance":1109}]]}