{"data":[[{"station_name":"Tambun","time":0,"is_transit":false,"distance":0,"station_id":"TB","line":1,"i_lat":-6.258864,"transit":false,"i_long":107.055722},{"station_id":"BKST","is_transit":false,"distance":4460,"time":7,"i_long":107.016735,"station_name":"Bekasi Timur","transit":false,"i_lat":-6.248029,"line":1},{"time":2,"i_long":106.997013,"distance":2368,"i_lat":-6.236616,"line":1,"is_transit":false,"station_id":"BKS","transit":false,"station_name":"Bekasi"},{"station_id":"KRI","line":1,"i_lat":-6.224515,"transit":false,"time":4,"distance":2520,"is_transit":false,"station_name":"Kranji","i_long":106.977657},{"station_id":"CUK","station_name":"Cakung","transit":false,"i_lat":-6.219053,"distance":3097,"i_long":106.951283,"line":1,"time":3,"is_transit":false},{"i_lat":-6.217455,"station_id":"KLDB","station_name":"Klenderbaru","is_transit":false,"i_long":106.939679,"transit":false,"time":8,"distance":1385,"line":1},{"time":1,"is_transit":false,"station_name":"Buaran","i_long":106.922662,"line":1,"station_id":"BUA","distance":1305,"transit":false,"i_lat":-6.215568},{"is_transit":false,"transit":false,"distance":3100,"i_lat":-6.2135,"i_long":106.899548,"station_name":"Klender","time":2,"station_id":"KLD","line":1},{"i_long":106.86807400000001,"is_transit":false,"station_name":"Jatinegara","station_id":"JNG","distance":3395,"i_lat":-6.215091,"line":1,"time":3,"transit":false},{"station_name":"Matraman","i_long":106.858896,"line":1,"is_transit":false,"time":2,"transit":false,"i_lat":-6.212485,"distance":1377,"station_id":"MTR"},{"station_name":"Manggarai","station_id":"MRI","time":2,"distance":1275,"is_transit":false,"transit":false,"i_long":106.84912,"line":2,"i_lat":-6.209883},{"i_lat":-6.202263,"distance":3186,"station_name":"Sudirman","time":4,"transit":false,"i_long":106.822649,"line":1,"station_id":"SUD","is_transit":false},{"station_name":"Sudirman Baru","transit":false,"i_long":106.819881,"is_transit":false,"station_id":"SUDB","time":1,"distance":280,"i_lat":-6.201433,"line":1},{"station_id":"KAT","i_lat":-6.20132,"line":1,"is_transit":false,"station_name":"Karet","transit":false,"i_long":106.816351,"distance":471,"time":1},{"station_name":"Tanah Abang","station_id":"THB","distance":2029,"line":1,"time":5,"i_lat":-6.185545,"is_transit":false,"transit":false,"i_long":106.811091},{"i_long":106.800832,"distance":3632,"i_lat":-6.155215,"time":8,"station_id":"DU","line":1,"transit":true,"is_transit":true,"station_name":"Duri"},{"i_long":106.788277,"station_name":"Grogol","i_lat":-6.162021,"is_transit":false,"line":5,"transit":false,"time":3,"distance":1700,"station_id":"GGL"},{"transit":false,"is_transit":false,"i_long":106.771379,"station_name":"Pesing","i_lat":-6.161433,"station_id":"PSG","distance":2036,"line":5,"time":2},{"station_id":"TKO","station_name":"Taman Kota","distance":1614,"time":2,"transit":false,"i_long":106.756522,"line":5,"is_transit":false,"i_lat":-6.1587309999999995},{"time":2,"i_lat":-6.159876,"station_id":"BOI","transit":false,"station_name":"Bojongindah","i_long":106.737035,"line":5,"distance":2334,"is_transit":false},{"i_lat":-6.162758,"station_id":"RW","distance":1152,"line":5,"station_name":"Rawa Buaya","i_long":106.723064,"time":4,"transit":false,"is_transit":false}],[{"station_id":"TB","transit":false,"is_transit":false,"distance":0,"station_name":"Tambun","i_lat":-6.258864,"time":0,"i_long":107.055722,"line":1},{"distance":4460,"station_id":"BKST","i_long":107.016735,"line":1,"station_name":"Bekasi Timur","i_lat":-6.248029,"transit":false,"is_transit":false,"time":7},{"i_long":106.997013,"transit":false,"distance":2368,"station_name":"Bekasi","station_id":"BKS","i_lat":-6.236616,"line":1,"is_transit":false,"time":2},{"station_id":"KRI","transit":false,"i_lat":-6.224515,"line":1,"is_transit":false,"station_name":"Kranji","i_long":106.977657,"time":4,"distance":2520},{"is_transit":false,"distance":3097,"station_id":"CUK","i_lat":-6.219053,"i_long":106.951283,"line":1,"time":3,"transit":false,"station_name":"Cakung"},{"time":8,"i_lat":-6.217455,"line":1,"station_name":"Klenderbaru","is_transit":false,"i_long":106.939679,"station_id":"KLDB","distance":1385,"transit":false},{"line":1,"station_name":"Buaran","is_transit":false,"time":1,"i_long":106.922662,"transit":false,"i_lat":-6.215568,"station_id":"BUA","distance":1305},{"time":2,"i_long":106.899548,"line":1,"is_transit":false,"i_lat":-6.2135,"transit":false,"distance":3100,"station_name":"Klender","station_id":"KLD"},{"transit":true,"station_name":"Jatinegara","line":1,"i_long":106.86807400000001,"station_id":"JNG","is_transit":true,"time":3,"i_lat":-6.215091,"distance":3395},{"transit":false,"station_name":"Pondok Jati","is_transit":false,"distance":1236,"i_long":106.861737,"i_lat":-6.209188,"line":11,"station_id":"POK","time":2},{"is_transit":false,"station_name":"Kramat","time":2,"i_lat":-6.193792,"distance":1829,"i_long":106.855437,"transit":false,"station_id":"KMT","line":11},{"is_transit":false,"i_lat":-6.185975,"i_long":106.850107,"station_id":"GST","station_name":"Gang Sentiong","distance":973,"transit":false,"line":11,"time":1},{"station_id":"PSE","is_transit":false,"i_lat":-6.174784,"transit":false,"line":11,"time":8,"distance":1567,"station_name":"Pasar Senen","i_long":106.84368},{"distance":1436,"time":4,"i_long":106.839204,"transit":false,"station_name":"Kemayoran","i_lat":-6.161728,"is_transit":false,"station_id":"KMO","line":11},{"station_id":"RJW","time":5,"i_long":106.836569,"distance":1901,"station_name":"Rajawali","is_transit":false,"i_lat":-6.14505,"line":11,"transit":false},{"transit":true,"line":4,"time":3,"is_transit":true,"distance":1444,"i_lat":-6.132549,"station_name":"Kampung Bandan","station_id":"KPB","i_long":106.826365},{"is_transit":false,"distance":4102,"transit":false,"i_long":106.79867,"i_lat":-6.144674,"station_name":"Angke","station_id":"AK","time":9,"line":1},{"station_name":"Duri","transit":true,"distance":1230,"i_long":106.800832,"time":4,"station_id":"DU","is_transit":true,"line":1,"i_lat":-6.155215},{"station_id":"GGL","distance":1700,"time":3,"i_long":106.788277,"transit":false,"is_transit":false,"line":5,"i_lat":-6.162021,"station_name":"Grogol"},{"station_name":"Pesing","is_transit":false,"i_lat":-6.161433,"distance":2036,"station_id":"PSG","transit":false,"line":5,"i_long":106.771379,"time":2},{"station_name":"Taman Kota","time":2,"transit":false,"line":5,"is_transit":false,"i_lat":-6.1587309999999995,"distance":1614,"station_id":"TKO","i_long":106.756522},{"line":5,"i_long":106.737035,"time":2,"station_name":"Bojongindah","is_transit":false,"transit":false,"distance":2334,"station_id":"BOI","i_lat":-6.159876},{"station_name":"Rawa Buaya","transit":false,"station_id":"RW","time":4,"i_long":106.723064,"line":5,"distance":1152,"is_transit":false,"i_lat":-6.162758}],[{"i_lat":-6.258864,"i_long":107.055722,"line":1,"transit":false,"station_id":"TB","is_transit":false,"time":0,"station_name":"Tambun","distance":0},{"time":7,"i_long":107.016735,"distance":4460,"transit":false,"i_lat":-6.248029,"station_name":"Bekasi Timur","station_id":"BKST","line":1,"is_transit":false},{"station_id":"BKS","station_name":"Bekasi","is_transit":false,"time":2,"distance":2368,"i_lat":-6.236616,"transit":false,"i_long":106.997013,"line":1},{"transit":false,"time":4,"i_lat":-6.224515,"station_id":"KRI","station_name":"Kranji","line":1,"is_transit":false,"distance":2520,"i_long":106.977657},{"line":1,"is_transit":false,"i_long":106.951283,"i_lat":-6.219053,"time":3,"station_name":"Cakung","distance":3097,"transit":false,"station_id":"CUK"},{"time":8,"is_transit":false,"station_name":"Klenderbaru","transit":false,"station_id":"KLDB","i_lat":-6.217455,"line":1,"distance":1385,"i_long":106.939679},{"station_name":"Buaran","time":1,"is_transit":false,"transit":false,"distance":1305,"i_long":106.922662,"line":1,"station_id":"BUA","i_lat":-6.215568},{"station_id":"KLD","transit":false,"time":2,"line":1,"station_name":"Klender","distance":3100,"i_lat":-6.2135,"i_long":106.899548,"is_transit":false},{"time":3,"station_id":"JNG","distance":3395,"i_long":106.86807400000001,"station_name":"Jatinegara","transit":false,"is_transit":false,"i_lat":-6.215091,"line":1},{"line":1,"i_long":106.858896,"transit":false,"station_id":"MTR","distance":1377,"is_transit":false,"station_name":"Matraman","time":2,"i_lat":-6.212485},{"time":2,"is_transit":true,"distance":1275,"station_id":"MRI","i_lat":-6.209883,"line":2,"station_name":"Manggarai","i_long":106.84912,"transit":true},{"i_long":106.840169,"time":4,"line":2,"distance":1590,"station_name":"Cikini","is_transit":false,"station_id":"CKI","i_lat":-6.198556,"transit":false},{"is_transit":false,"station_id":"GDD","distance":1750,"transit":false,"time":3,"i_lat":-6.186295,"i_long":106.832183,"station_name":"Gondangdia","line":2},{"distance":2015,"i_lat":-6.166716,"line":2,"transit":false,"i_long":106.828284,"station_name":"Juanda","is_transit":false,"station_id":"JUA","time":4},{"is_transit":false,"i_lat":-6.160725,"transit":false,"i_long":106.827103,"line":2,"distance":1149,"station_name":"Sawah Besar","station_id":"SW","time":2},{"distance":906,"i_lat":-6.149769,"line":2,"transit":false,"station_id":"MGB","time":2,"i_long":106.82482,"station_name":"Manggabesar","is_transit":false},{"transit":false,"station_id":"JAY","distance":1080,"line":2,"station_name":"Jayakarta","i_long":106.820901,"is_transit":false,"time":2,"i_lat":-6.141205},{"station_name":"Jakarta Kota","time":4,"i_long":106.812439,"is_transit":true,"distance":1264,"transit":true,"i_lat":-6.137569,"station_id":"JAKK","line":2},{"is_transit":true,"time":3,"distance":1364,"i_lat":-6.132549,"i_long":106.826365,"transit":true,"station_name":"Kampung Bandan","station_id":"KPB","line":4},{"station_name":"Angke","distance":4102,"station_id":"AK","transit":false,"time":9,"i_lat":-6.144674,"i_long":106.79867,"is_transit":false,"line":1},{"transit":true,"station_id":"DU","is_transit":true,"i_lat":-6.155215,"station_name":"Duri","i_long":106.800832,"line":1,"distance":1230,"time":4},{"distance":1700,"time":3,"i_long":106.788277,"is_transit":false,"transit":false,"station_id":"GGL","line":5,"station_name":"Grogol","i_lat":-6.162021},{"station_name":"Pesing","i_lat":-6.161433,"line":5,"transit":false,"time":2,"distance":2036,"station_id":"PSG","is_transit":false,"i_long":106.771379},{"is_transit":false,"time":2,"station_id":"TKO","i_long":106.756522,"line":5,"distance":1614,"i_lat":-6.1587309999999995,"station_name":"Taman Kota","transit":false},{"is_transit":false,"distance":2334,"time":2,"station_name":"Bojongindah","transit":false,"i_long":106.737035,"station_id":"BOI","line":5,"i_lat":-6.159876},{"i_long":106.723064,"station_id":"RW","i_lat":-6.162758,"transit":false,"station_name":"Rawa Buaya","is_transit":false,"time":4,"line":5,"distance":1152}],[{"station_name":"Tambun","transit":false,"line":1,"is_transit":false,"distance":0,"i_lat":-6.258864,"time":0,"station_id":"TB","i_long":107.055722},{"station_name":"Bekasi Timur","is_transit":false,"station_id":"BKST","time":7,"i_long":107.016735,"line":1,"distance":4460,"i_lat":-6.248029,"transit":false},{"transit":false,"i_lat":-6.236616,"i_long":106.997013,"is_transit":false,"station_name":"Bekasi","station_id":"BKS","distance":2368,"line":1,"time":2},{"transit":false,"i_long":106.977657,"distance":2520,"line":1,"time":4,"station_id":"KRI","is_transit":false,"station_name":"Kranji","i_lat":-6.224515},{"transit":false,"is_transit":false,"i_long":106.951283,"line":1,"station_name":"Cakung","station_id":"CUK","time":3,"distance":3097,"i_lat":-6.219053},{"i_lat":-6.217455,"line":1,"i_long":106.939679,"station_id":"KLDB","transit":false,"distance":1385,"station_name":"Klenderbaru","time":8,"is_transit":false},{"is_transit":false,"distance":1305,"station_id":"BUA","time":1,"i_lat":-6.215568,"transit":false,"i_long":106.922662,"station_name":"Buaran","line":1},{"i_long":106.899548,"distance":3100,"i_lat":-6.2135,"line":1,"station_id":"KLD","time":2,"transit":false,"station_name":"Klender","is_transit":false},{"station_id":"JNG","station_name":"Jatinegara","i_long":106.86807400000001,"i_lat":-6.215091,"line":1,"distance":3395,"is_transit":true,"time":3,"transit":true},{"station_name":"Pondok Jati","time":2,"line":11,"station_id":"POK","transit":false,"distance":1236,"i_long":106.861737,"i_lat":-6.209188,"is_transit":false},{"line":11,"is_transit":false,"transit":false,"station_id":"KMT","distance":1829,"i_lat":-6.193792,"station_name":"Kramat","time":2,"i_long":106.855437},{"time":1,"i_long":106.850107,"station_name":"Gang Sentiong","line":11,"transit":false,"i_lat":-6.185975,"station_id":"GST","distance":973,"is_transit":false},{"station_name":"Pasar Senen","distance":1567,"time":8,"is_transit":false,"i_lat":-6.174784,"i_long":106.84368,"transit":false,"line":11,"station_id":"PSE"},{"station_name":"Kemayoran","is_transit":false,"distance":1436,"line":11,"station_id":"KMO","i_lat":-6.161728,"time":4,"i_long":106.839204,"transit":false},{"i_long":106.836569,"station_name":"Rajawali","is_transit":false,"line":11,"station_id":"RJW","transit":false,"i_lat":-6.14505,"time":5,"distance":1901},{"station_name":"Kampung Bandan","is_transit":true,"i_long":106.826365,"transit":true,"station_id":"KPB","line":4,"time":3,"i_lat":-6.132549,"distance":1444},{"i_long":106.812439,"line":2,"distance":1364,"transit":true,"time":3,"i_lat":-6.137569,"station_name":"Jakarta Kota","station_id":"JAKK","is_transit":true},{"time":4,"i_long":106.820901,"i_lat":-6.141205,"station_name":"Jayakarta","line":2,"transit":false,"station_id":"JAY","distance":1264,"is_transit":false},{"is_transit":false,"station_id":"MGB","i_lat":-6.149769,"station_name":"Manggabesar","i_long":106.82482,"line":2,"transit":false,"distance":1080,"time":2},{"station_id":"SW","i_lat":-6.160725,"station_name":"Sawah Besar","line":2,"time":2,"distance":906,"is_transit":false,"transit":false,"i_long":106.827103},{"station_id":"JUA","station_name":"Juanda","time":2,"distance":1149,"is_transit":false,"i_long":106.828284,"i_lat":-6.166716,"line":2,"transit":false},{"transit":false,"i_lat":-6.186295,"station_id":"GDD","is_transit":false,"time":4,"distance":2015,"station_name":"Gondangdia","i_long":106.832183,"line":2},{"line":2,"is_transit":false,"i_long":106.840169,"station_id":"CKI","i_lat":-6.198556,"transit":false,"distance":1750,"time":3,"station_name":"Cikini"},{"station_name":"Manggarai","time":4,"station_id":"MRI","line":2,"distance":1590,"i_lat":-6.209883,"transit":true,"i_long":106.84912,"is_transit":true},{"station_id":"SUD","transit":false,"i_long":106.822649,"station_name":"Sudirman","is_transit":false,"i_lat":-6.202263,"time":4,"line":1,"distance":3186},{"time":1,"station_name":"Sudirman Baru","station_id":"SUDB","transit":false,"is_transit":false,"distance":280,"i_lat":-6.201433,"i_long":106.819881,"line":1},{"station_id":"KAT","time":1,"i_lat":-6.20132,"is_transit":false,"i_long":106.816351,"station_name":"Karet","distance":471,"line":1,"transit":false},{"station_id":"THB","line":1,"i_lat":-6.185545,"i_long":106.811091,"is_transit":false,"station_name":"Tanah Abang","distance":2029,"transit":false,"time":5},{"station_name":"Duri","line":1,"i_long":106.800832,"i_lat":-6.155215,"transit":true,"distance":3632,"is_transit":true,"station_id":"DU","time":8},{"station_id":"GGL","i_lat":-6.162021,"station_name":"Grogol","is_transit":false,"distance":1700,"time":3,"transit":false,"i_long":106.788277,"line":5},{"i_long":106.771379,"i_lat":-6.161433,"distance":2036,"station_name":"Pesing","time":2,"is_transit":false,"transit":false,"line":5,"station_id":"PSG"},{"station_name":"Taman Kota","is_transit":false,"line":5,"transit":false,"time":2,"station_id":"TKO","distance":1614,"i_lat":-6.1587309999999995,"i_long":106.756522},{"line":5,"distance":2334,"is_transit":false,"station_name":"Bojongindah","i_lat":-6.159876,"i_long":106.737035,"station_id":"BOI","transit":false,"time":2},{"time":4,"distance":1152,"i_lat":-6.162758,"i_long":106.723064,"is_transit":false,"line":5,"transit":false,"station_name":"Rawa Buaya","station_id":"RW"}]]}