{"data":[[{"distance":0,"is_transit":false,"station_id":"TB","i_lat":-6.258864,"i_long":107.055722,"station_name":"Tambun","line":1,"time":0,"transit":false},{"line":1,"transit":false,"station_name":"Bekasi Timur","i_lat":-6.248029,"station_id":"BKST","i_long":107.016735,"is_transit":false,"time":7,"distance":4460},{"station_name":"Bekasi","i_lat":-6.236616,"is_transit":false,"i_long":106.997013,"transit":false,"station_id":"BKS","time":2,"distance":2368,"line":1},{"i_long":106.977657,"station_id":"KRI","transit":false,"station_name":"Kranji","i_lat":-6.224515,"line":1,"is_transit":false,"time":4,"distance":2520},{"transit":false,"time":3,"station_id":"CUK","is_transit":false,"station_name":"Cakung","i_lat":-6.219053,"i_long":106.951283,"distance":3097,"line":1},{"distance":1385,"station_id":"KLDB","time":8,"transit":false,"is_transit":false,"i_lat":-6.217455,"i_long":106.939679,"station_name":"Klenderbaru","line":1},{"line":1,"station_id":"BUA","time":1,"i_lat":-6.215568,"is_transit":false,"transit":false,"i_long":106.922662,"distance":1305,"station_name":"Buaran"},{"is_transit":false,"i_long":106.899548,"time":2,"transit":false,"station_id":"KLD","distance":3100,"station_name":"Klender","line":1,"i_lat":-6.2135},{"station_name":"Jatinegara","distance":3395,"is_transit":true,"time":3,"i_lat":-6.215091,"transit":true,"station_id":"JNG","i_long":106.86807400000001,"line":1},{"time":2,"transit":false,"i_lat":-6.209188,"line":11,"station_name":"Pondok Jati","is_transit":false,"distance":1236,"i_long":106.861737,"station_id":"POK"},{"i_long":106.855437,"station_name":"Kramat","station_id":"KMT","i_lat":-6.193792,"transit":false,"line":11,"time":2,"is_transit":false,"distance":1829},{"line":11,"distance":973,"station_id":"GST","is_transit":false,"time":1,"transit":false,"station_name":"Gang Sentiong","i_lat":-6.185975,"i_long":106.850107},{"i_lat":-6.174784,"time":8,"transit":false,"i_long":106.84368,"distance":1567,"is_transit":false,"line":11,"station_id":"PSE","station_name":"Pasar Senen"},{"transit":false,"distance":1436,"line":11,"is_transit":false,"time":4,"station_id":"KMO","station_name":"Kemayoran","i_long":106.839204,"i_lat":-6.161728},{"line":11,"station_id":"RJW","station_name":"Rajawali","i_lat":-6.14505,"is_transit":false,"transit":false,"time":5,"distance":1901,"i_long":106.836569}],[{"time":0,"i_long":107.055722,"transit":false,"i_lat":-6.258864,"station_name":"Tambun","line":1,"station_id":"TB","distance":0,"is_transit":false},{"i_lat":-6.248029,"station_id":"BKST","station_name":"Bekasi Timur","time":7,"is_transit":false,"i_long":107.016735,"line":1,"distance":4460,"transit":false},{"i_lat":-6.236616,"i_long":106.997013,"station_id":"BKS","line":1,"transit":false,"time":2,"distance":2368,"is_transit":false,"station_name":"Bekasi"},{"i_long":106.977657,"line":1,"distance":2520,"is_transit":false,"station_name":"Kranji","transit":false,"time":4,"station_id":"KRI","i_lat":-6.224515},{"distance":3097,"i_lat":-6.219053,"transit":false,"i_long":106.951283,"line":1,"time":3,"station_name":"Cakung","station_id":"CUK","is_transit":false},{"i_long":106.939679,"is_transit":false,"station_name":"Klenderbaru","distance":1385,"time":8,"transit":false,"line":1,"station_id":"KLDB","i_lat":-6.217455},{"distance":1305,"station_name":"Buaran","station_id":"BUA","i_lat":-6.215568,"line":1,"transit":false,"is_transit":false,"time":1,"i_long":106.922662},{"transit":false,"station_name":"Klender","distance":3100,"line":1,"station_id":"KLD","i_long":106.899548,"is_transit":false,"i_lat":-6.2135,"time":2},{"is_transit":false,"i_long":106.86807400000001,"transit":false,"line":1,"time":3,"distance":3395,"station_name":"Jatinegara","station_id":"JNG","i_lat":-6.215091},{"line":1,"station_id":"MTR","time":2,"i_long":106.858896,"is_transit":false,"i_lat":-6.212485,"station_name":"Matraman","transit":false,"distance":1377},{"time":2,"is_transit":false,"station_id":"MRI","i_long":106.84912,"i_lat":-6.209883,"station_name":"Manggarai","transit":false,"distance":1275,"line":2},{"line":1,"is_transit":false,"transit":false,"time":4,"i_lat":-6.202263,"i_long":106.822649,"station_id":"SUD","station_name":"Sudirman","distance":3186},{"time":1,"transit":false,"station_name":"Sudirman Baru","i_lat":-6.201433,"line":1,"distance":280,"station_id":"SUDB","is_transit":false,"i_long":106.819881},{"time":1,"distance":471,"i_long":106.816351,"line":1,"i_lat":-6.20132,"transit":false,"station_name":"Karet","station_id":"KAT","is_transit":false},{"distance":2029,"station_name":"Tanah Abang","station_id":"THB","i_lat":-6.185545,"transit":false,"is_transit":false,"time":5,"i_long":106.811091,"line":1},{"is_transit":false,"time":8,"i_lat":-6.155215,"line":1,"transit":false,"station_id":"DU","distance":3632,"station_name":"Duri","i_long":106.800832},{"station_name":"Angke","i_lat":-6.144674,"transit":false,"station_id":"AK","distance":1230,"time":4,"is_transit":false,"line":1,"i_long":106.79867},{"station_id":"KPB","line":4,"station_name":"Kampung Bandan","transit":true,"time":9,"i_long":106.826365,"distance":4102,"i_lat":-6.132549,"is_transit":true},{"station_id":"RJW","is_transit":false,"time":3,"distance":1444,"i_long":106.836569,"station_name":"Rajawali","i_lat":-6.14505,"line":11,"transit":false}],[{"i_long":107.055722,"distance":0,"line":1,"transit":false,"is_transit":false,"i_lat":-6.258864,"station_name":"Tambun","station_id":"TB","time":0},{"transit":false,"i_long":107.016735,"station_id":"BKST","time":7,"is_transit":false,"distance":4460,"station_name":"Bekasi Timur","i_lat":-6.248029,"line":1},{"i_lat":-6.236616,"line":1,"time":2,"is_transit":false,"station_id":"BKS","distance":2368,"transit":false,"station_name":"Bekasi","i_long":106.997013},{"station_name":"Kranji","i_lat":-6.224515,"time":4,"i_long":106.977657,"transit":false,"station_id":"KRI","is_transit":false,"line":1,"distance":2520},{"station_name":"Cakung","time":3,"i_lat":-6.219053,"transit":false,"station_id":"CUK","distance":3097,"i_long":106.951283,"line":1,"is_transit":false},{"station_id":"KLDB","i_long":106.939679,"station_name":"Klenderbaru","time":8,"distance":1385,"is_transit":false,"line":1,"i_lat":-6.217455,"transit":false},{"line":1,"transit":false,"station_id":"BUA","time":1,"i_long":106.922662,"distance":1305,"i_lat":-6.215568,"is_transit":false,"station_name":"Buaran"},{"transit":false,"i_lat":-6.2135,"station_id":"KLD","distance":3100,"i_long":106.899548,"is_transit":false,"time":2,"line":1,"station_name":"Klender"},{"transit":false,"is_transit":false,"distance":3395,"time":3,"i_lat":-6.215091,"i_long":106.86807400000001,"line":1,"station_name":"Jatinegara","station_id":"JNG"},{"is_transit":false,"station_id":"MTR","distance":1377,"i_lat":-6.212485,"time":2,"i_long":106.858896,"transit":false,"line":1,"station_name":"Matraman"},{"i_lat":-6.209883,"is_transit":true,"distance":1275,"station_name":"Manggarai","time":2,"i_long":106.84912,"line":2,"station_id":"MRI","transit":true},{"i_lat":-6.198556,"is_transit":false,"distance":1590,"transit":false,"station_id":"CKI","time":4,"station_name":"Cikini","i_long":106.840169,"line":2},{"station_id":"GDD","station_name":"Gondangdia","distance":1750,"transit":false,"is_transit":false,"time":3,"i_long":106.832183,"line":2,"i_lat":-6.186295},{"station_id":"JUA","line":2,"is_transit":false,"transit":false,"station_name":"Juanda","time":4,"distance":2015,"i_long":106.828284,"i_lat":-6.166716},{"i_lat":-6.160725,"is_transit":false,"station_name":"Sawah Besar","station_id":"SW","line":2,"time":2,"i_long":106.827103,"transit":false,"distance":1149},{"is_transit":false,"line":2,"transit":false,"station_name":"Manggabesar","distance":906,"i_long":106.82482,"time":2,"i_lat":-6.149769,"station_id":"MGB"},{"is_transit":false,"distance":1080,"line":2,"station_name":"Jayakarta","time":2,"station_id":"JAY","transit":false,"i_lat":-6.141205,"i_long":106.820901},{"station_name":"Jakarta Kota","line":2,"is_transit":true,"transit":true,"i_long":106.812439,"distance":1264,"i_lat":-6.137569,"time":4,"station_id":"JAKK"},{"transit":true,"station_id":"KPB","station_name":"Kampung Bandan","i_long":106.826365,"distance":1364,"is_transit":true,"i_lat":-6.132549,"time":3,"line":4},{"is_transit":false,"transit":false,"station_id":"RJW","i_lat":-6.14505,"time":3,"distance":1444,"i_long":106.836569,"station_name":"Rajawali","line":11}]]}