{"data":[[{"time":0,"station_name":"Tambun","i_long":107.055722,"is_transit":false,"transit":false,"i_lat":-6.258864,"distance":0,"line":1,"station_id":"TB"},{"transit":false,"is_transit":false,"distance":4460,"time":7,"i_long":107.016735,"station_id":"BKST","line":1,"i_lat":-6.248029,"station_name":"Bekasi Timur"},{"i_long":106.997013,"station_id":"BKS","is_transit":false,"distance":2368,"time":2,"transit":false,"station_name":"Bekasi","i_lat":-6.236616,"line":1},{"is_transit":false,"i_lat":-6.224515,"line":1,"station_id":"KRI","transit":false,"station_name":"Kranji","distance":2520,"time":4,"i_long":106.977657},{"line":1,"distance":3097,"station_id":"CUK","is_transit":false,"transit":false,"station_name":"Cakung","i_long":106.951283,"i_lat":-6.219053,"time":3},{"i_lat":-6.217455,"station_name":"Klenderbaru","transit":false,"is_transit":false,"i_long":106.939679,"distance":1385,"time":8,"station_id":"KLDB","line":1},{"station_name":"Buaran","transit":false,"time":1,"line":1,"distance":1305,"station_id":"BUA","i_lat":-6.215568,"is_transit":false,"i_long":106.922662},{"transit":false,"i_lat":-6.2135,"distance":3100,"line":1,"station_name":"Klender","i_long":106.899548,"is_transit":false,"time":2,"station_id":"KLD"},{"i_long":106.86807400000001,"transit":true,"i_lat":-6.215091,"is_transit":true,"distance":3395,"station_id":"JNG","time":3,"line":1,"station_name":"Jatinegara"},{"i_lat":-6.209188,"is_transit":false,"transit":false,"distance":1236,"station_id":"POK","station_name":"Pondok Jati","i_long":106.861737,"time":2,"line":11},{"transit":false,"station_name":"Kramat","i_lat":-6.193792,"distance":1829,"station_id":"KMT","is_transit":false,"time":2,"i_long":106.855437,"line":11},{"is_transit":false,"transit":false,"line":11,"distance":973,"time":1,"station_name":"Gang Sentiong","i_lat":-6.185975,"i_long":106.850107,"station_id":"GST"},{"station_id":"PSE","transit":false,"i_long":106.84368,"line":11,"time":8,"is_transit":false,"station_name":"Pasar Senen","distance":1567,"i_lat":-6.174784},{"time":4,"i_long":106.839204,"i_lat":-6.161728,"line":11,"is_transit":false,"transit":false,"distance":1436,"station_id":"KMO","station_name":"Kemayoran"},{"line":11,"i_long":106.836569,"distance":1901,"station_name":"Rajawali","transit":false,"is_transit":false,"time":5,"i_lat":-6.14505,"station_id":"RJW"}],[{"is_transit":false,"station_name":"Tambun","line":1,"i_lat":-6.258864,"i_long":107.055722,"time":0,"station_id":"TB","transit":false,"distance":0},{"time":7,"is_transit":false,"transit":false,"distance":4460,"line":1,"station_id":"BKST","i_long":107.016735,"i_lat":-6.248029,"station_name":"Bekasi Timur"},{"i_long":106.997013,"line":1,"transit":false,"station_name":"Bekasi","is_transit":false,"i_lat":-6.236616,"time":2,"station_id":"BKS","distance":2368},{"station_id":"KRI","time":4,"i_lat":-6.224515,"transit":false,"station_name":"Kranji","i_long":106.977657,"line":1,"is_transit":false,"distance":2520},{"i_lat":-6.219053,"transit":false,"station_name":"Cakung","i_long":106.951283,"is_transit":false,"line":1,"time":3,"station_id":"CUK","distance":3097},{"station_name":"Klenderbaru","station_id":"KLDB","is_transit":false,"i_lat":-6.217455,"time":8,"i_long":106.939679,"line":1,"distance":1385,"transit":false},{"distance":1305,"transit":false,"is_transit":false,"station_name":"Buaran","station_id":"BUA","line":1,"i_lat":-6.215568,"time":1,"i_long":106.922662},{"time":2,"station_name":"Klender","line":1,"transit":false,"station_id":"KLD","is_transit":false,"i_lat":-6.2135,"i_long":106.899548,"distance":3100},{"station_name":"Jatinegara","distance":3395,"i_long":106.86807400000001,"line":1,"i_lat":-6.215091,"is_transit":false,"transit":false,"time":3,"station_id":"JNG"},{"is_transit":false,"time":2,"distance":1377,"line":1,"i_lat":-6.212485,"transit":false,"station_id":"MTR","i_long":106.858896,"station_name":"Matraman"},{"time":2,"is_transit":false,"i_long":106.84912,"distance":1275,"station_id":"MRI","transit":false,"station_name":"Manggarai","i_lat":-6.209883,"line":2},{"transit":false,"line":1,"distance":3186,"i_lat":-6.202263,"station_id":"SUD","i_long":106.822649,"time":4,"is_transit":false,"station_name":"Sudirman"},{"distance":280,"is_transit":false,"station_name":"Sudirman Baru","i_lat":-6.201433,"i_long":106.819881,"time":1,"line":1,"station_id":"SUDB","transit":false},{"station_id":"KAT","is_transit":false,"transit":false,"time":1,"distance":471,"line":1,"station_name":"Karet","i_long":106.816351,"i_lat":-6.20132},{"distance":2029,"i_lat":-6.185545,"is_transit":false,"station_name":"Tanah Abang","time":5,"transit":false,"station_id":"THB","i_long":106.811091,"line":1},{"i_lat":-6.155215,"station_name":"Duri","station_id":"DU","time":8,"transit":false,"is_transit":false,"distance":3632,"line":1,"i_long":106.800832},{"station_id":"AK","time":4,"is_transit":false,"i_long":106.79867,"i_lat":-6.144674,"station_name":"Angke","line":1,"transit":false,"distance":1230},{"transit":true,"i_long":106.826365,"time":9,"is_transit":true,"station_name":"Kampung Bandan","line":4,"station_id":"KPB","i_lat":-6.132549,"distance":4102},{"line":11,"i_lat":-6.14505,"is_transit":false,"time":3,"station_name":"Rajawali","transit":false,"distance":1444,"i_long":106.836569,"station_id":"RJW"}],[{"station_id":"TB","transit":false,"distance":0,"i_long":107.055722,"line":1,"is_transit":false,"i_lat":-6.258864,"time":0,"station_name":"Tambun"},{"i_long":107.016735,"is_transit":false,"station_id":"BKST","transit":false,"time":7,"station_name":"Bekasi Timur","distance":4460,"i_lat":-6.248029,"line":1},{"distance":2368,"time":2,"transit":false,"station_id":"BKS","station_name":"Bekasi","is_transit":false,"i_lat":-6.236616,"i_long":106.997013,"line":1},{"i_lat":-6.224515,"station_id":"KRI","time":4,"transit":false,"line":1,"station_name":"Kranji","is_transit":false,"distance":2520,"i_long":106.977657},{"i_lat":-6.219053,"is_transit":false,"i_long":106.951283,"station_id":"CUK","distance":3097,"station_name":"Cakung","transit":false,"time":3,"line":1},{"station_name":"Klenderbaru","distance":1385,"station_id":"KLDB","i_long":106.939679,"line":1,"transit":false,"time":8,"i_lat":-6.217455,"is_transit":false},{"i_long":106.922662,"line":1,"distance":1305,"station_id":"BUA","transit":false,"is_transit":false,"time":1,"station_name":"Buaran","i_lat":-6.215568},{"station_name":"Klender","transit":false,"i_long":106.899548,"time":2,"is_transit":false,"distance":3100,"station_id":"KLD","i_lat":-6.2135,"line":1},{"station_name":"Jatinegara","i_long":106.86807400000001,"distance":3395,"i_lat":-6.215091,"transit":false,"line":1,"station_id":"JNG","time":3,"is_transit":false},{"i_long":106.858896,"distance":1377,"i_lat":-6.212485,"line":1,"is_transit":false,"station_id":"MTR","transit":false,"station_name":"Matraman","time":2},{"line":2,"station_name":"Manggarai","transit":true,"distance":1275,"time":2,"i_long":106.84912,"station_id":"MRI","i_lat":-6.209883,"is_transit":true},{"is_transit":false,"distance":1590,"time":4,"line":2,"i_lat":-6.198556,"i_long":106.840169,"station_id":"CKI","transit":false,"station_name":"Cikini"},{"i_lat":-6.186295,"line":2,"station_id":"GDD","transit":false,"i_long":106.832183,"distance":1750,"time":3,"is_transit":false,"station_name":"Gondangdia"},{"time":4,"distance":2015,"is_transit":false,"transit":false,"i_long":106.828284,"line":2,"station_id":"JUA","station_name":"Juanda","i_lat":-6.166716},{"line":2,"transit":false,"is_transit":false,"station_id":"SW","station_name":"Sawah Besar","distance":1149,"i_long":106.827103,"i_lat":-6.160725,"time":2},{"time":2,"station_name":"Manggabesar","i_lat":-6.149769,"distance":906,"station_id":"MGB","transit":false,"line":2,"i_long":106.82482,"is_transit":false},{"i_lat":-6.141205,"is_transit":false,"distance":1080,"station_name":"Jayakarta","time":2,"i_long":106.820901,"transit":false,"line":2,"station_id":"JAY"},{"i_lat":-6.137569,"i_long":106.812439,"time":4,"transit":true,"station_name":"Jakarta Kota","is_transit":true,"station_id":"JAKK","line":2,"distance":1264},{"transit":true,"station_name":"Kampung Bandan","distance":1364,"line":4,"time":3,"is_transit":true,"i_lat":-6.132549,"i_long":106.826365,"station_id":"KPB"},{"distance":1444,"transit":false,"is_transit":false,"i_lat":-6.14505,"i_long":106.836569,"line":11,"time":3,"station_id":"RJW","station_name":"Rajawali"}]]}