{"data":[[{"line":1,"station_name":"Tambun","time":0,"distance":0,"station_id":"TB","i_long":107.055722,"is_transit":false,"transit":false,"i_lat":-6.258864},{"i_lat":-6.248029,"is_transit":false,"distance":4460,"station_name":"Bekasi Timur","time":7,"line":0,"station_id":"BKST","i_long":107.016735,"transit":false},{"distance":2368,"station_id":"BKS","i_long":106.997013,"line":0,"time":2,"i_lat":-6.236616,"transit":false,"is_transit":false,"station_name":"Bekasi"},{"line":1,"station_name":"Kranji","time":4,"station_id":"KRI","i_long":106.977657,"distance":2520,"is_transit":false,"transit":false,"i_lat":-6.224515},{"i_lat":-6.219053,"distance":3097,"station_id":"CUK","transit":false,"station_name":"Cakung","time":3,"i_long":106.951283,"line":0,"is_transit":false},{"i_lat":-6.217455,"i_long":106.939679,"line":1,"is_transit":false,"station_name":"Klenderbaru","distance":1385,"station_id":"KLDB","transit":false,"time":8},{"i_long":106.922662,"transit":false,"station_id":"BUA","line":0,"time":1,"i_lat":-6.215568,"is_transit":false,"distance":1305,"station_name":"Buaran"},{"is_transit":false,"line":1,"distance":3100,"transit":false,"i_long":106.899548,"station_id":"KLD","station_name":"Klender","i_lat":-6.2135,"time":2},{"distance":3395,"is_transit":true,"time":3,"station_id":"JNG","transit":false,"i_lat":-6.215091,"i_long":106.86807400000001,"line":0,"station_name":"Jatinegara"},{"time":2,"is_transit":false,"line":1,"distance":1377,"i_long":106.858896,"i_lat":-6.212485,"station_id":"MTR","station_name":"Matraman","transit":false},{"station_id":"MRI","station_name":"Manggarai","transit":false,"is_transit":true,"distance":1275,"i_long":106.84912,"i_lat":-6.209883,"line":0,"time":2},{"is_transit":false,"i_long":106.822649,"line":1,"distance":3186,"station_id":"SUD","station_name":"Sudirman","i_lat":-6.202263,"transit":false,"time":4},{"transit":false,"time":1,"station_name":"Sudirman Baru","i_long":106.819881,"line":1,"is_transit":false,"i_lat":-6.201433,"distance":280,"station_id":"SUDB"},{"distance":471,"station_id":"KAT","is_transit":false,"station_name":"Karet","i_lat":-6.20132,"i_long":106.816351,"time":1,"line":1,"transit":false},{"line":1,"i_lat":-6.185545,"transit":false,"distance":2029,"i_long":106.811091,"station_id":"THB","time":5,"station_name":"Tanah Abang","is_transit":true},{"transit":true,"i_lat":-6.155215,"line":1,"time":8,"station_name":"Duri","i_long":106.800832,"is_transit":true,"station_id":"DU","distance":3632},{"distance":1700,"station_name":"Grogol","i_lat":-6.162021,"transit":false,"line":5,"station_id":"GGL","i_long":106.788277,"is_transit":false,"time":3},{"line":5,"is_transit":false,"station_id":"PSG","i_lat":-6.161433,"time":2,"station_name":"Pesing","i_long":106.771379,"distance":2036,"transit":false},{"time":2,"line":5,"transit":false,"station_name":"Taman Kota","i_long":106.756522,"is_transit":false,"distance":1614,"station_id":"TKO","i_lat":-6.1587309999999995},{"distance":2334,"is_transit":false,"station_id":"BOI","time":2,"i_lat":-6.159876,"line":0,"transit":false,"i_long":106.737035,"station_name":"Bojongindah"},{"station_name":"Rawa Buaya","transit":false,"i_lat":-6.162758,"line":5,"i_long":106.723064,"is_transit":false,"distance":1152,"time":4,"station_id":"RW"}],[{"time":0,"line":1,"i_long":107.055722,"station_id":"TB","station_name":"Tambun","distance":0,"transit":false,"i_lat":-6.258864,"is_transit":false},{"is_transit":false,"time":7,"i_long":107.016735,"i_lat":-6.248029,"line":0,"station_name":"Bekasi Timur","transit":false,"station_id":"BKST","distance":4460},{"i_long":106.997013,"i_lat":-6.236616,"distance":2368,"time":2,"transit":false,"line":0,"station_name":"Bekasi","is_transit":false,"station_id":"BKS"},{"time":4,"i_long":106.977657,"is_transit":false,"distance":2520,"i_lat":-6.224515,"station_id":"KRI","station_name":"Kranji","line":1,"transit":false},{"line":0,"is_transit":false,"station_name":"Cakung","i_lat":-6.219053,"distance":3097,"i_long":106.951283,"transit":false,"station_id":"CUK","time":3},{"time":8,"line":1,"station_id":"KLDB","i_long":106.939679,"is_transit":false,"station_name":"Klenderbaru","distance":1385,"i_lat":-6.217455,"transit":false},{"time":1,"distance":1305,"i_long":106.922662,"i_lat":-6.215568,"transit":false,"station_id":"BUA","is_transit":false,"line":0,"station_name":"Buaran"},{"station_id":"KLD","is_transit":false,"i_lat":-6.2135,"transit":false,"time":2,"distance":3100,"station_name":"Klender","line":1,"i_long":106.899548},{"station_id":"JNG","time":3,"line":0,"transit":true,"station_name":"Jatinegara","distance":3395,"is_transit":true,"i_lat":-6.215091,"i_long":106.86807400000001},{"i_lat":-6.209188,"distance":1236,"is_transit":false,"transit":false,"station_name":"Pondok Jati","line":11,"station_id":"POK","time":2,"i_long":106.861737},{"time":2,"line":11,"is_transit":false,"i_lat":-6.193792,"distance":1829,"station_id":"KMT","station_name":"Kramat","transit":false,"i_long":106.855437},{"station_name":"Gang Sentiong","i_lat":-6.185975,"line":11,"is_transit":false,"time":1,"distance":973,"station_id":"GST","i_long":106.850107,"transit":false},{"transit":false,"line":11,"station_name":"Pasar Senen","is_transit":false,"station_id":"PSE","i_lat":-6.174784,"i_long":106.84368,"time":8,"distance":1567},{"line":11,"station_name":"Kemayoran","station_id":"KMO","i_lat":-6.161728,"distance":1436,"i_long":106.839204,"is_transit":false,"transit":false,"time":4},{"station_id":"RJW","i_lat":-6.14505,"transit":false,"i_long":106.836569,"line":11,"time":5,"station_name":"Rajawali","is_transit":false,"distance":1901},{"time":3,"i_long":106.826365,"line":0,"station_id":"KPB","i_lat":-6.132549,"transit":true,"is_transit":true,"distance":1444,"station_name":"Kampung Bandan"},{"time":9,"is_transit":false,"station_name":"Angke","i_long":106.79867,"transit":false,"station_id":"AK","i_lat":-6.144674,"distance":4102,"line":0},{"i_lat":-6.155215,"is_transit":true,"transit":true,"station_name":"Duri","distance":1230,"time":4,"station_id":"DU","i_long":106.800832,"line":1},{"is_transit":false,"station_id":"GGL","station_name":"Grogol","i_long":106.788277,"distance":1700,"transit":false,"time":3,"i_lat":-6.162021,"line":5},{"time":2,"station_id":"PSG","transit":false,"i_lat":-6.161433,"i_long":106.771379,"line":5,"is_transit":false,"distance":2036,"station_name":"Pesing"},{"transit":false,"line":5,"i_lat":-6.1587309999999995,"time":2,"station_name":"Taman Kota","station_id":"TKO","distance":1614,"is_transit":false,"i_long":106.756522},{"line":0,"i_long":106.737035,"station_id":"BOI","i_lat":-6.159876,"is_transit":false,"time":2,"distance":2334,"transit":false,"station_name":"Bojongindah"},{"time":4,"line":5,"i_long":106.723064,"i_lat":-6.162758,"station_name":"Rawa Buaya","station_id":"RW","distance":1152,"is_transit":false,"transit":false}],[{"station_name":"Tambun","i_lat":-6.258864,"i_long":107.055722,"distance":0,"station_id":"TB","transit":false,"line":1,"is_transit":false,"time":0},{"is_transit":false,"distance":4460,"time":7,"i_long":107.016735,"i_lat":-6.248029,"station_id":"BKST","station_name":"Bekasi Timur","transit":false,"line":0},{"station_id":"BKS","i_lat":-6.236616,"time":2,"distance":2368,"is_transit":false,"i_long":106.997013,"station_name":"Bekasi","line":0,"transit":false},{"distance":2520,"line":1,"station_name":"Kranji","i_long":106.977657,"is_transit":false,"station_id":"KRI","i_lat":-6.224515,"transit":false,"time":4},{"is_transit":false,"station_id":"CUK","station_name":"Cakung","time":3,"line":0,"distance":3097,"i_long":106.951283,"transit":false,"i_lat":-6.219053},{"i_lat":-6.217455,"distance":1385,"is_transit":false,"station_id":"KLDB","time":8,"station_name":"Klenderbaru","i_long":106.939679,"line":1,"transit":false},{"station_id":"BUA","is_transit":false,"distance":1305,"transit":false,"time":1,"i_lat":-6.215568,"i_long":106.922662,"line":0,"station_name":"Buaran"},{"is_transit":false,"transit":false,"station_name":"Klender","time":2,"i_long":106.899548,"station_id":"KLD","i_lat":-6.2135,"line":1,"distance":3100},{"is_transit":true,"station_id":"JNG","line":0,"time":3,"distance":3395,"i_long":106.86807400000001,"station_name":"Jatinegara","transit":false,"i_lat":-6.215091},{"line":1,"transit":false,"i_long":106.858896,"time":2,"station_id":"MTR","i_lat":-6.212485,"distance":1377,"is_transit":false,"station_name":"Matraman"},{"station_name":"Manggarai","is_transit":true,"station_id":"MRI","distance":1275,"transit":true,"i_lat":-6.209883,"i_long":106.84912,"line":0,"time":2},{"is_transit":false,"transit":false,"station_id":"CKI","time":4,"line":0,"i_lat":-6.198556,"i_long":106.840169,"station_name":"Cikini","distance":1590},{"line":2,"i_lat":-6.186295,"station_name":"Gondangdia","time":3,"i_long":106.832183,"transit":false,"is_transit":false,"distance":1750,"station_id":"GDD"},{"station_id":"JUA","distance":2015,"i_long":106.828284,"transit":false,"time":4,"is_transit":false,"i_lat":-6.166716,"line":2,"station_name":"Juanda"},{"line":2,"station_name":"Sawah Besar","station_id":"SW","time":2,"is_transit":false,"i_long":106.827103,"transit":false,"distance":1149,"i_lat":-6.160725},{"is_transit":false,"line":2,"time":2,"i_lat":-6.149769,"station_id":"MGB","station_name":"Manggabesar","transit":false,"distance":906,"i_long":106.82482},{"station_id":"JAY","station_name":"Jayakarta","i_long":106.820901,"distance":1080,"transit":false,"time":2,"i_lat":-6.141205,"line":7,"is_transit":false},{"transit":true,"is_transit":true,"station_id":"JAKK","station_name":"Jakarta Kota","time":4,"i_long":106.812439,"line":0,"i_lat":-6.137569,"distance":1264},{"line":0,"station_id":"KPB","station_name":"Kampung Bandan","i_lat":-6.132549,"time":3,"distance":1364,"is_transit":true,"transit":false,"i_long":106.826365},{"line":0,"distance":4102,"station_name":"Angke","transit":false,"time":9,"i_long":106.79867,"is_transit":false,"station_id":"AK","i_lat":-6.144674},{"i_long":106.800832,"i_lat":-6.155215,"line":1,"is_transit":true,"station_id":"DU","transit":true,"station_name":"Duri","time":4,"distance":1230},{"station_id":"GGL","is_transit":false,"station_name":"Grogol","i_lat":-6.162021,"distance":1700,"line":5,"transit":false,"time":3,"i_long":106.788277},{"station_id":"PSG","line":5,"distance":2036,"transit":false,"is_transit":false,"time":2,"i_long":106.771379,"i_lat":-6.161433,"station_name":"Pesing"},{"i_lat":-6.1587309999999995,"time":2,"transit":false,"i_long":106.756522,"distance":1614,"station_name":"Taman Kota","line":5,"is_transit":false,"station_id":"TKO"},{"i_lat":-6.159876,"line":0,"transit":false,"is_transit":false,"station_name":"Bojongindah","time":2,"station_id":"BOI","distance":2334,"i_long":106.737035},{"station_id":"RW","i_lat":-6.162758,"distance":1152,"is_transit":false,"station_name":"Rawa Buaya","transit":false,"line":5,"time":4,"i_long":106.723064}],[{"distance":0,"is_transit":false,"station_id":"TB","station_name":"Tambun","i_lat":-6.258864,"i_long":107.055722,"line":1,"transit":false,"time":0},{"line":0,"station_id":"BKST","station_name":"Bekasi Timur","distance":4460,"transit":false,"i_lat":-6.248029,"is_transit":false,"time":7,"i_long":107.016735},{"line":0,"transit":false,"i_lat":-6.236616,"distance":2368,"station_id":"BKS","i_long":106.997013,"time":2,"station_name":"Bekasi","is_transit":false},{"station_id":"KRI","transit":false,"i_lat":-6.224515,"line":1,"is_transit":false,"i_long":106.977657,"station_name":"Kranji","time":4,"distance":2520},{"transit":false,"station_id":"CUK","i_long":106.951283,"distance":3097,"station_name":"Cakung","is_transit":false,"time":3,"i_lat":-6.219053,"line":0},{"distance":1385,"is_transit":false,"station_name":"Klenderbaru","line":1,"i_long":106.939679,"transit":false,"i_lat":-6.217455,"time":8,"station_id":"KLDB"},{"is_transit":false,"station_name":"Buaran","i_lat":-6.215568,"line":0,"time":1,"transit":false,"i_long":106.922662,"distance":1305,"station_id":"BUA"},{"station_name":"Klender","station_id":"KLD","i_long":106.899548,"line":1,"distance":3100,"is_transit":false,"time":2,"i_lat":-6.2135,"transit":false},{"time":3,"i_long":106.86807400000001,"is_transit":true,"i_lat":-6.215091,"distance":3395,"station_id":"JNG","transit":true,"line":0,"station_name":"Jatinegara"},{"line":11,"station_id":"POK","time":2,"is_transit":false,"transit":false,"i_lat":-6.209188,"distance":1236,"station_name":"Pondok Jati","i_long":106.861737},{"is_transit":false,"line":11,"transit":false,"time":2,"station_id":"KMT","distance":1829,"i_lat":-6.193792,"i_long":106.855437,"station_name":"Kramat"},{"i_lat":-6.185975,"is_transit":false,"station_name":"Gang Sentiong","line":11,"station_id":"GST","distance":973,"time":1,"transit":false,"i_long":106.850107},{"line":11,"i_lat":-6.174784,"i_long":106.84368,"transit":false,"is_transit":false,"station_id":"PSE","distance":1567,"station_name":"Pasar Senen","time":8},{"line":11,"transit":false,"station_name":"Kemayoran","time":4,"i_long":106.839204,"station_id":"KMO","i_lat":-6.161728,"distance":1436,"is_transit":false},{"distance":1901,"i_lat":-6.14505,"i_long":106.836569,"line":11,"station_id":"RJW","station_name":"Rajawali","is_transit":false,"transit":false,"time":5},{"station_id":"KPB","time":3,"is_transit":true,"i_long":106.826365,"distance":1444,"i_lat":-6.132549,"station_name":"Kampung Bandan","transit":true,"line":0},{"i_lat":-6.137569,"transit":true,"station_name":"Jakarta Kota","i_long":106.812439,"line":0,"time":3,"is_transit":true,"distance":1364,"station_id":"JAKK"},{"i_lat":-6.141205,"i_long":106.820901,"is_transit":false,"time":4,"station_id":"JAY","distance":1264,"station_name":"Jayakarta","transit":false,"line":7},{"time":2,"is_transit":false,"station_id":"MGB","station_name":"Manggabesar","transit":false,"i_lat":-6.149769,"distance":1080,"i_long":106.82482,"line":2},{"station_id":"SW","i_long":106.827103,"station_name":"Sawah Besar","transit":false,"time":2,"line":2,"distance":906,"is_transit":false,"i_lat":-6.160725},{"i_lat":-6.166716,"is_transit":false,"line":2,"time":2,"transit":false,"station_name":"Juanda","distance":1149,"station_id":"JUA","i_long":106.828284},{"i_lat":-6.186295,"is_transit":false,"transit":false,"time":4,"distance":2015,"station_id":"GDD","station_name":"Gondangdia","i_long":106.832183,"line":2},{"time":3,"is_transit":false,"transit":false,"i_lat":-6.198556,"station_id":"CKI","station_name":"Cikini","i_long":106.840169,"distance":1750,"line":0},{"station_name":"Manggarai","line":0,"is_transit":true,"distance":1590,"station_id":"MRI","transit":true,"i_long":106.84912,"time":4,"i_lat":-6.209883},{"distance":3186,"line":1,"i_lat":-6.202263,"i_long":106.822649,"is_transit":false,"transit":false,"time":4,"station_id":"SUD","station_name":"Sudirman"},{"station_id":"SUDB","distance":280,"station_name":"Sudirman Baru","time":1,"transit":false,"i_long":106.819881,"line":1,"i_lat":-6.201433,"is_transit":false},{"is_transit":false,"station_id":"KAT","station_name":"Karet","distance":471,"transit":false,"i_lat":-6.20132,"line":1,"i_long":106.816351,"time":1},{"i_lat":-6.185545,"time":5,"distance":2029,"is_transit":true,"transit":false,"i_long":106.811091,"line":1,"station_id":"THB","station_name":"Tanah Abang"},{"transit":true,"station_id":"DU","i_long":106.800832,"distance":3632,"is_transit":true,"line":1,"station_name":"Duri","time":8,"i_lat":-6.155215},{"line":5,"is_transit":false,"i_long":106.788277,"transit":false,"distance":1700,"station_id":"GGL","station_name":"Grogol","time":3,"i_lat":-6.162021},{"station_id":"PSG","time":2,"is_transit":false,"distance":2036,"station_name":"Pesing","i_lat":-6.161433,"i_long":106.771379,"line":5,"transit":false},{"is_transit":false,"time":2,"transit":false,"station_name":"Taman Kota","i_long":106.756522,"station_id":"TKO","i_lat":-6.1587309999999995,"line":5,"distance":1614},{"transit":false,"time":2,"is_transit":false,"station_id":"BOI","i_lat":-6.159876,"station_name":"Bojongindah","line":0,"distance":2334,"i_long":106.737035},{"i_long":106.723064,"line":5,"transit":false,"distance":1152,"station_name":"Rawa Buaya","is_transit":false,"station_id":"RW","time":4,"i_lat":-6.162758}]]}