{"data":[[{"transit":false,"station_name":"Tambun","i_long":107.055722,"time":0,"line":1,"is_transit":false,"i_lat":-6.258864,"station_id":"TB","distance":0},{"i_long":107.016735,"distance":4460,"time":7,"station_name":"Bekasi Timur","line":0,"is_transit":false,"station_id":"BKST","transit":false,"i_lat":-6.248029},{"is_transit":false,"station_name":"Bekasi","i_long":106.997013,"time":2,"distance":2368,"station_id":"BKS","transit":false,"i_lat":-6.236616,"line":0},{"transit":false,"station_name":"Kranji","distance":2520,"station_id":"KRI","line":1,"i_long":106.977657,"time":4,"i_lat":-6.224515,"is_transit":false},{"distance":3097,"station_name":"Cakung","transit":false,"i_lat":-6.219053,"is_transit":false,"station_id":"CUK","time":3,"i_long":106.951283,"line":0},{"line":1,"i_long":106.939679,"distance":1385,"transit":false,"time":8,"station_id":"KLDB","i_lat":-6.217455,"is_transit":false,"station_name":"Klenderbaru"},{"i_long":106.922662,"station_name":"Buaran","time":1,"transit":false,"line":0,"is_transit":false,"i_lat":-6.215568,"distance":1305,"station_id":"BUA"},{"distance":3100,"i_long":106.899548,"is_transit":false,"line":1,"station_name":"Klender","station_id":"KLD","i_lat":-6.2135,"transit":false,"time":2},{"transit":true,"distance":3395,"line":0,"time":3,"station_id":"JNG","is_transit":true,"station_name":"Jatinegara","i_lat":-6.215091,"i_long":106.86807400000001},{"time":2,"station_name":"Pondok Jati","is_transit":false,"i_lat":-6.209188,"transit":false,"line":11,"i_long":106.861737,"distance":1236,"station_id":"POK"},{"line":11,"station_id":"KMT","distance":1829,"i_lat":-6.193792,"i_long":106.855437,"station_name":"Kramat","time":2,"transit":false,"is_transit":false},{"is_transit":false,"transit":false,"station_name":"Gang Sentiong","time":1,"station_id":"GST","i_lat":-6.185975,"line":11,"i_long":106.850107,"distance":973},{"i_long":106.84368,"line":11,"transit":false,"is_transit":false,"i_lat":-6.174784,"time":8,"station_name":"Pasar Senen","station_id":"PSE","distance":1567},{"distance":1436,"is_transit":false,"line":11,"station_id":"KMO","i_lat":-6.161728,"station_name":"Kemayoran","transit":false,"time":4,"i_long":106.839204},{"i_lat":-6.14505,"transit":false,"i_long":106.836569,"distance":1901,"is_transit":false,"station_id":"RJW","station_name":"Rajawali","line":11,"time":5}],[{"line":1,"i_long":107.055722,"distance":0,"time":0,"is_transit":false,"transit":false,"station_id":"TB","station_name":"Tambun","i_lat":-6.258864},{"time":7,"i_long":107.016735,"distance":4460,"i_lat":-6.248029,"transit":false,"is_transit":false,"station_name":"Bekasi Timur","station_id":"BKST","line":0},{"transit":false,"line":0,"i_long":106.997013,"time":2,"station_name":"Bekasi","distance":2368,"is_transit":false,"i_lat":-6.236616,"station_id":"BKS"},{"distance":2520,"time":4,"i_lat":-6.224515,"transit":false,"i_long":106.977657,"is_transit":false,"line":1,"station_id":"KRI","station_name":"Kranji"},{"transit":false,"station_id":"CUK","station_name":"Cakung","is_transit":false,"time":3,"i_lat":-6.219053,"line":0,"i_long":106.951283,"distance":3097},{"station_name":"Klenderbaru","i_lat":-6.217455,"station_id":"KLDB","is_transit":false,"transit":false,"distance":1385,"time":8,"line":1,"i_long":106.939679},{"i_lat":-6.215568,"time":1,"is_transit":false,"station_id":"BUA","line":0,"transit":false,"station_name":"Buaran","distance":1305,"i_long":106.922662},{"station_id":"KLD","is_transit":false,"i_long":106.899548,"distance":3100,"station_name":"Klender","transit":false,"line":1,"time":2,"i_lat":-6.2135},{"i_lat":-6.215091,"is_transit":true,"transit":false,"station_name":"Jatinegara","station_id":"JNG","i_long":106.86807400000001,"line":0,"time":3,"distance":3395},{"transit":false,"distance":1377,"station_name":"Matraman","line":1,"station_id":"MTR","time":2,"i_long":106.858896,"is_transit":false,"i_lat":-6.212485},{"time":2,"i_lat":-6.209883,"line":0,"station_id":"MRI","is_transit":true,"distance":1275,"station_name":"Manggarai","transit":false,"i_long":106.84912},{"station_id":"SUD","line":1,"transit":false,"distance":3186,"time":4,"is_transit":false,"station_name":"Sudirman","i_lat":-6.202263,"i_long":106.822649},{"line":1,"time":1,"i_long":106.819881,"i_lat":-6.201433,"distance":280,"is_transit":false,"station_id":"SUDB","transit":false,"station_name":"Sudirman Baru"},{"station_id":"KAT","station_name":"Karet","time":1,"i_lat":-6.20132,"transit":false,"distance":471,"i_long":106.816351,"line":1,"is_transit":false},{"distance":2029,"time":5,"line":1,"station_name":"Tanah Abang","station_id":"THB","i_lat":-6.185545,"transit":false,"i_long":106.811091,"is_transit":true},{"station_id":"DU","i_lat":-6.155215,"is_transit":true,"transit":true,"time":8,"line":1,"station_name":"Duri","distance":3632,"i_long":106.800832},{"distance":1230,"station_name":"Angke","station_id":"AK","i_lat":-6.144674,"i_long":106.79867,"is_transit":false,"time":4,"line":0,"transit":false},{"i_long":106.826365,"station_name":"Kampung Bandan","is_transit":true,"line":0,"transit":true,"station_id":"KPB","time":9,"distance":4102,"i_lat":-6.132549},{"station_id":"RJW","distance":1444,"i_lat":-6.14505,"is_transit":false,"i_long":106.836569,"transit":false,"station_name":"Rajawali","time":3,"line":11}],[{"i_lat":-6.258864,"i_long":107.055722,"station_id":"TB","is_transit":false,"station_name":"Tambun","transit":false,"distance":0,"line":1,"time":0},{"station_name":"Bekasi Timur","is_transit":false,"time":7,"distance":4460,"transit":false,"line":0,"station_id":"BKST","i_lat":-6.248029,"i_long":107.016735},{"i_long":106.997013,"station_name":"Bekasi","transit":false,"line":0,"distance":2368,"is_transit":false,"station_id":"BKS","i_lat":-6.236616,"time":2},{"station_id":"KRI","station_name":"Kranji","is_transit":false,"time":4,"i_lat":-6.224515,"distance":2520,"line":1,"transit":false,"i_long":106.977657},{"is_transit":false,"station_id":"CUK","i_long":106.951283,"station_name":"Cakung","line":0,"transit":false,"i_lat":-6.219053,"distance":3097,"time":3},{"transit":false,"time":8,"distance":1385,"is_transit":false,"i_long":106.939679,"station_id":"KLDB","i_lat":-6.217455,"line":1,"station_name":"Klenderbaru"},{"station_id":"BUA","i_lat":-6.215568,"time":1,"i_long":106.922662,"distance":1305,"is_transit":false,"transit":false,"line":0,"station_name":"Buaran"},{"station_name":"Klender","time":2,"distance":3100,"transit":false,"i_long":106.899548,"i_lat":-6.2135,"station_id":"KLD","line":1,"is_transit":false},{"station_id":"JNG","station_name":"Jatinegara","line":0,"is_transit":true,"i_lat":-6.215091,"time":3,"distance":3395,"i_long":106.86807400000001,"transit":false},{"station_id":"MTR","time":2,"i_lat":-6.212485,"line":1,"transit":false,"is_transit":false,"station_name":"Matraman","i_long":106.858896,"distance":1377},{"line":0,"time":2,"distance":1275,"is_transit":true,"i_lat":-6.209883,"station_id":"MRI","station_name":"Manggarai","transit":true,"i_long":106.84912},{"i_lat":-6.198556,"i_long":106.840169,"station_name":"Cikini","distance":1590,"station_id":"CKI","line":0,"is_transit":false,"transit":false,"time":4},{"is_transit":false,"station_name":"Gondangdia","i_long":106.832183,"transit":false,"time":3,"line":2,"station_id":"GDD","distance":1750,"i_lat":-6.186295},{"i_lat":-6.166716,"i_long":106.828284,"distance":2015,"station_name":"Juanda","station_id":"JUA","time":4,"transit":false,"line":2,"is_transit":false},{"i_long":106.827103,"i_lat":-6.160725,"station_id":"SW","station_name":"Sawah Besar","is_transit":false,"time":2,"transit":false,"line":2,"distance":1149},{"transit":false,"station_name":"Manggabesar","i_long":106.82482,"distance":906,"station_id":"MGB","time":2,"is_transit":false,"i_lat":-6.149769,"line":2},{"line":7,"transit":false,"i_long":106.820901,"is_transit":false,"i_lat":-6.141205,"time":2,"station_id":"JAY","distance":1080,"station_name":"Jayakarta"},{"is_transit":true,"station_id":"JAKK","time":4,"line":0,"station_name":"Jakarta Kota","i_long":106.812439,"i_lat":-6.137569,"transit":true,"distance":1264},{"transit":true,"station_id":"KPB","station_name":"Kampung Bandan","time":3,"is_transit":true,"i_lat":-6.132549,"line":0,"distance":1364,"i_long":106.826365},{"station_id":"RJW","station_name":"Rajawali","i_long":106.836569,"time":3,"line":11,"i_lat":-6.14505,"is_transit":false,"transit":false,"distance":1444}]]}