{"data":[[{"station_name":"Tambun","i_long":107.055722,"time":0,"line":1,"i_lat":-6.258864,"distance":0,"station_id":"TB","is_transit":false,"transit":false},{"station_id":"BKST","line":1,"is_transit":false,"station_name":"Bekasi Timur","i_long":107.016735,"distance":4460,"transit":false,"i_lat":-6.248029,"time":7},{"is_transit":false,"time":2,"i_long":106.997013,"distance":2368,"station_id":"BKS","transit":false,"station_name":"Bekasi","i_lat":-6.236616,"line":1},{"line":1,"station_id":"KRI","transit":false,"is_transit":false,"time":4,"station_name":"Kranji","distance":2520,"i_lat":-6.224515,"i_long":106.977657},{"distance":3097,"transit":false,"time":3,"i_lat":-6.219053,"i_long":106.951283,"station_name":"Cakung","line":1,"station_id":"CUK","is_transit":false},{"time":8,"i_long":106.939679,"is_transit":false,"transit":false,"distance":1385,"station_name":"Klenderbaru","station_id":"KLDB","i_lat":-6.217455,"line":1},{"i_long":106.922662,"station_name":"Buaran","is_transit":false,"station_id":"BUA","transit":false,"line":1,"distance":1305,"time":1,"i_lat":-6.215568},{"i_long":106.899548,"is_transit":false,"transit":false,"station_name":"Klender","station_id":"KLD","i_lat":-6.2135,"line":1,"time":2,"distance":3100},{"i_lat":-6.215091,"distance":3395,"transit":false,"line":1,"time":3,"is_transit":false,"station_id":"JNG","station_name":"Jatinegara","i_long":106.86807400000001},{"i_long":106.858896,"distance":1377,"station_name":"Matraman","i_lat":-6.212485,"line":1,"time":2,"is_transit":false,"transit":false,"station_id":"MTR"},{"time":2,"transit":false,"is_transit":false,"station_name":"Manggarai","distance":1275,"line":2,"station_id":"MRI","i_long":106.84912,"i_lat":-6.209883},{"station_name":"Sudirman","distance":3186,"line":1,"i_lat":-6.202263,"station_id":"SUD","i_long":106.822649,"transit":false,"time":4,"is_transit":false},{"station_id":"SUDB","i_lat":-6.201433,"is_transit":false,"station_name":"Sudirman Baru","distance":280,"time":1,"line":1,"transit":false,"i_long":106.819881},{"transit":false,"station_name":"Karet","i_long":106.816351,"distance":471,"line":1,"time":1,"station_id":"KAT","i_lat":-6.20132,"is_transit":false},{"station_name":"Tanah Abang","distance":2029,"i_lat":-6.185545,"i_long":106.811091,"line":1,"time":5,"is_transit":false,"station_id":"THB","transit":false},{"station_id":"DU","distance":3632,"transit":true,"i_lat":-6.155215,"i_long":106.800832,"time":8,"station_name":"Duri","is_transit":true,"line":1},{"station_id":"GGL","transit":false,"distance":1700,"time":3,"is_transit":false,"line":5,"i_long":106.788277,"station_name":"Grogol","i_lat":-6.162021},{"station_name":"Pesing","line":5,"i_long":106.771379,"is_transit":false,"station_id":"PSG","time":2,"i_lat":-6.161433,"transit":false,"distance":2036},{"station_id":"TKO","transit":false,"time":2,"i_long":106.756522,"i_lat":-6.1587309999999995,"line":5,"station_name":"Taman Kota","is_transit":false,"distance":1614},{"transit":false,"i_long":106.737035,"distance":2334,"is_transit":false,"station_name":"Bojongindah","i_lat":-6.159876,"line":5,"station_id":"BOI","time":2},{"station_id":"RW","is_transit":false,"distance":1152,"i_lat":-6.162758,"i_long":106.723064,"time":4,"transit":false,"station_name":"Rawa Buaya","line":5}],[{"distance":0,"time":0,"i_lat":-6.258864,"transit":false,"is_transit":false,"station_id":"TB","station_name":"Tambun","i_long":107.055722,"line":1},{"line":1,"i_lat":-6.248029,"i_long":107.016735,"time":7,"distance":4460,"station_name":"Bekasi Timur","transit":false,"station_id":"BKST","is_transit":false},{"distance":2368,"i_long":106.997013,"is_transit":false,"station_name":"Bekasi","i_lat":-6.236616,"time":2,"transit":false,"station_id":"BKS","line":1},{"time":4,"station_name":"Kranji","is_transit":false,"distance":2520,"station_id":"KRI","i_long":106.977657,"i_lat":-6.224515,"line":1,"transit":false},{"line":1,"i_lat":-6.219053,"distance":3097,"transit":false,"is_transit":false,"time":3,"station_id":"CUK","station_name":"Cakung","i_long":106.951283},{"i_long":106.939679,"transit":false,"station_id":"KLDB","time":8,"is_transit":false,"i_lat":-6.217455,"station_name":"Klenderbaru","distance":1385,"line":1},{"transit":false,"is_transit":false,"time":1,"i_long":106.922662,"distance":1305,"line":1,"station_name":"Buaran","station_id":"BUA","i_lat":-6.215568},{"is_transit":false,"station_name":"Klender","distance":3100,"line":1,"transit":false,"station_id":"KLD","i_long":106.899548,"i_lat":-6.2135,"time":2},{"i_long":106.86807400000001,"station_id":"JNG","is_transit":true,"line":1,"transit":true,"distance":3395,"i_lat":-6.215091,"time":3,"station_name":"Jatinegara"},{"transit":false,"line":11,"is_transit":false,"station_id":"POK","station_name":"Pondok Jati","i_lat":-6.209188,"time":2,"i_long":106.861737,"distance":1236},{"i_long":106.855437,"time":2,"line":11,"station_name":"Kramat","station_id":"KMT","distance":1829,"is_transit":false,"transit":false,"i_lat":-6.193792},{"i_lat":-6.185975,"station_id":"GST","transit":false,"time":1,"is_transit":false,"station_name":"Gang Sentiong","distance":973,"i_long":106.850107,"line":11},{"time":8,"transit":false,"station_name":"Pasar Senen","i_lat":-6.174784,"line":11,"i_long":106.84368,"distance":1567,"station_id":"PSE","is_transit":false},{"transit":false,"time":4,"station_id":"KMO","distance":1436,"station_name":"Kemayoran","i_lat":-6.161728,"line":11,"is_transit":false,"i_long":106.839204},{"is_transit":false,"line":11,"station_name":"Rajawali","distance":1901,"i_long":106.836569,"transit":false,"station_id":"RJW","i_lat":-6.14505,"time":5},{"line":4,"time":3,"is_transit":true,"i_lat":-6.132549,"transit":true,"station_name":"Kampung Bandan","station_id":"KPB","i_long":106.826365,"distance":1444},{"i_lat":-6.144674,"transit":false,"distance":4102,"station_name":"Angke","time":9,"line":1,"is_transit":false,"i_long":106.79867,"station_id":"AK"},{"distance":1230,"station_name":"Duri","line":1,"transit":true,"i_lat":-6.155215,"is_transit":true,"i_long":106.800832,"time":4,"station_id":"DU"},{"line":5,"station_id":"GGL","transit":false,"distance":1700,"i_long":106.788277,"is_transit":false,"time":3,"station_name":"Grogol","i_lat":-6.162021},{"distance":2036,"station_id":"PSG","transit":false,"is_transit":false,"station_name":"Pesing","i_long":106.771379,"i_lat":-6.161433,"line":5,"time":2},{"i_long":106.756522,"distance":1614,"station_id":"TKO","is_transit":false,"station_name":"Taman Kota","line":5,"time":2,"transit":false,"i_lat":-6.1587309999999995},{"time":2,"station_id":"BOI","station_name":"Bojongindah","distance":2334,"i_lat":-6.159876,"i_long":106.737035,"line":5,"transit":false,"is_transit":false},{"station_id":"RW","station_name":"Rawa Buaya","transit":false,"time":4,"is_transit":false,"i_lat":-6.162758,"line":5,"distance":1152,"i_long":106.723064}],[{"transit":false,"time":0,"is_transit":false,"station_name":"Tambun","distance":0,"i_lat":-6.258864,"station_id":"TB","line":1,"i_long":107.055722},{"station_id":"BKST","line":1,"time":7,"distance":4460,"is_transit":false,"transit":false,"i_lat":-6.248029,"station_name":"Bekasi Timur","i_long":107.016735},{"distance":2368,"transit":false,"station_id":"BKS","i_lat":-6.236616,"is_transit":false,"line":1,"time":2,"i_long":106.997013,"station_name":"Bekasi"},{"i_long":106.977657,"line":1,"distance":2520,"is_transit":false,"time":4,"transit":false,"station_name":"Kranji","station_id":"KRI","i_lat":-6.224515},{"time":3,"transit":false,"station_id":"CUK","distance":3097,"i_lat":-6.219053,"is_transit":false,"line":1,"i_long":106.951283,"station_name":"Cakung"},{"i_lat":-6.217455,"distance":1385,"line":1,"i_long":106.939679,"transit":false,"is_transit":false,"time":8,"station_name":"Klenderbaru","station_id":"KLDB"},{"station_name":"Buaran","i_lat":-6.215568,"time":1,"distance":1305,"station_id":"BUA","line":1,"transit":false,"is_transit":false,"i_long":106.922662},{"station_id":"KLD","station_name":"Klender","time":2,"distance":3100,"line":1,"transit":false,"i_long":106.899548,"is_transit":false,"i_lat":-6.2135},{"distance":3395,"line":1,"i_long":106.86807400000001,"is_transit":false,"transit":false,"time":3,"station_id":"JNG","station_name":"Jatinegara","i_lat":-6.215091},{"line":1,"transit":false,"distance":1377,"i_lat":-6.212485,"i_long":106.858896,"is_transit":false,"time":2,"station_id":"MTR","station_name":"Matraman"},{"line":2,"station_id":"MRI","distance":1275,"time":2,"station_name":"Manggarai","i_long":106.84912,"is_transit":true,"i_lat":-6.209883,"transit":true},{"distance":1590,"station_id":"CKI","transit":false,"time":4,"i_lat":-6.198556,"station_name":"Cikini","i_long":106.840169,"line":2,"is_transit":false},{"distance":1750,"station_name":"Gondangdia","transit":false,"station_id":"GDD","i_lat":-6.186295,"time":3,"i_long":106.832183,"line":2,"is_transit":false},{"transit":false,"i_lat":-6.166716,"is_transit":false,"time":4,"station_id":"JUA","station_name":"Juanda","line":2,"i_long":106.828284,"distance":2015},{"distance":1149,"is_transit":false,"i_lat":-6.160725,"station_name":"Sawah Besar","line":2,"i_long":106.827103,"time":2,"transit":false,"station_id":"SW"},{"distance":906,"transit":false,"i_long":106.82482,"station_id":"MGB","line":2,"i_lat":-6.149769,"is_transit":false,"time":2,"station_name":"Manggabesar"},{"transit":false,"i_lat":-6.141205,"line":2,"is_transit":false,"i_long":106.820901,"station_name":"Jayakarta","station_id":"JAY","distance":1080,"time":2},{"transit":true,"i_long":106.812439,"i_lat":-6.137569,"line":2,"station_name":"Jakarta Kota","is_transit":true,"station_id":"JAKK","time":4,"distance":1264},{"station_id":"KPB","i_long":106.826365,"line":4,"distance":1364,"time":3,"station_name":"Kampung Bandan","i_lat":-6.132549,"transit":true,"is_transit":true},{"station_id":"AK","i_lat":-6.144674,"is_transit":false,"time":9,"line":1,"i_long":106.79867,"transit":false,"station_name":"Angke","distance":4102},{"transit":true,"is_transit":true,"station_name":"Duri","distance":1230,"station_id":"DU","i_lat":-6.155215,"i_long":106.800832,"line":1,"time":4},{"station_id":"GGL","i_lat":-6.162021,"line":5,"transit":false,"is_transit":false,"station_name":"Grogol","distance":1700,"i_long":106.788277,"time":3},{"station_id":"PSG","station_name":"Pesing","transit":false,"distance":2036,"is_transit":false,"line":5,"i_long":106.771379,"i_lat":-6.161433,"time":2},{"time":2,"transit":false,"is_transit":false,"station_name":"Taman Kota","i_long":106.756522,"station_id":"TKO","distance":1614,"i_lat":-6.1587309999999995,"line":5},{"i_lat":-6.159876,"i_long":106.737035,"station_name":"Bojongindah","station_id":"BOI","distance":2334,"time":2,"transit":false,"is_transit":false,"line":5},{"distance":1152,"station_name":"Rawa Buaya","i_long":106.723064,"is_transit":false,"line":5,"transit":false,"station_id":"RW","time":4,"i_lat":-6.162758}],[{"station_id":"TB","is_transit":false,"line":1,"i_lat":-6.258864,"time":0,"transit":false,"station_name":"Tambun","i_long":107.055722,"distance":0},{"transit":false,"time":7,"i_lat":-6.248029,"station_name":"Bekasi Timur","station_id":"BKST","is_transit":false,"i_long":107.016735,"line":1,"distance":4460},{"transit":false,"time":2,"i_long":106.997013,"station_id":"BKS","distance":2368,"line":1,"is_transit":false,"station_name":"Bekasi","i_lat":-6.236616},{"transit":false,"distance":2520,"i_long":106.977657,"station_id":"KRI","is_transit":false,"station_name":"Kranji","i_lat":-6.224515,"time":4,"line":1},{"transit":false,"time":3,"station_name":"Cakung","distance":3097,"i_lat":-6.219053,"i_long":106.951283,"line":1,"station_id":"CUK","is_transit":false},{"i_lat":-6.217455,"line":1,"station_id":"KLDB","transit":false,"is_transit":false,"station_name":"Klenderbaru","distance":1385,"i_long":106.939679,"time":8},{"i_long":106.922662,"transit":false,"station_id":"BUA","time":1,"i_lat":-6.215568,"is_transit":false,"station_name":"Buaran","distance":1305,"line":1},{"i_long":106.899548,"i_lat":-6.2135,"transit":false,"time":2,"station_id":"KLD","station_name":"Klender","line":1,"distance":3100,"is_transit":false},{"i_lat":-6.215091,"line":1,"time":3,"i_long":106.86807400000001,"transit":true,"is_transit":true,"station_id":"JNG","station_name":"Jatinegara","distance":3395},{"i_long":106.861737,"station_id":"POK","time":2,"transit":false,"station_name":"Pondok Jati","line":11,"is_transit":false,"distance":1236,"i_lat":-6.209188},{"is_transit":false,"distance":1829,"station_id":"KMT","time":2,"station_name":"Kramat","i_long":106.855437,"i_lat":-6.193792,"transit":false,"line":11},{"is_transit":false,"time":1,"i_long":106.850107,"station_id":"GST","distance":973,"station_name":"Gang Sentiong","line":11,"transit":false,"i_lat":-6.185975},{"station_id":"PSE","line":11,"is_transit":false,"transit":false,"i_lat":-6.174784,"time":8,"i_long":106.84368,"station_name":"Pasar Senen","distance":1567},{"is_transit":false,"transit":false,"station_name":"Kemayoran","i_lat":-6.161728,"time":4,"line":11,"station_id":"KMO","distance":1436,"i_long":106.839204},{"i_lat":-6.14505,"is_transit":false,"station_id":"RJW","time":5,"station_name":"Rajawali","i_long":106.836569,"line":11,"distance":1901,"transit":false},{"i_lat":-6.132549,"i_long":106.826365,"is_transit":true,"transit":true,"station_name":"Kampung Bandan","line":4,"distance":1444,"station_id":"KPB","time":3},{"station_name":"Jakarta Kota","line":2,"is_transit":true,"transit":true,"station_id":"JAKK","time":3,"i_long":106.812439,"i_lat":-6.137569,"distance":1364},{"station_name":"Jayakarta","distance":1264,"i_lat":-6.141205,"i_long":106.820901,"time":4,"station_id":"JAY","is_transit":false,"line":2,"transit":false},{"distance":1080,"station_name":"Manggabesar","i_long":106.82482,"station_id":"MGB","is_transit":false,"line":2,"i_lat":-6.149769,"transit":false,"time":2},{"line":2,"i_lat":-6.160725,"time":2,"i_long":106.827103,"transit":false,"station_name":"Sawah Besar","is_transit":false,"distance":906,"station_id":"SW"},{"transit":false,"time":2,"station_name":"Juanda","distance":1149,"is_transit":false,"line":2,"station_id":"JUA","i_long":106.828284,"i_lat":-6.166716},{"line":2,"time":4,"transit":false,"station_name":"Gondangdia","distance":2015,"i_long":106.832183,"is_transit":false,"station_id":"GDD","i_lat":-6.186295},{"time":3,"station_name":"Cikini","i_lat":-6.198556,"is_transit":false,"transit":false,"distance":1750,"i_long":106.840169,"line":2,"station_id":"CKI"},{"line":2,"station_name":"Manggarai","transit":true,"distance":1590,"i_long":106.84912,"station_id":"MRI","is_transit":true,"time":4,"i_lat":-6.209883},{"station_id":"SUD","station_name":"Sudirman","transit":false,"i_long":106.822649,"is_transit":false,"line":1,"distance":3186,"time":4,"i_lat":-6.202263},{"i_long":106.819881,"transit":false,"time":1,"station_name":"Sudirman Baru","distance":280,"station_id":"SUDB","line":1,"is_transit":false,"i_lat":-6.201433},{"time":1,"i_long":106.816351,"station_id":"KAT","distance":471,"i_lat":-6.20132,"transit":false,"station_name":"Karet","line":1,"is_transit":false},{"time":5,"transit":false,"station_id":"THB","i_lat":-6.185545,"i_long":106.811091,"distance":2029,"station_name":"Tanah Abang","is_transit":false,"line":1},{"i_long":106.800832,"line":1,"station_id":"DU","i_lat":-6.155215,"time":8,"distance":3632,"station_name":"Duri","is_transit":true,"transit":true},{"station_id":"GGL","time":3,"station_name":"Grogol","i_long":106.788277,"line":5,"distance":1700,"i_lat":-6.162021,"transit":false,"is_transit":false},{"i_lat":-6.161433,"station_id":"PSG","i_long":106.771379,"station_name":"Pesing","time":2,"is_transit":false,"transit":false,"distance":2036,"line":5},{"station_id":"TKO","station_name":"Taman Kota","i_lat":-6.1587309999999995,"i_long":106.756522,"transit":false,"time":2,"distance":1614,"is_transit":false,"line":5},{"station_id":"BOI","is_transit":false,"time":2,"i_lat":-6.159876,"transit":false,"station_name":"Bojongindah","i_long":106.737035,"distance":2334,"line":5},{"station_id":"RW","i_long":106.723064,"i_lat":-6.162758,"time":4,"line":5,"station_name":"Rawa Buaya","transit":false,"distance":1152,"is_transit":false}]]}