{"data":[[{"station_id":"TB","transit":false,"i_long":107.055722,"i_lat":-6.258864,"line":1,"time":0,"station_name":"Tambun","is_transit":false,"distance":0},{"transit":false,"i_long":107.016735,"distance":4460,"time":7,"station_id":"BKST","i_lat":-6.248029,"line":1,"is_transit":false,"station_name":"Bekasi Timur"},{"is_transit":false,"time":2,"distance":2368,"station_id":"BKS","i_lat":-6.236616,"line":1,"station_name":"Bekasi","transit":false,"i_long":106.997013},{"station_name":"Kranji","transit":false,"line":1,"station_id":"KRI","distance":2520,"time":4,"is_transit":false,"i_lat":-6.224515,"i_long":106.977657},{"transit":false,"time":3,"i_long":106.951283,"line":1,"i_lat":-6.219053,"distance":3097,"station_name":"Cakung","is_transit":false,"station_id":"CUK"},{"distance":1385,"line":1,"transit":false,"i_lat":-6.217455,"is_transit":false,"station_name":"Klenderbaru","station_id":"KLDB","i_long":106.939679,"time":8},{"time":1,"transit":false,"distance":1305,"station_name":"Buaran","i_lat":-6.215568,"station_id":"BUA","i_long":106.922662,"line":1,"is_transit":false},{"transit":false,"station_id":"KLD","distance":3100,"time":2,"is_transit":false,"station_name":"Klender","i_lat":-6.2135,"line":1,"i_long":106.899548},{"station_id":"JNG","i_lat":-6.215091,"i_long":106.86807400000001,"station_name":"Jatinegara","line":1,"time":3,"is_transit":false,"transit":false,"distance":3395},{"i_lat":-6.212485,"station_id":"MTR","transit":false,"i_long":106.858896,"line":1,"time":2,"station_name":"Matraman","distance":1377,"is_transit":false},{"is_transit":false,"i_long":106.84912,"line":2,"distance":1275,"transit":false,"time":2,"station_id":"MRI","station_name":"Manggarai","i_lat":-6.209883},{"is_transit":false,"station_name":"Sudirman","transit":false,"time":4,"station_id":"SUD","line":1,"distance":3186,"i_lat":-6.202263,"i_long":106.822649},{"line":1,"station_name":"Sudirman Baru","station_id":"SUDB","distance":280,"time":1,"i_long":106.819881,"is_transit":false,"i_lat":-6.201433,"transit":false},{"station_id":"KAT","station_name":"Karet","transit":false,"time":1,"is_transit":false,"i_long":106.816351,"i_lat":-6.20132,"line":1,"distance":471},{"i_long":106.811091,"distance":2029,"transit":true,"time":5,"line":1,"is_transit":true,"i_lat":-6.185545,"station_id":"THB","station_name":"Tanah Abang"},{"station_id":"PLM","is_transit":false,"i_lat":-6.207404,"line":6,"i_long":106.79689,"station_name":"Palmerah","time":6,"distance":3191,"transit":false},{"line":6,"time":7,"is_transit":false,"station_id":"KBY","transit":false,"station_name":"Kebayoran","i_lat":-6.237242,"i_long":106.780334,"distance":3737},{"station_name":"Pondokranji","station_id":"PDJ","line":6,"distance":6218,"time":8,"i_lat":-6.276362,"is_transit":false,"i_long":106.74273,"transit":false},{"station_id":"JMU","time":3,"is_transit":false,"distance":2179,"i_lat":-6.288927,"i_long":106.728916,"line":6,"transit":false,"station_name":"Jurangmangu"},{"station_id":"SDM","i_lat":-6.296963,"line":6,"is_transit":false,"transit":false,"distance":1994,"i_long":106.712277,"time":4,"station_name":"Sudimara"},{"distance":4566,"station_id":"RU","is_transit":false,"time":6,"i_lat":-6.314823,"transit":false,"line":6,"i_long":106.675475,"station_name":"Rawa Buntu"},{"time":4,"transit":false,"distance":2413,"i_lat":-6.319871,"i_long":106.66566,"line":6,"is_transit":false,"station_name":"Serpong","station_id":"SRP"}],[{"distance":0,"station_id":"TB","line":1,"is_transit":false,"time":0,"transit":false,"i_long":107.055722,"i_lat":-6.258864,"station_name":"Tambun"},{"station_id":"BKST","transit":false,"is_transit":false,"i_lat":-6.248029,"line":1,"i_long":107.016735,"time":7,"distance":4460,"station_name":"Bekasi Timur"},{"station_name":"Bekasi","i_lat":-6.236616,"time":2,"station_id":"BKS","is_transit":false,"distance":2368,"line":1,"transit":false,"i_long":106.997013},{"station_id":"KRI","station_name":"Kranji","i_long":106.977657,"transit":false,"distance":2520,"time":4,"i_lat":-6.224515,"is_transit":false,"line":1},{"time":3,"line":1,"station_id":"CUK","distance":3097,"i_lat":-6.219053,"is_transit":false,"station_name":"Cakung","i_long":106.951283,"transit":false},{"line":1,"time":8,"station_name":"Klenderbaru","transit":false,"is_transit":false,"distance":1385,"i_long":106.939679,"station_id":"KLDB","i_lat":-6.217455},{"transit":false,"distance":1305,"line":1,"is_transit":false,"station_name":"Buaran","station_id":"BUA","time":1,"i_long":106.922662,"i_lat":-6.215568},{"transit":false,"station_name":"Klender","time":2,"distance":3100,"i_long":106.899548,"line":1,"is_transit":false,"i_lat":-6.2135,"station_id":"KLD"},{"transit":true,"i_long":106.86807400000001,"line":1,"time":3,"is_transit":true,"distance":3395,"station_id":"JNG","station_name":"Jatinegara","i_lat":-6.215091},{"line":11,"station_id":"POK","distance":1236,"time":2,"transit":false,"is_transit":false,"i_lat":-6.209188,"station_name":"Pondok Jati","i_long":106.861737},{"i_long":106.855437,"line":11,"i_lat":-6.193792,"transit":false,"is_transit":false,"time":2,"station_name":"Kramat","station_id":"KMT","distance":1829},{"i_lat":-6.185975,"transit":false,"i_long":106.850107,"line":11,"distance":973,"is_transit":false,"station_id":"GST","time":1,"station_name":"Gang Sentiong"},{"time":8,"i_lat":-6.174784,"station_id":"PSE","is_transit":false,"station_name":"Pasar Senen","i_long":106.84368,"transit":false,"distance":1567,"line":11},{"i_lat":-6.161728,"line":11,"time":4,"station_name":"Kemayoran","station_id":"KMO","distance":1436,"i_long":106.839204,"is_transit":false,"transit":false},{"station_name":"Rajawali","i_long":106.836569,"transit":false,"i_lat":-6.14505,"station_id":"RJW","time":5,"line":11,"distance":1901,"is_transit":false},{"station_name":"Kampung Bandan","station_id":"KPB","line":4,"time":3,"transit":true,"distance":1444,"i_lat":-6.132549,"i_long":106.826365,"is_transit":true},{"station_id":"AK","distance":4102,"i_long":106.79867,"transit":false,"station_name":"Angke","is_transit":false,"time":9,"line":1,"i_lat":-6.144674},{"station_id":"DU","i_lat":-6.155215,"line":1,"time":4,"is_transit":false,"distance":1230,"station_name":"Duri","transit":false,"i_long":106.800832},{"line":1,"i_long":106.811091,"i_lat":-6.185545,"station_name":"Tanah Abang","time":8,"station_id":"THB","is_transit":true,"distance":3632,"transit":true},{"station_name":"Palmerah","time":6,"transit":false,"distance":3191,"line":6,"station_id":"PLM","i_lat":-6.207404,"i_long":106.79689,"is_transit":false},{"station_name":"Kebayoran","is_transit":false,"station_id":"KBY","transit":false,"distance":3737,"time":7,"i_lat":-6.237242,"line":6,"i_long":106.780334},{"distance":6218,"is_transit":false,"line":6,"time":8,"station_name":"Pondokranji","transit":false,"station_id":"PDJ","i_lat":-6.276362,"i_long":106.74273},{"time":3,"station_id":"JMU","station_name":"Jurangmangu","i_lat":-6.288927,"distance":2179,"is_transit":false,"i_long":106.728916,"transit":false,"line":6},{"distance":1994,"station_id":"SDM","transit":false,"station_name":"Sudimara","i_lat":-6.296963,"time":4,"is_transit":false,"i_long":106.712277,"line":6},{"station_id":"RU","transit":false,"i_long":106.675475,"line":6,"time":6,"is_transit":false,"distance":4566,"station_name":"Rawa Buntu","i_lat":-6.314823},{"distance":2413,"i_long":106.66566,"line":6,"station_id":"SRP","station_name":"Serpong","i_lat":-6.319871,"transit":false,"time":4,"is_transit":false}],[{"line":1,"i_lat":-6.258864,"distance":0,"transit":false,"is_transit":false,"i_long":107.055722,"station_id":"TB","station_name":"Tambun","time":0},{"line":1,"i_lat":-6.248029,"station_id":"BKST","i_long":107.016735,"is_transit":false,"station_name":"Bekasi Timur","distance":4460,"time":7,"transit":false},{"distance":2368,"time":2,"transit":false,"line":1,"station_id":"BKS","is_transit":false,"station_name":"Bekasi","i_long":106.997013,"i_lat":-6.236616},{"i_lat":-6.224515,"line":1,"is_transit":false,"station_name":"Kranji","distance":2520,"i_long":106.977657,"station_id":"KRI","transit":false,"time":4},{"transit":false,"station_name":"Cakung","line":1,"is_transit":false,"time":3,"distance":3097,"station_id":"CUK","i_lat":-6.219053,"i_long":106.951283},{"is_transit":false,"station_id":"KLDB","distance":1385,"transit":false,"station_name":"Klenderbaru","i_lat":-6.217455,"i_long":106.939679,"line":1,"time":8},{"time":1,"distance":1305,"station_name":"Buaran","i_long":106.922662,"line":1,"is_transit":false,"i_lat":-6.215568,"transit":false,"station_id":"BUA"},{"transit":false,"station_name":"Klender","is_transit":false,"i_long":106.899548,"i_lat":-6.2135,"line":1,"distance":3100,"time":2,"station_id":"KLD"},{"time":3,"station_name":"Jatinegara","distance":3395,"i_long":106.86807400000001,"i_lat":-6.215091,"is_transit":false,"station_id":"JNG","transit":false,"line":1},{"transit":false,"station_name":"Matraman","i_long":106.858896,"distance":1377,"line":1,"is_transit":false,"station_id":"MTR","i_lat":-6.212485,"time":2},{"line":2,"station_id":"MRI","i_long":106.84912,"distance":1275,"time":2,"station_name":"Manggarai","transit":true,"is_transit":true,"i_lat":-6.209883},{"i_long":106.840169,"is_transit":false,"line":2,"distance":1590,"station_name":"Cikini","i_lat":-6.198556,"time":4,"transit":false,"station_id":"CKI"},{"station_name":"Gondangdia","line":2,"distance":1750,"station_id":"GDD","i_long":106.832183,"time":3,"i_lat":-6.186295,"transit":false,"is_transit":false},{"station_id":"JUA","distance":2015,"station_name":"Juanda","i_lat":-6.166716,"i_long":106.828284,"time":4,"transit":false,"is_transit":false,"line":2},{"distance":1149,"transit":false,"is_transit":false,"station_name":"Sawah Besar","station_id":"SW","line":2,"i_lat":-6.160725,"i_long":106.827103,"time":2},{"is_transit":false,"station_id":"MGB","line":2,"transit":false,"i_long":106.82482,"i_lat":-6.149769,"time":2,"station_name":"Manggabesar","distance":906},{"transit":false,"station_id":"JAY","is_transit":false,"i_lat":-6.141205,"i_long":106.820901,"time":2,"line":2,"station_name":"Jayakarta","distance":1080},{"transit":true,"distance":1264,"station_id":"JAKK","line":2,"time":4,"is_transit":true,"station_name":"Jakarta Kota","i_long":106.812439,"i_lat":-6.137569},{"station_name":"Kampung Bandan","transit":true,"distance":1364,"time":3,"is_transit":true,"i_long":106.826365,"i_lat":-6.132549,"line":4,"station_id":"KPB"},{"i_long":106.79867,"time":9,"station_name":"Angke","i_lat":-6.144674,"line":1,"distance":4102,"station_id":"AK","transit":false,"is_transit":false},{"station_name":"Duri","line":1,"i_long":106.800832,"station_id":"DU","distance":1230,"time":4,"is_transit":false,"transit":false,"i_lat":-6.155215},{"i_long":106.811091,"time":8,"distance":3632,"line":1,"is_transit":true,"i_lat":-6.185545,"transit":true,"station_name":"Tanah Abang","station_id":"THB"},{"i_lat":-6.207404,"station_id":"PLM","distance":3191,"line":6,"i_long":106.79689,"time":6,"transit":false,"is_transit":false,"station_name":"Palmerah"},{"transit":false,"i_lat":-6.237242,"station_name":"Kebayoran","i_long":106.780334,"is_transit":false,"distance":3737,"station_id":"KBY","line":6,"time":7},{"i_long":106.74273,"i_lat":-6.276362,"is_transit":false,"station_name":"Pondokranji","distance":6218,"time":8,"station_id":"PDJ","line":6,"transit":false},{"distance":2179,"time":3,"station_name":"Jurangmangu","i_lat":-6.288927,"transit":false,"line":6,"is_transit":false,"station_id":"JMU","i_long":106.728916},{"i_lat":-6.296963,"i_long":106.712277,"transit":false,"station_name":"Sudimara","distance":1994,"line":6,"is_transit":false,"time":4,"station_id":"SDM"},{"i_long":106.675475,"distance":4566,"line":6,"station_id":"RU","transit":false,"station_name":"Rawa Buntu","is_transit":false,"i_lat":-6.314823,"time":6},{"is_transit":false,"time":4,"i_long":106.66566,"i_lat":-6.319871,"distance":2413,"station_id":"SRP","line":6,"station_name":"Serpong","transit":false}],[{"transit":false,"i_lat":-6.258864,"is_transit":false,"i_long":107.055722,"station_id":"TB","distance":0,"line":1,"time":0,"station_name":"Tambun"},{"distance":4460,"time":7,"station_id":"BKST","i_long":107.016735,"is_transit":false,"i_lat":-6.248029,"transit":false,"station_name":"Bekasi Timur","line":1},{"i_lat":-6.236616,"distance":2368,"is_transit":false,"line":1,"transit":false,"i_long":106.997013,"station_id":"BKS","time":2,"station_name":"Bekasi"},{"station_id":"KRI","i_lat":-6.224515,"time":4,"transit":false,"station_name":"Kranji","distance":2520,"i_long":106.977657,"line":1,"is_transit":false},{"transit":false,"is_transit":false,"time":3,"station_name":"Cakung","distance":3097,"station_id":"CUK","i_long":106.951283,"line":1,"i_lat":-6.219053},{"distance":1385,"i_lat":-6.217455,"line":1,"station_name":"Klenderbaru","station_id":"KLDB","is_transit":false,"transit":false,"i_long":106.939679,"time":8},{"time":1,"transit":false,"i_lat":-6.215568,"station_name":"Buaran","distance":1305,"is_transit":false,"station_id":"BUA","i_long":106.922662,"line":1},{"station_name":"Klender","i_long":106.899548,"time":2,"is_transit":false,"transit":false,"station_id":"KLD","i_lat":-6.2135,"line":1,"distance":3100},{"transit":true,"time":3,"is_transit":true,"i_long":106.86807400000001,"station_id":"JNG","distance":3395,"i_lat":-6.215091,"station_name":"Jatinegara","line":1},{"station_name":"Pondok Jati","transit":false,"is_transit":false,"i_lat":-6.209188,"station_id":"POK","distance":1236,"i_long":106.861737,"line":11,"time":2},{"transit":false,"i_lat":-6.193792,"distance":1829,"line":11,"is_transit":false,"i_long":106.855437,"station_id":"KMT","time":2,"station_name":"Kramat"},{"is_transit":false,"i_long":106.850107,"line":11,"transit":false,"station_name":"Gang Sentiong","time":1,"distance":973,"i_lat":-6.185975,"station_id":"GST"},{"line":11,"station_id":"PSE","distance":1567,"i_long":106.84368,"time":8,"i_lat":-6.174784,"transit":false,"is_transit":false,"station_name":"Pasar Senen"},{"i_lat":-6.161728,"time":4,"is_transit":false,"transit":false,"distance":1436,"station_id":"KMO","station_name":"Kemayoran","i_long":106.839204,"line":11},{"station_name":"Rajawali","station_id":"RJW","i_lat":-6.14505,"i_long":106.836569,"distance":1901,"time":5,"line":11,"transit":false,"is_transit":false},{"transit":true,"time":3,"is_transit":true,"distance":1444,"station_id":"KPB","i_lat":-6.132549,"i_long":106.826365,"station_name":"Kampung Bandan","line":4},{"transit":true,"distance":1364,"i_lat":-6.137569,"time":3,"i_long":106.812439,"station_id":"JAKK","is_transit":true,"station_name":"Jakarta Kota","line":2},{"is_transit":false,"station_id":"JAY","station_name":"Jayakarta","i_lat":-6.141205,"distance":1264,"i_long":106.820901,"line":2,"transit":false,"time":4},{"i_long":106.82482,"station_name":"Manggabesar","time":2,"distance":1080,"line":2,"transit":false,"station_id":"MGB","is_transit":false,"i_lat":-6.149769},{"transit":false,"station_name":"Sawah Besar","time":2,"distance":906,"is_transit":false,"station_id":"SW","i_lat":-6.160725,"i_long":106.827103,"line":2},{"is_transit":false,"station_name":"Juanda","station_id":"JUA","i_lat":-6.166716,"distance":1149,"i_long":106.828284,"time":2,"transit":false,"line":2},{"line":2,"distance":2015,"time":4,"transit":false,"station_id":"GDD","i_long":106.832183,"i_lat":-6.186295,"is_transit":false,"station_name":"Gondangdia"},{"i_lat":-6.198556,"i_long":106.840169,"is_transit":false,"station_id":"CKI","line":2,"transit":false,"distance":1750,"station_name":"Cikini","time":3},{"is_transit":true,"transit":true,"station_name":"Manggarai","station_id":"MRI","line":2,"time":4,"i_lat":-6.209883,"i_long":106.84912,"distance":1590},{"transit":false,"is_transit":false,"station_id":"SUD","line":1,"i_long":106.822649,"time":4,"i_lat":-6.202263,"distance":3186,"station_name":"Sudirman"},{"time":1,"line":1,"station_id":"SUDB","station_name":"Sudirman Baru","distance":280,"is_transit":false,"i_long":106.819881,"transit":false,"i_lat":-6.201433},{"time":1,"station_name":"Karet","is_transit":false,"station_id":"KAT","i_lat":-6.20132,"i_long":106.816351,"line":1,"distance":471,"transit":false},{"i_long":106.811091,"time":5,"transit":true,"line":1,"distance":2029,"station_id":"THB","i_lat":-6.185545,"station_name":"Tanah Abang","is_transit":true},{"distance":3191,"i_long":106.79689,"i_lat":-6.207404,"time":6,"station_id":"PLM","station_name":"Palmerah","line":6,"is_transit":false,"transit":false},{"i_long":106.780334,"line":6,"distance":3737,"i_lat":-6.237242,"is_transit":false,"transit":false,"station_name":"Kebayoran","time":7,"station_id":"KBY"},{"i_lat":-6.276362,"i_long":106.74273,"is_transit":false,"station_name":"Pondokranji","distance":6218,"station_id":"PDJ","time":8,"line":6,"transit":false},{"station_name":"Jurangmangu","transit":false,"station_id":"JMU","time":3,"line":6,"distance":2179,"is_transit":false,"i_lat":-6.288927,"i_long":106.728916},{"is_transit":false,"transit":false,"line":6,"distance":1994,"i_long":106.712277,"station_id":"SDM","i_lat":-6.296963,"station_name":"Sudimara","time":4},{"station_id":"RU","line":6,"i_lat":-6.314823,"i_long":106.675475,"distance":4566,"time":6,"transit":false,"station_name":"Rawa Buntu","is_transit":false},{"line":6,"station_id":"SRP","is_transit":false,"i_long":106.66566,"transit":false,"time":4,"station_name":"Serpong","distance":2413,"i_lat":-6.319871}]]}