{"data":[[{"time":0,"distance":0,"transit":false,"station_name":"Tambun","i_long":107.055722,"station_id":"TB","is_transit":false,"line":1,"i_lat":-6.258864},{"line":1,"station_id":"BKST","i_long":107.016735,"station_name":"Bekasi Timur","is_transit":false,"time":7,"i_lat":-6.248029,"transit":false,"distance":4460},{"i_lat":-6.236616,"station_name":"Bekasi","is_transit":false,"distance":2368,"line":1,"transit":false,"station_id":"BKS","i_long":106.997013,"time":2},{"i_long":106.977657,"line":1,"is_transit":false,"station_id":"KRI","transit":false,"station_name":"Kranji","time":4,"i_lat":-6.224515,"distance":2520},{"is_transit":false,"i_lat":-6.219053,"time":3,"line":1,"distance":3097,"transit":false,"i_long":106.951283,"station_name":"Cakung","station_id":"CUK"},{"i_long":106.939679,"time":8,"is_transit":false,"transit":false,"station_id":"KLDB","station_name":"Klenderbaru","line":1,"distance":1385,"i_lat":-6.217455},{"is_transit":false,"i_long":106.922662,"distance":1305,"i_lat":-6.215568,"time":1,"station_name":"Buaran","line":1,"transit":false,"station_id":"BUA"},{"is_transit":false,"station_name":"Klender","transit":false,"line":1,"station_id":"KLD","distance":3100,"i_lat":-6.2135,"i_long":106.899548,"time":2},{"time":3,"line":1,"is_transit":false,"distance":3395,"i_lat":-6.215091,"station_name":"Jatinegara","transit":false,"station_id":"JNG","i_long":106.86807400000001},{"line":1,"station_id":"MTR","distance":1377,"station_name":"Matraman","time":2,"i_long":106.858896,"i_lat":-6.212485,"is_transit":false,"transit":false},{"line":2,"station_id":"MRI","distance":1275,"i_long":106.84912,"transit":false,"is_transit":false,"station_name":"Manggarai","time":2,"i_lat":-6.209883},{"line":1,"station_name":"Sudirman","transit":false,"is_transit":false,"time":4,"i_long":106.822649,"station_id":"SUD","distance":3186,"i_lat":-6.202263},{"station_id":"SUDB","i_lat":-6.201433,"transit":false,"i_long":106.819881,"line":1,"station_name":"Sudirman Baru","is_transit":false,"time":1,"distance":280},{"station_name":"Karet","transit":false,"i_lat":-6.20132,"i_long":106.816351,"line":1,"is_transit":false,"time":1,"station_id":"KAT","distance":471},{"transit":true,"i_lat":-6.185545,"station_name":"Tanah Abang","is_transit":true,"i_long":106.811091,"time":5,"distance":2029,"line":1,"station_id":"THB"},{"station_name":"Palmerah","station_id":"PLM","line":6,"i_long":106.79689,"time":6,"distance":3191,"transit":false,"is_transit":false,"i_lat":-6.207404},{"is_transit":false,"i_long":106.780334,"i_lat":-6.237242,"station_name":"Kebayoran","station_id":"KBY","time":7,"line":6,"transit":false,"distance":3737},{"line":6,"station_id":"PDJ","transit":false,"time":8,"station_name":"Pondokranji","distance":6218,"i_lat":-6.276362,"is_transit":false,"i_long":106.74273},{"station_name":"Jurangmangu","time":3,"distance":2179,"i_lat":-6.288927,"i_long":106.728916,"transit":false,"line":6,"is_transit":false,"station_id":"JMU"},{"distance":1994,"i_long":106.712277,"i_lat":-6.296963,"time":4,"is_transit":false,"line":6,"transit":false,"station_name":"Sudimara","station_id":"SDM"},{"station_id":"RU","station_name":"Rawa Buntu","time":6,"i_long":106.675475,"distance":4566,"transit":false,"i_lat":-6.314823,"is_transit":false,"line":6},{"time":4,"is_transit":false,"station_id":"SRP","i_lat":-6.319871,"transit":false,"station_name":"Serpong","distance":2413,"line":6,"i_long":106.66566}],[{"is_transit":false,"station_name":"Tambun","station_id":"TB","time":0,"transit":false,"line":1,"distance":0,"i_lat":-6.258864,"i_long":107.055722},{"station_name":"Bekasi Timur","is_transit":false,"distance":4460,"i_long":107.016735,"transit":false,"line":1,"station_id":"BKST","i_lat":-6.248029,"time":7},{"line":1,"i_long":106.997013,"station_id":"BKS","distance":2368,"is_transit":false,"transit":false,"station_name":"Bekasi","time":2,"i_lat":-6.236616},{"i_lat":-6.224515,"station_id":"KRI","transit":false,"is_transit":false,"station_name":"Kranji","time":4,"distance":2520,"line":1,"i_long":106.977657},{"i_lat":-6.219053,"station_id":"CUK","i_long":106.951283,"transit":false,"station_name":"Cakung","is_transit":false,"time":3,"line":1,"distance":3097},{"station_name":"Klenderbaru","is_transit":false,"time":8,"i_long":106.939679,"transit":false,"i_lat":-6.217455,"distance":1385,"station_id":"KLDB","line":1},{"is_transit":false,"i_lat":-6.215568,"station_id":"BUA","i_long":106.922662,"transit":false,"line":1,"distance":1305,"station_name":"Buaran","time":1},{"distance":3100,"station_id":"KLD","transit":false,"station_name":"Klender","i_lat":-6.2135,"line":1,"i_long":106.899548,"time":2,"is_transit":false},{"station_id":"JNG","station_name":"Jatinegara","i_long":106.86807400000001,"time":3,"line":1,"transit":true,"distance":3395,"is_transit":true,"i_lat":-6.215091},{"station_id":"POK","i_long":106.861737,"distance":1236,"transit":false,"is_transit":false,"i_lat":-6.209188,"line":11,"station_name":"Pondok Jati","time":2},{"transit":false,"station_name":"Kramat","line":11,"station_id":"KMT","time":2,"distance":1829,"i_lat":-6.193792,"is_transit":false,"i_long":106.855437},{"transit":false,"i_long":106.850107,"is_transit":false,"time":1,"distance":973,"station_name":"Gang Sentiong","station_id":"GST","i_lat":-6.185975,"line":11},{"time":8,"station_name":"Pasar Senen","distance":1567,"line":11,"is_transit":false,"transit":false,"station_id":"PSE","i_lat":-6.174784,"i_long":106.84368},{"is_transit":false,"station_name":"Kemayoran","i_lat":-6.161728,"distance":1436,"transit":false,"i_long":106.839204,"station_id":"KMO","time":4,"line":11},{"station_name":"Rajawali","i_long":106.836569,"line":11,"time":5,"is_transit":false,"transit":false,"station_id":"RJW","i_lat":-6.14505,"distance":1901},{"station_name":"Kampung Bandan","station_id":"KPB","distance":1444,"time":3,"i_long":106.826365,"line":4,"transit":true,"is_transit":true,"i_lat":-6.132549},{"transit":false,"station_id":"AK","is_transit":false,"station_name":"Angke","line":1,"distance":4102,"i_lat":-6.144674,"time":9,"i_long":106.79867},{"time":4,"i_lat":-6.155215,"is_transit":false,"line":1,"i_long":106.800832,"station_id":"DU","station_name":"Duri","distance":1230,"transit":false},{"i_lat":-6.185545,"is_transit":true,"transit":true,"i_long":106.811091,"time":8,"station_name":"Tanah Abang","station_id":"THB","distance":3632,"line":1},{"line":6,"is_transit":false,"transit":false,"station_name":"Palmerah","station_id":"PLM","distance":3191,"time":6,"i_long":106.79689,"i_lat":-6.207404},{"station_name":"Kebayoran","distance":3737,"time":7,"is_transit":false,"i_lat":-6.237242,"station_id":"KBY","i_long":106.780334,"transit":false,"line":6},{"is_transit":false,"station_id":"PDJ","i_long":106.74273,"transit":false,"line":6,"station_name":"Pondokranji","time":8,"i_lat":-6.276362,"distance":6218},{"i_lat":-6.288927,"station_name":"Jurangmangu","distance":2179,"station_id":"JMU","i_long":106.728916,"time":3,"transit":false,"line":6,"is_transit":false},{"transit":false,"i_long":106.712277,"line":6,"distance":1994,"time":4,"i_lat":-6.296963,"station_name":"Sudimara","station_id":"SDM","is_transit":false},{"is_transit":false,"i_long":106.675475,"station_id":"RU","transit":false,"time":6,"distance":4566,"station_name":"Rawa Buntu","line":6,"i_lat":-6.314823},{"station_id":"SRP","is_transit":false,"time":4,"i_lat":-6.319871,"transit":false,"station_name":"Serpong","distance":2413,"line":6,"i_long":106.66566}],[{"i_long":107.055722,"station_id":"TB","is_transit":false,"time":0,"distance":0,"i_lat":-6.258864,"line":1,"transit":false,"station_name":"Tambun"},{"transit":false,"time":7,"is_transit":false,"i_lat":-6.248029,"distance":4460,"line":1,"i_long":107.016735,"station_id":"BKST","station_name":"Bekasi Timur"},{"line":1,"station_name":"Bekasi","distance":2368,"i_long":106.997013,"transit":false,"station_id":"BKS","time":2,"is_transit":false,"i_lat":-6.236616},{"line":1,"is_transit":false,"distance":2520,"station_id":"KRI","time":4,"i_lat":-6.224515,"station_name":"Kranji","transit":false,"i_long":106.977657},{"transit":false,"is_transit":false,"station_id":"CUK","time":3,"i_long":106.951283,"station_name":"Cakung","distance":3097,"i_lat":-6.219053,"line":1},{"transit":false,"distance":1385,"i_long":106.939679,"is_transit":false,"time":8,"line":1,"i_lat":-6.217455,"station_id":"KLDB","station_name":"Klenderbaru"},{"transit":false,"distance":1305,"is_transit":false,"time":1,"station_name":"Buaran","i_long":106.922662,"line":1,"station_id":"BUA","i_lat":-6.215568},{"distance":3100,"i_long":106.899548,"i_lat":-6.2135,"is_transit":false,"station_name":"Klender","station_id":"KLD","time":2,"transit":false,"line":1},{"station_id":"JNG","i_lat":-6.215091,"transit":false,"station_name":"Jatinegara","is_transit":false,"time":3,"distance":3395,"i_long":106.86807400000001,"line":1},{"time":2,"transit":false,"line":1,"i_lat":-6.212485,"station_id":"MTR","distance":1377,"i_long":106.858896,"station_name":"Matraman","is_transit":false},{"distance":1275,"station_name":"Manggarai","line":2,"is_transit":true,"transit":true,"station_id":"MRI","i_long":106.84912,"time":2,"i_lat":-6.209883},{"station_name":"Cikini","transit":false,"time":4,"i_lat":-6.198556,"i_long":106.840169,"station_id":"CKI","is_transit":false,"line":2,"distance":1590},{"line":2,"station_id":"GDD","i_lat":-6.186295,"transit":false,"time":3,"distance":1750,"i_long":106.832183,"station_name":"Gondangdia","is_transit":false},{"transit":false,"station_id":"JUA","i_lat":-6.166716,"time":4,"i_long":106.828284,"distance":2015,"is_transit":false,"station_name":"Juanda","line":2},{"station_name":"Sawah Besar","is_transit":false,"station_id":"SW","i_lat":-6.160725,"time":2,"line":2,"transit":false,"distance":1149,"i_long":106.827103},{"i_long":106.82482,"i_lat":-6.149769,"line":2,"transit":false,"distance":906,"station_name":"Manggabesar","is_transit":false,"time":2,"station_id":"MGB"},{"i_long":106.820901,"distance":1080,"i_lat":-6.141205,"station_id":"JAY","line":2,"transit":false,"station_name":"Jayakarta","time":2,"is_transit":false},{"is_transit":true,"i_long":106.812439,"station_name":"Jakarta Kota","station_id":"JAKK","distance":1264,"line":2,"transit":true,"time":4,"i_lat":-6.137569},{"station_name":"Kampung Bandan","line":4,"distance":1364,"time":3,"i_long":106.826365,"transit":true,"station_id":"KPB","is_transit":true,"i_lat":-6.132549},{"station_name":"Angke","time":9,"i_long":106.79867,"distance":4102,"is_transit":false,"i_lat":-6.144674,"station_id":"AK","transit":false,"line":1},{"transit":false,"is_transit":false,"station_id":"DU","station_name":"Duri","time":4,"i_long":106.800832,"distance":1230,"line":1,"i_lat":-6.155215},{"transit":true,"distance":3632,"i_lat":-6.185545,"time":8,"is_transit":true,"line":1,"station_name":"Tanah Abang","station_id":"THB","i_long":106.811091},{"station_name":"Palmerah","time":6,"is_transit":false,"i_lat":-6.207404,"station_id":"PLM","distance":3191,"line":6,"transit":false,"i_long":106.79689},{"line":6,"i_lat":-6.237242,"i_long":106.780334,"station_name":"Kebayoran","is_transit":false,"distance":3737,"transit":false,"station_id":"KBY","time":7},{"time":8,"station_id":"PDJ","i_long":106.74273,"distance":6218,"i_lat":-6.276362,"station_name":"Pondokranji","line":6,"transit":false,"is_transit":false},{"transit":false,"i_long":106.728916,"station_name":"Jurangmangu","is_transit":false,"time":3,"distance":2179,"station_id":"JMU","line":6,"i_lat":-6.288927},{"line":6,"station_id":"SDM","distance":1994,"transit":false,"i_lat":-6.296963,"i_long":106.712277,"is_transit":false,"station_name":"Sudimara","time":4},{"time":6,"line":6,"transit":false,"station_id":"RU","station_name":"Rawa Buntu","i_long":106.675475,"distance":4566,"i_lat":-6.314823,"is_transit":false},{"transit":false,"is_transit":false,"time":4,"station_id":"SRP","distance":2413,"station_name":"Serpong","i_lat":-6.319871,"line":6,"i_long":106.66566}],[{"station_id":"TB","station_name":"Tambun","distance":0,"i_long":107.055722,"time":0,"line":1,"transit":false,"is_transit":false,"i_lat":-6.258864},{"is_transit":false,"line":1,"distance":4460,"transit":false,"i_long":107.016735,"station_name":"Bekasi Timur","time":7,"station_id":"BKST","i_lat":-6.248029},{"line":1,"i_long":106.997013,"station_name":"Bekasi","i_lat":-6.236616,"station_id":"BKS","is_transit":false,"distance":2368,"transit":false,"time":2},{"line":1,"transit":false,"is_transit":false,"i_lat":-6.224515,"station_id":"KRI","time":4,"station_name":"Kranji","i_long":106.977657,"distance":2520},{"station_name":"Cakung","is_transit":false,"time":3,"i_long":106.951283,"line":1,"i_lat":-6.219053,"transit":false,"station_id":"CUK","distance":3097},{"station_id":"KLDB","is_transit":false,"time":8,"i_lat":-6.217455,"i_long":106.939679,"line":1,"transit":false,"station_name":"Klenderbaru","distance":1385},{"line":1,"transit":false,"i_lat":-6.215568,"time":1,"i_long":106.922662,"station_id":"BUA","station_name":"Buaran","is_transit":false,"distance":1305},{"time":2,"i_lat":-6.2135,"line":1,"distance":3100,"is_transit":false,"i_long":106.899548,"transit":false,"station_id":"KLD","station_name":"Klender"},{"transit":true,"station_id":"JNG","time":3,"i_lat":-6.215091,"line":1,"is_transit":true,"i_long":106.86807400000001,"station_name":"Jatinegara","distance":3395},{"station_id":"POK","is_transit":false,"time":2,"line":11,"i_lat":-6.209188,"station_name":"Pondok Jati","i_long":106.861737,"distance":1236,"transit":false},{"transit":false,"i_lat":-6.193792,"station_name":"Kramat","station_id":"KMT","time":2,"distance":1829,"line":11,"is_transit":false,"i_long":106.855437},{"distance":973,"transit":false,"time":1,"station_id":"GST","station_name":"Gang Sentiong","i_long":106.850107,"is_transit":false,"line":11,"i_lat":-6.185975},{"i_long":106.84368,"time":8,"distance":1567,"transit":false,"line":11,"i_lat":-6.174784,"station_id":"PSE","station_name":"Pasar Senen","is_transit":false},{"transit":false,"station_name":"Kemayoran","is_transit":false,"station_id":"KMO","time":4,"line":11,"i_lat":-6.161728,"distance":1436,"i_long":106.839204},{"transit":false,"is_transit":false,"i_lat":-6.14505,"time":5,"distance":1901,"i_long":106.836569,"station_name":"Rajawali","station_id":"RJW","line":11},{"station_id":"KPB","i_lat":-6.132549,"station_name":"Kampung Bandan","line":4,"i_long":106.826365,"transit":true,"time":3,"distance":1444,"is_transit":true},{"i_long":106.812439,"station_id":"JAKK","time":3,"station_name":"Jakarta Kota","is_transit":true,"distance":1364,"i_lat":-6.137569,"line":2,"transit":true},{"station_id":"JAY","time":4,"i_lat":-6.141205,"is_transit":false,"station_name":"Jayakarta","transit":false,"i_long":106.820901,"line":2,"distance":1264},{"line":2,"station_id":"MGB","time":2,"i_lat":-6.149769,"is_transit":false,"i_long":106.82482,"transit":false,"station_name":"Manggabesar","distance":1080},{"station_id":"SW","time":2,"is_transit":false,"i_lat":-6.160725,"distance":906,"transit":false,"station_name":"Sawah Besar","i_long":106.827103,"line":2},{"i_lat":-6.166716,"is_transit":false,"line":2,"station_name":"Juanda","transit":false,"station_id":"JUA","distance":1149,"i_long":106.828284,"time":2},{"station_id":"GDD","transit":false,"is_transit":false,"i_lat":-6.186295,"time":4,"i_long":106.832183,"distance":2015,"station_name":"Gondangdia","line":2},{"time":3,"transit":false,"distance":1750,"i_lat":-6.198556,"is_transit":false,"i_long":106.840169,"line":2,"station_name":"Cikini","station_id":"CKI"},{"i_lat":-6.209883,"i_long":106.84912,"is_transit":true,"transit":true,"station_name":"Manggarai","station_id":"MRI","time":4,"line":2,"distance":1590},{"i_long":106.822649,"line":1,"time":4,"is_transit":false,"station_name":"Sudirman","transit":false,"distance":3186,"i_lat":-6.202263,"station_id":"SUD"},{"i_lat":-6.201433,"transit":false,"is_transit":false,"station_name":"Sudirman Baru","time":1,"i_long":106.819881,"line":1,"station_id":"SUDB","distance":280},{"line":1,"transit":false,"station_name":"Karet","station_id":"KAT","is_transit":false,"time":1,"i_lat":-6.20132,"distance":471,"i_long":106.816351},{"i_lat":-6.185545,"station_id":"THB","distance":2029,"is_transit":true,"i_long":106.811091,"transit":true,"station_name":"Tanah Abang","line":1,"time":5},{"i_lat":-6.207404,"time":6,"transit":false,"station_name":"Palmerah","line":6,"station_id":"PLM","distance":3191,"is_transit":false,"i_long":106.79689},{"station_id":"KBY","i_lat":-6.237242,"i_long":106.780334,"time":7,"distance":3737,"is_transit":false,"transit":false,"line":6,"station_name":"Kebayoran"},{"station_name":"Pondokranji","i_lat":-6.276362,"i_long":106.74273,"is_transit":false,"time":8,"distance":6218,"line":6,"transit":false,"station_id":"PDJ"},{"i_long":106.728916,"is_transit":false,"i_lat":-6.288927,"line":6,"station_id":"JMU","distance":2179,"transit":false,"station_name":"Jurangmangu","time":3},{"is_transit":false,"transit":false,"station_name":"Sudimara","distance":1994,"line":6,"i_lat":-6.296963,"time":4,"station_id":"SDM","i_long":106.712277},{"i_lat":-6.314823,"station_id":"RU","distance":4566,"line":6,"transit":false,"station_name":"Rawa Buntu","time":6,"i_long":106.675475,"is_transit":false},{"station_name":"Serpong","time":4,"i_lat":-6.319871,"transit":false,"is_transit":false,"distance":2413,"station_id":"SRP","line":6,"i_long":106.66566}]]}