{"data":[[{"transit":false,"station_name":"Tambun","time":0,"line":1,"i_lat":-6.258864,"station_id":"TB","distance":0,"is_transit":false,"i_long":107.055722},{"transit":false,"station_id":"BKST","time":7,"distance":4460,"i_long":107.016735,"i_lat":-6.248029,"station_name":"Bekasi Timur","line":1,"is_transit":false},{"i_lat":-6.236616,"distance":2368,"station_name":"Bekasi","is_transit":false,"line":1,"transit":false,"station_id":"BKS","i_long":106.997013,"time":2},{"line":1,"i_long":106.977657,"is_transit":false,"time":4,"station_name":"Kranji","distance":2520,"i_lat":-6.224515,"transit":false,"station_id":"KRI"},{"i_lat":-6.219053,"time":3,"is_transit":false,"station_id":"CUK","i_long":106.951283,"distance":3097,"transit":false,"line":1,"station_name":"Cakung"},{"station_id":"KLDB","transit":false,"i_lat":-6.217455,"i_long":106.939679,"time":8,"station_name":"Klenderbaru","line":1,"distance":1385,"is_transit":false},{"distance":1305,"station_id":"BUA","i_long":106.922662,"is_transit":false,"station_name":"Buaran","time":1,"i_lat":-6.215568,"line":1,"transit":false},{"is_transit":false,"transit":false,"station_name":"Klender","distance":3100,"i_long":106.899548,"i_lat":-6.2135,"line":1,"time":2,"station_id":"KLD"},{"station_id":"JNG","i_lat":-6.215091,"line":1,"i_long":106.86807400000001,"time":3,"transit":false,"is_transit":false,"distance":3395,"station_name":"Jatinegara"},{"station_name":"Matraman","time":2,"distance":1377,"station_id":"MTR","i_long":106.858896,"line":1,"i_lat":-6.212485,"transit":false,"is_transit":false},{"i_long":106.84912,"station_id":"MRI","transit":true,"time":2,"distance":1275,"is_transit":true,"line":2,"station_name":"Manggarai","i_lat":-6.209883},{"station_name":"Cikini","station_id":"CKI","is_transit":false,"time":4,"i_lat":-6.198556,"i_long":106.840169,"distance":1590,"transit":false,"line":2},{"is_transit":false,"time":3,"transit":false,"i_long":106.832183,"station_name":"Gondangdia","distance":1750,"station_id":"GDD","i_lat":-6.186295,"line":2},{"station_name":"Juanda","is_transit":false,"time":4,"line":2,"i_lat":-6.166716,"i_long":106.828284,"distance":2015,"transit":false,"station_id":"JUA"},{"time":2,"station_name":"Sawah Besar","transit":false,"line":2,"is_transit":false,"distance":1149,"station_id":"SW","i_lat":-6.160725,"i_long":106.827103}],[{"time":0,"line":1,"station_name":"Tambun","i_long":107.055722,"is_transit":false,"transit":false,"i_lat":-6.258864,"distance":0,"station_id":"TB"},{"i_lat":-6.248029,"i_long":107.016735,"distance":4460,"line":1,"station_name":"Bekasi Timur","time":7,"station_id":"BKST","transit":false,"is_transit":false},{"is_transit":false,"distance":2368,"i_long":106.997013,"station_name":"Bekasi","time":2,"i_lat":-6.236616,"line":1,"transit":false,"station_id":"BKS"},{"is_transit":false,"i_lat":-6.224515,"line":1,"time":4,"i_long":106.977657,"station_name":"Kranji","distance":2520,"station_id":"KRI","transit":false},{"is_transit":false,"i_lat":-6.219053,"line":1,"i_long":106.951283,"station_id":"CUK","time":3,"transit":false,"station_name":"Cakung","distance":3097},{"is_transit":false,"station_name":"Klenderbaru","i_lat":-6.217455,"i_long":106.939679,"line":1,"station_id":"KLDB","transit":false,"time":8,"distance":1385},{"distance":1305,"station_name":"Buaran","i_lat":-6.215568,"station_id":"BUA","i_long":106.922662,"line":1,"transit":false,"time":1,"is_transit":false},{"line":1,"is_transit":false,"station_id":"KLD","i_lat":-6.2135,"i_long":106.899548,"time":2,"station_name":"Klender","transit":false,"distance":3100},{"station_name":"Jatinegara","is_transit":true,"distance":3395,"transit":true,"i_lat":-6.215091,"i_long":106.86807400000001,"time":3,"line":1,"station_id":"JNG"},{"i_long":106.861737,"time":2,"station_id":"POK","line":11,"station_name":"Pondok Jati","is_transit":false,"distance":1236,"transit":false,"i_lat":-6.209188},{"i_lat":-6.193792,"i_long":106.855437,"station_id":"KMT","time":2,"station_name":"Kramat","transit":false,"is_transit":false,"distance":1829,"line":11},{"station_name":"Gang Sentiong","i_long":106.850107,"distance":973,"i_lat":-6.185975,"transit":false,"is_transit":false,"time":1,"line":11,"station_id":"GST"},{"station_name":"Pasar Senen","line":11,"i_long":106.84368,"is_transit":false,"station_id":"PSE","i_lat":-6.174784,"transit":false,"time":8,"distance":1567},{"transit":false,"time":4,"i_long":106.839204,"line":11,"station_name":"Kemayoran","station_id":"KMO","distance":1436,"i_lat":-6.161728,"is_transit":false},{"time":5,"i_lat":-6.14505,"distance":1901,"i_long":106.836569,"station_name":"Rajawali","is_transit":false,"line":11,"transit":false,"station_id":"RJW"},{"station_id":"KPB","is_transit":true,"line":4,"station_name":"Kampung Bandan","distance":1444,"time":3,"i_lat":-6.132549,"i_long":106.826365,"transit":true},{"time":3,"station_id":"JAKK","transit":true,"i_long":106.812439,"i_lat":-6.137569,"station_name":"Jakarta Kota","distance":1364,"line":2,"is_transit":true},{"station_id":"JAY","i_lat":-6.141205,"distance":1264,"i_long":106.820901,"line":2,"station_name":"Jayakarta","time":4,"is_transit":false,"transit":false},{"transit":false,"station_name":"Manggabesar","i_lat":-6.149769,"line":2,"station_id":"MGB","distance":1080,"is_transit":false,"time":2,"i_long":106.82482},{"i_long":106.827103,"distance":906,"line":2,"station_name":"Sawah Besar","time":2,"transit":false,"station_id":"SW","is_transit":false,"i_lat":-6.160725}],[{"transit":false,"time":0,"i_lat":-6.258864,"is_transit":false,"distance":0,"station_name":"Tambun","station_id":"TB","line":1,"i_long":107.055722},{"transit":false,"station_name":"Bekasi Timur","station_id":"BKST","i_lat":-6.248029,"line":1,"distance":4460,"time":7,"is_transit":false,"i_long":107.016735},{"i_lat":-6.236616,"is_transit":false,"i_long":106.997013,"line":1,"station_name":"Bekasi","station_id":"BKS","time":2,"distance":2368,"transit":false},{"i_long":106.977657,"station_name":"Kranji","station_id":"KRI","time":4,"distance":2520,"line":1,"transit":false,"i_lat":-6.224515,"is_transit":false},{"is_transit":false,"line":1,"transit":false,"i_long":106.951283,"time":3,"distance":3097,"station_name":"Cakung","i_lat":-6.219053,"station_id":"CUK"},{"distance":1385,"i_lat":-6.217455,"i_long":106.939679,"station_name":"Klenderbaru","transit":false,"is_transit":false,"line":1,"time":8,"station_id":"KLDB"},{"is_transit":false,"time":1,"station_id":"BUA","i_lat":-6.215568,"transit":false,"distance":1305,"station_name":"Buaran","line":1,"i_long":106.922662},{"station_name":"Klender","distance":3100,"transit":false,"i_long":106.899548,"time":2,"line":1,"i_lat":-6.2135,"station_id":"KLD","is_transit":false},{"i_long":106.86807400000001,"distance":3395,"station_name":"Jatinegara","is_transit":false,"i_lat":-6.215091,"line":1,"transit":false,"station_id":"JNG","time":3},{"line":1,"time":2,"station_id":"MTR","distance":1377,"i_lat":-6.212485,"station_name":"Matraman","transit":false,"i_long":106.858896,"is_transit":false},{"distance":1275,"line":2,"station_name":"Manggarai","time":2,"station_id":"MRI","is_transit":false,"i_lat":-6.209883,"transit":false,"i_long":106.84912},{"i_long":106.822649,"station_id":"SUD","station_name":"Sudirman","is_transit":false,"distance":3186,"line":1,"transit":false,"time":4,"i_lat":-6.202263},{"i_long":106.819881,"line":1,"station_id":"SUDB","is_transit":false,"distance":280,"time":1,"station_name":"Sudirman Baru","i_lat":-6.201433,"transit":false},{"station_name":"Karet","distance":471,"is_transit":false,"station_id":"KAT","time":1,"i_lat":-6.20132,"transit":false,"line":1,"i_long":106.816351},{"line":1,"is_transit":false,"i_lat":-6.185545,"station_id":"THB","time":5,"station_name":"Tanah Abang","transit":false,"distance":2029,"i_long":106.811091},{"i_lat":-6.155215,"is_transit":false,"station_id":"DU","time":8,"line":1,"transit":false,"station_name":"Duri","distance":3632,"i_long":106.800832},{"is_transit":false,"i_long":106.79867,"distance":1230,"transit":false,"station_id":"AK","station_name":"Angke","time":4,"line":1,"i_lat":-6.144674},{"distance":4102,"station_name":"Kampung Bandan","line":4,"transit":true,"time":9,"i_lat":-6.132549,"i_long":106.826365,"station_id":"KPB","is_transit":true},{"line":2,"station_id":"JAKK","distance":1364,"i_lat":-6.137569,"transit":true,"time":3,"is_transit":true,"i_long":106.812439,"station_name":"Jakarta Kota"},{"i_lat":-6.141205,"line":2,"distance":1264,"station_name":"Jayakarta","time":4,"i_long":106.820901,"station_id":"JAY","is_transit":false,"transit":false},{"station_name":"Manggabesar","station_id":"MGB","i_lat":-6.149769,"time":2,"transit":false,"is_transit":false,"distance":1080,"i_long":106.82482,"line":2},{"transit":false,"distance":906,"is_transit":false,"station_id":"SW","time":2,"i_long":106.827103,"i_lat":-6.160725,"station_name":"Sawah Besar","line":2}],[{"line":1,"time":0,"station_name":"Tambun","i_long":107.055722,"is_transit":false,"distance":0,"i_lat":-6.258864,"transit":false,"station_id":"TB"},{"i_long":107.016735,"transit":false,"is_transit":false,"distance":4460,"line":1,"station_name":"Bekasi Timur","station_id":"BKST","i_lat":-6.248029,"time":7},{"is_transit":false,"i_lat":-6.236616,"line":1,"i_long":106.997013,"station_id":"BKS","distance":2368,"station_name":"Bekasi","transit":false,"time":2},{"distance":2520,"transit":false,"station_id":"KRI","is_transit":false,"i_lat":-6.224515,"line":1,"i_long":106.977657,"station_name":"Kranji","time":4},{"time":3,"i_long":106.951283,"is_transit":false,"i_lat":-6.219053,"line":1,"station_id":"CUK","transit":false,"station_name":"Cakung","distance":3097},{"transit":false,"station_id":"KLDB","distance":1385,"line":1,"time":8,"is_transit":false,"i_lat":-6.217455,"i_long":106.939679,"station_name":"Klenderbaru"},{"distance":1305,"line":1,"i_lat":-6.215568,"station_name":"Buaran","station_id":"BUA","is_transit":false,"transit":false,"i_long":106.922662,"time":1},{"station_name":"Klender","transit":false,"line":1,"station_id":"KLD","distance":3100,"is_transit":false,"time":2,"i_long":106.899548,"i_lat":-6.2135},{"line":1,"transit":true,"station_name":"Jatinegara","distance":3395,"is_transit":true,"i_long":106.86807400000001,"station_id":"JNG","i_lat":-6.215091,"time":3},{"station_name":"Pondok Jati","transit":false,"i_lat":-6.209188,"distance":1236,"i_long":106.861737,"station_id":"POK","time":2,"line":11,"is_transit":false},{"time":2,"station_id":"KMT","i_long":106.855437,"is_transit":false,"line":11,"distance":1829,"i_lat":-6.193792,"station_name":"Kramat","transit":false},{"i_long":106.850107,"station_name":"Gang Sentiong","line":11,"time":1,"transit":false,"station_id":"GST","distance":973,"is_transit":false,"i_lat":-6.185975},{"distance":1567,"i_lat":-6.174784,"line":11,"transit":false,"station_id":"PSE","station_name":"Pasar Senen","i_long":106.84368,"time":8,"is_transit":false},{"line":11,"is_transit":false,"i_lat":-6.161728,"transit":false,"station_name":"Kemayoran","i_long":106.839204,"station_id":"KMO","time":4,"distance":1436},{"i_lat":-6.14505,"is_transit":false,"distance":1901,"i_long":106.836569,"station_id":"RJW","line":11,"time":5,"transit":false,"station_name":"Rajawali"},{"station_name":"Kampung Bandan","station_id":"KPB","i_long":106.826365,"line":4,"is_transit":true,"distance":1444,"i_lat":-6.132549,"time":3,"transit":true},{"time":9,"line":1,"transit":false,"i_long":106.79867,"i_lat":-6.144674,"distance":4102,"station_name":"Angke","station_id":"AK","is_transit":false},{"transit":false,"i_lat":-6.155215,"line":1,"time":4,"is_transit":false,"station_name":"Duri","station_id":"DU","distance":1230,"i_long":106.800832},{"time":8,"i_lat":-6.185545,"distance":3632,"is_transit":false,"transit":false,"station_name":"Tanah Abang","i_long":106.811091,"line":1,"station_id":"THB"},{"i_lat":-6.20132,"distance":2029,"is_transit":false,"i_long":106.816351,"station_name":"Karet","transit":false,"station_id":"KAT","line":1,"time":5},{"distance":471,"transit":false,"station_id":"SUDB","i_lat":-6.201433,"i_long":106.819881,"line":1,"time":1,"is_transit":false,"station_name":"Sudirman Baru"},{"i_long":106.822649,"transit":false,"line":1,"is_transit":false,"time":1,"distance":280,"station_name":"Sudirman","i_lat":-6.202263,"station_id":"SUD"},{"distance":3186,"transit":true,"time":4,"line":2,"station_name":"Manggarai","i_lat":-6.209883,"i_long":106.84912,"is_transit":true,"station_id":"MRI"},{"time":4,"i_long":106.840169,"line":2,"distance":1590,"station_id":"CKI","i_lat":-6.198556,"is_transit":false,"transit":false,"station_name":"Cikini"},{"is_transit":false,"station_id":"GDD","time":3,"line":2,"station_name":"Gondangdia","distance":1750,"transit":false,"i_lat":-6.186295,"i_long":106.832183},{"station_id":"JUA","distance":2015,"line":2,"transit":false,"is_transit":false,"station_name":"Juanda","i_long":106.828284,"i_lat":-6.166716,"time":4},{"transit":false,"i_long":106.827103,"station_id":"SW","is_transit":false,"line":2,"station_name":"Sawah Besar","time":2,"distance":1149,"i_lat":-6.160725}]]}