{"data":[[{"i_lat":-6.258864,"is_transit":false,"transit":false,"time":0,"station_id":"TB","line":1,"i_long":107.055722,"station_name":"Tambun","distance":0},{"distance":4460,"transit":false,"time":7,"station_name":"Bekasi Timur","i_lat":-6.248029,"is_transit":false,"station_id":"BKST","i_long":107.016735,"line":0},{"transit":false,"i_lat":-6.236616,"distance":2368,"time":2,"station_name":"Bekasi","i_long":106.997013,"is_transit":false,"station_id":"BKS","line":0},{"station_name":"Kranji","time":4,"station_id":"KRI","i_long":106.977657,"transit":false,"distance":2520,"i_lat":-6.224515,"line":1,"is_transit":false},{"station_id":"CUK","i_long":106.951283,"line":0,"is_transit":false,"time":3,"transit":false,"station_name":"Cakung","distance":3097,"i_lat":-6.219053},{"station_name":"Klenderbaru","distance":1385,"transit":false,"station_id":"KLDB","is_transit":false,"line":1,"i_long":106.939679,"time":8,"i_lat":-6.217455},{"station_name":"Buaran","transit":false,"i_lat":-6.215568,"i_long":106.922662,"distance":1305,"line":0,"is_transit":false,"station_id":"BUA","time":1},{"distance":3100,"station_id":"KLD","i_lat":-6.2135,"transit":false,"time":2,"station_name":"Klender","i_long":106.899548,"line":1,"is_transit":false},{"station_id":"JNG","i_long":106.86807400000001,"time":3,"distance":3395,"transit":false,"line":0,"is_transit":true,"station_name":"Jatinegara","i_lat":-6.215091},{"distance":1377,"is_transit":false,"transit":false,"i_lat":-6.212485,"station_name":"Matraman","station_id":"MTR","time":2,"i_long":106.858896,"line":1},{"transit":true,"line":0,"station_name":"Manggarai","i_lat":-6.209883,"i_long":106.84912,"distance":1275,"time":2,"station_id":"MRI","is_transit":true},{"station_name":"Cikini","time":4,"transit":false,"distance":1590,"i_lat":-6.198556,"i_long":106.840169,"line":0,"station_id":"CKI","is_transit":false},{"station_id":"GDD","is_transit":false,"i_lat":-6.186295,"transit":false,"distance":1750,"time":3,"station_name":"Gondangdia","i_long":106.832183,"line":2},{"station_name":"Juanda","station_id":"JUA","time":4,"i_lat":-6.166716,"distance":2015,"transit":false,"is_transit":false,"i_long":106.828284,"line":2},{"line":2,"station_name":"Sawah Besar","transit":false,"is_transit":false,"i_long":106.827103,"distance":1149,"time":2,"i_lat":-6.160725,"station_id":"SW"}],[{"time":0,"i_lat":-6.258864,"distance":0,"i_long":107.055722,"line":1,"station_name":"Tambun","transit":false,"station_id":"TB","is_transit":false},{"line":0,"station_name":"Bekasi Timur","station_id":"BKST","i_long":107.016735,"transit":false,"distance":4460,"i_lat":-6.248029,"is_transit":false,"time":7},{"transit":false,"station_name":"Bekasi","station_id":"BKS","time":2,"distance":2368,"i_long":106.997013,"is_transit":false,"i_lat":-6.236616,"line":0},{"is_transit":false,"transit":false,"time":4,"i_long":106.977657,"line":1,"i_lat":-6.224515,"station_name":"Kranji","distance":2520,"station_id":"KRI"},{"station_id":"CUK","distance":3097,"line":0,"station_name":"Cakung","is_transit":false,"time":3,"i_lat":-6.219053,"transit":false,"i_long":106.951283},{"station_id":"KLDB","i_lat":-6.217455,"station_name":"Klenderbaru","time":8,"transit":false,"i_long":106.939679,"is_transit":false,"line":1,"distance":1385},{"distance":1305,"station_name":"Buaran","i_lat":-6.215568,"time":1,"line":0,"i_long":106.922662,"station_id":"BUA","is_transit":false,"transit":false},{"time":2,"is_transit":false,"transit":false,"i_long":106.899548,"station_name":"Klender","i_lat":-6.2135,"distance":3100,"station_id":"KLD","line":1},{"station_name":"Jatinegara","transit":true,"station_id":"JNG","is_transit":true,"line":0,"distance":3395,"time":3,"i_lat":-6.215091,"i_long":106.86807400000001},{"station_id":"POK","transit":false,"i_lat":-6.209188,"time":2,"is_transit":false,"station_name":"Pondok Jati","distance":1236,"i_long":106.861737,"line":11},{"transit":false,"time":2,"distance":1829,"i_lat":-6.193792,"line":11,"station_name":"Kramat","station_id":"KMT","is_transit":false,"i_long":106.855437},{"station_id":"GST","transit":false,"line":11,"i_long":106.850107,"is_transit":false,"distance":973,"station_name":"Gang Sentiong","time":1,"i_lat":-6.185975},{"is_transit":false,"distance":1567,"transit":false,"i_long":106.84368,"station_id":"PSE","time":8,"i_lat":-6.174784,"line":11,"station_name":"Pasar Senen"},{"is_transit":false,"i_lat":-6.161728,"station_id":"KMO","transit":false,"time":4,"i_long":106.839204,"line":11,"distance":1436,"station_name":"Kemayoran"},{"transit":false,"line":11,"distance":1901,"station_name":"Rajawali","time":5,"is_transit":false,"i_lat":-6.14505,"station_id":"RJW","i_long":106.836569},{"distance":1444,"i_long":106.826365,"transit":true,"time":3,"station_id":"KPB","is_transit":true,"station_name":"Kampung Bandan","i_lat":-6.132549,"line":0},{"line":0,"transit":true,"distance":1364,"station_name":"Jakarta Kota","is_transit":true,"time":3,"i_lat":-6.137569,"station_id":"JAKK","i_long":106.812439},{"time":4,"distance":1264,"transit":false,"i_lat":-6.141205,"line":7,"is_transit":false,"i_long":106.820901,"station_name":"Jayakarta","station_id":"JAY"},{"time":2,"i_lat":-6.149769,"transit":false,"line":2,"station_id":"MGB","is_transit":false,"i_long":106.82482,"distance":1080,"station_name":"Manggabesar"},{"distance":906,"is_transit":false,"i_lat":-6.160725,"i_long":106.827103,"line":2,"time":2,"station_name":"Sawah Besar","station_id":"SW","transit":false}],[{"is_transit":false,"station_id":"TB","transit":false,"i_lat":-6.258864,"i_long":107.055722,"line":1,"distance":0,"station_name":"Tambun","time":0},{"transit":false,"i_lat":-6.248029,"distance":4460,"station_name":"Bekasi Timur","time":7,"station_id":"BKST","line":0,"i_long":107.016735,"is_transit":false},{"i_lat":-6.236616,"station_id":"BKS","transit":false,"time":2,"distance":2368,"station_name":"Bekasi","i_long":106.997013,"line":0,"is_transit":false},{"distance":2520,"i_long":106.977657,"station_id":"KRI","i_lat":-6.224515,"line":1,"transit":false,"time":4,"station_name":"Kranji","is_transit":false},{"station_name":"Cakung","i_lat":-6.219053,"station_id":"CUK","line":0,"i_long":106.951283,"time":3,"is_transit":false,"distance":3097,"transit":false},{"i_lat":-6.217455,"i_long":106.939679,"line":1,"is_transit":false,"station_id":"KLDB","distance":1385,"transit":false,"station_name":"Klenderbaru","time":8},{"station_id":"BUA","is_transit":false,"i_lat":-6.215568,"i_long":106.922662,"line":0,"distance":1305,"station_name":"Buaran","transit":false,"time":1},{"line":1,"transit":false,"distance":3100,"is_transit":false,"station_id":"KLD","station_name":"Klender","time":2,"i_lat":-6.2135,"i_long":106.899548},{"station_name":"Jatinegara","line":0,"distance":3395,"transit":false,"i_long":106.86807400000001,"time":3,"i_lat":-6.215091,"station_id":"JNG","is_transit":true},{"distance":1377,"is_transit":false,"station_id":"MTR","time":2,"i_lat":-6.212485,"i_long":106.858896,"line":1,"transit":false,"station_name":"Matraman"},{"line":0,"transit":false,"time":2,"distance":1275,"i_lat":-6.209883,"station_name":"Manggarai","is_transit":true,"station_id":"MRI","i_long":106.84912},{"station_id":"SUD","station_name":"Sudirman","transit":false,"i_long":106.822649,"is_transit":false,"line":1,"i_lat":-6.202263,"time":4,"distance":3186},{"station_id":"SUDB","station_name":"Sudirman Baru","i_long":106.819881,"is_transit":false,"distance":280,"transit":false,"line":1,"time":1,"i_lat":-6.201433},{"i_long":106.816351,"station_id":"KAT","distance":471,"transit":false,"i_lat":-6.20132,"line":1,"time":1,"is_transit":false,"station_name":"Karet"},{"station_name":"Tanah Abang","time":5,"is_transit":true,"distance":2029,"transit":false,"i_lat":-6.185545,"i_long":106.811091,"line":1,"station_id":"THB"},{"i_long":106.800832,"station_name":"Duri","station_id":"DU","transit":true,"time":8,"is_transit":true,"line":1,"distance":3632,"i_lat":-6.155215},{"station_id":"AK","time":4,"transit":false,"i_lat":-6.144674,"line":0,"station_name":"Angke","distance":1230,"is_transit":false,"i_long":106.79867},{"is_transit":true,"transit":false,"station_id":"KPB","i_lat":-6.132549,"line":0,"station_name":"Kampung Bandan","time":9,"distance":4102,"i_long":106.826365},{"time":3,"station_name":"Jakarta Kota","distance":1364,"i_lat":-6.137569,"is_transit":true,"i_long":106.812439,"line":0,"transit":true,"station_id":"JAKK"},{"time":4,"is_transit":false,"station_id":"JAY","station_name":"Jayakarta","i_lat":-6.141205,"distance":1264,"line":7,"transit":false,"i_long":106.820901},{"i_long":106.82482,"station_name":"Manggabesar","distance":1080,"is_transit":false,"line":2,"time":2,"station_id":"MGB","transit":false,"i_lat":-6.149769},{"station_id":"SW","station_name":"Sawah Besar","i_lat":-6.160725,"distance":906,"time":2,"i_long":106.827103,"is_transit":false,"line":2,"transit":false}],[{"time":0,"distance":0,"station_id":"TB","station_name":"Tambun","i_long":107.055722,"line":1,"is_transit":false,"transit":false,"i_lat":-6.258864},{"line":0,"i_lat":-6.248029,"station_id":"BKST","transit":false,"time":7,"i_long":107.016735,"is_transit":false,"distance":4460,"station_name":"Bekasi Timur"},{"transit":false,"time":2,"is_transit":false,"distance":2368,"station_name":"Bekasi","i_lat":-6.236616,"i_long":106.997013,"station_id":"BKS","line":0},{"line":1,"station_id":"KRI","is_transit":false,"distance":2520,"time":4,"station_name":"Kranji","transit":false,"i_lat":-6.224515,"i_long":106.977657},{"time":3,"transit":false,"distance":3097,"station_id":"CUK","i_long":106.951283,"i_lat":-6.219053,"station_name":"Cakung","is_transit":false,"line":0},{"time":8,"i_lat":-6.217455,"distance":1385,"is_transit":false,"station_id":"KLDB","transit":false,"station_name":"Klenderbaru","line":1,"i_long":106.939679},{"i_lat":-6.215568,"time":1,"transit":false,"i_long":106.922662,"is_transit":false,"line":0,"station_id":"BUA","distance":1305,"station_name":"Buaran"},{"station_id":"KLD","transit":false,"station_name":"Klender","i_long":106.899548,"i_lat":-6.2135,"distance":3100,"is_transit":false,"line":1,"time":2},{"time":3,"station_id":"JNG","transit":true,"distance":3395,"station_name":"Jatinegara","i_long":106.86807400000001,"is_transit":true,"i_lat":-6.215091,"line":0},{"time":2,"i_lat":-6.209188,"station_id":"POK","line":11,"transit":false,"is_transit":false,"i_long":106.861737,"distance":1236,"station_name":"Pondok Jati"},{"transit":false,"time":2,"i_lat":-6.193792,"station_name":"Kramat","is_transit":false,"i_long":106.855437,"line":11,"distance":1829,"station_id":"KMT"},{"i_lat":-6.185975,"time":1,"i_long":106.850107,"distance":973,"transit":false,"station_id":"GST","line":11,"is_transit":false,"station_name":"Gang Sentiong"},{"station_name":"Pasar Senen","station_id":"PSE","time":8,"distance":1567,"is_transit":false,"transit":false,"line":11,"i_lat":-6.174784,"i_long":106.84368},{"distance":1436,"is_transit":false,"i_long":106.839204,"line":11,"station_id":"KMO","time":4,"transit":false,"station_name":"Kemayoran","i_lat":-6.161728},{"distance":1901,"i_long":106.836569,"transit":false,"is_transit":false,"line":11,"station_id":"RJW","station_name":"Rajawali","time":5,"i_lat":-6.14505},{"transit":true,"i_lat":-6.132549,"line":0,"time":3,"is_transit":true,"station_id":"KPB","station_name":"Kampung Bandan","i_long":106.826365,"distance":1444},{"station_name":"Angke","distance":4102,"time":9,"transit":false,"i_lat":-6.144674,"i_long":106.79867,"line":0,"is_transit":false,"station_id":"AK"},{"station_id":"DU","is_transit":true,"i_long":106.800832,"station_name":"Duri","transit":true,"i_lat":-6.155215,"distance":1230,"time":4,"line":1},{"station_id":"THB","time":8,"i_lat":-6.185545,"transit":false,"distance":3632,"i_long":106.811091,"line":1,"station_name":"Tanah Abang","is_transit":true},{"distance":2029,"station_name":"Karet","transit":false,"i_long":106.816351,"time":5,"line":1,"is_transit":false,"station_id":"KAT","i_lat":-6.20132},{"line":1,"distance":471,"is_transit":false,"time":1,"transit":false,"i_lat":-6.201433,"station_name":"Sudirman Baru","station_id":"SUDB","i_long":106.819881},{"i_long":106.822649,"time":1,"distance":280,"i_lat":-6.202263,"line":1,"transit":false,"station_name":"Sudirman","is_transit":false,"station_id":"SUD"},{"distance":3186,"line":0,"transit":true,"i_long":106.84912,"station_id":"MRI","is_transit":true,"station_name":"Manggarai","time":4,"i_lat":-6.209883},{"station_id":"CKI","line":0,"is_transit":false,"time":4,"distance":1590,"transit":false,"station_name":"Cikini","i_lat":-6.198556,"i_long":106.840169},{"i_lat":-6.186295,"is_transit":false,"distance":1750,"time":3,"station_id":"GDD","station_name":"Gondangdia","line":2,"transit":false,"i_long":106.832183},{"transit":false,"distance":2015,"station_name":"Juanda","is_transit":false,"station_id":"JUA","time":4,"i_lat":-6.166716,"line":2,"i_long":106.828284},{"distance":1149,"time":2,"i_long":106.827103,"station_id":"SW","is_transit":false,"station_name":"Sawah Besar","transit":false,"i_lat":-6.160725,"line":2}]]}