{"data":[[{"time":0,"i_long":107.055722,"is_transit":false,"transit":false,"station_id":"TB","distance":0,"i_lat":-6.258864,"line":1,"station_name":"Tambun"},{"line":1,"i_long":107.016735,"i_lat":-6.248029,"transit":false,"distance":4460,"is_transit":false,"time":7,"station_name":"Bekasi Timur","station_id":"BKST"},{"is_transit":false,"line":1,"time":2,"station_name":"Bekasi","i_lat":-6.236616,"i_long":106.997013,"transit":false,"station_id":"BKS","distance":2368},{"is_transit":false,"distance":2520,"i_long":106.977657,"line":1,"transit":false,"station_name":"Kranji","station_id":"KRI","time":4,"i_lat":-6.224515},{"time":3,"distance":3097,"station_id":"CUK","transit":false,"station_name":"Cakung","i_lat":-6.219053,"line":1,"is_transit":false,"i_long":106.951283},{"station_name":"Klenderbaru","line":1,"distance":1385,"i_lat":-6.217455,"i_long":106.939679,"time":8,"is_transit":false,"station_id":"KLDB","transit":false},{"i_lat":-6.215568,"transit":false,"station_name":"Buaran","i_long":106.922662,"line":1,"station_id":"BUA","distance":1305,"is_transit":false,"time":1},{"transit":false,"station_name":"Klender","i_long":106.899548,"line":1,"i_lat":-6.2135,"is_transit":false,"time":2,"distance":3100,"station_id":"KLD"},{"distance":3395,"time":3,"station_id":"JNG","station_name":"Jatinegara","i_long":106.86807400000001,"transit":false,"is_transit":false,"line":1,"i_lat":-6.215091},{"time":2,"distance":1377,"i_lat":-6.212485,"i_long":106.858896,"transit":false,"station_name":"Matraman","is_transit":false,"station_id":"MTR","line":1},{"is_transit":true,"distance":1275,"time":2,"station_id":"MRI","i_long":106.84912,"i_lat":-6.209883,"transit":true,"line":2,"station_name":"Manggarai"},{"transit":false,"time":4,"station_id":"CKI","line":2,"i_long":106.840169,"i_lat":-6.198556,"distance":1590,"is_transit":false,"station_name":"Cikini"},{"distance":1750,"line":2,"i_long":106.832183,"transit":false,"is_transit":false,"i_lat":-6.186295,"time":3,"station_id":"GDD","station_name":"Gondangdia"},{"distance":2015,"i_lat":-6.166716,"i_long":106.828284,"station_name":"Juanda","transit":false,"line":2,"is_transit":false,"station_id":"JUA","time":4},{"line":2,"i_long":106.827103,"time":2,"distance":1149,"station_name":"Sawah Besar","i_lat":-6.160725,"transit":false,"is_transit":false,"station_id":"SW"}],[{"line":1,"time":0,"is_transit":false,"i_long":107.055722,"station_name":"Tambun","i_lat":-6.258864,"transit":false,"station_id":"TB","distance":0},{"i_lat":-6.248029,"i_long":107.016735,"line":1,"station_id":"BKST","time":7,"transit":false,"distance":4460,"station_name":"Bekasi Timur","is_transit":false},{"i_lat":-6.236616,"transit":false,"is_transit":false,"i_long":106.997013,"time":2,"line":1,"station_name":"Bekasi","distance":2368,"station_id":"BKS"},{"line":1,"station_id":"KRI","is_transit":false,"distance":2520,"i_lat":-6.224515,"i_long":106.977657,"time":4,"transit":false,"station_name":"Kranji"},{"i_long":106.951283,"distance":3097,"time":3,"is_transit":false,"station_name":"Cakung","station_id":"CUK","line":1,"transit":false,"i_lat":-6.219053},{"distance":1385,"transit":false,"i_long":106.939679,"is_transit":false,"station_id":"KLDB","station_name":"Klenderbaru","i_lat":-6.217455,"time":8,"line":1},{"i_lat":-6.215568,"transit":false,"time":1,"station_id":"BUA","i_long":106.922662,"station_name":"Buaran","is_transit":false,"distance":1305,"line":1},{"line":1,"is_transit":false,"time":2,"i_long":106.899548,"station_name":"Klender","distance":3100,"i_lat":-6.2135,"transit":false,"station_id":"KLD"},{"time":3,"station_id":"JNG","transit":true,"i_long":106.86807400000001,"i_lat":-6.215091,"distance":3395,"line":1,"station_name":"Jatinegara","is_transit":true},{"station_id":"POK","i_lat":-6.209188,"time":2,"transit":false,"station_name":"Pondok Jati","i_long":106.861737,"is_transit":false,"line":11,"distance":1236},{"i_long":106.855437,"line":11,"is_transit":false,"distance":1829,"transit":false,"i_lat":-6.193792,"time":2,"station_id":"KMT","station_name":"Kramat"},{"line":11,"distance":973,"is_transit":false,"station_name":"Gang Sentiong","i_lat":-6.185975,"i_long":106.850107,"station_id":"GST","transit":false,"time":1},{"distance":1567,"station_id":"PSE","is_transit":false,"transit":false,"time":8,"station_name":"Pasar Senen","i_long":106.84368,"i_lat":-6.174784,"line":11},{"distance":1436,"transit":false,"i_lat":-6.161728,"line":11,"is_transit":false,"station_id":"KMO","station_name":"Kemayoran","i_long":106.839204,"time":4},{"is_transit":false,"line":11,"time":5,"i_long":106.836569,"station_id":"RJW","transit":false,"station_name":"Rajawali","distance":1901,"i_lat":-6.14505},{"station_id":"KPB","i_lat":-6.132549,"station_name":"Kampung Bandan","distance":1444,"is_transit":true,"i_long":106.826365,"transit":true,"time":3,"line":4},{"line":2,"distance":1364,"i_lat":-6.137569,"i_long":106.812439,"station_id":"JAKK","time":3,"transit":true,"is_transit":true,"station_name":"Jakarta Kota"},{"transit":false,"line":2,"station_name":"Jayakarta","time":4,"is_transit":false,"i_lat":-6.141205,"i_long":106.820901,"station_id":"JAY","distance":1264},{"i_long":106.82482,"transit":false,"time":2,"line":2,"is_transit":false,"i_lat":-6.149769,"station_name":"Manggabesar","station_id":"MGB","distance":1080},{"i_long":106.827103,"station_name":"Sawah Besar","line":2,"i_lat":-6.160725,"distance":906,"station_id":"SW","transit":false,"time":2,"is_transit":false}],[{"time":0,"station_id":"TB","is_transit":false,"transit":false,"i_lat":-6.258864,"i_long":107.055722,"line":1,"distance":0,"station_name":"Tambun"},{"station_id":"BKST","time":7,"line":1,"transit":false,"is_transit":false,"i_lat":-6.248029,"station_name":"Bekasi Timur","i_long":107.016735,"distance":4460},{"line":1,"station_name":"Bekasi","i_lat":-6.236616,"transit":false,"is_transit":false,"time":2,"station_id":"BKS","distance":2368,"i_long":106.997013},{"is_transit":false,"transit":false,"distance":2520,"i_lat":-6.224515,"station_name":"Kranji","i_long":106.977657,"time":4,"station_id":"KRI","line":1},{"is_transit":false,"time":3,"line":1,"station_name":"Cakung","distance":3097,"i_lat":-6.219053,"station_id":"CUK","transit":false,"i_long":106.951283},{"station_name":"Klenderbaru","distance":1385,"transit":false,"i_long":106.939679,"line":1,"time":8,"station_id":"KLDB","is_transit":false,"i_lat":-6.217455},{"i_lat":-6.215568,"distance":1305,"station_name":"Buaran","i_long":106.922662,"time":1,"station_id":"BUA","is_transit":false,"transit":false,"line":1},{"transit":false,"i_lat":-6.2135,"line":1,"distance":3100,"station_name":"Klender","is_transit":false,"i_long":106.899548,"time":2,"station_id":"KLD"},{"line":1,"transit":false,"i_long":106.86807400000001,"station_name":"Jatinegara","distance":3395,"is_transit":false,"i_lat":-6.215091,"station_id":"JNG","time":3},{"line":1,"i_long":106.858896,"i_lat":-6.212485,"time":2,"distance":1377,"station_name":"Matraman","transit":false,"is_transit":false,"station_id":"MTR"},{"station_id":"MRI","distance":1275,"station_name":"Manggarai","time":2,"is_transit":false,"i_long":106.84912,"line":2,"transit":false,"i_lat":-6.209883},{"is_transit":false,"distance":3186,"i_lat":-6.202263,"station_id":"SUD","station_name":"Sudirman","transit":false,"i_long":106.822649,"line":1,"time":4},{"is_transit":false,"station_name":"Sudirman Baru","i_lat":-6.201433,"i_long":106.819881,"time":1,"distance":280,"station_id":"SUDB","line":1,"transit":false},{"station_id":"KAT","transit":false,"time":1,"distance":471,"is_transit":false,"i_lat":-6.20132,"station_name":"Karet","i_long":106.816351,"line":1},{"is_transit":false,"distance":2029,"station_id":"THB","i_lat":-6.185545,"line":1,"station_name":"Tanah Abang","transit":false,"i_long":106.811091,"time":5},{"line":1,"distance":3632,"transit":false,"station_name":"Duri","is_transit":false,"i_lat":-6.155215,"time":8,"station_id":"DU","i_long":106.800832},{"i_lat":-6.144674,"transit":false,"i_long":106.79867,"time":4,"station_name":"Angke","distance":1230,"is_transit":false,"line":1,"station_id":"AK"},{"distance":4102,"i_lat":-6.132549,"i_long":106.826365,"time":9,"transit":true,"station_name":"Kampung Bandan","line":4,"station_id":"KPB","is_transit":true},{"is_transit":true,"time":3,"station_name":"Jakarta Kota","i_lat":-6.137569,"distance":1364,"station_id":"JAKK","line":2,"i_long":106.812439,"transit":true},{"station_name":"Jayakarta","station_id":"JAY","i_lat":-6.141205,"time":4,"line":2,"distance":1264,"is_transit":false,"transit":false,"i_long":106.820901},{"i_long":106.82482,"station_id":"MGB","is_transit":false,"time":2,"station_name":"Manggabesar","transit":false,"distance":1080,"i_lat":-6.149769,"line":2},{"station_name":"Sawah Besar","i_long":106.827103,"line":2,"transit":false,"time":2,"i_lat":-6.160725,"is_transit":false,"station_id":"SW","distance":906}],[{"transit":false,"station_name":"Tambun","is_transit":false,"station_id":"TB","i_lat":-6.258864,"line":1,"distance":0,"time":0,"i_long":107.055722},{"i_long":107.016735,"distance":4460,"is_transit":false,"station_id":"BKST","line":1,"time":7,"transit":false,"station_name":"Bekasi Timur","i_lat":-6.248029},{"transit":false,"line":1,"time":2,"i_lat":-6.236616,"distance":2368,"i_long":106.997013,"is_transit":false,"station_name":"Bekasi","station_id":"BKS"},{"line":1,"i_long":106.977657,"time":4,"transit":false,"station_id":"KRI","distance":2520,"station_name":"Kranji","is_transit":false,"i_lat":-6.224515},{"is_transit":false,"transit":false,"i_lat":-6.219053,"station_id":"CUK","time":3,"i_long":106.951283,"distance":3097,"station_name":"Cakung","line":1},{"i_long":106.939679,"time":8,"is_transit":false,"station_id":"KLDB","distance":1385,"transit":false,"station_name":"Klenderbaru","line":1,"i_lat":-6.217455},{"i_long":106.922662,"station_name":"Buaran","transit":false,"distance":1305,"i_lat":-6.215568,"station_id":"BUA","is_transit":false,"time":1,"line":1},{"time":2,"i_lat":-6.2135,"distance":3100,"station_name":"Klender","station_id":"KLD","i_long":106.899548,"transit":false,"line":1,"is_transit":false},{"time":3,"distance":3395,"is_transit":true,"i_long":106.86807400000001,"line":1,"i_lat":-6.215091,"station_name":"Jatinegara","station_id":"JNG","transit":true},{"station_id":"POK","station_name":"Pondok Jati","i_long":106.861737,"is_transit":false,"transit":false,"time":2,"distance":1236,"i_lat":-6.209188,"line":11},{"line":11,"station_id":"KMT","time":2,"transit":false,"is_transit":false,"i_lat":-6.193792,"i_long":106.855437,"station_name":"Kramat","distance":1829},{"transit":false,"station_id":"GST","line":11,"station_name":"Gang Sentiong","i_lat":-6.185975,"is_transit":false,"distance":973,"i_long":106.850107,"time":1},{"i_long":106.84368,"transit":false,"station_id":"PSE","time":8,"is_transit":false,"i_lat":-6.174784,"station_name":"Pasar Senen","line":11,"distance":1567},{"transit":false,"i_lat":-6.161728,"i_long":106.839204,"line":11,"station_id":"KMO","time":4,"distance":1436,"station_name":"Kemayoran","is_transit":false},{"time":5,"i_lat":-6.14505,"is_transit":false,"station_id":"RJW","i_long":106.836569,"station_name":"Rajawali","line":11,"distance":1901,"transit":false},{"time":3,"i_lat":-6.132549,"line":4,"distance":1444,"transit":true,"station_id":"KPB","is_transit":true,"i_long":106.826365,"station_name":"Kampung Bandan"},{"distance":4102,"time":9,"is_transit":false,"transit":false,"station_name":"Angke","i_lat":-6.144674,"station_id":"AK","line":1,"i_long":106.79867},{"line":1,"station_name":"Duri","time":4,"distance":1230,"i_long":106.800832,"transit":false,"is_transit":false,"i_lat":-6.155215,"station_id":"DU"},{"station_id":"THB","i_long":106.811091,"station_name":"Tanah Abang","distance":3632,"is_transit":false,"i_lat":-6.185545,"time":8,"line":1,"transit":false},{"transit":false,"distance":2029,"station_name":"Karet","i_lat":-6.20132,"time":5,"line":1,"station_id":"KAT","is_transit":false,"i_long":106.816351},{"is_transit":false,"station_id":"SUDB","i_long":106.819881,"transit":false,"time":1,"distance":471,"i_lat":-6.201433,"line":1,"station_name":"Sudirman Baru"},{"i_long":106.822649,"distance":280,"transit":false,"is_transit":false,"station_name":"Sudirman","station_id":"SUD","i_lat":-6.202263,"time":1,"line":1},{"is_transit":true,"i_long":106.84912,"line":2,"distance":3186,"i_lat":-6.209883,"station_name":"Manggarai","station_id":"MRI","time":4,"transit":true},{"station_name":"Cikini","i_long":106.840169,"station_id":"CKI","is_transit":false,"line":2,"time":4,"transit":false,"distance":1590,"i_lat":-6.198556},{"line":2,"transit":false,"distance":1750,"time":3,"station_name":"Gondangdia","station_id":"GDD","i_long":106.832183,"is_transit":false,"i_lat":-6.186295},{"is_transit":false,"station_id":"JUA","i_lat":-6.166716,"time":4,"distance":2015,"i_long":106.828284,"transit":false,"station_name":"Juanda","line":2},{"station_name":"Sawah Besar","is_transit":false,"i_lat":-6.160725,"time":2,"station_id":"SW","distance":1149,"i_long":106.827103,"line":2,"transit":false}]]}