{"data":[[{"time":0,"station_id":"TB","is_transit":false,"distance":0,"i_lat":-6.258864,"transit":false,"line":1,"i_long":107.055722,"station_name":"Tambun"},{"time":7,"line":1,"transit":false,"station_id":"BKST","is_transit":false,"i_long":107.016735,"station_name":"Bekasi Timur","i_lat":-6.248029,"distance":4460},{"line":1,"station_name":"Bekasi","i_long":106.997013,"is_transit":false,"i_lat":-6.236616,"transit":false,"station_id":"BKS","distance":2368,"time":2},{"station_id":"KRI","is_transit":false,"station_name":"Kranji","time":4,"i_long":106.977657,"distance":2520,"transit":false,"i_lat":-6.224515,"line":1},{"i_long":106.951283,"station_id":"CUK","is_transit":false,"distance":3097,"station_name":"Cakung","i_lat":-6.219053,"time":3,"transit":false,"line":1},{"i_lat":-6.217455,"station_id":"KLDB","time":8,"distance":1385,"is_transit":false,"transit":false,"station_name":"Klenderbaru","line":1,"i_long":106.939679},{"is_transit":false,"distance":1305,"transit":false,"i_long":106.922662,"station_id":"BUA","line":1,"station_name":"Buaran","i_lat":-6.215568,"time":1},{"is_transit":false,"station_id":"KLD","time":2,"station_name":"Klender","i_lat":-6.2135,"distance":3100,"line":1,"transit":false,"i_long":106.899548},{"is_transit":false,"transit":false,"distance":3395,"time":3,"station_name":"Jatinegara","line":1,"i_long":106.86807400000001,"station_id":"JNG","i_lat":-6.215091},{"transit":false,"distance":1377,"line":1,"station_name":"Matraman","station_id":"MTR","time":2,"is_transit":false,"i_lat":-6.212485,"i_long":106.858896},{"station_id":"MRI","time":2,"station_name":"Manggarai","distance":1275,"i_lat":-6.209883,"i_long":106.84912,"is_transit":false,"line":2,"transit":false},{"time":4,"distance":3186,"i_lat":-6.202263,"station_id":"SUD","i_long":106.822649,"transit":false,"is_transit":false,"station_name":"Sudirman","line":1},{"i_lat":-6.201433,"transit":false,"i_long":106.819881,"line":1,"time":1,"station_name":"Sudirman Baru","distance":280,"station_id":"SUDB","is_transit":false},{"station_name":"Karet","distance":471,"i_lat":-6.20132,"line":1,"is_transit":false,"station_id":"KAT","transit":false,"time":1,"i_long":106.816351},{"station_id":"THB","is_transit":true,"distance":2029,"station_name":"Tanah Abang","line":1,"i_lat":-6.185545,"time":5,"i_long":106.811091,"transit":true},{"distance":3191,"station_name":"Palmerah","line":6,"i_long":106.79689,"time":6,"i_lat":-6.207404,"station_id":"PLM","is_transit":false,"transit":false},{"distance":3737,"i_long":106.780334,"time":7,"is_transit":false,"station_id":"KBY","i_lat":-6.237242,"transit":false,"station_name":"Kebayoran","line":6},{"i_long":106.74273,"line":6,"station_name":"Pondokranji","transit":false,"is_transit":false,"station_id":"PDJ","distance":6218,"time":8,"i_lat":-6.276362},{"station_name":"Jurangmangu","distance":2179,"i_lat":-6.288927,"time":3,"is_transit":false,"transit":false,"i_long":106.728916,"station_id":"JMU","line":6},{"i_long":106.712277,"is_transit":false,"station_name":"Sudimara","line":6,"distance":1994,"time":4,"transit":false,"station_id":"SDM","i_lat":-6.296963},{"station_id":"RU","is_transit":false,"distance":4566,"i_lat":-6.314823,"i_long":106.675475,"transit":false,"time":6,"station_name":"Rawa Buntu","line":6},{"i_long":106.66566,"station_name":"Serpong","i_lat":-6.319871,"station_id":"SRP","line":6,"distance":2413,"time":4,"transit":false,"is_transit":false}],[{"is_transit":false,"transit":false,"time":0,"i_long":107.055722,"i_lat":-6.258864,"line":1,"station_name":"Tambun","station_id":"TB","distance":0},{"i_lat":-6.248029,"distance":4460,"station_name":"Bekasi Timur","line":1,"i_long":107.016735,"time":7,"station_id":"BKST","transit":false,"is_transit":false},{"i_lat":-6.236616,"station_name":"Bekasi","is_transit":false,"time":2,"i_long":106.997013,"distance":2368,"station_id":"BKS","transit":false,"line":1},{"time":4,"station_id":"KRI","line":1,"transit":false,"is_transit":false,"i_long":106.977657,"i_lat":-6.224515,"distance":2520,"station_name":"Kranji"},{"transit":false,"time":3,"station_name":"Cakung","i_long":106.951283,"line":1,"distance":3097,"station_id":"CUK","i_lat":-6.219053,"is_transit":false},{"station_name":"Klenderbaru","i_long":106.939679,"line":1,"distance":1385,"transit":false,"time":8,"station_id":"KLDB","is_transit":false,"i_lat":-6.217455},{"line":1,"station_name":"Buaran","is_transit":false,"i_lat":-6.215568,"transit":false,"i_long":106.922662,"station_id":"BUA","distance":1305,"time":1},{"time":2,"i_lat":-6.2135,"line":1,"station_id":"KLD","transit":false,"i_long":106.899548,"is_transit":false,"station_name":"Klender","distance":3100},{"station_name":"Jatinegara","transit":true,"station_id":"JNG","time":3,"i_lat":-6.215091,"line":1,"is_transit":true,"i_long":106.86807400000001,"distance":3395},{"time":2,"i_lat":-6.209188,"distance":1236,"station_name":"Pondok Jati","is_transit":false,"transit":false,"station_id":"POK","i_long":106.861737,"line":11},{"distance":1829,"station_id":"KMT","station_name":"Kramat","is_transit":false,"i_long":106.855437,"line":11,"i_lat":-6.193792,"transit":false,"time":2},{"is_transit":false,"transit":false,"station_id":"GST","distance":973,"time":1,"i_long":106.850107,"station_name":"Gang Sentiong","line":11,"i_lat":-6.185975},{"distance":1567,"i_lat":-6.174784,"station_id":"PSE","transit":false,"station_name":"Pasar Senen","is_transit":false,"time":8,"i_long":106.84368,"line":11},{"transit":false,"is_transit":false,"distance":1436,"time":4,"station_name":"Kemayoran","i_lat":-6.161728,"line":11,"station_id":"KMO","i_long":106.839204},{"line":11,"station_name":"Rajawali","time":5,"i_long":106.836569,"transit":false,"is_transit":false,"station_id":"RJW","distance":1901,"i_lat":-6.14505},{"time":3,"station_id":"KPB","i_lat":-6.132549,"line":4,"transit":true,"is_transit":true,"station_name":"Kampung Bandan","i_long":106.826365,"distance":1444},{"is_transit":false,"time":9,"line":1,"station_id":"AK","transit":false,"station_name":"Angke","i_lat":-6.144674,"i_long":106.79867,"distance":4102},{"is_transit":false,"i_long":106.800832,"transit":false,"time":4,"station_name":"Duri","station_id":"DU","distance":1230,"i_lat":-6.155215,"line":1},{"time":8,"transit":true,"line":1,"station_name":"Tanah Abang","distance":3632,"station_id":"THB","i_lat":-6.185545,"is_transit":true,"i_long":106.811091},{"i_long":106.79689,"line":6,"i_lat":-6.207404,"is_transit":false,"time":6,"transit":false,"station_id":"PLM","distance":3191,"station_name":"Palmerah"},{"is_transit":false,"i_lat":-6.237242,"i_long":106.780334,"station_name":"Kebayoran","line":6,"time":7,"distance":3737,"station_id":"KBY","transit":false},{"time":8,"station_id":"PDJ","is_transit":false,"i_lat":-6.276362,"line":6,"station_name":"Pondokranji","i_long":106.74273,"transit":false,"distance":6218},{"station_name":"Jurangmangu","transit":false,"station_id":"JMU","is_transit":false,"i_long":106.728916,"distance":2179,"time":3,"line":6,"i_lat":-6.288927},{"line":6,"transit":false,"is_transit":false,"station_id":"SDM","distance":1994,"station_name":"Sudimara","i_lat":-6.296963,"time":4,"i_long":106.712277},{"i_lat":-6.314823,"time":6,"station_name":"Rawa Buntu","i_long":106.675475,"line":6,"transit":false,"station_id":"RU","is_transit":false,"distance":4566},{"is_transit":false,"distance":2413,"i_lat":-6.319871,"i_long":106.66566,"time":4,"station_name":"Serpong","line":6,"station_id":"SRP","transit":false}],[{"transit":false,"i_lat":-6.258864,"is_transit":false,"station_id":"TB","time":0,"distance":0,"i_long":107.055722,"line":1,"station_name":"Tambun"},{"i_long":107.016735,"distance":4460,"i_lat":-6.248029,"station_name":"Bekasi Timur","transit":false,"station_id":"BKST","line":1,"is_transit":false,"time":7},{"i_long":106.997013,"is_transit":false,"station_id":"BKS","line":1,"transit":false,"distance":2368,"i_lat":-6.236616,"station_name":"Bekasi","time":2},{"line":1,"i_long":106.977657,"station_name":"Kranji","station_id":"KRI","transit":false,"time":4,"i_lat":-6.224515,"distance":2520,"is_transit":false},{"is_transit":false,"time":3,"station_name":"Cakung","station_id":"CUK","i_lat":-6.219053,"line":1,"distance":3097,"i_long":106.951283,"transit":false},{"time":8,"i_long":106.939679,"station_name":"Klenderbaru","i_lat":-6.217455,"distance":1385,"transit":false,"is_transit":false,"station_id":"KLDB","line":1},{"station_name":"Buaran","station_id":"BUA","transit":false,"is_transit":false,"i_long":106.922662,"distance":1305,"time":1,"line":1,"i_lat":-6.215568},{"transit":false,"distance":3100,"time":2,"station_name":"Klender","is_transit":false,"i_long":106.899548,"station_id":"KLD","i_lat":-6.2135,"line":1},{"station_id":"JNG","time":3,"i_long":106.86807400000001,"line":1,"distance":3395,"i_lat":-6.215091,"is_transit":false,"station_name":"Jatinegara","transit":false},{"station_name":"Matraman","station_id":"MTR","i_lat":-6.212485,"line":1,"time":2,"distance":1377,"i_long":106.858896,"transit":false,"is_transit":false},{"i_lat":-6.209883,"time":2,"distance":1275,"line":2,"is_transit":true,"station_name":"Manggarai","i_long":106.84912,"transit":true,"station_id":"MRI"},{"station_name":"Cikini","transit":false,"station_id":"CKI","is_transit":false,"time":4,"line":2,"distance":1590,"i_lat":-6.198556,"i_long":106.840169},{"i_long":106.832183,"time":3,"transit":false,"line":2,"station_id":"GDD","distance":1750,"station_name":"Gondangdia","is_transit":false,"i_lat":-6.186295},{"i_lat":-6.166716,"i_long":106.828284,"line":2,"transit":false,"station_id":"JUA","station_name":"Juanda","distance":2015,"time":4,"is_transit":false},{"time":2,"transit":false,"is_transit":false,"line":2,"station_id":"SW","i_long":106.827103,"station_name":"Sawah Besar","i_lat":-6.160725,"distance":1149},{"i_lat":-6.149769,"station_id":"MGB","transit":false,"distance":906,"time":2,"station_name":"Manggabesar","i_long":106.82482,"is_transit":false,"line":2},{"is_transit":false,"station_name":"Jayakarta","station_id":"JAY","transit":false,"time":2,"i_long":106.820901,"line":2,"distance":1080,"i_lat":-6.141205},{"station_name":"Jakarta Kota","distance":1264,"i_long":106.812439,"time":4,"line":2,"transit":true,"i_lat":-6.137569,"station_id":"JAKK","is_transit":true},{"distance":1364,"transit":true,"is_transit":true,"line":4,"i_long":106.826365,"station_name":"Kampung Bandan","i_lat":-6.132549,"time":3,"station_id":"KPB"},{"i_long":106.79867,"station_name":"Angke","transit":false,"is_transit":false,"line":1,"distance":4102,"station_id":"AK","time":9,"i_lat":-6.144674},{"is_transit":false,"line":1,"distance":1230,"transit":false,"station_id":"DU","i_lat":-6.155215,"station_name":"Duri","time":4,"i_long":106.800832},{"i_lat":-6.185545,"is_transit":true,"time":8,"i_long":106.811091,"station_id":"THB","station_name":"Tanah Abang","line":1,"transit":true,"distance":3632},{"station_name":"Palmerah","is_transit":false,"i_long":106.79689,"station_id":"PLM","transit":false,"time":6,"distance":3191,"i_lat":-6.207404,"line":6},{"distance":3737,"station_name":"Kebayoran","station_id":"KBY","i_long":106.780334,"time":7,"line":6,"i_lat":-6.237242,"transit":false,"is_transit":false},{"transit":false,"distance":6218,"station_id":"PDJ","i_lat":-6.276362,"station_name":"Pondokranji","i_long":106.74273,"line":6,"is_transit":false,"time":8},{"station_id":"JMU","transit":false,"is_transit":false,"distance":2179,"station_name":"Jurangmangu","time":3,"i_lat":-6.288927,"line":6,"i_long":106.728916},{"time":4,"distance":1994,"station_id":"SDM","line":6,"station_name":"Sudimara","i_long":106.712277,"i_lat":-6.296963,"transit":false,"is_transit":false},{"line":6,"i_long":106.675475,"time":6,"station_id":"RU","transit":false,"station_name":"Rawa Buntu","distance":4566,"i_lat":-6.314823,"is_transit":false},{"line":6,"i_long":106.66566,"station_name":"Serpong","station_id":"SRP","distance":2413,"is_transit":false,"time":4,"i_lat":-6.319871,"transit":false}],[{"station_id":"TB","is_transit":false,"i_lat":-6.258864,"line":1,"time":0,"station_name":"Tambun","i_long":107.055722,"distance":0,"transit":false},{"station_id":"BKST","distance":4460,"i_long":107.016735,"line":1,"station_name":"Bekasi Timur","time":7,"is_transit":false,"i_lat":-6.248029,"transit":false},{"i_long":106.997013,"is_transit":false,"transit":false,"time":2,"distance":2368,"i_lat":-6.236616,"line":1,"station_name":"Bekasi","station_id":"BKS"},{"line":1,"distance":2520,"transit":false,"is_transit":false,"i_lat":-6.224515,"i_long":106.977657,"station_name":"Kranji","station_id":"KRI","time":4},{"station_id":"CUK","distance":3097,"is_transit":false,"time":3,"i_long":106.951283,"line":1,"station_name":"Cakung","i_lat":-6.219053,"transit":false},{"is_transit":false,"station_name":"Klenderbaru","distance":1385,"time":8,"i_long":106.939679,"station_id":"KLDB","transit":false,"line":1,"i_lat":-6.217455},{"station_name":"Buaran","distance":1305,"time":1,"is_transit":false,"station_id":"BUA","i_lat":-6.215568,"transit":false,"i_long":106.922662,"line":1},{"transit":false,"station_id":"KLD","distance":3100,"time":2,"station_name":"Klender","i_lat":-6.2135,"i_long":106.899548,"line":1,"is_transit":false},{"station_id":"JNG","transit":true,"i_lat":-6.215091,"distance":3395,"station_name":"Jatinegara","i_long":106.86807400000001,"time":3,"line":1,"is_transit":true},{"transit":false,"station_id":"POK","is_transit":false,"line":11,"distance":1236,"time":2,"station_name":"Pondok Jati","i_lat":-6.209188,"i_long":106.861737},{"is_transit":false,"station_name":"Kramat","i_lat":-6.193792,"station_id":"KMT","distance":1829,"transit":false,"time":2,"i_long":106.855437,"line":11},{"line":11,"transit":false,"station_name":"Gang Sentiong","i_lat":-6.185975,"i_long":106.850107,"distance":973,"station_id":"GST","is_transit":false,"time":1},{"distance":1567,"station_id":"PSE","is_transit":false,"station_name":"Pasar Senen","transit":false,"line":11,"i_lat":-6.174784,"time":8,"i_long":106.84368},{"i_long":106.839204,"station_id":"KMO","transit":false,"station_name":"Kemayoran","distance":1436,"time":4,"i_lat":-6.161728,"line":11,"is_transit":false},{"time":5,"distance":1901,"station_id":"RJW","is_transit":false,"i_lat":-6.14505,"line":11,"transit":false,"station_name":"Rajawali","i_long":106.836569},{"station_id":"KPB","i_long":106.826365,"line":4,"distance":1444,"time":3,"i_lat":-6.132549,"station_name":"Kampung Bandan","is_transit":true,"transit":true},{"station_id":"JAKK","distance":1364,"time":3,"transit":true,"is_transit":true,"station_name":"Jakarta Kota","i_long":106.812439,"line":2,"i_lat":-6.137569},{"i_long":106.820901,"station_id":"JAY","line":2,"is_transit":false,"distance":1264,"i_lat":-6.141205,"time":4,"transit":false,"station_name":"Jayakarta"},{"transit":false,"is_transit":false,"station_id":"MGB","time":2,"i_lat":-6.149769,"distance":1080,"station_name":"Manggabesar","line":2,"i_long":106.82482},{"line":2,"time":2,"is_transit":false,"transit":false,"distance":906,"station_id":"SW","station_name":"Sawah Besar","i_long":106.827103,"i_lat":-6.160725},{"transit":false,"distance":1149,"station_name":"Juanda","line":2,"time":2,"i_lat":-6.166716,"i_long":106.828284,"is_transit":false,"station_id":"JUA"},{"station_name":"Gondangdia","is_transit":false,"line":2,"distance":2015,"transit":false,"i_long":106.832183,"time":4,"i_lat":-6.186295,"station_id":"GDD"},{"i_long":106.840169,"i_lat":-6.198556,"line":2,"distance":1750,"transit":false,"station_id":"CKI","time":3,"station_name":"Cikini","is_transit":false},{"line":2,"i_lat":-6.209883,"is_transit":true,"station_name":"Manggarai","station_id":"MRI","transit":true,"time":4,"distance":1590,"i_long":106.84912},{"time":4,"i_lat":-6.202263,"i_long":106.822649,"line":1,"transit":false,"station_id":"SUD","is_transit":false,"distance":3186,"station_name":"Sudirman"},{"distance":280,"time":1,"i_lat":-6.201433,"i_long":106.819881,"line":1,"transit":false,"station_name":"Sudirman Baru","is_transit":false,"station_id":"SUDB"},{"transit":false,"is_transit":false,"station_name":"Karet","i_lat":-6.20132,"line":1,"time":1,"i_long":106.816351,"station_id":"KAT","distance":471},{"is_transit":true,"transit":true,"i_long":106.811091,"station_name":"Tanah Abang","station_id":"THB","line":1,"time":5,"distance":2029,"i_lat":-6.185545},{"i_long":106.79689,"station_name":"Palmerah","line":6,"i_lat":-6.207404,"time":6,"transit":false,"station_id":"PLM","distance":3191,"is_transit":false},{"transit":false,"i_long":106.780334,"i_lat":-6.237242,"line":6,"time":7,"is_transit":false,"station_name":"Kebayoran","distance":3737,"station_id":"KBY"},{"line":6,"time":8,"station_name":"Pondokranji","transit":false,"station_id":"PDJ","distance":6218,"is_transit":false,"i_lat":-6.276362,"i_long":106.74273},{"is_transit":false,"transit":false,"station_id":"JMU","time":3,"line":6,"i_lat":-6.288927,"distance":2179,"i_long":106.728916,"station_name":"Jurangmangu"},{"is_transit":false,"station_name":"Sudimara","i_lat":-6.296963,"i_long":106.712277,"distance":1994,"line":6,"transit":false,"station_id":"SDM","time":4},{"station_id":"RU","time":6,"is_transit":false,"transit":false,"station_name":"Rawa Buntu","i_lat":-6.314823,"i_long":106.675475,"distance":4566,"line":6},{"time":4,"i_long":106.66566,"station_name":"Serpong","line":6,"distance":2413,"i_lat":-6.319871,"transit":false,"is_transit":false,"station_id":"SRP"}]]}