{"data":[[{"station_id":"TB","station_name":"Tambun","line":1,"distance":0,"is_transit":false,"i_long":107.055722,"transit":false,"time":0,"i_lat":-6.258864},{"i_long":107.016735,"line":0,"distance":4460,"time":7,"station_id":"BKST","station_name":"Bekasi Timur","is_transit":false,"transit":false,"i_lat":-6.248029},{"is_transit":false,"i_long":106.997013,"distance":2368,"time":2,"station_id":"BKS","station_name":"Bekasi","transit":false,"i_lat":-6.236616,"line":0},{"line":1,"transit":false,"distance":2520,"i_lat":-6.224515,"is_transit":false,"station_name":"Kranji","i_long":106.977657,"station_id":"KRI","time":4},{"transit":false,"time":3,"i_long":106.951283,"is_transit":false,"station_id":"CUK","distance":3097,"line":0,"station_name":"Cakung","i_lat":-6.219053},{"line":1,"time":8,"i_lat":-6.217455,"is_transit":false,"station_id":"KLDB","station_name":"Klenderbaru","i_long":106.939679,"distance":1385,"transit":false},{"i_long":106.922662,"transit":false,"station_name":"Buaran","i_lat":-6.215568,"time":1,"station_id":"BUA","is_transit":false,"distance":1305,"line":0},{"station_name":"Klender","transit":false,"time":2,"i_long":106.899548,"distance":3100,"is_transit":false,"station_id":"KLD","i_lat":-6.2135,"line":1},{"line":0,"transit":false,"station_name":"Jatinegara","is_transit":true,"station_id":"JNG","time":3,"i_lat":-6.215091,"distance":3395,"i_long":106.86807400000001},{"distance":1377,"is_transit":false,"station_id":"MTR","transit":false,"station_name":"Matraman","i_lat":-6.212485,"i_long":106.858896,"line":1,"time":2},{"i_long":106.84912,"line":0,"station_id":"MRI","station_name":"Manggarai","time":2,"distance":1275,"is_transit":true,"i_lat":-6.209883,"transit":false},{"station_id":"SUD","transit":false,"i_lat":-6.202263,"i_long":106.822649,"line":1,"distance":3186,"time":4,"is_transit":false,"station_name":"Sudirman"},{"station_name":"Sudirman Baru","distance":280,"transit":false,"is_transit":false,"i_lat":-6.201433,"line":1,"station_id":"SUDB","i_long":106.819881,"time":1},{"station_name":"Karet","time":1,"station_id":"KAT","transit":false,"distance":471,"i_lat":-6.20132,"i_long":106.816351,"is_transit":false,"line":1},{"distance":2029,"station_name":"Tanah Abang","station_id":"THB","transit":true,"i_lat":-6.185545,"line":1,"time":5,"i_long":106.811091,"is_transit":true},{"station_id":"PLM","i_lat":-6.207404,"station_name":"Palmerah","time":6,"transit":false,"is_transit":false,"distance":3191,"i_long":106.79689,"line":6},{"i_lat":-6.237242,"transit":false,"distance":3737,"station_id":"KBY","line":6,"is_transit":false,"time":7,"station_name":"Kebayoran","i_long":106.780334},{"transit":false,"time":8,"i_lat":-6.276362,"line":6,"station_id":"PDJ","is_transit":false,"station_name":"Pondokranji","i_long":106.74273,"distance":6218},{"line":6,"i_long":106.728916,"station_id":"JMU","time":3,"i_lat":-6.288927,"distance":2179,"transit":false,"station_name":"Jurangmangu","is_transit":false},{"station_id":"SDM","distance":1994,"station_name":"Sudimara","line":6,"i_lat":-6.296963,"time":4,"transit":false,"is_transit":false,"i_long":106.712277},{"distance":4566,"transit":false,"time":6,"station_name":"Rawa Buntu","i_lat":-6.314823,"is_transit":false,"i_long":106.675475,"station_id":"RU","line":6},{"line":6,"is_transit":false,"i_long":106.66566,"station_id":"SRP","transit":false,"distance":2413,"time":4,"i_lat":-6.319871,"station_name":"Serpong"}],[{"station_id":"TB","i_long":107.055722,"transit":false,"i_lat":-6.258864,"distance":0,"station_name":"Tambun","line":1,"is_transit":false,"time":0},{"is_transit":false,"station_id":"BKST","transit":false,"time":7,"i_lat":-6.248029,"i_long":107.016735,"line":0,"station_name":"Bekasi Timur","distance":4460},{"is_transit":false,"line":0,"time":2,"transit":false,"i_long":106.997013,"distance":2368,"station_id":"BKS","station_name":"Bekasi","i_lat":-6.236616},{"station_name":"Kranji","line":1,"station_id":"KRI","distance":2520,"time":4,"i_long":106.977657,"transit":false,"is_transit":false,"i_lat":-6.224515},{"station_name":"Cakung","i_long":106.951283,"time":3,"is_transit":false,"line":0,"i_lat":-6.219053,"transit":false,"distance":3097,"station_id":"CUK"},{"is_transit":false,"time":8,"station_name":"Klenderbaru","distance":1385,"line":1,"i_long":106.939679,"station_id":"KLDB","transit":false,"i_lat":-6.217455},{"station_name":"Buaran","time":1,"i_long":106.922662,"transit":false,"station_id":"BUA","is_transit":false,"line":0,"distance":1305,"i_lat":-6.215568},{"i_lat":-6.2135,"transit":false,"time":2,"is_transit":false,"distance":3100,"station_id":"KLD","station_name":"Klender","i_long":106.899548,"line":1},{"station_name":"Jatinegara","i_long":106.86807400000001,"distance":3395,"transit":true,"line":0,"station_id":"JNG","i_lat":-6.215091,"is_transit":true,"time":3},{"station_name":"Pondok Jati","i_long":106.861737,"station_id":"POK","time":2,"is_transit":false,"transit":false,"line":11,"i_lat":-6.209188,"distance":1236},{"distance":1829,"transit":false,"time":2,"station_name":"Kramat","is_transit":false,"i_lat":-6.193792,"i_long":106.855437,"line":11,"station_id":"KMT"},{"station_id":"GST","distance":973,"time":1,"i_long":106.850107,"i_lat":-6.185975,"line":11,"is_transit":false,"transit":false,"station_name":"Gang Sentiong"},{"distance":1567,"i_lat":-6.174784,"is_transit":false,"transit":false,"station_id":"PSE","station_name":"Pasar Senen","time":8,"i_long":106.84368,"line":11},{"is_transit":false,"distance":1436,"line":11,"time":4,"transit":false,"i_lat":-6.161728,"i_long":106.839204,"station_id":"KMO","station_name":"Kemayoran"},{"transit":false,"station_id":"RJW","time":5,"line":11,"distance":1901,"i_long":106.836569,"is_transit":false,"station_name":"Rajawali","i_lat":-6.14505},{"line":0,"station_name":"Kampung Bandan","i_lat":-6.132549,"distance":1444,"is_transit":true,"i_long":106.826365,"station_id":"KPB","transit":true,"time":3},{"station_id":"AK","i_lat":-6.144674,"distance":4102,"time":9,"i_long":106.79867,"line":0,"station_name":"Angke","transit":false,"is_transit":false},{"i_lat":-6.155215,"line":1,"distance":1230,"time":4,"is_transit":true,"transit":true,"station_id":"DU","i_long":106.800832,"station_name":"Duri"},{"distance":3632,"i_long":106.811091,"line":1,"is_transit":true,"station_id":"THB","station_name":"Tanah Abang","i_lat":-6.185545,"time":8,"transit":true},{"i_long":106.79689,"distance":3191,"station_id":"PLM","station_name":"Palmerah","i_lat":-6.207404,"line":6,"is_transit":false,"transit":false,"time":6},{"station_id":"KBY","station_name":"Kebayoran","time":7,"i_long":106.780334,"line":6,"transit":false,"distance":3737,"is_transit":false,"i_lat":-6.237242},{"distance":6218,"line":6,"i_long":106.74273,"time":8,"i_lat":-6.276362,"station_id":"PDJ","station_name":"Pondokranji","transit":false,"is_transit":false},{"station_name":"Jurangmangu","station_id":"JMU","transit":false,"is_transit":false,"i_lat":-6.288927,"distance":2179,"time":3,"i_long":106.728916,"line":6},{"station_name":"Sudimara","time":4,"transit":false,"i_lat":-6.296963,"line":6,"is_transit":false,"distance":1994,"station_id":"SDM","i_long":106.712277},{"distance":4566,"station_name":"Rawa Buntu","i_lat":-6.314823,"is_transit":false,"station_id":"RU","time":6,"line":6,"transit":false,"i_long":106.675475},{"i_long":106.66566,"station_id":"SRP","time":4,"i_lat":-6.319871,"is_transit":false,"line":6,"station_name":"Serpong","distance":2413,"transit":false}],[{"station_name":"Tambun","station_id":"TB","i_lat":-6.258864,"i_long":107.055722,"line":1,"distance":0,"is_transit":false,"transit":false,"time":0},{"is_transit":false,"station_id":"BKST","i_lat":-6.248029,"transit":false,"station_name":"Bekasi Timur","time":7,"i_long":107.016735,"distance":4460,"line":0},{"station_name":"Bekasi","station_id":"BKS","i_long":106.997013,"time":2,"distance":2368,"transit":false,"is_transit":false,"i_lat":-6.236616,"line":0},{"station_name":"Kranji","time":4,"line":1,"is_transit":false,"station_id":"KRI","transit":false,"distance":2520,"i_long":106.977657,"i_lat":-6.224515},{"transit":false,"station_id":"CUK","time":3,"i_long":106.951283,"i_lat":-6.219053,"station_name":"Cakung","line":0,"is_transit":false,"distance":3097},{"line":1,"is_transit":false,"time":8,"distance":1385,"i_lat":-6.217455,"i_long":106.939679,"station_id":"KLDB","station_name":"Klenderbaru","transit":false},{"station_name":"Buaran","i_long":106.922662,"transit":false,"station_id":"BUA","i_lat":-6.215568,"is_transit":false,"line":0,"distance":1305,"time":1},{"station_name":"Klender","line":1,"distance":3100,"time":2,"is_transit":false,"station_id":"KLD","i_lat":-6.2135,"transit":false,"i_long":106.899548},{"station_name":"Jatinegara","i_long":106.86807400000001,"i_lat":-6.215091,"time":3,"is_transit":true,"transit":false,"distance":3395,"station_id":"JNG","line":0},{"is_transit":false,"station_id":"MTR","line":1,"distance":1377,"i_long":106.858896,"station_name":"Matraman","time":2,"i_lat":-6.212485,"transit":false},{"i_long":106.84912,"line":0,"time":2,"transit":true,"station_name":"Manggarai","is_transit":true,"i_lat":-6.209883,"distance":1275,"station_id":"MRI"},{"station_id":"CKI","is_transit":false,"line":0,"station_name":"Cikini","i_long":106.840169,"time":4,"transit":false,"distance":1590,"i_lat":-6.198556},{"station_name":"Gondangdia","transit":false,"distance":1750,"time":3,"station_id":"GDD","i_lat":-6.186295,"line":2,"i_long":106.832183,"is_transit":false},{"i_lat":-6.166716,"line":2,"is_transit":false,"i_long":106.828284,"distance":2015,"station_name":"Juanda","time":4,"transit":false,"station_id":"JUA"},{"station_id":"SW","station_name":"Sawah Besar","time":2,"line":2,"distance":1149,"transit":false,"i_long":106.827103,"i_lat":-6.160725,"is_transit":false},{"distance":906,"station_id":"MGB","station_name":"Manggabesar","transit":false,"line":2,"is_transit":false,"i_lat":-6.149769,"i_long":106.82482,"time":2},{"transit":false,"time":2,"station_id":"JAY","is_transit":false,"i_lat":-6.141205,"station_name":"Jayakarta","i_long":106.820901,"line":7,"distance":1080},{"station_name":"Jakarta Kota","i_long":106.812439,"transit":true,"distance":1264,"i_lat":-6.137569,"time":4,"station_id":"JAKK","line":0,"is_transit":true},{"i_long":106.826365,"line":0,"distance":1364,"station_id":"KPB","transit":false,"time":3,"is_transit":true,"i_lat":-6.132549,"station_name":"Kampung Bandan"},{"time":9,"station_name":"Angke","i_long":106.79867,"transit":false,"station_id":"AK","is_transit":false,"i_lat":-6.144674,"distance":4102,"line":0},{"is_transit":true,"i_lat":-6.155215,"station_name":"Duri","distance":1230,"time":4,"transit":true,"line":1,"station_id":"DU","i_long":106.800832},{"station_name":"Tanah Abang","is_transit":true,"station_id":"THB","transit":true,"distance":3632,"time":8,"i_long":106.811091,"i_lat":-6.185545,"line":1},{"station_id":"PLM","transit":false,"station_name":"Palmerah","i_long":106.79689,"i_lat":-6.207404,"is_transit":false,"distance":3191,"time":6,"line":6},{"distance":3737,"is_transit":false,"transit":false,"time":7,"station_name":"Kebayoran","station_id":"KBY","i_lat":-6.237242,"i_long":106.780334,"line":6},{"i_long":106.74273,"distance":6218,"time":8,"station_id":"PDJ","is_transit":false,"station_name":"Pondokranji","line":6,"transit":false,"i_lat":-6.276362},{"station_name":"Jurangmangu","distance":2179,"transit":false,"i_lat":-6.288927,"station_id":"JMU","time":3,"i_long":106.728916,"line":6,"is_transit":false},{"line":6,"i_long":106.712277,"is_transit":false,"time":4,"transit":false,"distance":1994,"i_lat":-6.296963,"station_id":"SDM","station_name":"Sudimara"},{"station_id":"RU","station_name":"Rawa Buntu","transit":false,"is_transit":false,"i_lat":-6.314823,"time":6,"line":6,"distance":4566,"i_long":106.675475},{"line":6,"time":4,"station_name":"Serpong","transit":false,"station_id":"SRP","is_transit":false,"i_lat":-6.319871,"i_long":106.66566,"distance":2413}],[{"distance":0,"i_lat":-6.258864,"i_long":107.055722,"line":1,"is_transit":false,"time":0,"station_id":"TB","station_name":"Tambun","transit":false},{"i_long":107.016735,"line":0,"transit":false,"is_transit":false,"time":7,"station_name":"Bekasi Timur","distance":4460,"i_lat":-6.248029,"station_id":"BKST"},{"line":0,"transit":false,"i_lat":-6.236616,"station_name":"Bekasi","distance":2368,"time":2,"is_transit":false,"station_id":"BKS","i_long":106.997013},{"transit":false,"station_name":"Kranji","i_lat":-6.224515,"distance":2520,"time":4,"is_transit":false,"station_id":"KRI","i_long":106.977657,"line":1},{"line":0,"i_long":106.951283,"distance":3097,"station_name":"Cakung","time":3,"is_transit":false,"station_id":"CUK","transit":false,"i_lat":-6.219053},{"i_lat":-6.217455,"is_transit":false,"distance":1385,"line":1,"station_name":"Klenderbaru","time":8,"i_long":106.939679,"station_id":"KLDB","transit":false},{"i_long":106.922662,"transit":false,"is_transit":false,"distance":1305,"i_lat":-6.215568,"station_name":"Buaran","station_id":"BUA","line":0,"time":1},{"is_transit":false,"time":2,"station_name":"Klender","station_id":"KLD","i_lat":-6.2135,"i_long":106.899548,"line":1,"transit":false,"distance":3100},{"distance":3395,"transit":true,"time":3,"is_transit":true,"station_name":"Jatinegara","i_long":106.86807400000001,"station_id":"JNG","line":0,"i_lat":-6.215091},{"line":11,"distance":1236,"i_lat":-6.209188,"station_name":"Pondok Jati","transit":false,"station_id":"POK","time":2,"i_long":106.861737,"is_transit":false},{"time":2,"i_long":106.855437,"transit":false,"line":11,"distance":1829,"station_name":"Kramat","station_id":"KMT","i_lat":-6.193792,"is_transit":false},{"time":1,"is_transit":false,"station_id":"GST","station_name":"Gang Sentiong","distance":973,"transit":false,"i_lat":-6.185975,"line":11,"i_long":106.850107},{"is_transit":false,"station_name":"Pasar Senen","distance":1567,"time":8,"station_id":"PSE","line":11,"i_long":106.84368,"transit":false,"i_lat":-6.174784},{"distance":1436,"transit":false,"line":11,"is_transit":false,"i_lat":-6.161728,"i_long":106.839204,"time":4,"station_id":"KMO","station_name":"Kemayoran"},{"line":11,"distance":1901,"time":5,"transit":false,"is_transit":false,"i_long":106.836569,"station_id":"RJW","station_name":"Rajawali","i_lat":-6.14505},{"line":0,"time":3,"transit":true,"i_lat":-6.132549,"i_long":106.826365,"distance":1444,"station_id":"KPB","is_transit":true,"station_name":"Kampung Bandan"},{"distance":1364,"transit":true,"i_lat":-6.137569,"time":3,"line":0,"station_name":"Jakarta Kota","i_long":106.812439,"is_transit":true,"station_id":"JAKK"},{"is_transit":false,"line":7,"station_name":"Jayakarta","i_long":106.820901,"distance":1264,"station_id":"JAY","i_lat":-6.141205,"time":4,"transit":false},{"time":2,"is_transit":false,"transit":false,"i_lat":-6.149769,"i_long":106.82482,"line":2,"station_id":"MGB","distance":1080,"station_name":"Manggabesar"},{"station_id":"SW","i_lat":-6.160725,"line":2,"i_long":106.827103,"time":2,"is_transit":false,"distance":906,"station_name":"Sawah Besar","transit":false},{"transit":false,"station_id":"JUA","time":2,"i_lat":-6.166716,"station_name":"Juanda","i_long":106.828284,"is_transit":false,"distance":1149,"line":2},{"line":2,"transit":false,"station_name":"Gondangdia","time":4,"distance":2015,"station_id":"GDD","is_transit":false,"i_long":106.832183,"i_lat":-6.186295},{"is_transit":false,"transit":false,"station_name":"Cikini","station_id":"CKI","i_long":106.840169,"line":0,"distance":1750,"time":3,"i_lat":-6.198556},{"i_long":106.84912,"station_id":"MRI","time":4,"line":0,"station_name":"Manggarai","i_lat":-6.209883,"transit":true,"is_transit":true,"distance":1590},{"transit":false,"time":4,"i_lat":-6.202263,"station_name":"Sudirman","i_long":106.822649,"line":1,"station_id":"SUD","distance":3186,"is_transit":false},{"transit":false,"is_transit":false,"i_lat":-6.201433,"station_name":"Sudirman Baru","time":1,"line":1,"i_long":106.819881,"distance":280,"station_id":"SUDB"},{"station_id":"KAT","station_name":"Karet","distance":471,"is_transit":false,"transit":false,"i_lat":-6.20132,"time":1,"i_long":106.816351,"line":1},{"i_lat":-6.185545,"station_id":"THB","is_transit":true,"transit":true,"i_long":106.811091,"time":5,"line":1,"station_name":"Tanah Abang","distance":2029},{"i_lat":-6.207404,"i_long":106.79689,"distance":3191,"station_name":"Palmerah","station_id":"PLM","is_transit":false,"time":6,"transit":false,"line":6},{"i_long":106.780334,"time":7,"line":6,"station_name":"Kebayoran","transit":false,"station_id":"KBY","distance":3737,"is_transit":false,"i_lat":-6.237242},{"station_id":"PDJ","station_name":"Pondokranji","transit":false,"distance":6218,"i_lat":-6.276362,"is_transit":false,"line":6,"i_long":106.74273,"time":8},{"is_transit":false,"transit":false,"i_lat":-6.288927,"time":3,"station_id":"JMU","distance":2179,"station_name":"Jurangmangu","line":6,"i_long":106.728916},{"is_transit":false,"station_name":"Sudimara","transit":false,"i_long":106.712277,"station_id":"SDM","distance":1994,"time":4,"i_lat":-6.296963,"line":6},{"is_transit":false,"i_long":106.675475,"transit":false,"station_name":"Rawa Buntu","distance":4566,"time":6,"station_id":"RU","i_lat":-6.314823,"line":6},{"time":4,"station_name":"Serpong","line":6,"i_long":106.66566,"distance":2413,"transit":false,"is_transit":false,"station_id":"SRP","i_lat":-6.319871}]]}