{"data":[[{"line":1,"time":0,"is_transit":false,"transit":false,"station_name":"Tambun","i_long":107.055722,"i_lat":-6.258864,"station_id":"TB","distance":0},{"distance":4460,"station_id":"BKST","station_name":"Bekasi Timur","i_long":107.016735,"time":7,"is_transit":false,"transit":false,"i_lat":-6.248029,"line":1},{"station_name":"Bekasi","i_lat":-6.236616,"line":1,"transit":false,"time":2,"is_transit":false,"distance":2368,"station_id":"BKS","i_long":106.997013},{"distance":2520,"station_name":"Kranji","station_id":"KRI","transit":false,"time":4,"i_long":106.977657,"is_transit":false,"i_lat":-6.224515,"line":1},{"time":3,"line":1,"transit":false,"distance":3097,"is_transit":false,"station_name":"Cakung","station_id":"CUK","i_lat":-6.219053,"i_long":106.951283},{"distance":1385,"station_id":"KLDB","i_lat":-6.217455,"time":8,"transit":false,"station_name":"Klenderbaru","i_long":106.939679,"is_transit":false,"line":1},{"transit":false,"station_id":"BUA","line":1,"time":1,"is_transit":false,"i_long":106.922662,"distance":1305,"station_name":"Buaran","i_lat":-6.215568},{"distance":3100,"station_id":"KLD","station_name":"Klender","i_lat":-6.2135,"time":2,"transit":false,"i_long":106.899548,"line":1,"is_transit":false},{"distance":3395,"transit":false,"station_name":"Jatinegara","time":3,"is_transit":false,"station_id":"JNG","i_long":106.86807400000001,"line":1,"i_lat":-6.215091},{"station_name":"Matraman","i_long":106.858896,"is_transit":false,"transit":false,"i_lat":-6.212485,"distance":1377,"time":2,"station_id":"MTR","line":1},{"time":2,"station_id":"MRI","transit":true,"i_long":106.84912,"i_lat":-6.209883,"distance":1275,"is_transit":true,"station_name":"Manggarai","line":2},{"time":4,"distance":2610,"transit":false,"line":2,"i_long":106.857948,"station_name":"Tebet","i_lat":-6.226659,"is_transit":false,"station_id":"TEB"},{"transit":false,"i_long":106.856607,"station_id":"CW","is_transit":false,"line":2,"station_name":"Cawang","distance":1230,"time":2,"i_lat":-6.242512},{"line":2,"transit":false,"distance":1546,"i_long":106.85449,"i_lat":-6.255332,"is_transit":false,"station_id":"DRN","time":3,"station_name":"Duren Kalibata"},{"i_lat":-6.263214,"transit":false,"distance":824,"time":2,"i_long":106.851577,"is_transit":false,"station_name":"Pasar Minggu Baru","station_id":"PSMB","line":2},{"transit":false,"time":2,"station_id":"PSM","station_name":"Pasar Minggu","is_transit":false,"distance":2380,"i_long":106.843999,"i_lat":-6.2842400000000005,"line":2},{"is_transit":false,"i_lat":-6.3080680000000005,"i_long":106.838896,"line":2,"station_id":"TNT","time":4,"distance":2820,"station_name":"Tanjung Barat","transit":false}],[{"time":0,"distance":0,"is_transit":false,"station_name":"Tambun","line":1,"i_long":107.055722,"i_lat":-6.258864,"transit":false,"station_id":"TB"},{"i_lat":-6.248029,"i_long":107.016735,"station_name":"Bekasi Timur","time":7,"transit":false,"distance":4460,"line":1,"station_id":"BKST","is_transit":false},{"station_id":"BKS","distance":2368,"i_long":106.997013,"station_name":"Bekasi","is_transit":false,"line":1,"transit":false,"time":2,"i_lat":-6.236616},{"station_name":"Kranji","time":4,"line":1,"i_lat":-6.224515,"i_long":106.977657,"transit":false,"is_transit":false,"station_id":"KRI","distance":2520},{"line":1,"distance":3097,"station_name":"Cakung","time":3,"is_transit":false,"i_lat":-6.219053,"station_id":"CUK","transit":false,"i_long":106.951283},{"i_long":106.939679,"time":8,"distance":1385,"line":1,"station_id":"KLDB","transit":false,"is_transit":false,"i_lat":-6.217455,"station_name":"Klenderbaru"},{"i_lat":-6.215568,"i_long":106.922662,"station_name":"Buaran","time":1,"distance":1305,"transit":false,"station_id":"BUA","is_transit":false,"line":1},{"station_id":"KLD","i_lat":-6.2135,"i_long":106.899548,"is_transit":false,"transit":false,"distance":3100,"station_name":"Klender","line":1,"time":2},{"transit":true,"is_transit":true,"i_lat":-6.215091,"line":1,"station_name":"Jatinegara","time":3,"station_id":"JNG","i_long":106.86807400000001,"distance":3395},{"line":11,"time":2,"station_id":"POK","i_long":106.861737,"station_name":"Pondok Jati","is_transit":false,"distance":1236,"i_lat":-6.209188,"transit":false},{"time":2,"distance":1829,"is_transit":false,"i_lat":-6.193792,"i_long":106.855437,"line":11,"station_id":"KMT","station_name":"Kramat","transit":false},{"i_lat":-6.185975,"is_transit":false,"transit":false,"station_id":"GST","station_name":"Gang Sentiong","i_long":106.850107,"line":11,"time":1,"distance":973},{"time":8,"distance":1567,"station_name":"Pasar Senen","i_long":106.84368,"transit":false,"line":11,"i_lat":-6.174784,"is_transit":false,"station_id":"PSE"},{"distance":1436,"station_name":"Kemayoran","line":11,"i_long":106.839204,"time":4,"is_transit":false,"i_lat":-6.161728,"transit":false,"station_id":"KMO"},{"time":5,"line":11,"transit":false,"station_id":"RJW","distance":1901,"i_long":106.836569,"i_lat":-6.14505,"is_transit":false,"station_name":"Rajawali"},{"station_id":"KPB","distance":1444,"time":3,"is_transit":true,"line":4,"i_lat":-6.132549,"i_long":106.826365,"station_name":"Kampung Bandan","transit":true},{"distance":4102,"station_id":"AK","is_transit":false,"i_lat":-6.144674,"i_long":106.79867,"line":1,"station_name":"Angke","transit":false,"time":9},{"transit":false,"i_long":106.800832,"distance":1230,"is_transit":false,"station_name":"Duri","time":4,"i_lat":-6.155215,"line":1,"station_id":"DU"},{"station_id":"THB","i_long":106.811091,"line":1,"time":8,"distance":3632,"is_transit":false,"station_name":"Tanah Abang","i_lat":-6.185545,"transit":false},{"is_transit":false,"time":5,"station_id":"KAT","i_long":106.816351,"distance":2029,"transit":false,"station_name":"Karet","i_lat":-6.20132,"line":1},{"time":1,"transit":false,"i_lat":-6.201433,"line":1,"is_transit":false,"station_id":"SUDB","distance":471,"station_name":"Sudirman Baru","i_long":106.819881},{"line":1,"is_transit":false,"i_long":106.822649,"station_id":"SUD","time":1,"transit":false,"distance":280,"i_lat":-6.202263,"station_name":"Sudirman"},{"i_lat":-6.209883,"i_long":106.84912,"distance":3186,"line":2,"is_transit":true,"transit":true,"station_id":"MRI","station_name":"Manggarai","time":4},{"i_lat":-6.226659,"transit":false,"line":2,"station_id":"TEB","distance":2610,"station_name":"Tebet","is_transit":false,"i_long":106.857948,"time":4},{"station_id":"CW","is_transit":false,"station_name":"Cawang","i_lat":-6.242512,"line":2,"distance":1230,"transit":false,"time":2,"i_long":106.856607},{"i_lat":-6.255332,"station_name":"Duren Kalibata","station_id":"DRN","transit":false,"time":3,"distance":1546,"line":2,"is_transit":false,"i_long":106.85449},{"station_id":"PSMB","transit":false,"is_transit":false,"i_lat":-6.263214,"i_long":106.851577,"distance":824,"line":2,"time":2,"station_name":"Pasar Minggu Baru"},{"distance":2380,"station_name":"Pasar Minggu","i_long":106.843999,"line":2,"i_lat":-6.2842400000000005,"station_id":"PSM","transit":false,"is_transit":false,"time":2},{"station_id":"TNT","time":4,"is_transit":false,"station_name":"Tanjung Barat","line":2,"distance":2820,"i_lat":-6.3080680000000005,"transit":false,"i_long":106.838896}],[{"distance":0,"time":0,"i_long":107.055722,"line":1,"is_transit":false,"station_name":"Tambun","i_lat":-6.258864,"transit":false,"station_id":"TB"},{"i_long":107.016735,"transit":false,"time":7,"station_id":"BKST","station_name":"Bekasi Timur","line":1,"i_lat":-6.248029,"distance":4460,"is_transit":false},{"station_name":"Bekasi","transit":false,"time":2,"i_lat":-6.236616,"i_long":106.997013,"distance":2368,"line":1,"is_transit":false,"station_id":"BKS"},{"is_transit":false,"line":1,"i_long":106.977657,"station_id":"KRI","distance":2520,"time":4,"transit":false,"station_name":"Kranji","i_lat":-6.224515},{"i_long":106.951283,"transit":false,"station_name":"Cakung","line":1,"time":3,"station_id":"CUK","distance":3097,"is_transit":false,"i_lat":-6.219053},{"i_lat":-6.217455,"line":1,"time":8,"distance":1385,"is_transit":false,"station_name":"Klenderbaru","station_id":"KLDB","i_long":106.939679,"transit":false},{"station_name":"Buaran","transit":false,"station_id":"BUA","is_transit":false,"line":1,"i_long":106.922662,"i_lat":-6.215568,"distance":1305,"time":1},{"i_lat":-6.2135,"station_name":"Klender","distance":3100,"station_id":"KLD","time":2,"transit":false,"line":1,"is_transit":false,"i_long":106.899548},{"i_lat":-6.215091,"line":1,"distance":3395,"time":3,"station_name":"Jatinegara","transit":true,"station_id":"JNG","i_long":106.86807400000001,"is_transit":true},{"i_long":106.861737,"transit":false,"line":11,"station_name":"Pondok Jati","station_id":"POK","i_lat":-6.209188,"is_transit":false,"time":2,"distance":1236},{"i_long":106.855437,"line":11,"distance":1829,"is_transit":false,"transit":false,"station_name":"Kramat","i_lat":-6.193792,"time":2,"station_id":"KMT"},{"station_id":"GST","line":11,"i_long":106.850107,"station_name":"Gang Sentiong","is_transit":false,"time":1,"distance":973,"transit":false,"i_lat":-6.185975},{"distance":1567,"time":8,"i_lat":-6.174784,"line":11,"station_name":"Pasar Senen","is_transit":false,"station_id":"PSE","transit":false,"i_long":106.84368},{"is_transit":false,"i_lat":-6.161728,"i_long":106.839204,"station_id":"KMO","station_name":"Kemayoran","line":11,"transit":false,"time":4,"distance":1436},{"station_id":"RJW","i_long":106.836569,"distance":1901,"time":5,"is_transit":false,"station_name":"Rajawali","line":11,"transit":false,"i_lat":-6.14505},{"is_transit":true,"i_long":106.826365,"line":4,"transit":true,"time":3,"i_lat":-6.132549,"station_id":"KPB","station_name":"Kampung Bandan","distance":1444},{"time":3,"transit":true,"distance":1364,"line":2,"i_lat":-6.137569,"station_name":"Jakarta Kota","i_long":106.812439,"is_transit":true,"station_id":"JAKK"},{"is_transit":false,"station_id":"JAY","transit":false,"time":4,"distance":1264,"i_lat":-6.141205,"station_name":"Jayakarta","i_long":106.820901,"line":2},{"station_id":"MGB","transit":false,"station_name":"Manggabesar","i_long":106.82482,"distance":1080,"i_lat":-6.149769,"is_transit":false,"time":2,"line":2},{"is_transit":false,"station_name":"Sawah Besar","station_id":"SW","transit":false,"time":2,"i_lat":-6.160725,"line":2,"distance":906,"i_long":106.827103},{"i_lat":-6.166716,"station_name":"Juanda","station_id":"JUA","time":2,"transit":false,"distance":1149,"is_transit":false,"line":2,"i_long":106.828284},{"i_long":106.832183,"transit":false,"is_transit":false,"station_name":"Gondangdia","distance":2015,"i_lat":-6.186295,"time":4,"line":2,"station_id":"GDD"},{"distance":1750,"i_lat":-6.198556,"i_long":106.840169,"time":3,"transit":false,"station_name":"Cikini","station_id":"CKI","is_transit":false,"line":2},{"i_long":106.84912,"transit":false,"station_id":"MRI","station_name":"Manggarai","line":2,"time":4,"distance":1590,"is_transit":false,"i_lat":-6.209883},{"transit":false,"station_name":"Tebet","line":2,"i_long":106.857948,"distance":2610,"time":4,"i_lat":-6.226659,"station_id":"TEB","is_transit":false},{"transit":false,"station_id":"CW","distance":1230,"i_lat":-6.242512,"i_long":106.856607,"station_name":"Cawang","is_transit":false,"line":2,"time":2},{"i_long":106.85449,"station_id":"DRN","line":2,"is_transit":false,"station_name":"Duren Kalibata","transit":false,"distance":1546,"time":3,"i_lat":-6.255332},{"station_name":"Pasar Minggu Baru","transit":false,"is_transit":false,"i_long":106.851577,"station_id":"PSMB","time":2,"distance":824,"i_lat":-6.263214,"line":2},{"transit":false,"distance":2380,"station_name":"Pasar Minggu","line":2,"i_long":106.843999,"station_id":"PSM","time":2,"is_transit":false,"i_lat":-6.2842400000000005},{"station_id":"TNT","i_lat":-6.3080680000000005,"distance":2820,"station_name":"Tanjung Barat","line":2,"transit":false,"time":4,"i_long":106.838896,"is_transit":false}]]}