{"data":[[{"line":1,"i_lat":-6.258864,"transit":false,"distance":0,"time":0,"is_transit":false,"i_long":107.055722,"station_id":"TB","station_name":"Tambun"},{"station_name":"Bekasi Timur","i_lat":-6.248029,"transit":false,"station_id":"BKST","distance":4460,"is_transit":false,"time":7,"i_long":107.016735,"line":0},{"transit":false,"line":0,"is_transit":false,"station_name":"Bekasi","time":2,"i_lat":-6.236616,"i_long":106.997013,"station_id":"BKS","distance":2368},{"distance":2520,"time":4,"i_lat":-6.224515,"station_id":"KRI","station_name":"Kranji","is_transit":false,"i_long":106.977657,"transit":false,"line":1},{"distance":3097,"is_transit":false,"station_name":"Cakung","time":3,"i_lat":-6.219053,"line":0,"i_long":106.951283,"station_id":"CUK","transit":false},{"i_lat":-6.217455,"is_transit":false,"time":8,"station_id":"KLDB","line":1,"station_name":"Klenderbaru","distance":1385,"i_long":106.939679,"transit":false},{"station_name":"Buaran","i_lat":-6.215568,"transit":false,"is_transit":false,"time":1,"i_long":106.922662,"line":0,"distance":1305,"station_id":"BUA"},{"station_id":"KLD","i_long":106.899548,"distance":3100,"station_name":"Klender","time":2,"i_lat":-6.2135,"is_transit":false,"line":1,"transit":false},{"time":3,"station_name":"Jatinegara","i_lat":-6.215091,"distance":3395,"transit":false,"i_long":106.86807400000001,"station_id":"JNG","is_transit":true,"line":0},{"station_name":"Matraman","line":1,"station_id":"MTR","transit":false,"i_long":106.858896,"distance":1377,"time":2,"i_lat":-6.212485,"is_transit":false},{"station_name":"Manggarai","distance":1275,"station_id":"MRI","i_long":106.84912,"line":0,"i_lat":-6.209883,"time":2,"transit":true,"is_transit":true},{"time":4,"station_id":"TEB","i_long":106.857948,"i_lat":-6.226659,"is_transit":false,"transit":false,"station_name":"Tebet","line":2,"distance":2610},{"time":2,"i_lat":-6.242512,"transit":false,"line":0,"distance":1230,"i_long":106.856607,"station_id":"CW","is_transit":false,"station_name":"Cawang"},{"line":0,"distance":1546,"transit":false,"station_name":"Duren Kalibata","i_lat":-6.255332,"i_long":106.85449,"is_transit":false,"time":3,"station_id":"DRN"},{"time":2,"i_lat":-6.263214,"distance":824,"station_id":"PSMB","line":2,"i_long":106.851577,"station_name":"Pasar Minggu Baru","transit":false,"is_transit":false},{"transit":false,"line":2,"distance":2380,"is_transit":false,"station_name":"Pasar Minggu","time":2,"i_lat":-6.2842400000000005,"i_long":106.843999,"station_id":"PSM"},{"line":2,"station_name":"Tanjung Barat","is_transit":false,"station_id":"TNT","transit":false,"time":4,"i_lat":-6.3080680000000005,"i_long":106.838896,"distance":2820}],[{"station_id":"TB","i_lat":-6.258864,"i_long":107.055722,"distance":0,"transit":false,"time":0,"station_name":"Tambun","line":1,"is_transit":false},{"i_long":107.016735,"station_id":"BKST","transit":false,"station_name":"Bekasi Timur","i_lat":-6.248029,"line":0,"distance":4460,"time":7,"is_transit":false},{"distance":2368,"line":0,"transit":false,"time":2,"i_lat":-6.236616,"station_id":"BKS","is_transit":false,"station_name":"Bekasi","i_long":106.997013},{"is_transit":false,"station_name":"Kranji","station_id":"KRI","i_long":106.977657,"i_lat":-6.224515,"distance":2520,"time":4,"line":1,"transit":false},{"station_name":"Cakung","time":3,"station_id":"CUK","i_lat":-6.219053,"distance":3097,"i_long":106.951283,"is_transit":false,"transit":false,"line":0},{"line":1,"distance":1385,"is_transit":false,"i_lat":-6.217455,"i_long":106.939679,"time":8,"station_id":"KLDB","transit":false,"station_name":"Klenderbaru"},{"transit":false,"time":1,"i_long":106.922662,"station_id":"BUA","is_transit":false,"distance":1305,"i_lat":-6.215568,"station_name":"Buaran","line":0},{"line":1,"time":2,"is_transit":false,"i_lat":-6.2135,"i_long":106.899548,"station_id":"KLD","distance":3100,"transit":false,"station_name":"Klender"},{"distance":3395,"station_id":"JNG","transit":true,"i_lat":-6.215091,"station_name":"Jatinegara","line":0,"is_transit":true,"time":3,"i_long":106.86807400000001},{"is_transit":false,"i_long":106.861737,"station_id":"POK","transit":false,"line":11,"station_name":"Pondok Jati","i_lat":-6.209188,"distance":1236,"time":2},{"is_transit":false,"line":11,"station_name":"Kramat","transit":false,"station_id":"KMT","i_lat":-6.193792,"i_long":106.855437,"distance":1829,"time":2},{"station_id":"GST","station_name":"Gang Sentiong","distance":973,"is_transit":false,"i_lat":-6.185975,"line":11,"i_long":106.850107,"time":1,"transit":false},{"i_long":106.84368,"distance":1567,"station_name":"Pasar Senen","station_id":"PSE","time":8,"i_lat":-6.174784,"line":11,"is_transit":false,"transit":false},{"is_transit":false,"station_name":"Kemayoran","line":11,"distance":1436,"transit":false,"i_lat":-6.161728,"time":4,"station_id":"KMO","i_long":106.839204},{"station_id":"RJW","i_long":106.836569,"distance":1901,"station_name":"Rajawali","i_lat":-6.14505,"transit":false,"line":11,"time":5,"is_transit":false},{"station_id":"KPB","i_lat":-6.132549,"time":3,"station_name":"Kampung Bandan","transit":true,"distance":1444,"line":0,"i_long":106.826365,"is_transit":true},{"i_long":106.79867,"station_name":"Angke","transit":false,"time":9,"i_lat":-6.144674,"line":0,"station_id":"AK","distance":4102,"is_transit":false},{"is_transit":true,"transit":true,"station_name":"Duri","time":4,"distance":1230,"i_lat":-6.155215,"line":1,"i_long":106.800832,"station_id":"DU"},{"i_lat":-6.185545,"station_id":"THB","distance":3632,"is_transit":true,"i_long":106.811091,"line":1,"transit":false,"time":8,"station_name":"Tanah Abang"},{"is_transit":false,"line":1,"station_name":"Karet","transit":false,"time":5,"i_lat":-6.20132,"station_id":"KAT","i_long":106.816351,"distance":2029},{"time":1,"i_lat":-6.201433,"is_transit":false,"i_long":106.819881,"station_id":"SUDB","station_name":"Sudirman Baru","line":1,"distance":471,"transit":false},{"line":1,"station_id":"SUD","distance":280,"transit":false,"time":1,"is_transit":false,"i_lat":-6.202263,"i_long":106.822649,"station_name":"Sudirman"},{"i_lat":-6.209883,"is_transit":true,"station_id":"MRI","i_long":106.84912,"distance":3186,"transit":true,"time":4,"station_name":"Manggarai","line":0},{"is_transit":false,"station_id":"TEB","time":4,"station_name":"Tebet","transit":false,"i_long":106.857948,"distance":2610,"line":2,"i_lat":-6.226659},{"distance":1230,"station_id":"CW","time":2,"i_lat":-6.242512,"station_name":"Cawang","line":0,"i_long":106.856607,"is_transit":false,"transit":false},{"distance":1546,"transit":false,"is_transit":false,"i_lat":-6.255332,"station_name":"Duren Kalibata","station_id":"DRN","time":3,"i_long":106.85449,"line":0},{"station_name":"Pasar Minggu Baru","i_long":106.851577,"is_transit":false,"transit":false,"distance":824,"station_id":"PSMB","time":2,"line":2,"i_lat":-6.263214},{"is_transit":false,"distance":2380,"station_id":"PSM","time":2,"line":2,"station_name":"Pasar Minggu","i_long":106.843999,"transit":false,"i_lat":-6.2842400000000005},{"i_lat":-6.3080680000000005,"time":4,"i_long":106.838896,"is_transit":false,"distance":2820,"transit":false,"line":2,"station_id":"TNT","station_name":"Tanjung Barat"}],[{"station_name":"Tambun","line":1,"transit":false,"is_transit":false,"i_lat":-6.258864,"i_long":107.055722,"station_id":"TB","time":0,"distance":0},{"is_transit":false,"line":0,"time":7,"station_name":"Bekasi Timur","i_long":107.016735,"station_id":"BKST","i_lat":-6.248029,"distance":4460,"transit":false},{"i_long":106.997013,"line":0,"is_transit":false,"station_id":"BKS","station_name":"Bekasi","distance":2368,"transit":false,"time":2,"i_lat":-6.236616},{"station_name":"Kranji","station_id":"KRI","line":1,"time":4,"transit":false,"i_lat":-6.224515,"is_transit":false,"i_long":106.977657,"distance":2520},{"time":3,"i_long":106.951283,"is_transit":false,"i_lat":-6.219053,"station_id":"CUK","station_name":"Cakung","transit":false,"line":0,"distance":3097},{"is_transit":false,"i_lat":-6.217455,"station_id":"KLDB","line":1,"station_name":"Klenderbaru","i_long":106.939679,"transit":false,"distance":1385,"time":8},{"station_name":"Buaran","line":0,"i_lat":-6.215568,"i_long":106.922662,"transit":false,"time":1,"distance":1305,"station_id":"BUA","is_transit":false},{"is_transit":false,"i_long":106.899548,"station_name":"Klender","time":2,"line":1,"station_id":"KLD","distance":3100,"i_lat":-6.2135,"transit":false},{"i_long":106.86807400000001,"time":3,"i_lat":-6.215091,"is_transit":true,"station_name":"Jatinegara","line":0,"transit":true,"station_id":"JNG","distance":3395},{"is_transit":false,"i_lat":-6.209188,"distance":1236,"transit":false,"station_id":"POK","time":2,"i_long":106.861737,"line":11,"station_name":"Pondok Jati"},{"line":11,"station_id":"KMT","time":2,"transit":false,"is_transit":false,"station_name":"Kramat","distance":1829,"i_lat":-6.193792,"i_long":106.855437},{"is_transit":false,"time":1,"distance":973,"station_name":"Gang Sentiong","transit":false,"i_long":106.850107,"line":11,"i_lat":-6.185975,"station_id":"GST"},{"station_id":"PSE","station_name":"Pasar Senen","i_lat":-6.174784,"time":8,"i_long":106.84368,"transit":false,"line":11,"distance":1567,"is_transit":false},{"time":4,"distance":1436,"station_name":"Kemayoran","line":11,"i_long":106.839204,"station_id":"KMO","transit":false,"i_lat":-6.161728,"is_transit":false},{"transit":false,"i_lat":-6.14505,"distance":1901,"station_id":"RJW","time":5,"i_long":106.836569,"line":11,"is_transit":false,"station_name":"Rajawali"},{"is_transit":true,"i_lat":-6.132549,"line":0,"transit":true,"distance":1444,"time":3,"station_id":"KPB","station_name":"Kampung Bandan","i_long":106.826365},{"station_id":"JAKK","is_transit":true,"time":3,"i_lat":-6.137569,"i_long":106.812439,"distance":1364,"station_name":"Jakarta Kota","transit":true,"line":0},{"transit":false,"station_name":"Jayakarta","time":4,"line":7,"station_id":"JAY","is_transit":false,"i_long":106.820901,"distance":1264,"i_lat":-6.141205},{"i_long":106.82482,"station_id":"MGB","transit":false,"line":2,"time":2,"i_lat":-6.149769,"station_name":"Manggabesar","distance":1080,"is_transit":false},{"i_long":106.827103,"line":2,"distance":906,"station_id":"SW","is_transit":false,"transit":false,"station_name":"Sawah Besar","i_lat":-6.160725,"time":2},{"station_id":"JUA","transit":false,"time":2,"i_lat":-6.166716,"is_transit":false,"station_name":"Juanda","i_long":106.828284,"line":2,"distance":1149},{"distance":2015,"station_name":"Gondangdia","is_transit":false,"line":2,"transit":false,"i_lat":-6.186295,"station_id":"GDD","i_long":106.832183,"time":4},{"time":3,"distance":1750,"is_transit":false,"transit":false,"station_name":"Cikini","station_id":"CKI","i_lat":-6.198556,"line":0,"i_long":106.840169},{"time":4,"station_id":"MRI","distance":1590,"transit":true,"i_long":106.84912,"i_lat":-6.209883,"line":0,"is_transit":true,"station_name":"Manggarai"},{"line":2,"station_id":"TEB","station_name":"Tebet","distance":2610,"time":4,"is_transit":false,"transit":false,"i_lat":-6.226659,"i_long":106.857948},{"distance":1230,"is_transit":false,"i_long":106.856607,"i_lat":-6.242512,"station_name":"Cawang","transit":false,"station_id":"CW","time":2,"line":0},{"i_long":106.85449,"distance":1546,"line":0,"transit":false,"station_name":"Duren Kalibata","is_transit":false,"time":3,"station_id":"DRN","i_lat":-6.255332},{"is_transit":false,"station_id":"PSMB","time":2,"station_name":"Pasar Minggu Baru","i_lat":-6.263214,"i_long":106.851577,"distance":824,"transit":false,"line":2},{"time":2,"distance":2380,"is_transit":false,"i_lat":-6.2842400000000005,"transit":false,"station_id":"PSM","i_long":106.843999,"station_name":"Pasar Minggu","line":2},{"distance":2820,"time":4,"station_name":"Tanjung Barat","is_transit":false,"transit":false,"i_lat":-6.3080680000000005,"i_long":106.838896,"line":2,"station_id":"TNT"}]]}