{"data":[[{"station_id":"TB","station_name":"Tambun","time":0,"i_lat":-6.258864,"i_long":107.055722,"line":1,"is_transit":false,"transit":false,"distance":0},{"is_transit":false,"time":7,"station_id":"BKST","transit":false,"line":1,"i_long":107.016735,"station_name":"Bekasi Timur","distance":4460,"i_lat":-6.248029},{"line":1,"station_name":"Bekasi","time":2,"distance":2368,"station_id":"BKS","is_transit":false,"transit":false,"i_lat":-6.236616,"i_long":106.997013},{"is_transit":false,"distance":2520,"transit":false,"line":1,"time":4,"station_name":"Kranji","i_lat":-6.224515,"i_long":106.977657,"station_id":"KRI"},{"time":3,"i_lat":-6.219053,"station_name":"Cakung","is_transit":false,"transit":false,"station_id":"CUK","i_long":106.951283,"distance":3097,"line":1},{"station_name":"Klenderbaru","station_id":"KLDB","i_lat":-6.217455,"time":8,"is_transit":false,"i_long":106.939679,"distance":1385,"line":1,"transit":false},{"i_lat":-6.215568,"line":1,"is_transit":false,"transit":false,"i_long":106.922662,"time":1,"distance":1305,"station_id":"BUA","station_name":"Buaran"},{"transit":false,"time":2,"station_id":"KLD","i_long":106.899548,"distance":3100,"station_name":"Klender","is_transit":false,"i_lat":-6.2135,"line":1},{"station_name":"Jatinegara","station_id":"JNG","distance":3395,"i_lat":-6.215091,"transit":false,"i_long":106.86807400000001,"line":1,"time":3,"is_transit":false},{"station_name":"Matraman","is_transit":false,"i_long":106.858896,"transit":false,"time":2,"station_id":"MTR","line":1,"i_lat":-6.212485,"distance":1377},{"i_long":106.84912,"station_name":"Manggarai","time":2,"is_transit":true,"i_lat":-6.209883,"line":2,"distance":1275,"station_id":"MRI","transit":true},{"is_transit":false,"distance":2610,"i_lat":-6.226659,"line":2,"station_name":"Tebet","i_long":106.857948,"transit":false,"station_id":"TEB","time":4},{"station_name":"Cawang","distance":1230,"transit":false,"i_lat":-6.242512,"time":2,"is_transit":false,"station_id":"CW","line":2,"i_long":106.856607},{"time":3,"line":2,"is_transit":false,"transit":false,"i_lat":-6.255332,"station_name":"Duren Kalibata","station_id":"DRN","i_long":106.85449,"distance":1546},{"i_lat":-6.263214,"i_long":106.851577,"line":2,"station_name":"Pasar Minggu Baru","time":2,"distance":824,"is_transit":false,"station_id":"PSMB","transit":false},{"station_name":"Pasar Minggu","transit":false,"distance":2380,"station_id":"PSM","i_long":106.843999,"time":2,"line":2,"is_transit":false,"i_lat":-6.2842400000000005},{"station_name":"Tanjung Barat","time":4,"distance":2820,"is_transit":false,"i_lat":-6.3080680000000005,"i_long":106.838896,"line":2,"transit":false,"station_id":"TNT"}],[{"time":0,"i_lat":-6.258864,"line":1,"i_long":107.055722,"distance":0,"transit":false,"is_transit":false,"station_name":"Tambun","station_id":"TB"},{"is_transit":false,"line":1,"time":7,"station_name":"Bekasi Timur","distance":4460,"station_id":"BKST","transit":false,"i_lat":-6.248029,"i_long":107.016735},{"station_name":"Bekasi","station_id":"BKS","line":1,"time":2,"is_transit":false,"i_long":106.997013,"i_lat":-6.236616,"transit":false,"distance":2368},{"i_long":106.977657,"is_transit":false,"time":4,"i_lat":-6.224515,"line":1,"station_id":"KRI","station_name":"Kranji","distance":2520,"transit":false},{"i_lat":-6.219053,"i_long":106.951283,"line":1,"is_transit":false,"transit":false,"time":3,"station_name":"Cakung","distance":3097,"station_id":"CUK"},{"station_name":"Klenderbaru","station_id":"KLDB","distance":1385,"time":8,"transit":false,"i_lat":-6.217455,"i_long":106.939679,"line":1,"is_transit":false},{"i_lat":-6.215568,"i_long":106.922662,"station_id":"BUA","line":1,"station_name":"Buaran","time":1,"distance":1305,"is_transit":false,"transit":false},{"distance":3100,"station_name":"Klender","i_long":106.899548,"station_id":"KLD","time":2,"i_lat":-6.2135,"line":1,"is_transit":false,"transit":false},{"is_transit":true,"transit":true,"time":3,"i_lat":-6.215091,"distance":3395,"station_id":"JNG","i_long":106.86807400000001,"line":1,"station_name":"Jatinegara"},{"station_id":"POK","line":11,"station_name":"Pondok Jati","transit":false,"time":2,"is_transit":false,"distance":1236,"i_lat":-6.209188,"i_long":106.861737},{"line":11,"station_name":"Kramat","distance":1829,"transit":false,"is_transit":false,"time":2,"station_id":"KMT","i_lat":-6.193792,"i_long":106.855437},{"station_name":"Gang Sentiong","station_id":"GST","time":1,"distance":973,"i_long":106.850107,"is_transit":false,"line":11,"transit":false,"i_lat":-6.185975},{"time":8,"is_transit":false,"distance":1567,"line":11,"transit":false,"station_name":"Pasar Senen","station_id":"PSE","i_lat":-6.174784,"i_long":106.84368},{"is_transit":false,"transit":false,"distance":1436,"station_id":"KMO","i_lat":-6.161728,"i_long":106.839204,"line":11,"station_name":"Kemayoran","time":4},{"line":11,"i_lat":-6.14505,"transit":false,"station_id":"RJW","is_transit":false,"station_name":"Rajawali","i_long":106.836569,"time":5,"distance":1901},{"station_name":"Kampung Bandan","transit":true,"station_id":"KPB","time":3,"i_lat":-6.132549,"line":4,"i_long":106.826365,"is_transit":true,"distance":1444},{"time":9,"i_long":106.79867,"line":1,"transit":false,"distance":4102,"i_lat":-6.144674,"station_name":"Angke","station_id":"AK","is_transit":false},{"line":1,"station_name":"Duri","time":4,"distance":1230,"i_long":106.800832,"is_transit":false,"transit":false,"station_id":"DU","i_lat":-6.155215},{"station_id":"THB","distance":3632,"station_name":"Tanah Abang","transit":false,"i_lat":-6.185545,"is_transit":false,"i_long":106.811091,"time":8,"line":1},{"i_long":106.816351,"line":1,"station_name":"Karet","transit":false,"time":5,"i_lat":-6.20132,"station_id":"KAT","distance":2029,"is_transit":false},{"station_name":"Sudirman Baru","transit":false,"station_id":"SUDB","time":1,"is_transit":false,"i_lat":-6.201433,"line":1,"distance":471,"i_long":106.819881},{"station_name":"Sudirman","is_transit":false,"time":1,"i_lat":-6.202263,"line":1,"transit":false,"distance":280,"station_id":"SUD","i_long":106.822649},{"station_id":"MRI","is_transit":true,"distance":3186,"line":2,"i_lat":-6.209883,"i_long":106.84912,"time":4,"transit":true,"station_name":"Manggarai"},{"line":2,"i_lat":-6.226659,"station_id":"TEB","transit":false,"time":4,"is_transit":false,"distance":2610,"i_long":106.857948,"station_name":"Tebet"},{"station_name":"Cawang","i_lat":-6.242512,"is_transit":false,"transit":false,"time":2,"i_long":106.856607,"station_id":"CW","line":2,"distance":1230},{"transit":false,"time":3,"line":2,"station_name":"Duren Kalibata","station_id":"DRN","is_transit":false,"i_lat":-6.255332,"distance":1546,"i_long":106.85449},{"station_id":"PSMB","transit":false,"i_lat":-6.263214,"time":2,"distance":824,"station_name":"Pasar Minggu Baru","is_transit":false,"i_long":106.851577,"line":2},{"transit":false,"station_id":"PSM","distance":2380,"i_long":106.843999,"i_lat":-6.2842400000000005,"line":2,"is_transit":false,"station_name":"Pasar Minggu","time":2},{"i_lat":-6.3080680000000005,"i_long":106.838896,"time":4,"line":2,"transit":false,"station_id":"TNT","distance":2820,"station_name":"Tanjung Barat","is_transit":false}],[{"distance":0,"is_transit":false,"time":0,"i_long":107.055722,"line":1,"transit":false,"i_lat":-6.258864,"station_id":"TB","station_name":"Tambun"},{"transit":false,"is_transit":false,"time":7,"distance":4460,"i_lat":-6.248029,"station_id":"BKST","line":1,"station_name":"Bekasi Timur","i_long":107.016735},{"line":1,"distance":2368,"station_name":"Bekasi","is_transit":false,"station_id":"BKS","time":2,"i_lat":-6.236616,"i_long":106.997013,"transit":false},{"is_transit":false,"distance":2520,"transit":false,"time":4,"station_id":"KRI","i_long":106.977657,"line":1,"station_name":"Kranji","i_lat":-6.224515},{"station_name":"Cakung","line":1,"distance":3097,"time":3,"i_lat":-6.219053,"station_id":"CUK","i_long":106.951283,"is_transit":false,"transit":false},{"time":8,"line":1,"station_id":"KLDB","transit":false,"distance":1385,"station_name":"Klenderbaru","i_lat":-6.217455,"is_transit":false,"i_long":106.939679},{"distance":1305,"i_long":106.922662,"is_transit":false,"time":1,"station_id":"BUA","transit":false,"i_lat":-6.215568,"station_name":"Buaran","line":1},{"station_name":"Klender","line":1,"i_long":106.899548,"distance":3100,"time":2,"i_lat":-6.2135,"transit":false,"station_id":"KLD","is_transit":false},{"transit":true,"is_transit":true,"station_id":"JNG","i_lat":-6.215091,"line":1,"station_name":"Jatinegara","time":3,"i_long":106.86807400000001,"distance":3395},{"i_long":106.861737,"is_transit":false,"distance":1236,"station_name":"Pondok Jati","i_lat":-6.209188,"line":11,"station_id":"POK","time":2,"transit":false},{"is_transit":false,"i_long":106.855437,"time":2,"line":11,"station_id":"KMT","transit":false,"distance":1829,"i_lat":-6.193792,"station_name":"Kramat"},{"is_transit":false,"transit":false,"distance":973,"i_long":106.850107,"station_name":"Gang Sentiong","station_id":"GST","time":1,"line":11,"i_lat":-6.185975},{"station_name":"Pasar Senen","i_long":106.84368,"station_id":"PSE","i_lat":-6.174784,"transit":false,"time":8,"distance":1567,"is_transit":false,"line":11},{"station_name":"Kemayoran","station_id":"KMO","distance":1436,"line":11,"i_long":106.839204,"transit":false,"is_transit":false,"time":4,"i_lat":-6.161728},{"i_lat":-6.14505,"transit":false,"line":11,"time":5,"distance":1901,"station_id":"RJW","is_transit":false,"station_name":"Rajawali","i_long":106.836569},{"time":3,"station_id":"KPB","station_name":"Kampung Bandan","transit":true,"i_long":106.826365,"i_lat":-6.132549,"line":4,"distance":1444,"is_transit":true},{"station_id":"JAKK","is_transit":true,"i_lat":-6.137569,"i_long":106.812439,"distance":1364,"time":3,"station_name":"Jakarta Kota","transit":true,"line":2},{"station_name":"Jayakarta","is_transit":false,"line":2,"distance":1264,"i_long":106.820901,"time":4,"transit":false,"i_lat":-6.141205,"station_id":"JAY"},{"station_id":"MGB","i_long":106.82482,"time":2,"i_lat":-6.149769,"line":2,"transit":false,"distance":1080,"is_transit":false,"station_name":"Manggabesar"},{"station_name":"Sawah Besar","station_id":"SW","i_long":106.827103,"transit":false,"line":2,"i_lat":-6.160725,"is_transit":false,"time":2,"distance":906},{"is_transit":false,"station_id":"JUA","station_name":"Juanda","time":2,"i_long":106.828284,"line":2,"i_lat":-6.166716,"transit":false,"distance":1149},{"distance":2015,"station_name":"Gondangdia","line":2,"i_long":106.832183,"time":4,"is_transit":false,"station_id":"GDD","transit":false,"i_lat":-6.186295},{"i_lat":-6.198556,"is_transit":false,"time":3,"station_name":"Cikini","transit":false,"distance":1750,"station_id":"CKI","line":2,"i_long":106.840169},{"station_id":"MRI","transit":false,"distance":1590,"station_name":"Manggarai","i_long":106.84912,"time":4,"i_lat":-6.209883,"is_transit":false,"line":2},{"i_lat":-6.226659,"is_transit":false,"station_id":"TEB","transit":false,"time":4,"station_name":"Tebet","line":2,"distance":2610,"i_long":106.857948},{"time":2,"distance":1230,"i_long":106.856607,"line":2,"transit":false,"station_name":"Cawang","i_lat":-6.242512,"is_transit":false,"station_id":"CW"},{"distance":1546,"station_name":"Duren Kalibata","transit":false,"i_lat":-6.255332,"is_transit":false,"line":2,"time":3,"station_id":"DRN","i_long":106.85449},{"station_id":"PSMB","station_name":"Pasar Minggu Baru","i_lat":-6.263214,"i_long":106.851577,"line":2,"transit":false,"is_transit":false,"time":2,"distance":824},{"time":2,"is_transit":false,"station_id":"PSM","distance":2380,"transit":false,"i_lat":-6.2842400000000005,"line":2,"i_long":106.843999,"station_name":"Pasar Minggu"},{"is_transit":false,"station_id":"TNT","distance":2820,"time":4,"station_name":"Tanjung Barat","transit":false,"i_lat":-6.3080680000000005,"i_long":106.838896,"line":2}]]}