{"data":[[{"transit":false,"line":1,"station_name":"Tambun","i_lat":-6.258864,"time":0,"i_long":107.055722,"station_id":"TB","distance":0,"is_transit":false},{"is_transit":false,"distance":4460,"transit":false,"i_lat":-6.248029,"station_name":"Bekasi Timur","line":1,"time":7,"station_id":"BKST","i_long":107.016735},{"station_id":"BKS","time":2,"station_name":"Bekasi","is_transit":false,"i_lat":-6.236616,"transit":false,"i_long":106.997013,"distance":2368,"line":1},{"line":1,"distance":2520,"station_id":"KRI","station_name":"Kranji","transit":false,"i_lat":-6.224515,"i_long":106.977657,"is_transit":false,"time":4},{"station_id":"CUK","transit":false,"line":1,"station_name":"Cakung","i_long":106.951283,"distance":3097,"time":3,"i_lat":-6.219053,"is_transit":false},{"station_name":"Klenderbaru","station_id":"KLDB","transit":false,"i_long":106.939679,"line":1,"distance":1385,"time":8,"is_transit":false,"i_lat":-6.217455},{"i_long":106.922662,"distance":1305,"time":1,"line":1,"station_id":"BUA","is_transit":false,"station_name":"Buaran","i_lat":-6.215568,"transit":false},{"station_name":"Klender","time":2,"station_id":"KLD","is_transit":false,"i_lat":-6.2135,"i_long":106.899548,"distance":3100,"line":1,"transit":false},{"station_name":"Jatinegara","is_transit":false,"i_lat":-6.215091,"transit":false,"i_long":106.86807400000001,"distance":3395,"time":3,"line":1,"station_id":"JNG"},{"station_name":"Matraman","transit":false,"line":1,"is_transit":false,"distance":1377,"i_long":106.858896,"time":2,"station_id":"MTR","i_lat":-6.212485},{"time":2,"station_id":"MRI","transit":false,"station_name":"Manggarai","i_lat":-6.209883,"distance":1275,"line":2,"is_transit":false,"i_long":106.84912},{"i_long":106.822649,"line":1,"is_transit":false,"time":4,"station_id":"SUD","i_lat":-6.202263,"transit":false,"station_name":"Sudirman","distance":3186},{"time":1,"i_lat":-6.201433,"transit":false,"i_long":106.819881,"distance":280,"is_transit":false,"line":1,"station_name":"Sudirman Baru","station_id":"SUDB"},{"i_long":106.816351,"time":1,"distance":471,"is_transit":false,"line":1,"station_name":"Karet","i_lat":-6.20132,"station_id":"KAT","transit":false},{"line":1,"i_lat":-6.185545,"distance":2029,"transit":false,"station_id":"THB","time":5,"station_name":"Tanah Abang","is_transit":false,"i_long":106.811091}],[{"i_long":107.055722,"is_transit":false,"time":0,"station_name":"Tambun","i_lat":-6.258864,"station_id":"TB","line":1,"transit":false,"distance":0},{"station_id":"BKST","is_transit":false,"time":7,"transit":false,"i_lat":-6.248029,"line":1,"station_name":"Bekasi Timur","distance":4460,"i_long":107.016735},{"i_long":106.997013,"transit":false,"distance":2368,"line":1,"is_transit":false,"station_id":"BKS","station_name":"Bekasi","time":2,"i_lat":-6.236616},{"line":1,"transit":false,"is_transit":false,"i_lat":-6.224515,"station_id":"KRI","station_name":"Kranji","distance":2520,"i_long":106.977657,"time":4},{"transit":false,"time":3,"station_id":"CUK","line":1,"station_name":"Cakung","i_long":106.951283,"distance":3097,"is_transit":false,"i_lat":-6.219053},{"station_id":"KLDB","line":1,"is_transit":false,"station_name":"Klenderbaru","i_long":106.939679,"distance":1385,"transit":false,"i_lat":-6.217455,"time":8},{"time":1,"station_id":"BUA","station_name":"Buaran","line":1,"transit":false,"i_lat":-6.215568,"i_long":106.922662,"distance":1305,"is_transit":false},{"distance":3100,"station_name":"Klender","i_long":106.899548,"transit":false,"i_lat":-6.2135,"line":1,"station_id":"KLD","is_transit":false,"time":2},{"transit":true,"station_name":"Jatinegara","line":1,"is_transit":true,"distance":3395,"station_id":"JNG","time":3,"i_lat":-6.215091,"i_long":106.86807400000001},{"is_transit":false,"distance":1236,"transit":false,"i_lat":-6.209188,"i_long":106.861737,"time":2,"line":11,"station_id":"POK","station_name":"Pondok Jati"},{"i_lat":-6.193792,"distance":1829,"time":2,"station_name":"Kramat","i_long":106.855437,"line":11,"station_id":"KMT","is_transit":false,"transit":false},{"station_name":"Gang Sentiong","line":11,"station_id":"GST","distance":973,"is_transit":false,"time":1,"i_lat":-6.185975,"transit":false,"i_long":106.850107},{"station_id":"PSE","transit":false,"station_name":"Pasar Senen","i_long":106.84368,"distance":1567,"i_lat":-6.174784,"is_transit":false,"time":8,"line":11},{"time":4,"station_id":"KMO","transit":false,"i_lat":-6.161728,"i_long":106.839204,"distance":1436,"is_transit":false,"line":11,"station_name":"Kemayoran"},{"distance":1901,"time":5,"station_id":"RJW","is_transit":false,"station_name":"Rajawali","i_long":106.836569,"line":11,"transit":false,"i_lat":-6.14505},{"time":3,"is_transit":true,"station_id":"KPB","transit":true,"i_lat":-6.132549,"station_name":"Kampung Bandan","i_long":106.826365,"line":4,"distance":1444},{"station_id":"AK","is_transit":false,"i_lat":-6.144674,"distance":4102,"transit":false,"i_long":106.79867,"line":1,"station_name":"Angke","time":9},{"line":1,"station_name":"Duri","distance":1230,"time":4,"transit":false,"is_transit":false,"station_id":"DU","i_lat":-6.155215,"i_long":106.800832},{"station_name":"Tanah Abang","transit":false,"i_long":106.811091,"is_transit":false,"distance":3632,"i_lat":-6.185545,"line":1,"station_id":"THB","time":8}],[{"i_lat":-6.258864,"line":1,"time":0,"distance":0,"station_id":"TB","is_transit":false,"transit":false,"i_long":107.055722,"station_name":"Tambun"},{"i_long":107.016735,"line":1,"station_name":"Bekasi Timur","is_transit":false,"transit":false,"station_id":"BKST","distance":4460,"i_lat":-6.248029,"time":7},{"transit":false,"line":1,"is_transit":false,"time":2,"distance":2368,"i_long":106.997013,"i_lat":-6.236616,"station_name":"Bekasi","station_id":"BKS"},{"station_name":"Kranji","distance":2520,"line":1,"i_long":106.977657,"station_id":"KRI","is_transit":false,"time":4,"transit":false,"i_lat":-6.224515},{"station_id":"CUK","is_transit":false,"line":1,"station_name":"Cakung","time":3,"distance":3097,"transit":false,"i_lat":-6.219053,"i_long":106.951283},{"i_lat":-6.217455,"is_transit":false,"transit":false,"i_long":106.939679,"distance":1385,"line":1,"station_id":"KLDB","station_name":"Klenderbaru","time":8},{"time":1,"distance":1305,"is_transit":false,"i_lat":-6.215568,"i_long":106.922662,"line":1,"station_name":"Buaran","station_id":"BUA","transit":false},{"station_name":"Klender","time":2,"transit":false,"line":1,"i_lat":-6.2135,"is_transit":false,"i_long":106.899548,"station_id":"KLD","distance":3100},{"i_long":106.86807400000001,"time":3,"station_name":"Jatinegara","line":1,"is_transit":false,"i_lat":-6.215091,"distance":3395,"station_id":"JNG","transit":false},{"is_transit":false,"station_name":"Matraman","distance":1377,"i_lat":-6.212485,"line":1,"time":2,"transit":false,"i_long":106.858896,"station_id":"MTR"},{"is_transit":true,"distance":1275,"i_long":106.84912,"line":2,"time":2,"i_lat":-6.209883,"station_name":"Manggarai","transit":true,"station_id":"MRI"},{"is_transit":false,"distance":1590,"station_id":"CKI","i_lat":-6.198556,"transit":false,"i_long":106.840169,"time":4,"line":2,"station_name":"Cikini"},{"transit":false,"is_transit":false,"line":2,"station_id":"GDD","i_long":106.832183,"distance":1750,"time":3,"i_lat":-6.186295,"station_name":"Gondangdia"},{"station_id":"JUA","transit":false,"i_long":106.828284,"is_transit":false,"station_name":"Juanda","i_lat":-6.166716,"time":4,"distance":2015,"line":2},{"station_name":"Sawah Besar","transit":false,"i_lat":-6.160725,"i_long":106.827103,"time":2,"distance":1149,"is_transit":false,"line":2,"station_id":"SW"},{"is_transit":false,"station_name":"Manggabesar","i_long":106.82482,"time":2,"distance":906,"transit":false,"i_lat":-6.149769,"station_id":"MGB","line":2},{"transit":false,"i_lat":-6.141205,"i_long":106.820901,"distance":1080,"station_name":"Jayakarta","time":2,"station_id":"JAY","line":2,"is_transit":false},{"station_id":"JAKK","transit":true,"i_lat":-6.137569,"time":4,"distance":1264,"is_transit":true,"i_long":106.812439,"station_name":"Jakarta Kota","line":2},{"station_name":"Kampung Bandan","time":3,"distance":1364,"i_lat":-6.132549,"transit":true,"line":4,"is_transit":true,"i_long":106.826365,"station_id":"KPB"},{"line":1,"distance":4102,"station_name":"Angke","is_transit":false,"station_id":"AK","time":9,"i_long":106.79867,"transit":false,"i_lat":-6.144674},{"is_transit":false,"station_name":"Duri","i_long":106.800832,"station_id":"DU","distance":1230,"transit":false,"i_lat":-6.155215,"time":4,"line":1},{"is_transit":false,"transit":false,"i_long":106.811091,"station_id":"THB","line":1,"time":8,"i_lat":-6.185545,"station_name":"Tanah Abang","distance":3632}],[{"is_transit":false,"station_id":"TB","time":0,"i_long":107.055722,"distance":0,"station_name":"Tambun","i_lat":-6.258864,"line":1,"transit":false},{"i_lat":-6.248029,"is_transit":false,"station_id":"BKST","i_long":107.016735,"time":7,"transit":false,"distance":4460,"line":1,"station_name":"Bekasi Timur"},{"transit":false,"station_name":"Bekasi","time":2,"distance":2368,"is_transit":false,"station_id":"BKS","line":1,"i_lat":-6.236616,"i_long":106.997013},{"station_name":"Kranji","i_lat":-6.224515,"time":4,"i_long":106.977657,"line":1,"distance":2520,"station_id":"KRI","transit":false,"is_transit":false},{"distance":3097,"is_transit":false,"i_long":106.951283,"station_id":"CUK","time":3,"i_lat":-6.219053,"line":1,"transit":false,"station_name":"Cakung"},{"line":1,"station_name":"Klenderbaru","i_long":106.939679,"is_transit":false,"time":8,"transit":false,"station_id":"KLDB","i_lat":-6.217455,"distance":1385},{"distance":1305,"time":1,"station_name":"Buaran","i_long":106.922662,"is_transit":false,"station_id":"BUA","transit":false,"line":1,"i_lat":-6.215568},{"time":2,"station_id":"KLD","is_transit":false,"i_long":106.899548,"i_lat":-6.2135,"line":1,"distance":3100,"station_name":"Klender","transit":false},{"line":1,"station_name":"Jatinegara","is_transit":true,"time":3,"transit":true,"distance":3395,"station_id":"JNG","i_lat":-6.215091,"i_long":106.86807400000001},{"station_name":"Pondok Jati","transit":false,"i_long":106.861737,"time":2,"is_transit":false,"line":11,"distance":1236,"station_id":"POK","i_lat":-6.209188},{"station_id":"KMT","i_lat":-6.193792,"time":2,"i_long":106.855437,"station_name":"Kramat","distance":1829,"line":11,"is_transit":false,"transit":false},{"is_transit":false,"line":11,"distance":973,"time":1,"transit":false,"station_name":"Gang Sentiong","i_long":106.850107,"i_lat":-6.185975,"station_id":"GST"},{"is_transit":false,"station_id":"PSE","distance":1567,"time":8,"transit":false,"i_long":106.84368,"i_lat":-6.174784,"line":11,"station_name":"Pasar Senen"},{"distance":1436,"transit":false,"line":11,"station_id":"KMO","i_long":106.839204,"is_transit":false,"i_lat":-6.161728,"station_name":"Kemayoran","time":4},{"station_id":"RJW","is_transit":false,"line":11,"distance":1901,"i_lat":-6.14505,"station_name":"Rajawali","i_long":106.836569,"time":5,"transit":false},{"station_name":"Kampung Bandan","i_long":106.826365,"line":4,"is_transit":true,"station_id":"KPB","transit":true,"time":3,"i_lat":-6.132549,"distance":1444},{"line":2,"i_lat":-6.137569,"distance":1364,"time":3,"is_transit":true,"station_name":"Jakarta Kota","station_id":"JAKK","transit":true,"i_long":106.812439},{"i_lat":-6.141205,"i_long":106.820901,"distance":1264,"line":2,"station_name":"Jayakarta","is_transit":false,"time":4,"station_id":"JAY","transit":false},{"station_id":"MGB","i_long":106.82482,"i_lat":-6.149769,"time":2,"transit":false,"distance":1080,"is_transit":false,"line":2,"station_name":"Manggabesar"},{"station_name":"Sawah Besar","time":2,"station_id":"SW","i_long":106.827103,"transit":false,"distance":906,"i_lat":-6.160725,"is_transit":false,"line":2},{"time":2,"station_id":"JUA","line":2,"transit":false,"i_long":106.828284,"station_name":"Juanda","distance":1149,"i_lat":-6.166716,"is_transit":false},{"is_transit":false,"station_name":"Gondangdia","line":2,"i_lat":-6.186295,"distance":2015,"i_long":106.832183,"station_id":"GDD","transit":false,"time":4},{"distance":1750,"is_transit":false,"transit":false,"i_long":106.840169,"station_name":"Cikini","time":3,"station_id":"CKI","i_lat":-6.198556,"line":2},{"station_id":"MRI","time":4,"is_transit":true,"station_name":"Manggarai","transit":true,"i_lat":-6.209883,"i_long":106.84912,"line":2,"distance":1590},{"station_name":"Sudirman","distance":3186,"station_id":"SUD","is_transit":false,"line":1,"time":4,"transit":false,"i_long":106.822649,"i_lat":-6.202263},{"i_long":106.819881,"line":1,"station_id":"SUDB","transit":false,"time":1,"station_name":"Sudirman Baru","is_transit":false,"i_lat":-6.201433,"distance":280},{"station_name":"Karet","i_lat":-6.20132,"station_id":"KAT","i_long":106.816351,"time":1,"distance":471,"transit":false,"is_transit":false,"line":1},{"station_name":"Tanah Abang","i_lat":-6.185545,"distance":2029,"station_id":"THB","i_long":106.811091,"line":1,"is_transit":false,"time":5,"transit":false}]]}