{"data":[[{"i_lat":-6.258864,"line":1,"station_name":"Tambun","transit":false,"distance":0,"time":0,"is_transit":false,"station_id":"TB","i_long":107.055722},{"transit":false,"i_long":107.016735,"distance":4460,"is_transit":false,"line":1,"station_id":"BKST","i_lat":-6.248029,"station_name":"Bekasi Timur","time":7},{"time":2,"station_name":"Bekasi","is_transit":false,"transit":false,"line":1,"station_id":"BKS","distance":2368,"i_long":106.997013,"i_lat":-6.236616},{"i_long":106.977657,"line":1,"station_name":"Kranji","time":4,"distance":2520,"station_id":"KRI","is_transit":false,"transit":false,"i_lat":-6.224515},{"i_long":106.951283,"i_lat":-6.219053,"line":1,"transit":false,"station_id":"CUK","is_transit":false,"station_name":"Cakung","distance":3097,"time":3},{"transit":false,"i_lat":-6.217455,"line":1,"time":8,"station_name":"Klenderbaru","i_long":106.939679,"distance":1385,"is_transit":false,"station_id":"KLDB"},{"station_name":"Buaran","time":1,"station_id":"BUA","is_transit":false,"line":1,"transit":false,"distance":1305,"i_lat":-6.215568,"i_long":106.922662},{"i_lat":-6.2135,"i_long":106.899548,"is_transit":false,"time":2,"station_name":"Klender","transit":false,"line":1,"station_id":"KLD","distance":3100},{"distance":3395,"i_lat":-6.215091,"station_id":"JNG","transit":false,"station_name":"Jatinegara","is_transit":false,"i_long":106.86807400000001,"line":1,"time":3},{"transit":false,"line":1,"is_transit":false,"time":2,"distance":1377,"station_name":"Matraman","station_id":"MTR","i_lat":-6.212485,"i_long":106.858896},{"i_long":106.84912,"line":2,"station_name":"Manggarai","i_lat":-6.209883,"time":2,"transit":false,"is_transit":false,"distance":1275,"station_id":"MRI"},{"time":4,"station_id":"SUD","station_name":"Sudirman","transit":false,"line":1,"i_lat":-6.202263,"i_long":106.822649,"is_transit":false,"distance":3186},{"i_long":106.819881,"is_transit":false,"station_id":"SUDB","station_name":"Sudirman Baru","distance":280,"transit":false,"line":1,"time":1,"i_lat":-6.201433},{"distance":471,"station_id":"KAT","i_lat":-6.20132,"station_name":"Karet","is_transit":false,"transit":false,"i_long":106.816351,"time":1,"line":1},{"line":1,"i_lat":-6.185545,"transit":false,"station_name":"Tanah Abang","i_long":106.811091,"station_id":"THB","time":5,"distance":2029,"is_transit":false}],[{"line":1,"time":0,"distance":0,"is_transit":false,"station_name":"Tambun","transit":false,"station_id":"TB","i_long":107.055722,"i_lat":-6.258864},{"i_long":107.016735,"transit":false,"distance":4460,"line":1,"station_id":"BKST","station_name":"Bekasi Timur","is_transit":false,"time":7,"i_lat":-6.248029},{"transit":false,"i_lat":-6.236616,"line":1,"station_name":"Bekasi","is_transit":false,"station_id":"BKS","i_long":106.997013,"time":2,"distance":2368},{"i_long":106.977657,"line":1,"is_transit":false,"station_id":"KRI","i_lat":-6.224515,"station_name":"Kranji","distance":2520,"time":4,"transit":false},{"i_lat":-6.219053,"station_name":"Cakung","transit":false,"station_id":"CUK","time":3,"is_transit":false,"distance":3097,"line":1,"i_long":106.951283},{"distance":1385,"station_name":"Klenderbaru","i_lat":-6.217455,"line":1,"station_id":"KLDB","time":8,"is_transit":false,"i_long":106.939679,"transit":false},{"transit":false,"station_id":"BUA","distance":1305,"station_name":"Buaran","is_transit":false,"i_lat":-6.215568,"i_long":106.922662,"line":1,"time":1},{"i_long":106.899548,"line":1,"distance":3100,"station_id":"KLD","station_name":"Klender","transit":false,"i_lat":-6.2135,"time":2,"is_transit":false},{"transit":true,"i_lat":-6.215091,"station_id":"JNG","line":1,"i_long":106.86807400000001,"time":3,"distance":3395,"is_transit":true,"station_name":"Jatinegara"},{"distance":1236,"i_long":106.861737,"station_name":"Pondok Jati","station_id":"POK","line":11,"transit":false,"is_transit":false,"time":2,"i_lat":-6.209188},{"time":2,"transit":false,"distance":1829,"i_lat":-6.193792,"is_transit":false,"i_long":106.855437,"line":11,"station_id":"KMT","station_name":"Kramat"},{"station_name":"Gang Sentiong","time":1,"distance":973,"is_transit":false,"i_long":106.850107,"i_lat":-6.185975,"station_id":"GST","line":11,"transit":false},{"i_lat":-6.174784,"station_id":"PSE","distance":1567,"line":11,"station_name":"Pasar Senen","transit":false,"time":8,"i_long":106.84368,"is_transit":false},{"i_long":106.839204,"station_name":"Kemayoran","transit":false,"i_lat":-6.161728,"distance":1436,"is_transit":false,"line":11,"time":4,"station_id":"KMO"},{"station_id":"RJW","time":5,"distance":1901,"is_transit":false,"transit":false,"i_lat":-6.14505,"i_long":106.836569,"station_name":"Rajawali","line":11},{"station_id":"KPB","distance":1444,"station_name":"Kampung Bandan","is_transit":true,"transit":true,"line":4,"time":3,"i_lat":-6.132549,"i_long":106.826365},{"station_id":"AK","i_lat":-6.144674,"time":9,"distance":4102,"station_name":"Angke","is_transit":false,"line":1,"transit":false,"i_long":106.79867},{"time":4,"station_id":"DU","is_transit":false,"line":1,"transit":false,"station_name":"Duri","i_lat":-6.155215,"i_long":106.800832,"distance":1230},{"i_long":106.811091,"line":1,"time":8,"is_transit":false,"distance":3632,"transit":false,"i_lat":-6.185545,"station_id":"THB","station_name":"Tanah Abang"}],[{"i_lat":-6.258864,"station_name":"Tambun","i_long":107.055722,"line":1,"is_transit":false,"time":0,"distance":0,"transit":false,"station_id":"TB"},{"i_long":107.016735,"transit":false,"station_id":"BKST","distance":4460,"station_name":"Bekasi Timur","i_lat":-6.248029,"line":1,"time":7,"is_transit":false},{"distance":2368,"is_transit":false,"transit":false,"station_name":"Bekasi","i_long":106.997013,"i_lat":-6.236616,"line":1,"station_id":"BKS","time":2},{"distance":2520,"transit":false,"time":4,"station_id":"KRI","station_name":"Kranji","i_lat":-6.224515,"i_long":106.977657,"line":1,"is_transit":false},{"station_name":"Cakung","station_id":"CUK","i_long":106.951283,"i_lat":-6.219053,"line":1,"transit":false,"distance":3097,"time":3,"is_transit":false},{"is_transit":false,"i_lat":-6.217455,"time":8,"line":1,"transit":false,"station_name":"Klenderbaru","station_id":"KLDB","i_long":106.939679,"distance":1385},{"station_id":"BUA","transit":false,"time":1,"line":1,"is_transit":false,"distance":1305,"station_name":"Buaran","i_lat":-6.215568,"i_long":106.922662},{"station_id":"KLD","distance":3100,"is_transit":false,"time":2,"station_name":"Klender","i_lat":-6.2135,"i_long":106.899548,"transit":false,"line":1},{"station_id":"JNG","distance":3395,"is_transit":false,"time":3,"transit":false,"i_long":106.86807400000001,"line":1,"station_name":"Jatinegara","i_lat":-6.215091},{"i_long":106.858896,"is_transit":false,"transit":false,"i_lat":-6.212485,"time":2,"station_name":"Matraman","distance":1377,"station_id":"MTR","line":1},{"transit":true,"station_id":"MRI","is_transit":true,"station_name":"Manggarai","time":2,"i_lat":-6.209883,"i_long":106.84912,"line":2,"distance":1275},{"time":4,"is_transit":false,"station_name":"Cikini","i_long":106.840169,"i_lat":-6.198556,"distance":1590,"station_id":"CKI","transit":false,"line":2},{"time":3,"is_transit":false,"i_lat":-6.186295,"line":2,"i_long":106.832183,"distance":1750,"transit":false,"station_name":"Gondangdia","station_id":"GDD"},{"i_lat":-6.166716,"station_id":"JUA","time":4,"transit":false,"line":2,"i_long":106.828284,"is_transit":false,"distance":2015,"station_name":"Juanda"},{"time":2,"distance":1149,"transit":false,"i_long":106.827103,"line":2,"is_transit":false,"i_lat":-6.160725,"station_id":"SW","station_name":"Sawah Besar"},{"transit":false,"i_lat":-6.149769,"station_id":"MGB","distance":906,"is_transit":false,"station_name":"Manggabesar","i_long":106.82482,"line":2,"time":2},{"station_id":"JAY","distance":1080,"i_lat":-6.141205,"time":2,"station_name":"Jayakarta","i_long":106.820901,"transit":false,"line":2,"is_transit":false},{"is_transit":true,"distance":1264,"i_lat":-6.137569,"time":4,"line":2,"transit":true,"station_name":"Jakarta Kota","i_long":106.812439,"station_id":"JAKK"},{"is_transit":true,"station_id":"KPB","time":3,"transit":true,"station_name":"Kampung Bandan","i_lat":-6.132549,"line":4,"i_long":106.826365,"distance":1364},{"transit":false,"i_lat":-6.144674,"line":1,"station_name":"Angke","time":9,"i_long":106.79867,"distance":4102,"station_id":"AK","is_transit":false},{"station_name":"Duri","time":4,"station_id":"DU","distance":1230,"transit":false,"i_lat":-6.155215,"i_long":106.800832,"line":1,"is_transit":false},{"time":8,"line":1,"is_transit":false,"i_long":106.811091,"i_lat":-6.185545,"distance":3632,"transit":false,"station_id":"THB","station_name":"Tanah Abang"}],[{"is_transit":false,"time":0,"station_id":"TB","i_lat":-6.258864,"i_long":107.055722,"station_name":"Tambun","distance":0,"line":1,"transit":false},{"line":1,"time":7,"is_transit":false,"distance":4460,"station_id":"BKST","i_long":107.016735,"transit":false,"i_lat":-6.248029,"station_name":"Bekasi Timur"},{"is_transit":false,"time":2,"transit":false,"station_name":"Bekasi","i_long":106.997013,"line":1,"station_id":"BKS","distance":2368,"i_lat":-6.236616},{"is_transit":false,"time":4,"station_id":"KRI","i_long":106.977657,"line":1,"distance":2520,"station_name":"Kranji","transit":false,"i_lat":-6.224515},{"line":1,"time":3,"transit":false,"station_name":"Cakung","is_transit":false,"distance":3097,"station_id":"CUK","i_long":106.951283,"i_lat":-6.219053},{"station_name":"Klenderbaru","station_id":"KLDB","is_transit":false,"i_long":106.939679,"line":1,"i_lat":-6.217455,"transit":false,"time":8,"distance":1385},{"is_transit":false,"time":1,"distance":1305,"i_lat":-6.215568,"i_long":106.922662,"transit":false,"line":1,"station_name":"Buaran","station_id":"BUA"},{"line":1,"distance":3100,"i_lat":-6.2135,"station_id":"KLD","i_long":106.899548,"is_transit":false,"time":2,"station_name":"Klender","transit":false},{"station_name":"Jatinegara","transit":true,"station_id":"JNG","i_lat":-6.215091,"line":1,"time":3,"i_long":106.86807400000001,"is_transit":true,"distance":3395},{"i_long":106.861737,"time":2,"line":11,"station_name":"Pondok Jati","is_transit":false,"i_lat":-6.209188,"station_id":"POK","transit":false,"distance":1236},{"is_transit":false,"station_name":"Kramat","station_id":"KMT","transit":false,"distance":1829,"i_lat":-6.193792,"i_long":106.855437,"time":2,"line":11},{"time":1,"line":11,"i_lat":-6.185975,"distance":973,"i_long":106.850107,"is_transit":false,"station_id":"GST","station_name":"Gang Sentiong","transit":false},{"time":8,"is_transit":false,"i_lat":-6.174784,"station_name":"Pasar Senen","line":11,"station_id":"PSE","transit":false,"i_long":106.84368,"distance":1567},{"time":4,"distance":1436,"station_id":"KMO","i_lat":-6.161728,"i_long":106.839204,"line":11,"station_name":"Kemayoran","is_transit":false,"transit":false},{"station_id":"RJW","distance":1901,"is_transit":false,"transit":false,"time":5,"i_lat":-6.14505,"line":11,"station_name":"Rajawali","i_long":106.836569},{"transit":true,"station_id":"KPB","is_transit":true,"time":3,"i_lat":-6.132549,"station_name":"Kampung Bandan","i_long":106.826365,"distance":1444,"line":4},{"station_id":"JAKK","is_transit":true,"i_long":106.812439,"time":3,"station_name":"Jakarta Kota","distance":1364,"line":2,"i_lat":-6.137569,"transit":true},{"line":2,"time":4,"i_long":106.820901,"station_name":"Jayakarta","i_lat":-6.141205,"station_id":"JAY","is_transit":false,"distance":1264,"transit":false},{"i_long":106.82482,"time":2,"station_name":"Manggabesar","distance":1080,"station_id":"MGB","i_lat":-6.149769,"line":2,"is_transit":false,"transit":false},{"i_long":106.827103,"station_id":"SW","transit":false,"line":2,"i_lat":-6.160725,"station_name":"Sawah Besar","time":2,"distance":906,"is_transit":false},{"i_lat":-6.166716,"station_name":"Juanda","transit":false,"i_long":106.828284,"line":2,"is_transit":false,"distance":1149,"station_id":"JUA","time":2},{"distance":2015,"is_transit":false,"station_name":"Gondangdia","i_lat":-6.186295,"line":2,"transit":false,"time":4,"i_long":106.832183,"station_id":"GDD"},{"is_transit":false,"i_lat":-6.198556,"transit":false,"station_name":"Cikini","distance":1750,"i_long":106.840169,"station_id":"CKI","line":2,"time":3},{"i_long":106.84912,"is_transit":true,"time":4,"station_id":"MRI","distance":1590,"transit":true,"station_name":"Manggarai","i_lat":-6.209883,"line":2},{"is_transit":false,"station_name":"Sudirman","line":1,"distance":3186,"station_id":"SUD","i_lat":-6.202263,"time":4,"transit":false,"i_long":106.822649},{"station_id":"SUDB","i_lat":-6.201433,"station_name":"Sudirman Baru","line":1,"transit":false,"distance":280,"i_long":106.819881,"time":1,"is_transit":false},{"line":1,"i_lat":-6.20132,"time":1,"transit":false,"station_id":"KAT","is_transit":false,"distance":471,"station_name":"Karet","i_long":106.816351},{"time":5,"station_name":"Tanah Abang","is_transit":false,"distance":2029,"transit":false,"station_id":"THB","i_lat":-6.185545,"i_long":106.811091,"line":1}]]}