{"data":[[{"station_id":"TB","is_transit":false,"i_long":107.055722,"line":1,"transit":false,"station_name":"Tambun","i_lat":-6.258864,"distance":0,"time":0},{"line":1,"station_name":"Bekasi Timur","i_lat":-6.248029,"time":7,"distance":4460,"is_transit":false,"transit":false,"i_long":107.016735,"station_id":"BKST"},{"i_lat":-6.236616,"line":1,"distance":2368,"station_id":"BKS","station_name":"Bekasi","time":2,"is_transit":false,"transit":false,"i_long":106.997013},{"station_name":"Kranji","i_lat":-6.224515,"transit":false,"distance":2520,"i_long":106.977657,"station_id":"KRI","time":4,"line":1,"is_transit":false},{"distance":3097,"time":3,"station_id":"CUK","line":1,"transit":false,"station_name":"Cakung","is_transit":false,"i_long":106.951283,"i_lat":-6.219053},{"line":1,"station_id":"KLDB","time":8,"is_transit":false,"i_lat":-6.217455,"station_name":"Klenderbaru","distance":1385,"transit":false,"i_long":106.939679},{"station_name":"Buaran","i_lat":-6.215568,"transit":false,"i_long":106.922662,"line":1,"is_transit":false,"station_id":"BUA","time":1,"distance":1305},{"i_lat":-6.2135,"distance":3100,"is_transit":false,"line":1,"transit":false,"station_id":"KLD","station_name":"Klender","time":2,"i_long":106.899548},{"is_transit":false,"station_id":"JNG","distance":3395,"line":1,"transit":false,"station_name":"Jatinegara","i_lat":-6.215091,"time":3,"i_long":106.86807400000001},{"station_id":"MTR","time":2,"line":1,"is_transit":false,"i_lat":-6.212485,"distance":1377,"transit":false,"station_name":"Matraman","i_long":106.858896},{"i_long":106.84912,"station_name":"Manggarai","line":2,"i_lat":-6.209883,"station_id":"MRI","transit":false,"time":2,"distance":1275,"is_transit":false},{"i_long":106.822649,"transit":false,"is_transit":false,"i_lat":-6.202263,"station_name":"Sudirman","distance":3186,"station_id":"SUD","line":1,"time":4},{"i_lat":-6.201433,"is_transit":false,"distance":280,"time":1,"station_name":"Sudirman Baru","transit":false,"i_long":106.819881,"line":1,"station_id":"SUDB"},{"transit":false,"i_lat":-6.20132,"i_long":106.816351,"station_id":"KAT","is_transit":false,"station_name":"Karet","line":1,"time":1,"distance":471},{"i_lat":-6.185545,"line":1,"is_transit":false,"distance":2029,"station_id":"THB","station_name":"Tanah Abang","time":5,"transit":false,"i_long":106.811091},{"line":1,"i_lat":-6.155215,"is_transit":true,"distance":3632,"i_long":106.800832,"station_id":"DU","transit":true,"time":8,"station_name":"Duri"},{"station_id":"GRG","station_name":"Grogol","is_transit":false,"line":5,"time":3,"distance":1700,"transit":false,"i_lat":-6.162021,"i_long":106.788277},{"i_long":106.771379,"is_transit":false,"i_lat":-6.161433,"station_name":"Pesing","transit":false,"line":5,"station_id":"PSG","time":2,"distance":2036},{"is_transit":false,"line":5,"time":2,"distance":1614,"i_lat":-6.1587309999999995,"i_long":106.756522,"station_name":"Taman Kota","transit":false,"station_id":"TKO"}],[{"line":1,"distance":0,"i_long":107.055722,"station_id":"TB","time":0,"i_lat":-6.258864,"transit":false,"is_transit":false,"station_name":"Tambun"},{"i_long":107.016735,"is_transit":false,"transit":false,"station_id":"BKST","i_lat":-6.248029,"distance":4460,"line":1,"station_name":"Bekasi Timur","time":7},{"transit":false,"line":1,"distance":2368,"station_id":"BKS","is_transit":false,"station_name":"Bekasi","i_long":106.997013,"i_lat":-6.236616,"time":2},{"is_transit":false,"transit":false,"line":1,"time":4,"station_id":"KRI","station_name":"Kranji","i_lat":-6.224515,"i_long":106.977657,"distance":2520},{"distance":3097,"i_long":106.951283,"i_lat":-6.219053,"line":1,"is_transit":false,"transit":false,"station_name":"Cakung","station_id":"CUK","time":3},{"time":8,"i_long":106.939679,"station_name":"Klenderbaru","is_transit":false,"transit":false,"station_id":"KLDB","i_lat":-6.217455,"line":1,"distance":1385},{"transit":false,"i_long":106.922662,"station_name":"Buaran","time":1,"station_id":"BUA","i_lat":-6.215568,"line":1,"distance":1305,"is_transit":false},{"i_long":106.899548,"station_name":"Klender","station_id":"KLD","is_transit":false,"line":1,"transit":false,"distance":3100,"i_lat":-6.2135,"time":2},{"station_id":"JNG","is_transit":true,"time":3,"distance":3395,"transit":true,"i_long":106.86807400000001,"line":1,"station_name":"Jatinegara","i_lat":-6.215091},{"time":2,"station_name":"Pondok Jati","i_long":106.861737,"transit":false,"line":11,"is_transit":false,"i_lat":-6.209188,"station_id":"POK","distance":1236},{"time":2,"i_long":106.855437,"distance":1829,"transit":false,"i_lat":-6.193792,"line":11,"station_id":"KMT","is_transit":false,"station_name":"Kramat"},{"i_long":106.850107,"line":11,"time":1,"transit":false,"is_transit":false,"distance":973,"station_id":"GST","station_name":"Gang Sentiong","i_lat":-6.185975},{"time":8,"i_long":106.84368,"transit":false,"distance":1567,"station_name":"Pasar Senen","is_transit":false,"station_id":"PSE","i_lat":-6.174784,"line":11},{"station_id":"KMO","distance":1436,"time":4,"is_transit":false,"i_lat":-6.161728,"i_long":106.839204,"transit":false,"station_name":"Kemayoran","line":11},{"transit":false,"station_id":"RJW","i_lat":-6.14505,"i_long":106.836569,"line":11,"time":5,"is_transit":false,"station_name":"Rajawali","distance":1901},{"station_id":"KPB","i_lat":-6.132549,"line":4,"i_long":106.826365,"distance":1444,"station_name":"Kampung Bandan","time":3,"is_transit":true,"transit":true},{"is_transit":false,"line":1,"i_lat":-6.144674,"station_name":"Angke","time":9,"transit":false,"i_long":106.79867,"distance":4102,"station_id":"AK"},{"is_transit":true,"i_lat":-6.155215,"i_long":106.800832,"station_name":"Duri","line":1,"station_id":"DU","time":4,"distance":1230,"transit":true},{"is_transit":false,"station_name":"Grogol","distance":1700,"i_long":106.788277,"station_id":"GRG","time":3,"i_lat":-6.162021,"line":5,"transit":false},{"station_name":"Pesing","i_lat":-6.161433,"time":2,"is_transit":false,"i_long":106.771379,"station_id":"PSG","transit":false,"line":5,"distance":2036},{"station_name":"Taman Kota","is_transit":false,"transit":false,"i_lat":-6.1587309999999995,"line":5,"i_long":106.756522,"time":2,"station_id":"TKO","distance":1614}],[{"i_lat":-6.258864,"station_id":"TB","station_name":"Tambun","time":0,"distance":0,"transit":false,"is_transit":false,"i_long":107.055722,"line":1},{"station_name":"Bekasi Timur","i_long":107.016735,"distance":4460,"station_id":"BKST","transit":false,"i_lat":-6.248029,"time":7,"line":1,"is_transit":false},{"station_id":"BKS","is_transit":false,"transit":false,"i_lat":-6.236616,"line":1,"station_name":"Bekasi","i_long":106.997013,"time":2,"distance":2368},{"is_transit":false,"station_name":"Kranji","distance":2520,"transit":false,"time":4,"i_lat":-6.224515,"line":1,"station_id":"KRI","i_long":106.977657},{"i_lat":-6.219053,"station_name":"Cakung","transit":false,"is_transit":false,"line":1,"distance":3097,"i_long":106.951283,"station_id":"CUK","time":3},{"station_name":"Klenderbaru","line":1,"time":8,"transit":false,"i_lat":-6.217455,"i_long":106.939679,"distance":1385,"station_id":"KLDB","is_transit":false},{"time":1,"station_id":"BUA","is_transit":false,"distance":1305,"transit":false,"i_lat":-6.215568,"station_name":"Buaran","line":1,"i_long":106.922662},{"i_lat":-6.2135,"time":2,"i_long":106.899548,"line":1,"is_transit":false,"station_id":"KLD","distance":3100,"station_name":"Klender","transit":false},{"station_id":"JNG","i_long":106.86807400000001,"distance":3395,"station_name":"Jatinegara","time":3,"transit":false,"line":1,"i_lat":-6.215091,"is_transit":false},{"station_name":"Matraman","time":2,"station_id":"MTR","is_transit":false,"i_lat":-6.212485,"transit":false,"line":1,"distance":1377,"i_long":106.858896},{"line":2,"i_long":106.84912,"station_id":"MRI","time":2,"transit":true,"i_lat":-6.209883,"station_name":"Manggarai","is_transit":true,"distance":1275},{"is_transit":false,"station_id":"CKI","station_name":"Cikini","distance":1590,"time":4,"i_lat":-6.198556,"i_long":106.840169,"line":2,"transit":false},{"station_id":"GDD","time":3,"i_lat":-6.186295,"is_transit":false,"i_long":106.832183,"distance":1750,"station_name":"Gondangdia","transit":false,"line":2},{"i_lat":-6.166716,"station_id":"JUA","transit":false,"is_transit":false,"station_name":"Juanda","i_long":106.828284,"distance":2015,"line":2,"time":4},{"i_long":106.827103,"transit":false,"time":2,"line":2,"station_name":"Sawah Besar","distance":1149,"station_id":"SW","i_lat":-6.160725,"is_transit":false},{"i_lat":-6.149769,"station_name":"Manggabesar","i_long":106.82482,"time":2,"line":2,"station_id":"MGB","distance":906,"is_transit":false,"transit":false},{"is_transit":false,"transit":false,"time":2,"distance":1080,"i_lat":-6.141205,"station_name":"Jayakarta","i_long":106.820901,"line":2,"station_id":"JAY"},{"i_long":106.812439,"station_name":"Jakarta Kota","station_id":"JAKK","is_transit":true,"i_lat":-6.137569,"time":4,"transit":true,"distance":1264,"line":2},{"is_transit":true,"i_long":106.826365,"station_name":"Kampung Bandan","line":4,"distance":1364,"transit":true,"station_id":"KPB","time":3,"i_lat":-6.132549},{"transit":false,"station_id":"AK","distance":4102,"i_lat":-6.144674,"time":9,"i_long":106.79867,"line":1,"is_transit":false,"station_name":"Angke"},{"i_lat":-6.155215,"station_id":"DU","station_name":"Duri","i_long":106.800832,"time":4,"is_transit":true,"distance":1230,"transit":true,"line":1},{"line":5,"is_transit":false,"station_name":"Grogol","transit":false,"i_long":106.788277,"time":3,"distance":1700,"i_lat":-6.162021,"station_id":"GRG"},{"station_id":"PSG","i_lat":-6.161433,"station_name":"Pesing","transit":false,"line":5,"i_long":106.771379,"is_transit":false,"distance":2036,"time":2},{"is_transit":false,"distance":1614,"time":2,"line":5,"station_name":"Taman Kota","i_lat":-6.1587309999999995,"station_id":"TKO","transit":false,"i_long":106.756522}],[{"i_long":107.055722,"i_lat":-6.258864,"station_name":"Tambun","line":1,"distance":0,"station_id":"TB","time":0,"is_transit":false,"transit":false},{"station_name":"Bekasi Timur","time":7,"station_id":"BKST","transit":false,"distance":4460,"i_lat":-6.248029,"i_long":107.016735,"line":1,"is_transit":false},{"station_name":"Bekasi","is_transit":false,"distance":2368,"transit":false,"i_lat":-6.236616,"time":2,"line":1,"i_long":106.997013,"station_id":"BKS"},{"is_transit":false,"i_lat":-6.224515,"i_long":106.977657,"time":4,"line":1,"station_name":"Kranji","transit":false,"distance":2520,"station_id":"KRI"},{"station_name":"Cakung","time":3,"is_transit":false,"distance":3097,"transit":false,"i_lat":-6.219053,"i_long":106.951283,"station_id":"CUK","line":1},{"line":1,"station_name":"Klenderbaru","distance":1385,"time":8,"is_transit":false,"i_lat":-6.217455,"station_id":"KLDB","transit":false,"i_long":106.939679},{"station_id":"BUA","i_long":106.922662,"station_name":"Buaran","line":1,"transit":false,"is_transit":false,"time":1,"distance":1305,"i_lat":-6.215568},{"distance":3100,"i_lat":-6.2135,"transit":false,"station_id":"KLD","i_long":106.899548,"is_transit":false,"line":1,"station_name":"Klender","time":2},{"station_id":"JNG","line":1,"station_name":"Jatinegara","distance":3395,"i_lat":-6.215091,"i_long":106.86807400000001,"time":3,"is_transit":true,"transit":true},{"i_long":106.861737,"station_id":"POK","station_name":"Pondok Jati","distance":1236,"i_lat":-6.209188,"is_transit":false,"line":11,"transit":false,"time":2},{"station_name":"Kramat","distance":1829,"is_transit":false,"i_lat":-6.193792,"i_long":106.855437,"time":2,"transit":false,"line":11,"station_id":"KMT"},{"time":1,"is_transit":false,"station_id":"GST","i_lat":-6.185975,"distance":973,"line":11,"i_long":106.850107,"station_name":"Gang Sentiong","transit":false},{"station_id":"PSE","i_long":106.84368,"transit":false,"time":8,"line":11,"station_name":"Pasar Senen","i_lat":-6.174784,"distance":1567,"is_transit":false},{"station_name":"Kemayoran","transit":false,"time":4,"i_lat":-6.161728,"line":11,"distance":1436,"is_transit":false,"i_long":106.839204,"station_id":"KMO"},{"station_name":"Rajawali","station_id":"RJW","time":5,"is_transit":false,"distance":1901,"transit":false,"i_long":106.836569,"line":11,"i_lat":-6.14505},{"i_long":106.826365,"station_id":"KPB","station_name":"Kampung Bandan","time":3,"is_transit":true,"transit":true,"distance":1444,"line":4,"i_lat":-6.132549},{"distance":1364,"time":3,"transit":true,"i_long":106.812439,"i_lat":-6.137569,"line":2,"station_id":"JAKK","is_transit":true,"station_name":"Jakarta Kota"},{"is_transit":false,"station_name":"Jayakarta","time":4,"i_lat":-6.141205,"i_long":106.820901,"line":2,"transit":false,"station_id":"JAY","distance":1264},{"is_transit":false,"station_id":"MGB","line":2,"distance":1080,"transit":false,"station_name":"Manggabesar","i_long":106.82482,"time":2,"i_lat":-6.149769},{"is_transit":false,"time":2,"i_lat":-6.160725,"distance":906,"station_name":"Sawah Besar","transit":false,"station_id":"SW","i_long":106.827103,"line":2},{"distance":1149,"i_lat":-6.166716,"station_name":"Juanda","time":2,"line":2,"is_transit":false,"transit":false,"i_long":106.828284,"station_id":"JUA"},{"transit":false,"line":2,"station_id":"GDD","station_name":"Gondangdia","is_transit":false,"i_lat":-6.186295,"distance":2015,"i_long":106.832183,"time":4},{"i_long":106.840169,"time":3,"transit":false,"is_transit":false,"i_lat":-6.198556,"distance":1750,"station_name":"Cikini","station_id":"CKI","line":2},{"station_name":"Manggarai","transit":true,"time":4,"is_transit":true,"i_long":106.84912,"distance":1590,"station_id":"MRI","i_lat":-6.209883,"line":2},{"transit":false,"i_lat":-6.202263,"i_long":106.822649,"line":1,"station_id":"SUD","distance":3186,"is_transit":false,"station_name":"Sudirman","time":4},{"i_lat":-6.201433,"distance":280,"transit":false,"i_long":106.819881,"line":1,"is_transit":false,"station_id":"SUDB","time":1,"station_name":"Sudirman Baru"},{"i_long":106.816351,"is_transit":false,"station_name":"Karet","distance":471,"i_lat":-6.20132,"line":1,"time":1,"transit":false,"station_id":"KAT"},{"is_transit":false,"station_name":"Tanah Abang","transit":false,"distance":2029,"time":5,"station_id":"THB","line":1,"i_lat":-6.185545,"i_long":106.811091},{"time":8,"is_transit":true,"distance":3632,"i_long":106.800832,"transit":true,"station_name":"Duri","station_id":"DU","i_lat":-6.155215,"line":1},{"distance":1700,"transit":false,"time":3,"i_lat":-6.162021,"line":5,"i_long":106.788277,"is_transit":false,"station_name":"Grogol","station_id":"GRG"},{"i_long":106.771379,"is_transit":false,"line":5,"distance":2036,"transit":false,"time":2,"station_id":"PSG","station_name":"Pesing","i_lat":-6.161433},{"transit":false,"time":2,"is_transit":false,"i_lat":-6.1587309999999995,"station_id":"TKO","line":5,"i_long":106.756522,"distance":1614,"station_name":"Taman Kota"}]]}