{"data":[[{"i_long":107.055722,"station_id":"TB","transit":false,"time":0,"distance":0,"is_transit":false,"line":1,"station_name":"Tambun","i_lat":-6.258864},{"station_name":"Bekasi Timur","station_id":"BKST","is_transit":false,"time":7,"i_lat":-6.248029,"i_long":107.016735,"distance":4460,"transit":false,"line":1},{"is_transit":false,"time":2,"transit":false,"i_long":106.997013,"station_name":"Bekasi","distance":2368,"station_id":"BKS","i_lat":-6.236616,"line":1},{"station_name":"Kranji","is_transit":false,"time":4,"line":1,"i_lat":-6.224515,"i_long":106.977657,"distance":2520,"transit":false,"station_id":"KRI"},{"time":3,"station_name":"Cakung","transit":false,"line":1,"is_transit":false,"distance":3097,"station_id":"CUK","i_lat":-6.219053,"i_long":106.951283},{"time":8,"line":1,"station_name":"Klenderbaru","i_long":106.939679,"is_transit":false,"transit":false,"i_lat":-6.217455,"distance":1385,"station_id":"KLDB"},{"i_lat":-6.215568,"i_long":106.922662,"distance":1305,"line":1,"station_name":"Buaran","time":1,"station_id":"BUA","transit":false,"is_transit":false},{"is_transit":false,"distance":3100,"i_long":106.899548,"station_name":"Klender","time":2,"i_lat":-6.2135,"line":1,"transit":false,"station_id":"KLD"},{"is_transit":false,"i_lat":-6.215091,"line":1,"time":3,"i_long":106.86807400000001,"station_name":"Jatinegara","distance":3395,"station_id":"JNG","transit":false},{"is_transit":false,"i_lat":-6.212485,"line":1,"i_long":106.858896,"station_id":"MTR","time":2,"transit":false,"station_name":"Matraman","distance":1377},{"is_transit":true,"station_name":"Manggarai","i_lat":-6.209883,"i_long":106.84912,"line":2,"station_id":"MRI","transit":true,"time":2,"distance":1275},{"distance":2610,"station_name":"Tebet","i_lat":-6.226659,"station_id":"TEB","i_long":106.857948,"line":2,"transit":false,"time":4,"is_transit":false},{"line":2,"is_transit":false,"station_id":"CW","i_lat":-6.242512,"i_long":106.856607,"time":2,"station_name":"Cawang","transit":false,"distance":1230},{"station_name":"Duren Kalibata","is_transit":false,"distance":1546,"transit":false,"i_lat":-6.255332,"i_long":106.85449,"time":3,"line":2,"station_id":"DRN"},{"i_long":106.851577,"time":2,"station_id":"PSMB","line":2,"station_name":"Pasar Minggu Baru","is_transit":false,"distance":824,"transit":false,"i_lat":-6.263214},{"i_lat":-6.2842400000000005,"i_long":106.843999,"station_id":"PSM","time":2,"station_name":"Pasar Minggu","transit":false,"is_transit":false,"distance":2380,"line":2},{"station_name":"Tanjung Barat","i_long":106.838896,"distance":2820,"i_lat":-6.3080680000000005,"transit":false,"is_transit":false,"time":4,"line":2,"station_id":"TNT"}],[{"station_name":"Tambun","transit":false,"distance":0,"time":0,"is_transit":false,"station_id":"TB","i_lat":-6.258864,"i_long":107.055722,"line":1},{"station_id":"BKST","is_transit":false,"line":1,"i_lat":-6.248029,"transit":false,"time":7,"i_long":107.016735,"distance":4460,"station_name":"Bekasi Timur"},{"i_lat":-6.236616,"distance":2368,"transit":false,"i_long":106.997013,"line":1,"station_name":"Bekasi","station_id":"BKS","time":2,"is_transit":false},{"station_name":"Kranji","distance":2520,"i_lat":-6.224515,"i_long":106.977657,"station_id":"KRI","line":1,"is_transit":false,"time":4,"transit":false},{"station_id":"CUK","i_long":106.951283,"station_name":"Cakung","i_lat":-6.219053,"transit":false,"is_transit":false,"line":1,"time":3,"distance":3097},{"station_id":"KLDB","i_lat":-6.217455,"distance":1385,"i_long":106.939679,"line":1,"station_name":"Klenderbaru","time":8,"is_transit":false,"transit":false},{"transit":false,"station_name":"Buaran","i_lat":-6.215568,"line":1,"station_id":"BUA","distance":1305,"is_transit":false,"time":1,"i_long":106.922662},{"i_long":106.899548,"distance":3100,"line":1,"station_name":"Klender","time":2,"transit":false,"station_id":"KLD","is_transit":false,"i_lat":-6.2135},{"transit":true,"time":3,"i_lat":-6.215091,"is_transit":true,"distance":3395,"station_name":"Jatinegara","station_id":"JNG","line":1,"i_long":106.86807400000001},{"transit":false,"station_name":"Pondok Jati","station_id":"POK","i_lat":-6.209188,"line":11,"distance":1236,"time":2,"is_transit":false,"i_long":106.861737},{"i_lat":-6.193792,"is_transit":false,"i_long":106.855437,"line":11,"station_name":"Kramat","station_id":"KMT","time":2,"distance":1829,"transit":false},{"i_long":106.850107,"station_name":"Gang Sentiong","station_id":"GST","time":1,"distance":973,"line":11,"transit":false,"i_lat":-6.185975,"is_transit":false},{"is_transit":false,"line":11,"transit":false,"i_long":106.84368,"time":8,"distance":1567,"station_name":"Pasar Senen","i_lat":-6.174784,"station_id":"PSE"},{"distance":1436,"i_lat":-6.161728,"i_long":106.839204,"station_name":"Kemayoran","transit":false,"is_transit":false,"line":11,"time":4,"station_id":"KMO"},{"is_transit":false,"time":5,"station_id":"RJW","i_lat":-6.14505,"transit":false,"distance":1901,"station_name":"Rajawali","line":11,"i_long":106.836569},{"station_name":"Kampung Bandan","distance":1444,"transit":true,"i_long":106.826365,"time":3,"line":4,"i_lat":-6.132549,"station_id":"KPB","is_transit":true},{"i_long":106.79867,"distance":4102,"station_name":"Angke","is_transit":false,"i_lat":-6.144674,"line":1,"transit":false,"station_id":"AK","time":9},{"transit":false,"time":4,"is_transit":false,"i_long":106.800832,"station_name":"Duri","line":1,"i_lat":-6.155215,"station_id":"DU","distance":1230},{"i_lat":-6.185545,"distance":3632,"line":1,"transit":false,"station_id":"THB","is_transit":false,"i_long":106.811091,"station_name":"Tanah Abang","time":8},{"transit":false,"station_id":"KAT","i_lat":-6.20132,"line":1,"station_name":"Karet","is_transit":false,"distance":2029,"i_long":106.816351,"time":5},{"i_lat":-6.201433,"i_long":106.819881,"station_name":"Sudirman Baru","distance":471,"time":1,"is_transit":false,"line":1,"station_id":"SUDB","transit":false},{"station_id":"SUD","i_long":106.822649,"distance":280,"transit":false,"time":1,"line":1,"is_transit":false,"i_lat":-6.202263,"station_name":"Sudirman"},{"line":2,"station_name":"Manggarai","distance":3186,"transit":true,"i_lat":-6.209883,"station_id":"MRI","is_transit":true,"time":4,"i_long":106.84912},{"line":2,"station_id":"TEB","time":4,"i_long":106.857948,"distance":2610,"station_name":"Tebet","i_lat":-6.226659,"is_transit":false,"transit":false},{"is_transit":false,"i_long":106.856607,"station_name":"Cawang","time":2,"transit":false,"distance":1230,"i_lat":-6.242512,"station_id":"CW","line":2},{"distance":1546,"station_name":"Duren Kalibata","line":2,"transit":false,"time":3,"i_lat":-6.255332,"i_long":106.85449,"station_id":"DRN","is_transit":false},{"line":2,"station_id":"PSMB","distance":824,"i_lat":-6.263214,"transit":false,"time":2,"is_transit":false,"i_long":106.851577,"station_name":"Pasar Minggu Baru"},{"i_lat":-6.2842400000000005,"line":2,"distance":2380,"station_name":"Pasar Minggu","time":2,"i_long":106.843999,"station_id":"PSM","is_transit":false,"transit":false},{"station_name":"Tanjung Barat","station_id":"TNT","i_lat":-6.3080680000000005,"time":4,"transit":false,"is_transit":false,"distance":2820,"i_long":106.838896,"line":2}],[{"transit":false,"distance":0,"is_transit":false,"station_id":"TB","time":0,"i_long":107.055722,"i_lat":-6.258864,"station_name":"Tambun","line":1},{"line":1,"time":7,"station_name":"Bekasi Timur","i_long":107.016735,"is_transit":false,"distance":4460,"i_lat":-6.248029,"transit":false,"station_id":"BKST"},{"i_long":106.997013,"transit":false,"is_transit":false,"distance":2368,"line":1,"station_name":"Bekasi","station_id":"BKS","i_lat":-6.236616,"time":2},{"is_transit":false,"i_lat":-6.224515,"line":1,"i_long":106.977657,"station_id":"KRI","distance":2520,"station_name":"Kranji","transit":false,"time":4},{"distance":3097,"transit":false,"station_id":"CUK","is_transit":false,"i_lat":-6.219053,"line":1,"i_long":106.951283,"station_name":"Cakung","time":3},{"time":8,"i_long":106.939679,"is_transit":false,"i_lat":-6.217455,"line":1,"station_id":"KLDB","transit":false,"station_name":"Klenderbaru","distance":1385},{"transit":false,"station_id":"BUA","distance":1305,"line":1,"time":1,"is_transit":false,"i_lat":-6.215568,"i_long":106.922662,"station_name":"Buaran"},{"distance":3100,"line":1,"i_lat":-6.2135,"station_name":"Klender","station_id":"KLD","is_transit":false,"transit":false,"i_long":106.899548,"time":2},{"station_name":"Jatinegara","transit":true,"line":1,"station_id":"JNG","distance":3395,"is_transit":true,"time":3,"i_long":106.86807400000001,"i_lat":-6.215091},{"line":11,"transit":false,"station_name":"Pondok Jati","distance":1236,"is_transit":false,"i_long":106.861737,"station_id":"POK","i_lat":-6.209188,"time":2},{"station_name":"Kramat","transit":false,"i_lat":-6.193792,"distance":1829,"i_long":106.855437,"station_id":"KMT","time":2,"line":11,"is_transit":false},{"time":1,"station_id":"GST","i_long":106.850107,"is_transit":false,"line":11,"distance":973,"i_lat":-6.185975,"station_name":"Gang Sentiong","transit":false},{"i_long":106.84368,"station_name":"Pasar Senen","line":11,"time":8,"transit":false,"station_id":"PSE","distance":1567,"is_transit":false,"i_lat":-6.174784},{"distance":1436,"i_lat":-6.161728,"line":11,"transit":false,"station_id":"KMO","station_name":"Kemayoran","i_long":106.839204,"time":4,"is_transit":false},{"line":11,"is_transit":false,"i_lat":-6.14505,"transit":false,"station_name":"Rajawali","i_long":106.836569,"station_id":"RJW","time":5,"distance":1901},{"i_lat":-6.132549,"is_transit":true,"distance":1444,"i_long":106.826365,"station_id":"KPB","line":4,"time":3,"transit":true,"station_name":"Kampung Bandan"},{"station_name":"Jakarta Kota","station_id":"JAKK","i_long":106.812439,"line":2,"is_transit":true,"distance":1364,"i_lat":-6.137569,"time":3,"transit":true},{"line":2,"station_name":"Jayakarta","transit":false,"station_id":"JAY","is_transit":false,"i_lat":-6.141205,"distance":1264,"time":4,"i_long":106.820901},{"transit":false,"i_lat":-6.149769,"line":2,"time":2,"is_transit":false,"station_name":"Manggabesar","station_id":"MGB","distance":1080,"i_long":106.82482},{"time":2,"i_lat":-6.160725,"distance":906,"is_transit":false,"transit":false,"station_name":"Sawah Besar","i_long":106.827103,"line":2,"station_id":"SW"},{"i_lat":-6.166716,"distance":1149,"is_transit":false,"i_long":106.828284,"station_name":"Juanda","transit":false,"station_id":"JUA","line":2,"time":2},{"distance":2015,"transit":false,"station_id":"GDD","i_lat":-6.186295,"i_long":106.832183,"line":2,"time":4,"is_transit":false,"station_name":"Gondangdia"},{"i_long":106.840169,"transit":false,"line":2,"is_transit":false,"time":3,"distance":1750,"station_name":"Cikini","i_lat":-6.198556,"station_id":"CKI"},{"distance":1590,"transit":false,"time":4,"line":2,"station_name":"Manggarai","i_lat":-6.209883,"i_long":106.84912,"is_transit":false,"station_id":"MRI"},{"time":4,"i_long":106.857948,"line":2,"distance":2610,"station_id":"TEB","i_lat":-6.226659,"is_transit":false,"transit":false,"station_name":"Tebet"},{"is_transit":false,"station_id":"CW","time":2,"line":2,"station_name":"Cawang","distance":1230,"transit":false,"i_lat":-6.242512,"i_long":106.856607},{"station_id":"DRN","distance":1546,"line":2,"transit":false,"is_transit":false,"station_name":"Duren Kalibata","i_long":106.85449,"i_lat":-6.255332,"time":3},{"transit":false,"i_long":106.851577,"station_id":"PSMB","is_transit":false,"line":2,"station_name":"Pasar Minggu Baru","time":2,"distance":824,"i_lat":-6.263214},{"i_long":106.843999,"transit":false,"station_id":"PSM","is_transit":false,"distance":2380,"line":2,"station_name":"Pasar Minggu","time":2,"i_lat":-6.2842400000000005},{"distance":2820,"time":4,"i_long":106.838896,"line":2,"transit":false,"station_id":"TNT","i_lat":-6.3080680000000005,"is_transit":false,"station_name":"Tanjung Barat"}]]}