{"data":[[{"i_long":107.055722,"distance":0,"i_lat":-6.258864,"station_id":"TB","line":1,"station_name":"Tambun","is_transit":false,"time":0,"transit":false},{"line":1,"transit":false,"time":7,"i_long":107.016735,"station_name":"Bekasi Timur","i_lat":-6.248029,"distance":4460,"is_transit":false,"station_id":"BKST"},{"station_id":"BKS","i_lat":-6.236616,"i_long":106.997013,"station_name":"Bekasi","transit":false,"time":2,"distance":2368,"line":1,"is_transit":false},{"station_name":"Kranji","distance":2520,"transit":false,"station_id":"KRI","line":1,"is_transit":false,"i_lat":-6.224515,"i_long":106.977657,"time":4},{"i_long":106.951283,"i_lat":-6.219053,"is_transit":false,"station_id":"CUK","time":3,"distance":3097,"line":1,"transit":false,"station_name":"Cakung"},{"is_transit":false,"i_lat":-6.217455,"distance":1385,"i_long":106.939679,"line":1,"time":8,"station_name":"Klenderbaru","transit":false,"station_id":"KLDB"},{"line":1,"station_id":"BUA","transit":false,"station_name":"Buaran","time":1,"is_transit":false,"i_lat":-6.215568,"distance":1305,"i_long":106.922662},{"is_transit":false,"station_id":"KLD","transit":false,"time":2,"distance":3100,"station_name":"Klender","i_lat":-6.2135,"line":1,"i_long":106.899548},{"i_long":106.86807400000001,"i_lat":-6.215091,"transit":false,"station_name":"Jatinegara","is_transit":false,"time":3,"distance":3395,"station_id":"JNG","line":1},{"station_name":"Matraman","time":2,"is_transit":false,"line":1,"distance":1377,"transit":false,"station_id":"MTR","i_lat":-6.212485,"i_long":106.858896},{"i_long":106.84912,"line":2,"i_lat":-6.209883,"is_transit":false,"transit":false,"distance":1275,"station_name":"Manggarai","station_id":"MRI","time":2},{"is_transit":false,"distance":3186,"i_lat":-6.202263,"time":4,"transit":false,"station_name":"Sudirman","station_id":"SUD","i_long":106.822649,"line":1},{"time":1,"station_id":"SUDB","station_name":"Sudirman Baru","line":1,"transit":false,"is_transit":false,"i_lat":-6.201433,"i_long":106.819881,"distance":280},{"station_name":"Karet","is_transit":false,"distance":471,"line":1,"i_lat":-6.20132,"i_long":106.816351,"transit":false,"station_id":"KAT","time":1},{"is_transit":true,"distance":2029,"time":5,"transit":true,"i_lat":-6.185545,"i_long":106.811091,"line":1,"station_name":"Tanah Abang","station_id":"THB"},{"transit":false,"station_id":"PLM","is_transit":false,"distance":3191,"i_lat":-6.207404,"i_long":106.79689,"line":6,"time":6,"station_name":"Palmerah"},{"station_id":"KBY","station_name":"Kebayoran","line":6,"time":7,"transit":false,"is_transit":false,"distance":3737,"i_long":106.780334,"i_lat":-6.237242},{"is_transit":false,"time":8,"line":6,"station_name":"Pondokranji","transit":false,"i_long":106.74273,"distance":6218,"i_lat":-6.276362,"station_id":"PDJ"},{"i_lat":-6.288927,"line":6,"is_transit":false,"distance":2179,"station_id":"JMU","transit":false,"time":3,"i_long":106.728916,"station_name":"Jurangmangu"},{"distance":1994,"i_long":106.712277,"station_id":"SDM","is_transit":false,"transit":false,"station_name":"Sudimara","line":6,"i_lat":-6.296963,"time":4},{"time":6,"i_lat":-6.314823,"station_name":"Rawa Buntu","is_transit":false,"distance":4566,"i_long":106.675475,"station_id":"RU","line":6,"transit":false},{"is_transit":false,"transit":false,"i_lat":-6.319871,"time":4,"i_long":106.66566,"line":6,"station_name":"Serpong","station_id":"SRP","distance":2413},{"station_name":"Cisauk","transit":false,"station_id":"CSK","is_transit":false,"i_lat":-6.32484,"distance":1784,"time":4,"i_long":106.640411,"line":3},{"i_long":106.617853,"distance":2519,"time":4,"line":3,"station_name":"Cicayur","transit":false,"i_lat":-6.329547,"is_transit":false,"station_id":"CC"},{"station_name":"Parung Panjang","line":6,"i_long":106.568863,"time":8,"distance":5968,"i_lat":-6.3441410000000005,"is_transit":false,"station_id":"PRP","transit":false},{"i_long":106.508482,"transit":false,"station_name":"Cilejit","distance":7025,"i_lat":-6.354349,"time":9,"line":3,"station_id":"CJT","is_transit":false},{"i_long":106.491338,"transit":false,"station_name":"Daru","is_transit":false,"station_id":"DAR","distance":2675,"i_lat":-6.338021,"line":0,"time":6},{"station_name":"Tenjo","transit":false,"station_id":"TEJ","is_transit":false,"line":6,"time":5,"i_lat":-6.327251,"i_long":106.460812,"distance":3902},{"transit":false,"station_id":"TGS","time":5,"i_lat":-6.328533,"distance":2974,"station_name":"Tigaraksa","is_transit":false,"i_long":106.425991,"line":6}],[{"line":1,"transit":false,"is_transit":false,"station_name":"Tambun","station_id":"TB","i_lat":-6.258864,"time":0,"distance":0,"i_long":107.055722},{"i_lat":-6.248029,"is_transit":false,"line":1,"time":7,"transit":false,"i_long":107.016735,"station_id":"BKST","distance":4460,"station_name":"Bekasi Timur"},{"i_long":106.997013,"transit":false,"station_id":"BKS","time":2,"line":1,"distance":2368,"is_transit":false,"station_name":"Bekasi","i_lat":-6.236616},{"station_name":"Kranji","i_lat":-6.224515,"time":4,"distance":2520,"is_transit":false,"transit":false,"station_id":"KRI","line":1,"i_long":106.977657},{"distance":3097,"transit":false,"station_name":"Cakung","station_id":"CUK","i_lat":-6.219053,"is_transit":false,"line":1,"time":3,"i_long":106.951283},{"station_id":"KLDB","line":1,"i_long":106.939679,"station_name":"Klenderbaru","time":8,"distance":1385,"transit":false,"i_lat":-6.217455,"is_transit":false},{"time":1,"i_lat":-6.215568,"station_id":"BUA","transit":false,"station_name":"Buaran","is_transit":false,"line":1,"distance":1305,"i_long":106.922662},{"i_long":106.899548,"line":1,"station_name":"Klender","station_id":"KLD","is_transit":false,"time":2,"distance":3100,"i_lat":-6.2135,"transit":false},{"distance":3395,"station_name":"Jatinegara","i_long":106.86807400000001,"is_transit":true,"station_id":"JNG","time":3,"line":1,"transit":true,"i_lat":-6.215091},{"distance":1236,"is_transit":false,"station_name":"Pondok Jati","i_lat":-6.209188,"line":11,"station_id":"POK","transit":false,"time":2,"i_long":106.861737},{"i_lat":-6.193792,"transit":false,"station_name":"Kramat","is_transit":false,"line":11,"station_id":"KMT","distance":1829,"time":2,"i_long":106.855437},{"time":1,"line":11,"distance":973,"transit":false,"station_name":"Gang Sentiong","station_id":"GST","is_transit":false,"i_lat":-6.185975,"i_long":106.850107},{"station_name":"Pasar Senen","line":11,"i_lat":-6.174784,"i_long":106.84368,"station_id":"PSE","is_transit":false,"distance":1567,"time":8,"transit":false},{"line":11,"time":4,"i_long":106.839204,"station_id":"KMO","i_lat":-6.161728,"station_name":"Kemayoran","transit":false,"is_transit":false,"distance":1436},{"i_long":106.836569,"i_lat":-6.14505,"transit":false,"line":11,"station_name":"Rajawali","distance":1901,"station_id":"RJW","time":5,"is_transit":false},{"i_long":106.826365,"i_lat":-6.132549,"is_transit":true,"time":3,"transit":true,"station_name":"Kampung Bandan","station_id":"KPB","distance":1444,"line":4},{"transit":false,"i_lat":-6.144674,"station_id":"AK","time":9,"i_long":106.79867,"is_transit":false,"line":1,"distance":4102,"station_name":"Angke"},{"is_transit":false,"i_long":106.800832,"time":4,"station_name":"Duri","distance":1230,"transit":false,"i_lat":-6.155215,"line":1,"station_id":"DU"},{"station_name":"Tanah Abang","time":8,"distance":3632,"i_lat":-6.185545,"transit":true,"line":1,"is_transit":true,"i_long":106.811091,"station_id":"THB"},{"transit":false,"i_lat":-6.207404,"is_transit":false,"i_long":106.79689,"station_name":"Palmerah","station_id":"PLM","time":6,"distance":3191,"line":6},{"is_transit":false,"transit":false,"distance":3737,"i_long":106.780334,"i_lat":-6.237242,"station_name":"Kebayoran","line":6,"time":7,"station_id":"KBY"},{"is_transit":false,"line":6,"station_name":"Pondokranji","time":8,"transit":false,"distance":6218,"station_id":"PDJ","i_lat":-6.276362,"i_long":106.74273},{"is_transit":false,"transit":false,"station_id":"JMU","i_lat":-6.288927,"distance":2179,"line":6,"time":3,"i_long":106.728916,"station_name":"Jurangmangu"},{"i_long":106.712277,"line":6,"i_lat":-6.296963,"time":4,"transit":false,"station_id":"SDM","is_transit":false,"distance":1994,"station_name":"Sudimara"},{"station_id":"RU","station_name":"Rawa Buntu","transit":false,"i_lat":-6.314823,"distance":4566,"i_long":106.675475,"is_transit":false,"line":6,"time":6},{"i_long":106.66566,"station_id":"SRP","is_transit":false,"distance":2413,"line":6,"transit":false,"time":4,"station_name":"Serpong","i_lat":-6.319871},{"time":4,"i_lat":-6.32484,"line":3,"is_transit":false,"transit":false,"station_id":"CSK","i_long":106.640411,"station_name":"Cisauk","distance":1784},{"i_long":106.617853,"station_name":"Cicayur","transit":false,"distance":2519,"line":3,"i_lat":-6.329547,"time":4,"is_transit":false,"station_id":"CC"},{"distance":5968,"i_long":106.568863,"station_id":"PRP","transit":false,"is_transit":false,"i_lat":-6.3441410000000005,"station_name":"Parung Panjang","time":8,"line":6},{"station_id":"CJT","distance":7025,"time":9,"transit":false,"i_long":106.508482,"line":3,"station_name":"Cilejit","is_transit":false,"i_lat":-6.354349},{"i_long":106.491338,"transit":false,"station_name":"Daru","station_id":"DAR","i_lat":-6.338021,"is_transit":false,"line":0,"distance":2675,"time":6},{"i_long":106.460812,"i_lat":-6.327251,"line":6,"transit":false,"time":5,"distance":3902,"station_id":"TEJ","is_transit":false,"station_name":"Tenjo"},{"i_lat":-6.328533,"line":6,"distance":2974,"i_long":106.425991,"station_id":"TGS","station_name":"Tigaraksa","is_transit":false,"time":5,"transit":false}],[{"station_id":"TB","distance":0,"transit":false,"is_transit":false,"i_lat":-6.258864,"time":0,"i_long":107.055722,"line":1,"station_name":"Tambun"},{"is_transit":false,"station_name":"Bekasi Timur","i_long":107.016735,"i_lat":-6.248029,"transit":false,"line":1,"time":7,"distance":4460,"station_id":"BKST"},{"station_name":"Bekasi","transit":false,"station_id":"BKS","is_transit":false,"line":1,"distance":2368,"time":2,"i_long":106.997013,"i_lat":-6.236616},{"i_long":106.977657,"station_id":"KRI","is_transit":false,"transit":false,"station_name":"Kranji","distance":2520,"line":1,"i_lat":-6.224515,"time":4},{"transit":false,"time":3,"station_id":"CUK","station_name":"Cakung","i_lat":-6.219053,"i_long":106.951283,"distance":3097,"line":1,"is_transit":false},{"station_id":"KLDB","i_long":106.939679,"station_name":"Klenderbaru","time":8,"transit":false,"is_transit":false,"i_lat":-6.217455,"line":1,"distance":1385},{"transit":false,"distance":1305,"i_long":106.922662,"is_transit":false,"station_id":"BUA","line":1,"time":1,"station_name":"Buaran","i_lat":-6.215568},{"i_lat":-6.2135,"station_name":"Klender","distance":3100,"station_id":"KLD","transit":false,"is_transit":false,"time":2,"i_long":106.899548,"line":1},{"station_name":"Jatinegara","transit":false,"i_long":106.86807400000001,"distance":3395,"i_lat":-6.215091,"time":3,"is_transit":false,"line":1,"station_id":"JNG"},{"station_name":"Matraman","i_lat":-6.212485,"is_transit":false,"transit":false,"station_id":"MTR","time":2,"distance":1377,"i_long":106.858896,"line":1},{"i_long":106.84912,"station_name":"Manggarai","distance":1275,"i_lat":-6.209883,"transit":true,"time":2,"line":2,"is_transit":true,"station_id":"MRI"},{"distance":1590,"station_id":"CKI","i_lat":-6.198556,"time":4,"line":2,"is_transit":false,"i_long":106.840169,"station_name":"Cikini","transit":false},{"transit":false,"station_name":"Gondangdia","station_id":"GDD","line":2,"i_lat":-6.186295,"distance":1750,"time":3,"is_transit":false,"i_long":106.832183},{"station_name":"Juanda","is_transit":false,"i_lat":-6.166716,"transit":false,"time":4,"station_id":"JUA","line":2,"distance":2015,"i_long":106.828284},{"time":2,"i_long":106.827103,"is_transit":false,"station_name":"Sawah Besar","distance":1149,"transit":false,"station_id":"SW","line":2,"i_lat":-6.160725},{"station_name":"Manggabesar","station_id":"MGB","time":2,"i_long":106.82482,"distance":906,"is_transit":false,"i_lat":-6.149769,"line":2,"transit":false},{"i_lat":-6.141205,"line":2,"station_name":"Jayakarta","distance":1080,"is_transit":false,"time":2,"i_long":106.820901,"transit":false,"station_id":"JAY"},{"station_id":"JAKK","time":4,"line":2,"station_name":"Jakarta Kota","distance":1264,"is_transit":true,"i_long":106.812439,"transit":true,"i_lat":-6.137569},{"station_name":"Kampung Bandan","station_id":"KPB","transit":true,"i_lat":-6.132549,"is_transit":true,"i_long":106.826365,"time":3,"distance":1364,"line":4},{"time":9,"station_id":"AK","is_transit":false,"line":1,"i_lat":-6.144674,"station_name":"Angke","i_long":106.79867,"transit":false,"distance":4102},{"time":4,"station_id":"DU","station_name":"Duri","distance":1230,"i_lat":-6.155215,"is_transit":false,"line":1,"i_long":106.800832,"transit":false},{"i_long":106.811091,"line":1,"station_name":"Tanah Abang","station_id":"THB","i_lat":-6.185545,"transit":true,"time":8,"distance":3632,"is_transit":true},{"station_id":"PLM","is_transit":false,"i_lat":-6.207404,"transit":false,"time":6,"i_long":106.79689,"line":6,"station_name":"Palmerah","distance":3191},{"station_name":"Kebayoran","station_id":"KBY","line":6,"time":7,"is_transit":false,"distance":3737,"i_lat":-6.237242,"i_long":106.780334,"transit":false},{"transit":false,"station_id":"PDJ","distance":6218,"station_name":"Pondokranji","i_long":106.74273,"i_lat":-6.276362,"is_transit":false,"time":8,"line":6},{"distance":2179,"station_name":"Jurangmangu","i_lat":-6.288927,"station_id":"JMU","is_transit":false,"i_long":106.728916,"transit":false,"time":3,"line":6},{"i_long":106.712277,"transit":false,"station_id":"SDM","distance":1994,"line":6,"time":4,"is_transit":false,"station_name":"Sudimara","i_lat":-6.296963},{"station_id":"RU","is_transit":false,"transit":false,"time":6,"distance":4566,"i_lat":-6.314823,"line":6,"i_long":106.675475,"station_name":"Rawa Buntu"},{"i_long":106.66566,"station_name":"Serpong","distance":2413,"line":6,"station_id":"SRP","transit":false,"is_transit":false,"time":4,"i_lat":-6.319871},{"distance":1784,"i_long":106.640411,"transit":false,"is_transit":false,"time":4,"station_id":"CSK","i_lat":-6.32484,"line":3,"station_name":"Cisauk"},{"station_name":"Cicayur","time":4,"i_lat":-6.329547,"line":3,"distance":2519,"transit":false,"i_long":106.617853,"is_transit":false,"station_id":"CC"},{"time":8,"station_id":"PRP","distance":5968,"i_lat":-6.3441410000000005,"station_name":"Parung Panjang","is_transit":false,"i_long":106.568863,"line":6,"transit":false},{"transit":false,"station_id":"CJT","is_transit":false,"i_lat":-6.354349,"distance":7025,"i_long":106.508482,"time":9,"line":3,"station_name":"Cilejit"},{"i_long":106.491338,"station_name":"Daru","i_lat":-6.338021,"is_transit":false,"distance":2675,"line":0,"transit":false,"time":6,"station_id":"DAR"},{"is_transit":false,"station_name":"Tenjo","i_lat":-6.327251,"i_long":106.460812,"transit":false,"station_id":"TEJ","distance":3902,"line":6,"time":5},{"station_id":"TGS","line":6,"transit":false,"time":5,"is_transit":false,"station_name":"Tigaraksa","distance":2974,"i_long":106.425991,"i_lat":-6.328533}],[{"station_id":"TB","i_lat":-6.258864,"is_transit":false,"distance":0,"transit":false,"line":1,"i_long":107.055722,"station_name":"Tambun","time":0},{"transit":false,"distance":4460,"time":7,"i_long":107.016735,"line":1,"station_name":"Bekasi Timur","station_id":"BKST","is_transit":false,"i_lat":-6.248029},{"station_name":"Bekasi","transit":false,"station_id":"BKS","time":2,"distance":2368,"i_lat":-6.236616,"is_transit":false,"i_long":106.997013,"line":1},{"time":4,"station_id":"KRI","station_name":"Kranji","i_lat":-6.224515,"transit":false,"i_long":106.977657,"distance":2520,"line":1,"is_transit":false},{"i_long":106.951283,"time":3,"distance":3097,"i_lat":-6.219053,"line":1,"is_transit":false,"station_id":"CUK","transit":false,"station_name":"Cakung"},{"station_id":"KLDB","line":1,"is_transit":false,"i_lat":-6.217455,"i_long":106.939679,"transit":false,"station_name":"Klenderbaru","time":8,"distance":1385},{"i_long":106.922662,"station_name":"Buaran","i_lat":-6.215568,"line":1,"time":1,"station_id":"BUA","is_transit":false,"transit":false,"distance":1305},{"distance":3100,"is_transit":false,"i_long":106.899548,"line":1,"time":2,"transit":false,"station_name":"Klender","station_id":"KLD","i_lat":-6.2135},{"i_lat":-6.215091,"i_long":106.86807400000001,"transit":true,"line":1,"station_name":"Jatinegara","station_id":"JNG","time":3,"is_transit":true,"distance":3395},{"station_name":"Pondok Jati","is_transit":false,"station_id":"POK","time":2,"distance":1236,"i_long":106.861737,"transit":false,"line":11,"i_lat":-6.209188},{"i_long":106.855437,"station_name":"Kramat","is_transit":false,"i_lat":-6.193792,"transit":false,"station_id":"KMT","distance":1829,"line":11,"time":2},{"i_long":106.850107,"time":1,"transit":false,"line":11,"is_transit":false,"station_name":"Gang Sentiong","station_id":"GST","distance":973,"i_lat":-6.185975},{"i_long":106.84368,"station_id":"PSE","distance":1567,"line":11,"station_name":"Pasar Senen","is_transit":false,"transit":false,"time":8,"i_lat":-6.174784},{"time":4,"transit":false,"i_lat":-6.161728,"i_long":106.839204,"line":11,"station_id":"KMO","is_transit":false,"distance":1436,"station_name":"Kemayoran"},{"time":5,"is_transit":false,"i_lat":-6.14505,"transit":false,"distance":1901,"line":11,"station_name":"Rajawali","station_id":"RJW","i_long":106.836569},{"station_id":"KPB","time":3,"station_name":"Kampung Bandan","line":4,"transit":true,"distance":1444,"is_transit":true,"i_long":106.826365,"i_lat":-6.132549},{"transit":true,"distance":1364,"is_transit":true,"time":3,"i_lat":-6.137569,"station_name":"Jakarta Kota","station_id":"JAKK","line":2,"i_long":106.812439},{"i_long":106.820901,"station_id":"JAY","time":4,"line":2,"i_lat":-6.141205,"is_transit":false,"station_name":"Jayakarta","distance":1264,"transit":false},{"transit":false,"i_lat":-6.149769,"station_name":"Manggabesar","time":2,"is_transit":false,"i_long":106.82482,"line":2,"station_id":"MGB","distance":1080},{"i_lat":-6.160725,"station_id":"SW","distance":906,"i_long":106.827103,"is_transit":false,"line":2,"transit":false,"time":2,"station_name":"Sawah Besar"},{"i_lat":-6.166716,"distance":1149,"station_name":"Juanda","transit":false,"station_id":"JUA","is_transit":false,"i_long":106.828284,"line":2,"time":2},{"is_transit":false,"line":2,"station_name":"Gondangdia","distance":2015,"i_long":106.832183,"time":4,"station_id":"GDD","transit":false,"i_lat":-6.186295},{"line":2,"time":3,"station_id":"CKI","i_long":106.840169,"is_transit":false,"distance":1750,"i_lat":-6.198556,"station_name":"Cikini","transit":false},{"distance":1590,"i_lat":-6.209883,"time":4,"transit":true,"is_transit":true,"station_name":"Manggarai","station_id":"MRI","i_long":106.84912,"line":2},{"station_name":"Sudirman","time":4,"i_lat":-6.202263,"distance":3186,"station_id":"SUD","i_long":106.822649,"line":1,"transit":false,"is_transit":false},{"i_lat":-6.201433,"time":1,"station_name":"Sudirman Baru","station_id":"SUDB","distance":280,"is_transit":false,"i_long":106.819881,"line":1,"transit":false},{"station_name":"Karet","transit":false,"distance":471,"time":1,"line":1,"is_transit":false,"i_lat":-6.20132,"i_long":106.816351,"station_id":"KAT"},{"station_name":"Tanah Abang","station_id":"THB","transit":true,"is_transit":true,"i_lat":-6.185545,"i_long":106.811091,"distance":2029,"line":1,"time":5},{"line":6,"station_name":"Palmerah","is_transit":false,"i_lat":-6.207404,"i_long":106.79689,"transit":false,"station_id":"PLM","distance":3191,"time":6},{"i_lat":-6.237242,"time":7,"station_name":"Kebayoran","i_long":106.780334,"station_id":"KBY","transit":false,"is_transit":false,"distance":3737,"line":6},{"station_id":"PDJ","time":8,"distance":6218,"station_name":"Pondokranji","is_transit":false,"i_long":106.74273,"line":6,"i_lat":-6.276362,"transit":false},{"station_name":"Jurangmangu","distance":2179,"i_long":106.728916,"transit":false,"is_transit":false,"i_lat":-6.288927,"time":3,"line":6,"station_id":"JMU"},{"i_lat":-6.296963,"line":6,"i_long":106.712277,"distance":1994,"transit":false,"time":4,"is_transit":false,"station_name":"Sudimara","station_id":"SDM"},{"transit":false,"time":6,"distance":4566,"station_id":"RU","i_long":106.675475,"line":6,"i_lat":-6.314823,"station_name":"Rawa Buntu","is_transit":false},{"is_transit":false,"i_lat":-6.319871,"transit":false,"station_name":"Serpong","distance":2413,"station_id":"SRP","line":6,"time":4,"i_long":106.66566},{"line":3,"station_name":"Cisauk","i_long":106.640411,"station_id":"CSK","is_transit":false,"time":4,"distance":1784,"i_lat":-6.32484,"transit":false},{"line":3,"station_id":"CC","is_transit":false,"distance":2519,"transit":false,"time":4,"station_name":"Cicayur","i_lat":-6.329547,"i_long":106.617853},{"station_id":"PRP","distance":5968,"transit":false,"station_name":"Parung Panjang","time":8,"is_transit":false,"i_lat":-6.3441410000000005,"i_long":106.568863,"line":6},{"line":3,"station_id":"CJT","i_long":106.508482,"distance":7025,"transit":false,"time":9,"is_transit":false,"i_lat":-6.354349,"station_name":"Cilejit"},{"distance":2675,"station_id":"DAR","i_long":106.491338,"line":0,"station_name":"Daru","is_transit":false,"time":6,"i_lat":-6.338021,"transit":false},{"transit":false,"i_lat":-6.327251,"distance":3902,"station_id":"TEJ","is_transit":false,"line":6,"station_name":"Tenjo","i_long":106.460812,"time":5},{"i_long":106.425991,"station_name":"Tigaraksa","is_transit":false,"distance":2974,"station_id":"TGS","i_lat":-6.328533,"transit":false,"time":5,"line":6}]]}