{"data":[[{"line":1,"is_transit":false,"station_id":"TB","station_name":"Tambun","transit":false,"i_lat":-6.258864,"distance":0,"time":0,"i_long":107.055722},{"transit":false,"is_transit":false,"line":0,"distance":4460,"time":7,"station_id":"BKST","i_lat":-6.248029,"i_long":107.016735,"station_name":"Bekasi Timur"},{"distance":2368,"station_name":"Bekasi","is_transit":false,"i_lat":-6.236616,"i_long":106.997013,"line":0,"time":2,"station_id":"BKS","transit":false},{"i_long":106.977657,"station_name":"Kranji","station_id":"KRI","line":1,"transit":false,"time":4,"distance":2520,"i_lat":-6.224515,"is_transit":false},{"transit":false,"station_name":"Cakung","i_lat":-6.219053,"i_long":106.951283,"line":0,"is_transit":false,"time":3,"distance":3097,"station_id":"CUK"},{"distance":1385,"i_lat":-6.217455,"i_long":106.939679,"line":1,"time":8,"is_transit":false,"transit":false,"station_name":"Klenderbaru","station_id":"KLDB"},{"transit":false,"time":1,"station_id":"BUA","i_long":106.922662,"distance":1305,"station_name":"Buaran","line":0,"is_transit":false,"i_lat":-6.215568},{"station_name":"Klender","transit":false,"distance":3100,"is_transit":false,"station_id":"KLD","i_long":106.899548,"time":2,"line":1,"i_lat":-6.2135},{"time":3,"line":0,"i_lat":-6.215091,"transit":false,"distance":3395,"station_id":"JNG","i_long":106.86807400000001,"station_name":"Jatinegara","is_transit":true},{"is_transit":false,"i_lat":-6.212485,"time":2,"station_id":"MTR","i_long":106.858896,"station_name":"Matraman","transit":false,"line":1,"distance":1377},{"is_transit":true,"i_long":106.84912,"line":0,"station_name":"Manggarai","time":2,"station_id":"MRI","i_lat":-6.209883,"distance":1275,"transit":false},{"i_lat":-6.202263,"transit":false,"line":1,"station_name":"Sudirman","distance":3186,"i_long":106.822649,"is_transit":false,"station_id":"SUD","time":4},{"is_transit":false,"station_id":"SUDB","i_lat":-6.201433,"i_long":106.819881,"station_name":"Sudirman Baru","line":1,"transit":false,"distance":280,"time":1},{"i_long":106.816351,"is_transit":false,"line":1,"station_name":"Karet","station_id":"KAT","i_lat":-6.20132,"distance":471,"time":1,"transit":false},{"i_lat":-6.185545,"line":1,"station_name":"Tanah Abang","distance":2029,"transit":true,"time":5,"i_long":106.811091,"is_transit":true,"station_id":"THB"},{"transit":false,"distance":3191,"is_transit":false,"time":6,"station_id":"PLM","i_long":106.79689,"line":6,"station_name":"Palmerah","i_lat":-6.207404},{"i_long":106.780334,"transit":false,"station_id":"KBY","time":7,"line":6,"distance":3737,"station_name":"Kebayoran","is_transit":false,"i_lat":-6.237242},{"transit":false,"distance":6218,"i_long":106.74273,"is_transit":false,"i_lat":-6.276362,"station_name":"Pondokranji","line":6,"station_id":"PDJ","time":8},{"i_long":106.728916,"is_transit":false,"station_id":"JMU","line":6,"transit":false,"distance":2179,"station_name":"Jurangmangu","i_lat":-6.288927,"time":3},{"i_lat":-6.296963,"station_name":"Sudimara","is_transit":false,"distance":1994,"time":4,"transit":false,"station_id":"SDM","i_long":106.712277,"line":6},{"station_name":"Rawa Buntu","i_lat":-6.314823,"is_transit":false,"time":6,"station_id":"RU","i_long":106.675475,"distance":4566,"transit":false,"line":6},{"station_name":"Serpong","time":4,"station_id":"SRP","transit":false,"is_transit":false,"distance":2413,"i_lat":-6.319871,"line":6,"i_long":106.66566},{"station_name":"Cisauk","i_long":106.640411,"distance":1784,"line":0,"is_transit":false,"time":4,"i_lat":-6.32484,"station_id":"CSK","transit":false},{"station_id":"CC","line":0,"is_transit":false,"transit":false,"distance":2519,"i_lat":-6.329547,"i_long":106.617853,"station_name":"Cicayur","time":4},{"transit":false,"distance":5968,"station_id":"PRP","station_name":"Parung Panjang","is_transit":false,"i_lat":-6.3441410000000005,"i_long":106.568863,"line":6,"time":8},{"station_id":"CJT","is_transit":false,"transit":false,"i_long":106.508482,"line":0,"i_lat":-6.354349,"station_name":"Cilejit","distance":7025,"time":9},{"transit":false,"station_name":"Daru","is_transit":false,"station_id":"DAR","i_lat":-6.338021,"distance":2675,"i_long":106.491338,"line":0,"time":6},{"station_id":"TEJ","transit":false,"i_lat":-6.327251,"i_long":106.460812,"station_name":"Tenjo","is_transit":false,"distance":3902,"time":5,"line":6},{"time":5,"i_lat":-6.328533,"is_transit":false,"i_long":106.425991,"line":6,"transit":false,"station_id":"TGS","distance":2974,"station_name":"Tigaraksa"}],[{"distance":0,"station_name":"Tambun","station_id":"TB","i_long":107.055722,"time":0,"i_lat":-6.258864,"line":1,"transit":false,"is_transit":false},{"i_long":107.016735,"time":7,"i_lat":-6.248029,"transit":false,"is_transit":false,"distance":4460,"station_id":"BKST","line":0,"station_name":"Bekasi Timur"},{"station_id":"BKS","i_long":106.997013,"line":0,"transit":false,"distance":2368,"station_name":"Bekasi","i_lat":-6.236616,"time":2,"is_transit":false},{"transit":false,"station_name":"Kranji","i_lat":-6.224515,"is_transit":false,"i_long":106.977657,"station_id":"KRI","line":1,"distance":2520,"time":4},{"station_name":"Cakung","i_long":106.951283,"transit":false,"time":3,"distance":3097,"station_id":"CUK","is_transit":false,"line":0,"i_lat":-6.219053},{"station_id":"KLDB","line":1,"i_lat":-6.217455,"i_long":106.939679,"transit":false,"station_name":"Klenderbaru","distance":1385,"is_transit":false,"time":8},{"distance":1305,"i_lat":-6.215568,"transit":false,"is_transit":false,"i_long":106.922662,"time":1,"station_name":"Buaran","station_id":"BUA","line":0},{"transit":false,"is_transit":false,"distance":3100,"station_name":"Klender","time":2,"station_id":"KLD","i_lat":-6.2135,"line":1,"i_long":106.899548},{"line":0,"station_id":"JNG","i_lat":-6.215091,"is_transit":true,"time":3,"i_long":106.86807400000001,"distance":3395,"transit":true,"station_name":"Jatinegara"},{"time":2,"i_lat":-6.209188,"station_id":"POK","line":11,"i_long":106.861737,"transit":false,"distance":1236,"station_name":"Pondok Jati","is_transit":false},{"transit":false,"i_lat":-6.193792,"distance":1829,"is_transit":false,"station_id":"KMT","station_name":"Kramat","i_long":106.855437,"line":11,"time":2},{"transit":false,"station_id":"GST","i_lat":-6.185975,"line":11,"distance":973,"time":1,"i_long":106.850107,"station_name":"Gang Sentiong","is_transit":false},{"i_long":106.84368,"station_id":"PSE","is_transit":false,"i_lat":-6.174784,"time":8,"line":11,"transit":false,"distance":1567,"station_name":"Pasar Senen"},{"i_lat":-6.161728,"transit":false,"time":4,"i_long":106.839204,"station_id":"KMO","distance":1436,"is_transit":false,"station_name":"Kemayoran","line":11},{"distance":1901,"i_lat":-6.14505,"is_transit":false,"station_name":"Rajawali","time":5,"transit":false,"station_id":"RJW","i_long":106.836569,"line":11},{"station_id":"KPB","i_lat":-6.132549,"transit":true,"is_transit":true,"distance":1444,"station_name":"Kampung Bandan","time":3,"line":0,"i_long":106.826365},{"station_id":"AK","line":0,"is_transit":false,"distance":4102,"transit":false,"station_name":"Angke","time":9,"i_long":106.79867,"i_lat":-6.144674},{"distance":1230,"time":4,"transit":true,"i_long":106.800832,"is_transit":true,"i_lat":-6.155215,"station_name":"Duri","line":1,"station_id":"DU"},{"i_long":106.811091,"distance":3632,"line":1,"station_id":"THB","i_lat":-6.185545,"transit":true,"station_name":"Tanah Abang","time":8,"is_transit":true},{"station_id":"PLM","is_transit":false,"i_long":106.79689,"time":6,"i_lat":-6.207404,"transit":false,"station_name":"Palmerah","line":6,"distance":3191},{"station_id":"KBY","is_transit":false,"transit":false,"i_lat":-6.237242,"distance":3737,"line":6,"station_name":"Kebayoran","time":7,"i_long":106.780334},{"transit":false,"station_id":"PDJ","time":8,"i_lat":-6.276362,"is_transit":false,"distance":6218,"line":6,"station_name":"Pondokranji","i_long":106.74273},{"station_name":"Jurangmangu","distance":2179,"station_id":"JMU","i_lat":-6.288927,"transit":false,"is_transit":false,"time":3,"i_long":106.728916,"line":6},{"station_name":"Sudimara","is_transit":false,"station_id":"SDM","time":4,"transit":false,"distance":1994,"i_lat":-6.296963,"i_long":106.712277,"line":6},{"line":6,"station_id":"RU","transit":false,"i_lat":-6.314823,"i_long":106.675475,"station_name":"Rawa Buntu","distance":4566,"time":6,"is_transit":false},{"station_id":"SRP","time":4,"line":6,"transit":false,"distance":2413,"is_transit":false,"i_lat":-6.319871,"i_long":106.66566,"station_name":"Serpong"},{"i_long":106.640411,"distance":1784,"station_id":"CSK","transit":false,"time":4,"i_lat":-6.32484,"line":0,"station_name":"Cisauk","is_transit":false},{"time":4,"i_lat":-6.329547,"line":0,"station_id":"CC","distance":2519,"transit":false,"is_transit":false,"station_name":"Cicayur","i_long":106.617853},{"station_name":"Parung Panjang","time":8,"transit":false,"is_transit":false,"i_lat":-6.3441410000000005,"station_id":"PRP","i_long":106.568863,"distance":5968,"line":6},{"line":0,"i_lat":-6.354349,"i_long":106.508482,"station_id":"CJT","transit":false,"station_name":"Cilejit","distance":7025,"is_transit":false,"time":9},{"i_long":106.491338,"time":6,"is_transit":false,"station_name":"Daru","transit":false,"distance":2675,"station_id":"DAR","i_lat":-6.338021,"line":0},{"line":6,"station_name":"Tenjo","time":5,"is_transit":false,"i_long":106.460812,"transit":false,"distance":3902,"station_id":"TEJ","i_lat":-6.327251},{"i_lat":-6.328533,"i_long":106.425991,"line":6,"is_transit":false,"station_name":"Tigaraksa","time":5,"transit":false,"distance":2974,"station_id":"TGS"}],[{"i_long":107.055722,"station_id":"TB","transit":false,"distance":0,"i_lat":-6.258864,"station_name":"Tambun","line":1,"is_transit":false,"time":0},{"station_id":"BKST","time":7,"line":0,"transit":false,"distance":4460,"station_name":"Bekasi Timur","i_long":107.016735,"is_transit":false,"i_lat":-6.248029},{"transit":false,"is_transit":false,"time":2,"i_lat":-6.236616,"i_long":106.997013,"line":0,"station_name":"Bekasi","station_id":"BKS","distance":2368},{"distance":2520,"station_name":"Kranji","station_id":"KRI","i_lat":-6.224515,"i_long":106.977657,"transit":false,"line":1,"is_transit":false,"time":4},{"is_transit":false,"distance":3097,"time":3,"i_lat":-6.219053,"station_name":"Cakung","line":0,"i_long":106.951283,"transit":false,"station_id":"CUK"},{"time":8,"station_name":"Klenderbaru","i_long":106.939679,"station_id":"KLDB","is_transit":false,"distance":1385,"transit":false,"i_lat":-6.217455,"line":1},{"transit":false,"station_id":"BUA","is_transit":false,"i_long":106.922662,"line":0,"i_lat":-6.215568,"distance":1305,"station_name":"Buaran","time":1},{"is_transit":false,"time":2,"i_lat":-6.2135,"distance":3100,"station_name":"Klender","i_long":106.899548,"line":1,"station_id":"KLD","transit":false},{"i_long":106.86807400000001,"distance":3395,"station_name":"Jatinegara","station_id":"JNG","time":3,"transit":false,"is_transit":true,"line":0,"i_lat":-6.215091},{"is_transit":false,"line":1,"i_lat":-6.212485,"distance":1377,"time":2,"i_long":106.858896,"station_id":"MTR","transit":false,"station_name":"Matraman"},{"i_lat":-6.209883,"station_id":"MRI","line":0,"time":2,"station_name":"Manggarai","is_transit":true,"transit":true,"i_long":106.84912,"distance":1275},{"is_transit":false,"station_name":"Cikini","line":0,"distance":1590,"i_lat":-6.198556,"transit":false,"station_id":"CKI","i_long":106.840169,"time":4},{"station_id":"GDD","i_long":106.832183,"is_transit":false,"i_lat":-6.186295,"transit":false,"line":2,"station_name":"Gondangdia","time":3,"distance":1750},{"distance":2015,"time":4,"station_name":"Juanda","is_transit":false,"i_lat":-6.166716,"line":2,"station_id":"JUA","transit":false,"i_long":106.828284},{"i_lat":-6.160725,"transit":false,"distance":1149,"line":2,"time":2,"is_transit":false,"station_id":"SW","i_long":106.827103,"station_name":"Sawah Besar"},{"line":2,"transit":false,"station_name":"Manggabesar","i_lat":-6.149769,"distance":906,"station_id":"MGB","time":2,"i_long":106.82482,"is_transit":false},{"transit":false,"line":7,"i_lat":-6.141205,"distance":1080,"is_transit":false,"station_id":"JAY","station_name":"Jayakarta","time":2,"i_long":106.820901},{"station_name":"Jakarta Kota","transit":true,"is_transit":true,"station_id":"JAKK","distance":1264,"i_long":106.812439,"time":4,"i_lat":-6.137569,"line":0},{"distance":1364,"time":3,"station_id":"KPB","line":0,"i_lat":-6.132549,"transit":false,"i_long":106.826365,"is_transit":true,"station_name":"Kampung Bandan"},{"distance":4102,"station_name":"Angke","is_transit":false,"i_lat":-6.144674,"transit":false,"station_id":"AK","line":0,"i_long":106.79867,"time":9},{"line":1,"i_long":106.800832,"station_id":"DU","i_lat":-6.155215,"distance":1230,"is_transit":true,"transit":true,"station_name":"Duri","time":4},{"is_transit":true,"i_lat":-6.185545,"i_long":106.811091,"line":1,"station_name":"Tanah Abang","distance":3632,"time":8,"station_id":"THB","transit":true},{"time":6,"is_transit":false,"station_name":"Palmerah","transit":false,"i_long":106.79689,"line":6,"distance":3191,"i_lat":-6.207404,"station_id":"PLM"},{"distance":3737,"station_id":"KBY","i_long":106.780334,"station_name":"Kebayoran","is_transit":false,"i_lat":-6.237242,"line":6,"transit":false,"time":7},{"transit":false,"distance":6218,"station_id":"PDJ","station_name":"Pondokranji","time":8,"is_transit":false,"i_lat":-6.276362,"i_long":106.74273,"line":6},{"i_long":106.728916,"transit":false,"is_transit":false,"time":3,"line":6,"i_lat":-6.288927,"station_name":"Jurangmangu","distance":2179,"station_id":"JMU"},{"is_transit":false,"transit":false,"line":6,"station_name":"Sudimara","time":4,"station_id":"SDM","distance":1994,"i_long":106.712277,"i_lat":-6.296963},{"i_long":106.675475,"is_transit":false,"line":6,"distance":4566,"time":6,"station_name":"Rawa Buntu","i_lat":-6.314823,"transit":false,"station_id":"RU"},{"line":6,"is_transit":false,"station_name":"Serpong","time":4,"transit":false,"i_lat":-6.319871,"i_long":106.66566,"distance":2413,"station_id":"SRP"},{"station_name":"Cisauk","time":4,"line":0,"i_lat":-6.32484,"is_transit":false,"transit":false,"i_long":106.640411,"station_id":"CSK","distance":1784},{"line":0,"distance":2519,"is_transit":false,"station_name":"Cicayur","station_id":"CC","transit":false,"time":4,"i_long":106.617853,"i_lat":-6.329547},{"i_lat":-6.3441410000000005,"line":6,"time":8,"distance":5968,"station_id":"PRP","transit":false,"station_name":"Parung Panjang","is_transit":false,"i_long":106.568863},{"transit":false,"station_name":"Cilejit","station_id":"CJT","i_lat":-6.354349,"i_long":106.508482,"distance":7025,"line":0,"is_transit":false,"time":9},{"distance":2675,"i_lat":-6.338021,"station_name":"Daru","i_long":106.491338,"line":0,"station_id":"DAR","is_transit":false,"transit":false,"time":6},{"station_id":"TEJ","station_name":"Tenjo","i_long":106.460812,"transit":false,"i_lat":-6.327251,"distance":3902,"line":6,"time":5,"is_transit":false},{"station_name":"Tigaraksa","distance":2974,"i_lat":-6.328533,"is_transit":false,"transit":false,"time":5,"station_id":"TGS","i_long":106.425991,"line":6}],[{"i_long":107.055722,"i_lat":-6.258864,"line":1,"is_transit":false,"station_id":"TB","transit":false,"time":0,"station_name":"Tambun","distance":0},{"i_lat":-6.248029,"station_name":"Bekasi Timur","transit":false,"station_id":"BKST","i_long":107.016735,"distance":4460,"time":7,"is_transit":false,"line":0},{"station_name":"Bekasi","transit":false,"station_id":"BKS","distance":2368,"i_long":106.997013,"line":0,"is_transit":false,"i_lat":-6.236616,"time":2},{"i_lat":-6.224515,"is_transit":false,"transit":false,"station_name":"Kranji","distance":2520,"station_id":"KRI","line":1,"time":4,"i_long":106.977657},{"is_transit":false,"i_long":106.951283,"station_id":"CUK","distance":3097,"line":0,"time":3,"i_lat":-6.219053,"station_name":"Cakung","transit":false},{"transit":false,"station_name":"Klenderbaru","i_long":106.939679,"time":8,"station_id":"KLDB","i_lat":-6.217455,"line":1,"is_transit":false,"distance":1385},{"station_name":"Buaran","line":0,"is_transit":false,"distance":1305,"station_id":"BUA","i_lat":-6.215568,"time":1,"transit":false,"i_long":106.922662},{"transit":false,"line":1,"time":2,"i_lat":-6.2135,"station_name":"Klender","distance":3100,"station_id":"KLD","is_transit":false,"i_long":106.899548},{"distance":3395,"time":3,"station_name":"Jatinegara","is_transit":true,"i_lat":-6.215091,"line":0,"transit":true,"i_long":106.86807400000001,"station_id":"JNG"},{"transit":false,"station_name":"Pondok Jati","distance":1236,"i_lat":-6.209188,"time":2,"i_long":106.861737,"station_id":"POK","line":11,"is_transit":false},{"time":2,"line":11,"is_transit":false,"distance":1829,"i_lat":-6.193792,"transit":false,"i_long":106.855437,"station_name":"Kramat","station_id":"KMT"},{"time":1,"station_id":"GST","i_lat":-6.185975,"i_long":106.850107,"station_name":"Gang Sentiong","distance":973,"line":11,"is_transit":false,"transit":false},{"transit":false,"distance":1567,"station_name":"Pasar Senen","is_transit":false,"time":8,"i_lat":-6.174784,"i_long":106.84368,"line":11,"station_id":"PSE"},{"is_transit":false,"station_id":"KMO","station_name":"Kemayoran","i_lat":-6.161728,"line":11,"transit":false,"distance":1436,"i_long":106.839204,"time":4},{"station_name":"Rajawali","time":5,"is_transit":false,"station_id":"RJW","distance":1901,"line":11,"i_long":106.836569,"transit":false,"i_lat":-6.14505},{"transit":true,"is_transit":true,"line":0,"station_name":"Kampung Bandan","station_id":"KPB","distance":1444,"i_long":106.826365,"i_lat":-6.132549,"time":3},{"i_lat":-6.137569,"station_name":"Jakarta Kota","distance":1364,"i_long":106.812439,"is_transit":true,"time":3,"transit":true,"line":0,"station_id":"JAKK"},{"distance":1264,"station_name":"Jayakarta","line":7,"is_transit":false,"time":4,"i_long":106.820901,"transit":false,"station_id":"JAY","i_lat":-6.141205},{"time":2,"station_name":"Manggabesar","station_id":"MGB","distance":1080,"is_transit":false,"i_long":106.82482,"i_lat":-6.149769,"transit":false,"line":2},{"distance":906,"transit":false,"station_name":"Sawah Besar","is_transit":false,"i_long":106.827103,"i_lat":-6.160725,"line":2,"time":2,"station_id":"SW"},{"distance":1149,"i_long":106.828284,"station_name":"Juanda","transit":false,"i_lat":-6.166716,"is_transit":false,"station_id":"JUA","time":2,"line":2},{"station_id":"GDD","i_lat":-6.186295,"station_name":"Gondangdia","transit":false,"distance":2015,"is_transit":false,"time":4,"i_long":106.832183,"line":2},{"time":3,"station_id":"CKI","transit":false,"i_long":106.840169,"distance":1750,"station_name":"Cikini","line":0,"i_lat":-6.198556,"is_transit":false},{"station_id":"MRI","time":4,"i_long":106.84912,"distance":1590,"station_name":"Manggarai","i_lat":-6.209883,"transit":true,"line":0,"is_transit":true},{"i_lat":-6.202263,"time":4,"station_name":"Sudirman","station_id":"SUD","i_long":106.822649,"distance":3186,"line":1,"transit":false,"is_transit":false},{"i_lat":-6.201433,"line":1,"i_long":106.819881,"transit":false,"station_name":"Sudirman Baru","distance":280,"is_transit":false,"time":1,"station_id":"SUDB"},{"is_transit":false,"station_id":"KAT","i_lat":-6.20132,"distance":471,"i_long":106.816351,"station_name":"Karet","line":1,"transit":false,"time":1},{"station_name":"Tanah Abang","is_transit":true,"time":5,"station_id":"THB","i_long":106.811091,"line":1,"distance":2029,"i_lat":-6.185545,"transit":true},{"time":6,"i_lat":-6.207404,"i_long":106.79689,"station_name":"Palmerah","line":6,"transit":false,"distance":3191,"station_id":"PLM","is_transit":false},{"station_name":"Kebayoran","line":6,"transit":false,"time":7,"station_id":"KBY","i_lat":-6.237242,"is_transit":false,"i_long":106.780334,"distance":3737},{"transit":false,"time":8,"i_long":106.74273,"line":6,"station_id":"PDJ","i_lat":-6.276362,"station_name":"Pondokranji","distance":6218,"is_transit":false},{"station_id":"JMU","is_transit":false,"transit":false,"time":3,"i_long":106.728916,"distance":2179,"station_name":"Jurangmangu","i_lat":-6.288927,"line":6},{"transit":false,"i_lat":-6.296963,"is_transit":false,"line":6,"station_name":"Sudimara","i_long":106.712277,"distance":1994,"time":4,"station_id":"SDM"},{"station_name":"Rawa Buntu","station_id":"RU","i_long":106.675475,"line":6,"distance":4566,"time":6,"transit":false,"is_transit":false,"i_lat":-6.314823},{"i_long":106.66566,"i_lat":-6.319871,"line":6,"distance":2413,"station_name":"Serpong","transit":false,"is_transit":false,"time":4,"station_id":"SRP"},{"i_lat":-6.32484,"line":0,"distance":1784,"station_name":"Cisauk","time":4,"transit":false,"station_id":"CSK","i_long":106.640411,"is_transit":false},{"i_long":106.617853,"station_name":"Cicayur","i_lat":-6.329547,"distance":2519,"station_id":"CC","is_transit":false,"transit":false,"line":0,"time":4},{"transit":false,"time":8,"station_name":"Parung Panjang","i_long":106.568863,"station_id":"PRP","i_lat":-6.3441410000000005,"line":6,"distance":5968,"is_transit":false},{"station_id":"CJT","i_lat":-6.354349,"station_name":"Cilejit","i_long":106.508482,"distance":7025,"is_transit":false,"line":0,"time":9,"transit":false},{"line":0,"station_name":"Daru","distance":2675,"i_lat":-6.338021,"transit":false,"is_transit":false,"time":6,"i_long":106.491338,"station_id":"DAR"},{"transit":false,"distance":3902,"is_transit":false,"time":5,"station_id":"TEJ","station_name":"Tenjo","i_lat":-6.327251,"i_long":106.460812,"line":6},{"station_id":"TGS","distance":2974,"transit":false,"is_transit":false,"time":5,"station_name":"Tigaraksa","line":6,"i_lat":-6.328533,"i_long":106.425991}]]}