{"data":[[{"station_id":"TB","transit":false,"i_long":107.055722,"distance":0,"time":0,"i_lat":-6.258864,"is_transit":false,"station_name":"Tambun","line":1},{"line":0,"time":7,"station_name":"Bekasi Timur","distance":4460,"transit":false,"i_lat":-6.248029,"i_long":107.016735,"is_transit":false,"station_id":"BKST"},{"distance":2368,"transit":false,"is_transit":false,"station_id":"BKS","i_lat":-6.236616,"time":2,"line":0,"i_long":106.997013,"station_name":"Bekasi"},{"station_name":"Kranji","i_long":106.977657,"i_lat":-6.224515,"transit":false,"distance":2520,"line":1,"time":4,"is_transit":false,"station_id":"KRI"},{"i_long":106.951283,"line":0,"i_lat":-6.219053,"time":3,"station_name":"Cakung","distance":3097,"is_transit":false,"station_id":"CUK","transit":false},{"i_lat":-6.217455,"line":1,"is_transit":false,"distance":1385,"station_name":"Klenderbaru","transit":false,"time":8,"i_long":106.939679,"station_id":"KLDB"},{"station_name":"Buaran","i_lat":-6.215568,"transit":false,"station_id":"BUA","time":1,"distance":1305,"is_transit":false,"line":0,"i_long":106.922662},{"is_transit":false,"i_lat":-6.2135,"line":1,"station_id":"KLD","station_name":"Klender","transit":false,"time":2,"i_long":106.899548,"distance":3100},{"distance":3395,"line":0,"i_lat":-6.215091,"i_long":106.86807400000001,"station_id":"JNG","station_name":"Jatinegara","transit":false,"is_transit":true,"time":3},{"line":1,"station_name":"Matraman","i_long":106.858896,"distance":1377,"transit":false,"time":2,"is_transit":false,"station_id":"MTR","i_lat":-6.212485},{"station_id":"MRI","line":0,"time":2,"is_transit":true,"distance":1275,"station_name":"Manggarai","transit":false,"i_lat":-6.209883,"i_long":106.84912},{"is_transit":false,"station_name":"Sudirman","distance":3186,"station_id":"SUD","transit":false,"time":4,"i_long":106.822649,"line":1,"i_lat":-6.202263},{"distance":280,"station_id":"SUDB","i_lat":-6.201433,"line":1,"time":1,"i_long":106.819881,"is_transit":false,"station_name":"Sudirman Baru","transit":false},{"distance":471,"time":1,"station_name":"Karet","is_transit":false,"line":1,"i_long":106.816351,"station_id":"KAT","transit":false,"i_lat":-6.20132},{"distance":2029,"is_transit":true,"transit":false,"time":5,"station_name":"Tanah Abang","i_lat":-6.185545,"station_id":"THB","i_long":106.811091,"line":1},{"i_lat":-6.155215,"time":8,"line":1,"distance":3632,"is_transit":true,"station_id":"DU","transit":true,"i_long":106.800832,"station_name":"Duri"},{"i_lat":-6.162021,"station_name":"Grogol","time":3,"transit":false,"i_long":106.788277,"line":5,"distance":1700,"is_transit":false,"station_id":"GGL"},{"is_transit":false,"line":5,"i_lat":-6.161433,"station_id":"PSG","i_long":106.771379,"transit":false,"distance":2036,"station_name":"Pesing","time":2},{"time":2,"station_id":"TKO","line":5,"distance":1614,"i_long":106.756522,"transit":false,"is_transit":false,"station_name":"Taman Kota","i_lat":-6.1587309999999995}],[{"time":0,"transit":false,"i_long":107.055722,"i_lat":-6.258864,"distance":0,"line":1,"station_name":"Tambun","is_transit":false,"station_id":"TB"},{"station_name":"Bekasi Timur","distance":4460,"i_lat":-6.248029,"line":0,"is_transit":false,"transit":false,"i_long":107.016735,"time":7,"station_id":"BKST"},{"i_lat":-6.236616,"i_long":106.997013,"time":2,"station_id":"BKS","station_name":"Bekasi","line":0,"transit":false,"distance":2368,"is_transit":false},{"time":4,"i_lat":-6.224515,"i_long":106.977657,"distance":2520,"is_transit":false,"station_id":"KRI","station_name":"Kranji","line":1,"transit":false},{"i_long":106.951283,"i_lat":-6.219053,"line":0,"is_transit":false,"station_name":"Cakung","distance":3097,"time":3,"transit":false,"station_id":"CUK"},{"distance":1385,"i_long":106.939679,"time":8,"i_lat":-6.217455,"line":1,"is_transit":false,"station_name":"Klenderbaru","station_id":"KLDB","transit":false},{"i_lat":-6.215568,"station_id":"BUA","distance":1305,"transit":false,"station_name":"Buaran","time":1,"is_transit":false,"line":0,"i_long":106.922662},{"time":2,"station_id":"KLD","line":1,"i_long":106.899548,"distance":3100,"i_lat":-6.2135,"is_transit":false,"station_name":"Klender","transit":false},{"line":0,"station_name":"Jatinegara","station_id":"JNG","is_transit":true,"i_lat":-6.215091,"transit":true,"time":3,"distance":3395,"i_long":106.86807400000001},{"i_long":106.861737,"line":11,"time":2,"station_name":"Pondok Jati","distance":1236,"i_lat":-6.209188,"station_id":"POK","transit":false,"is_transit":false},{"station_id":"KMT","station_name":"Kramat","distance":1829,"i_long":106.855437,"time":2,"is_transit":false,"i_lat":-6.193792,"transit":false,"line":11},{"station_name":"Gang Sentiong","is_transit":false,"transit":false,"distance":973,"i_lat":-6.185975,"i_long":106.850107,"station_id":"GST","time":1,"line":11},{"transit":false,"station_id":"PSE","station_name":"Pasar Senen","line":11,"time":8,"i_lat":-6.174784,"i_long":106.84368,"distance":1567,"is_transit":false},{"i_lat":-6.161728,"i_long":106.839204,"transit":false,"is_transit":false,"station_name":"Kemayoran","time":4,"line":11,"station_id":"KMO","distance":1436},{"distance":1901,"i_lat":-6.14505,"station_name":"Rajawali","i_long":106.836569,"transit":false,"line":11,"station_id":"RJW","time":5,"is_transit":false},{"station_name":"Kampung Bandan","line":0,"distance":1444,"is_transit":true,"i_long":106.826365,"time":3,"transit":true,"i_lat":-6.132549,"station_id":"KPB"},{"station_id":"AK","time":9,"distance":4102,"is_transit":false,"i_long":106.79867,"line":0,"i_lat":-6.144674,"transit":false,"station_name":"Angke"},{"i_long":106.800832,"is_transit":true,"station_name":"Duri","distance":1230,"station_id":"DU","transit":true,"time":4,"line":1,"i_lat":-6.155215},{"time":3,"distance":1700,"i_lat":-6.162021,"line":5,"station_name":"Grogol","station_id":"GGL","is_transit":false,"transit":false,"i_long":106.788277},{"line":5,"distance":2036,"transit":false,"is_transit":false,"time":2,"station_id":"PSG","station_name":"Pesing","i_lat":-6.161433,"i_long":106.771379},{"is_transit":false,"i_lat":-6.1587309999999995,"time":2,"transit":false,"station_id":"TKO","distance":1614,"i_long":106.756522,"line":5,"station_name":"Taman Kota"}],[{"is_transit":false,"station_name":"Tambun","line":1,"transit":false,"distance":0,"time":0,"i_lat":-6.258864,"i_long":107.055722,"station_id":"TB"},{"is_transit":false,"time":7,"transit":false,"i_long":107.016735,"distance":4460,"station_id":"BKST","station_name":"Bekasi Timur","line":0,"i_lat":-6.248029},{"time":2,"transit":false,"i_long":106.997013,"distance":2368,"line":0,"is_transit":false,"i_lat":-6.236616,"station_id":"BKS","station_name":"Bekasi"},{"is_transit":false,"station_id":"KRI","i_lat":-6.224515,"transit":false,"distance":2520,"time":4,"i_long":106.977657,"line":1,"station_name":"Kranji"},{"station_id":"CUK","distance":3097,"station_name":"Cakung","i_lat":-6.219053,"is_transit":false,"i_long":106.951283,"line":0,"transit":false,"time":3},{"distance":1385,"is_transit":false,"transit":false,"time":8,"station_name":"Klenderbaru","line":1,"station_id":"KLDB","i_long":106.939679,"i_lat":-6.217455},{"i_lat":-6.215568,"distance":1305,"station_name":"Buaran","i_long":106.922662,"time":1,"line":0,"transit":false,"is_transit":false,"station_id":"BUA"},{"i_lat":-6.2135,"station_name":"Klender","station_id":"KLD","time":2,"is_transit":false,"i_long":106.899548,"line":1,"transit":false,"distance":3100},{"distance":3395,"transit":false,"station_name":"Jatinegara","station_id":"JNG","time":3,"is_transit":true,"i_long":106.86807400000001,"line":0,"i_lat":-6.215091},{"i_long":106.858896,"transit":false,"distance":1377,"station_name":"Matraman","is_transit":false,"time":2,"station_id":"MTR","line":1,"i_lat":-6.212485},{"station_id":"MRI","transit":true,"distance":1275,"time":2,"station_name":"Manggarai","i_lat":-6.209883,"i_long":106.84912,"line":0,"is_transit":true},{"transit":false,"distance":1590,"time":4,"is_transit":false,"i_long":106.840169,"line":0,"station_id":"CKI","station_name":"Cikini","i_lat":-6.198556},{"is_transit":false,"time":3,"transit":false,"station_name":"Gondangdia","station_id":"GDD","i_lat":-6.186295,"distance":1750,"line":2,"i_long":106.832183},{"is_transit":false,"station_id":"JUA","i_lat":-6.166716,"time":4,"transit":false,"station_name":"Juanda","line":2,"i_long":106.828284,"distance":2015},{"line":2,"distance":1149,"station_id":"SW","time":2,"station_name":"Sawah Besar","i_lat":-6.160725,"is_transit":false,"transit":false,"i_long":106.827103},{"i_lat":-6.149769,"is_transit":false,"station_name":"Manggabesar","i_long":106.82482,"line":2,"time":2,"station_id":"MGB","transit":false,"distance":906},{"is_transit":false,"time":2,"i_lat":-6.141205,"station_name":"Jayakarta","i_long":106.820901,"line":7,"station_id":"JAY","distance":1080,"transit":false},{"time":4,"station_name":"Jakarta Kota","i_lat":-6.137569,"transit":true,"is_transit":true,"station_id":"JAKK","line":0,"i_long":106.812439,"distance":1264},{"transit":false,"i_lat":-6.132549,"time":3,"i_long":106.826365,"distance":1364,"is_transit":true,"station_id":"KPB","station_name":"Kampung Bandan","line":0},{"transit":false,"time":9,"line":0,"i_long":106.79867,"distance":4102,"is_transit":false,"i_lat":-6.144674,"station_id":"AK","station_name":"Angke"},{"station_name":"Duri","time":4,"distance":1230,"i_long":106.800832,"is_transit":true,"i_lat":-6.155215,"transit":true,"station_id":"DU","line":1},{"distance":1700,"is_transit":false,"station_name":"Grogol","time":3,"transit":false,"i_lat":-6.162021,"line":5,"i_long":106.788277,"station_id":"GGL"},{"time":2,"i_lat":-6.161433,"line":5,"distance":2036,"station_name":"Pesing","transit":false,"station_id":"PSG","is_transit":false,"i_long":106.771379},{"i_long":106.756522,"distance":1614,"station_id":"TKO","is_transit":false,"time":2,"transit":false,"station_name":"Taman Kota","i_lat":-6.1587309999999995,"line":5}],[{"transit":false,"station_name":"Tambun","i_long":107.055722,"station_id":"TB","distance":0,"time":0,"i_lat":-6.258864,"is_transit":false,"line":1},{"i_lat":-6.248029,"station_name":"Bekasi Timur","transit":false,"distance":4460,"time":7,"i_long":107.016735,"is_transit":false,"line":0,"station_id":"BKST"},{"line":0,"station_name":"Bekasi","transit":false,"time":2,"i_long":106.997013,"distance":2368,"i_lat":-6.236616,"is_transit":false,"station_id":"BKS"},{"transit":false,"i_long":106.977657,"distance":2520,"station_name":"Kranji","station_id":"KRI","line":1,"time":4,"i_lat":-6.224515,"is_transit":false},{"station_id":"CUK","is_transit":false,"i_lat":-6.219053,"station_name":"Cakung","time":3,"i_long":106.951283,"line":0,"distance":3097,"transit":false},{"time":8,"transit":false,"station_id":"KLDB","is_transit":false,"i_lat":-6.217455,"distance":1385,"line":1,"station_name":"Klenderbaru","i_long":106.939679},{"distance":1305,"station_id":"BUA","transit":false,"i_lat":-6.215568,"station_name":"Buaran","line":0,"time":1,"is_transit":false,"i_long":106.922662},{"is_transit":false,"line":1,"station_name":"Klender","time":2,"transit":false,"i_long":106.899548,"station_id":"KLD","i_lat":-6.2135,"distance":3100},{"time":3,"i_lat":-6.215091,"line":0,"is_transit":true,"station_id":"JNG","transit":true,"i_long":106.86807400000001,"station_name":"Jatinegara","distance":3395},{"transit":false,"i_long":106.861737,"station_name":"Pondok Jati","station_id":"POK","distance":1236,"i_lat":-6.209188,"line":11,"is_transit":false,"time":2},{"station_name":"Kramat","transit":false,"distance":1829,"station_id":"KMT","i_lat":-6.193792,"time":2,"line":11,"is_transit":false,"i_long":106.855437},{"station_id":"GST","line":11,"i_lat":-6.185975,"time":1,"transit":false,"station_name":"Gang Sentiong","distance":973,"i_long":106.850107,"is_transit":false},{"distance":1567,"line":11,"time":8,"station_name":"Pasar Senen","station_id":"PSE","transit":false,"i_lat":-6.174784,"i_long":106.84368,"is_transit":false},{"is_transit":false,"i_lat":-6.161728,"station_id":"KMO","time":4,"line":11,"transit":false,"i_long":106.839204,"distance":1436,"station_name":"Kemayoran"},{"is_transit":false,"station_id":"RJW","station_name":"Rajawali","line":11,"time":5,"i_lat":-6.14505,"distance":1901,"transit":false,"i_long":106.836569},{"station_name":"Kampung Bandan","time":3,"station_id":"KPB","i_long":106.826365,"distance":1444,"transit":true,"i_lat":-6.132549,"line":0,"is_transit":true},{"transit":true,"i_long":106.812439,"time":3,"line":0,"i_lat":-6.137569,"station_id":"JAKK","is_transit":true,"distance":1364,"station_name":"Jakarta Kota"},{"line":7,"distance":1264,"station_id":"JAY","time":4,"station_name":"Jayakarta","transit":false,"i_long":106.820901,"is_transit":false,"i_lat":-6.141205},{"is_transit":false,"i_long":106.82482,"transit":false,"station_name":"Manggabesar","time":2,"line":2,"station_id":"MGB","i_lat":-6.149769,"distance":1080},{"line":2,"i_long":106.827103,"station_id":"SW","is_transit":false,"distance":906,"station_name":"Sawah Besar","time":2,"i_lat":-6.160725,"transit":false},{"station_name":"Juanda","is_transit":false,"line":2,"time":2,"i_lat":-6.166716,"transit":false,"distance":1149,"station_id":"JUA","i_long":106.828284},{"transit":false,"station_name":"Gondangdia","distance":2015,"station_id":"GDD","line":2,"is_transit":false,"time":4,"i_lat":-6.186295,"i_long":106.832183},{"i_long":106.840169,"distance":1750,"time":3,"station_id":"CKI","station_name":"Cikini","transit":false,"i_lat":-6.198556,"line":0,"is_transit":false},{"distance":1590,"station_id":"MRI","is_transit":true,"transit":true,"line":0,"i_lat":-6.209883,"i_long":106.84912,"station_name":"Manggarai","time":4},{"transit":false,"station_id":"SUD","is_transit":false,"time":4,"distance":3186,"station_name":"Sudirman","i_long":106.822649,"i_lat":-6.202263,"line":1},{"time":1,"distance":280,"station_id":"SUDB","transit":false,"station_name":"Sudirman Baru","i_lat":-6.201433,"is_transit":false,"line":1,"i_long":106.819881},{"line":1,"i_lat":-6.20132,"distance":471,"station_name":"Karet","i_long":106.816351,"time":1,"station_id":"KAT","transit":false,"is_transit":false},{"transit":false,"distance":2029,"time":5,"is_transit":true,"station_name":"Tanah Abang","station_id":"THB","i_long":106.811091,"i_lat":-6.185545,"line":1},{"station_id":"DU","station_name":"Duri","line":1,"distance":3632,"i_lat":-6.155215,"i_long":106.800832,"transit":true,"is_transit":true,"time":8},{"transit":false,"station_name":"Grogol","distance":1700,"i_lat":-6.162021,"is_transit":false,"time":3,"i_long":106.788277,"line":5,"station_id":"GGL"},{"i_lat":-6.161433,"distance":2036,"i_long":106.771379,"time":2,"station_id":"PSG","line":5,"is_transit":false,"transit":false,"station_name":"Pesing"},{"i_long":106.756522,"station_name":"Taman Kota","line":5,"station_id":"TKO","is_transit":false,"i_lat":-6.1587309999999995,"distance":1614,"transit":false,"time":2}]]}