{"data":[[{"time":0,"i_lat":-6.258864,"station_name":"Tambun","is_transit":false,"line":1,"station_id":"TB","transit":false,"distance":0,"i_long":107.055722},{"i_long":107.016735,"station_name":"Bekasi Timur","i_lat":-6.248029,"line":1,"time":7,"is_transit":false,"station_id":"BKST","transit":false,"distance":4460},{"distance":2368,"i_lat":-6.236616,"line":1,"is_transit":false,"i_long":106.997013,"time":2,"transit":false,"station_name":"Bekasi","station_id":"BKS"},{"i_lat":-6.224515,"transit":false,"station_name":"Kranji","station_id":"KRI","time":4,"distance":2520,"is_transit":false,"i_long":106.977657,"line":1},{"i_lat":-6.219053,"station_id":"CUK","distance":3097,"is_transit":false,"time":3,"transit":false,"station_name":"Cakung","i_long":106.951283,"line":1},{"time":8,"transit":false,"line":1,"i_lat":-6.217455,"distance":1385,"station_id":"KLDB","is_transit":false,"station_name":"Klenderbaru","i_long":106.939679},{"i_lat":-6.215568,"i_long":106.922662,"station_name":"Buaran","distance":1305,"station_id":"BUA","transit":false,"time":1,"is_transit":false,"line":1},{"station_id":"KLD","time":2,"transit":false,"line":1,"distance":3100,"is_transit":false,"i_long":106.899548,"station_name":"Klender","i_lat":-6.2135},{"distance":3395,"station_id":"JNG","transit":false,"time":3,"station_name":"Jatinegara","i_lat":-6.215091,"is_transit":false,"line":1,"i_long":106.86807400000001},{"station_id":"MTR","station_name":"Matraman","i_lat":-6.212485,"distance":1377,"time":2,"transit":false,"i_long":106.858896,"line":1,"is_transit":false},{"time":2,"distance":1275,"station_name":"Manggarai","i_long":106.84912,"line":2,"transit":false,"station_id":"MRI","is_transit":false,"i_lat":-6.209883},{"transit":false,"i_lat":-6.202263,"is_transit":false,"station_id":"SUD","line":1,"station_name":"Sudirman","i_long":106.822649,"time":4,"distance":3186},{"station_id":"SUDB","transit":false,"line":1,"i_long":106.819881,"i_lat":-6.201433,"distance":280,"is_transit":false,"time":1,"station_name":"Sudirman Baru"},{"i_long":106.816351,"distance":471,"station_name":"Karet","time":1,"transit":false,"line":1,"i_lat":-6.20132,"is_transit":false,"station_id":"KAT"},{"i_lat":-6.185545,"line":1,"time":5,"station_id":"THB","transit":false,"distance":2029,"i_long":106.811091,"station_name":"Tanah Abang","is_transit":false},{"distance":3632,"time":8,"station_id":"DU","is_transit":true,"station_name":"Duri","i_long":106.800832,"i_lat":-6.155215,"transit":true,"line":1},{"time":3,"line":5,"is_transit":false,"i_lat":-6.162021,"transit":false,"distance":1700,"i_long":106.788277,"station_id":"GGL","station_name":"Grogol"},{"transit":false,"line":5,"i_lat":-6.161433,"time":2,"i_long":106.771379,"is_transit":false,"distance":2036,"station_name":"Pesing","station_id":"PSG"},{"is_transit":false,"transit":false,"station_name":"Taman Kota","i_long":106.756522,"distance":1614,"i_lat":-6.1587309999999995,"line":5,"time":2,"station_id":"TKO"}],[{"station_id":"TB","distance":0,"station_name":"Tambun","is_transit":false,"i_long":107.055722,"transit":false,"line":1,"i_lat":-6.258864,"time":0},{"station_id":"BKST","transit":false,"line":1,"is_transit":false,"station_name":"Bekasi Timur","i_lat":-6.248029,"time":7,"distance":4460,"i_long":107.016735},{"station_name":"Bekasi","time":2,"line":1,"station_id":"BKS","i_long":106.997013,"is_transit":false,"i_lat":-6.236616,"transit":false,"distance":2368},{"station_name":"Kranji","transit":false,"is_transit":false,"i_lat":-6.224515,"station_id":"KRI","i_long":106.977657,"distance":2520,"time":4,"line":1},{"time":3,"transit":false,"distance":3097,"is_transit":false,"line":1,"i_long":106.951283,"station_name":"Cakung","station_id":"CUK","i_lat":-6.219053},{"distance":1385,"transit":false,"line":1,"station_name":"Klenderbaru","is_transit":false,"i_lat":-6.217455,"i_long":106.939679,"time":8,"station_id":"KLDB"},{"time":1,"transit":false,"station_name":"Buaran","is_transit":false,"i_long":106.922662,"line":1,"i_lat":-6.215568,"distance":1305,"station_id":"BUA"},{"distance":3100,"i_long":106.899548,"station_id":"KLD","line":1,"time":2,"transit":false,"is_transit":false,"station_name":"Klender","i_lat":-6.2135},{"i_lat":-6.215091,"station_id":"JNG","distance":3395,"transit":true,"line":1,"time":3,"is_transit":true,"i_long":106.86807400000001,"station_name":"Jatinegara"},{"is_transit":false,"transit":false,"i_lat":-6.209188,"station_id":"POK","time":2,"line":11,"station_name":"Pondok Jati","i_long":106.861737,"distance":1236},{"line":11,"is_transit":false,"i_lat":-6.193792,"station_id":"KMT","distance":1829,"time":2,"station_name":"Kramat","i_long":106.855437,"transit":false},{"distance":973,"station_name":"Gang Sentiong","is_transit":false,"time":1,"line":11,"transit":false,"i_long":106.850107,"station_id":"GST","i_lat":-6.185975},{"station_id":"PSE","is_transit":false,"i_lat":-6.174784,"transit":false,"line":11,"station_name":"Pasar Senen","distance":1567,"i_long":106.84368,"time":8},{"i_lat":-6.161728,"i_long":106.839204,"is_transit":false,"transit":false,"distance":1436,"time":4,"line":11,"station_name":"Kemayoran","station_id":"KMO"},{"line":11,"is_transit":false,"station_id":"RJW","station_name":"Rajawali","distance":1901,"time":5,"i_lat":-6.14505,"i_long":106.836569,"transit":false},{"i_long":106.826365,"station_name":"Kampung Bandan","i_lat":-6.132549,"line":4,"transit":true,"station_id":"KPB","time":3,"distance":1444,"is_transit":true},{"transit":false,"is_transit":false,"station_name":"Angke","distance":4102,"time":9,"i_long":106.79867,"line":1,"i_lat":-6.144674,"station_id":"AK"},{"is_transit":true,"i_lat":-6.155215,"line":1,"station_id":"DU","transit":true,"i_long":106.800832,"distance":1230,"time":4,"station_name":"Duri"},{"station_id":"GGL","i_long":106.788277,"transit":false,"line":5,"is_transit":false,"distance":1700,"i_lat":-6.162021,"time":3,"station_name":"Grogol"},{"line":5,"i_long":106.771379,"time":2,"station_id":"PSG","is_transit":false,"transit":false,"i_lat":-6.161433,"station_name":"Pesing","distance":2036},{"station_id":"TKO","transit":false,"distance":1614,"time":2,"is_transit":false,"i_lat":-6.1587309999999995,"i_long":106.756522,"station_name":"Taman Kota","line":5}],[{"station_name":"Tambun","station_id":"TB","time":0,"transit":false,"i_lat":-6.258864,"i_long":107.055722,"line":1,"distance":0,"is_transit":false},{"is_transit":false,"i_lat":-6.248029,"distance":4460,"time":7,"transit":false,"station_id":"BKST","line":1,"i_long":107.016735,"station_name":"Bekasi Timur"},{"time":2,"is_transit":false,"i_long":106.997013,"station_id":"BKS","transit":false,"i_lat":-6.236616,"station_name":"Bekasi","distance":2368,"line":1},{"transit":false,"is_transit":false,"station_id":"KRI","station_name":"Kranji","i_lat":-6.224515,"i_long":106.977657,"time":4,"distance":2520,"line":1},{"line":1,"distance":3097,"transit":false,"time":3,"is_transit":false,"i_lat":-6.219053,"station_name":"Cakung","station_id":"CUK","i_long":106.951283},{"station_name":"Klenderbaru","time":8,"i_lat":-6.217455,"i_long":106.939679,"line":1,"is_transit":false,"station_id":"KLDB","transit":false,"distance":1385},{"i_lat":-6.215568,"distance":1305,"i_long":106.922662,"station_name":"Buaran","station_id":"BUA","transit":false,"is_transit":false,"line":1,"time":1},{"is_transit":false,"i_lat":-6.2135,"station_id":"KLD","i_long":106.899548,"station_name":"Klender","line":1,"time":2,"distance":3100,"transit":false},{"line":1,"station_id":"JNG","distance":3395,"time":3,"transit":false,"i_lat":-6.215091,"station_name":"Jatinegara","is_transit":false,"i_long":106.86807400000001},{"station_id":"MTR","time":2,"is_transit":false,"i_lat":-6.212485,"line":1,"i_long":106.858896,"station_name":"Matraman","transit":false,"distance":1377},{"time":2,"distance":1275,"transit":true,"is_transit":true,"station_id":"MRI","line":2,"station_name":"Manggarai","i_lat":-6.209883,"i_long":106.84912},{"distance":1590,"i_long":106.840169,"station_id":"CKI","line":2,"transit":false,"station_name":"Cikini","time":4,"i_lat":-6.198556,"is_transit":false},{"i_long":106.832183,"is_transit":false,"line":2,"station_name":"Gondangdia","time":3,"i_lat":-6.186295,"transit":false,"station_id":"GDD","distance":1750},{"i_long":106.828284,"station_id":"JUA","station_name":"Juanda","time":4,"line":2,"transit":false,"distance":2015,"is_transit":false,"i_lat":-6.166716},{"is_transit":false,"station_name":"Sawah Besar","line":2,"i_lat":-6.160725,"station_id":"SW","transit":false,"i_long":106.827103,"time":2,"distance":1149},{"transit":false,"distance":906,"station_name":"Manggabesar","i_long":106.82482,"time":2,"line":2,"station_id":"MGB","i_lat":-6.149769,"is_transit":false},{"transit":false,"line":2,"station_id":"JAY","i_lat":-6.141205,"distance":1080,"station_name":"Jayakarta","i_long":106.820901,"time":2,"is_transit":false},{"station_name":"Jakarta Kota","distance":1264,"line":2,"i_long":106.812439,"time":4,"transit":true,"is_transit":true,"station_id":"JAKK","i_lat":-6.137569},{"distance":1364,"is_transit":true,"i_long":106.826365,"line":4,"station_id":"KPB","time":3,"i_lat":-6.132549,"transit":true,"station_name":"Kampung Bandan"},{"transit":false,"station_id":"AK","i_lat":-6.144674,"distance":4102,"line":1,"time":9,"station_name":"Angke","is_transit":false,"i_long":106.79867},{"i_long":106.800832,"line":1,"time":4,"station_id":"DU","distance":1230,"i_lat":-6.155215,"station_name":"Duri","transit":true,"is_transit":true},{"transit":false,"is_transit":false,"distance":1700,"station_id":"GGL","time":3,"line":5,"station_name":"Grogol","i_long":106.788277,"i_lat":-6.162021},{"i_lat":-6.161433,"distance":2036,"transit":false,"station_name":"Pesing","is_transit":false,"i_long":106.771379,"line":5,"time":2,"station_id":"PSG"},{"i_long":106.756522,"distance":1614,"time":2,"station_id":"TKO","is_transit":false,"i_lat":-6.1587309999999995,"line":5,"station_name":"Taman Kota","transit":false}],[{"station_id":"TB","line":1,"time":0,"transit":false,"is_transit":false,"i_long":107.055722,"station_name":"Tambun","distance":0,"i_lat":-6.258864},{"station_id":"BKST","distance":4460,"station_name":"Bekasi Timur","time":7,"transit":false,"is_transit":false,"line":1,"i_lat":-6.248029,"i_long":107.016735},{"i_lat":-6.236616,"time":2,"transit":false,"station_id":"BKS","distance":2368,"is_transit":false,"i_long":106.997013,"line":1,"station_name":"Bekasi"},{"is_transit":false,"station_name":"Kranji","station_id":"KRI","distance":2520,"transit":false,"time":4,"line":1,"i_long":106.977657,"i_lat":-6.224515},{"i_lat":-6.219053,"station_name":"Cakung","i_long":106.951283,"line":1,"time":3,"station_id":"CUK","distance":3097,"transit":false,"is_transit":false},{"i_long":106.939679,"distance":1385,"line":1,"station_id":"KLDB","is_transit":false,"i_lat":-6.217455,"time":8,"transit":false,"station_name":"Klenderbaru"},{"i_lat":-6.215568,"is_transit":false,"time":1,"distance":1305,"station_name":"Buaran","i_long":106.922662,"transit":false,"line":1,"station_id":"BUA"},{"transit":false,"i_long":106.899548,"distance":3100,"time":2,"line":1,"station_id":"KLD","station_name":"Klender","i_lat":-6.2135,"is_transit":false},{"i_long":106.86807400000001,"i_lat":-6.215091,"line":1,"distance":3395,"station_id":"JNG","time":3,"transit":true,"station_name":"Jatinegara","is_transit":true},{"i_lat":-6.209188,"distance":1236,"is_transit":false,"line":11,"time":2,"transit":false,"i_long":106.861737,"station_id":"POK","station_name":"Pondok Jati"},{"station_id":"KMT","line":11,"station_name":"Kramat","transit":false,"i_long":106.855437,"time":2,"i_lat":-6.193792,"distance":1829,"is_transit":false},{"time":1,"i_long":106.850107,"station_id":"GST","line":11,"is_transit":false,"station_name":"Gang Sentiong","i_lat":-6.185975,"distance":973,"transit":false},{"is_transit":false,"station_id":"PSE","line":11,"i_lat":-6.174784,"transit":false,"station_name":"Pasar Senen","distance":1567,"time":8,"i_long":106.84368},{"line":11,"distance":1436,"station_name":"Kemayoran","transit":false,"time":4,"is_transit":false,"station_id":"KMO","i_lat":-6.161728,"i_long":106.839204},{"station_name":"Rajawali","is_transit":false,"line":11,"i_long":106.836569,"i_lat":-6.14505,"distance":1901,"station_id":"RJW","time":5,"transit":false},{"station_id":"KPB","is_transit":true,"distance":1444,"transit":true,"station_name":"Kampung Bandan","i_long":106.826365,"line":4,"time":3,"i_lat":-6.132549},{"station_name":"Jakarta Kota","is_transit":true,"station_id":"JAKK","i_long":106.812439,"transit":true,"line":2,"i_lat":-6.137569,"distance":1364,"time":3},{"is_transit":false,"station_id":"JAY","distance":1264,"station_name":"Jayakarta","line":2,"i_lat":-6.141205,"time":4,"i_long":106.820901,"transit":false},{"transit":false,"i_lat":-6.149769,"line":2,"distance":1080,"time":2,"i_long":106.82482,"station_id":"MGB","is_transit":false,"station_name":"Manggabesar"},{"i_lat":-6.160725,"i_long":106.827103,"is_transit":false,"station_name":"Sawah Besar","line":2,"distance":906,"time":2,"transit":false,"station_id":"SW"},{"transit":false,"i_lat":-6.166716,"time":2,"line":2,"station_name":"Juanda","is_transit":false,"i_long":106.828284,"station_id":"JUA","distance":1149},{"is_transit":false,"i_lat":-6.186295,"line":2,"station_name":"Gondangdia","distance":2015,"time":4,"transit":false,"i_long":106.832183,"station_id":"GDD"},{"time":3,"distance":1750,"station_id":"CKI","i_long":106.840169,"station_name":"Cikini","line":2,"is_transit":false,"transit":false,"i_lat":-6.198556},{"time":4,"i_lat":-6.209883,"line":2,"distance":1590,"station_id":"MRI","transit":true,"station_name":"Manggarai","is_transit":true,"i_long":106.84912},{"is_transit":false,"time":4,"station_name":"Sudirman","distance":3186,"i_lat":-6.202263,"i_long":106.822649,"transit":false,"station_id":"SUD","line":1},{"i_lat":-6.201433,"station_id":"SUDB","station_name":"Sudirman Baru","i_long":106.819881,"line":1,"is_transit":false,"transit":false,"distance":280,"time":1},{"station_id":"KAT","transit":false,"i_lat":-6.20132,"time":1,"is_transit":false,"distance":471,"i_long":106.816351,"line":1,"station_name":"Karet"},{"time":5,"is_transit":false,"transit":false,"i_lat":-6.185545,"distance":2029,"line":1,"station_name":"Tanah Abang","i_long":106.811091,"station_id":"THB"},{"time":8,"i_lat":-6.155215,"station_id":"DU","transit":true,"distance":3632,"i_long":106.800832,"station_name":"Duri","line":1,"is_transit":true},{"line":5,"is_transit":false,"distance":1700,"i_long":106.788277,"time":3,"transit":false,"station_id":"GGL","station_name":"Grogol","i_lat":-6.162021},{"i_long":106.771379,"line":5,"i_lat":-6.161433,"distance":2036,"transit":false,"time":2,"station_name":"Pesing","station_id":"PSG","is_transit":false},{"station_id":"TKO","time":2,"station_name":"Taman Kota","i_long":106.756522,"distance":1614,"i_lat":-6.1587309999999995,"line":5,"transit":false,"is_transit":false}]]}