{"data":[[{"i_lat":-6.258864,"station_name":"Tambun","distance":0,"line":1,"is_transit":false,"i_long":107.055722,"transit":false,"station_id":"TB","time":0},{"i_long":107.016735,"station_name":"Bekasi Timur","transit":false,"i_lat":-6.248029,"line":1,"time":7,"distance":4460,"station_id":"BKST","is_transit":false},{"is_transit":false,"i_lat":-6.236616,"transit":false,"time":2,"station_name":"Bekasi","distance":2368,"i_long":106.997013,"line":1,"station_id":"BKS"},{"is_transit":false,"i_lat":-6.224515,"station_name":"Kranji","i_long":106.977657,"transit":false,"station_id":"KRI","line":1,"time":4,"distance":2520},{"is_transit":false,"station_name":"Cakung","station_id":"CUK","distance":3097,"line":1,"i_long":106.951283,"transit":false,"time":3,"i_lat":-6.219053},{"time":8,"transit":false,"distance":1385,"i_long":106.939679,"i_lat":-6.217455,"station_name":"Klenderbaru","station_id":"KLDB","is_transit":false,"line":1},{"line":1,"time":1,"transit":false,"station_name":"Buaran","distance":1305,"station_id":"BUA","i_long":106.922662,"i_lat":-6.215568,"is_transit":false},{"is_transit":false,"i_lat":-6.2135,"station_name":"Klender","distance":3100,"time":2,"line":1,"station_id":"KLD","transit":false,"i_long":106.899548},{"distance":3395,"is_transit":false,"i_lat":-6.215091,"i_long":106.86807400000001,"transit":false,"station_id":"JNG","station_name":"Jatinegara","line":1,"time":3},{"i_long":106.858896,"i_lat":-6.212485,"distance":1377,"is_transit":false,"station_id":"MTR","time":2,"station_name":"Matraman","transit":false,"line":1},{"distance":1275,"station_id":"MRI","time":2,"line":2,"transit":false,"station_name":"Manggarai","is_transit":false,"i_lat":-6.209883,"i_long":106.84912},{"line":1,"distance":3186,"station_name":"Sudirman","station_id":"SUD","time":4,"i_long":106.822649,"i_lat":-6.202263,"transit":false,"is_transit":false},{"i_long":106.819881,"station_name":"Sudirman Baru","i_lat":-6.201433,"line":1,"transit":false,"distance":280,"station_id":"SUDB","time":1,"is_transit":false},{"i_long":106.816351,"time":1,"i_lat":-6.20132,"station_name":"Karet","is_transit":false,"transit":false,"station_id":"KAT","distance":471,"line":1},{"i_lat":-6.185545,"i_long":106.811091,"line":1,"station_name":"Tanah Abang","time":5,"distance":2029,"is_transit":true,"station_id":"THB","transit":true},{"line":6,"distance":3191,"time":6,"is_transit":false,"station_id":"PLM","i_lat":-6.207404,"station_name":"Palmerah","i_long":106.79689,"transit":false},{"is_transit":false,"time":7,"station_name":"Kebayoran","i_long":106.780334,"station_id":"KBY","i_lat":-6.237242,"line":6,"transit":false,"distance":3737},{"i_long":106.74273,"transit":false,"is_transit":false,"line":6,"time":8,"station_name":"Pondokranji","distance":6218,"i_lat":-6.276362,"station_id":"PDJ"},{"station_name":"Jurangmangu","transit":false,"time":3,"is_transit":false,"i_long":106.728916,"i_lat":-6.288927,"line":6,"distance":2179,"station_id":"JMU"},{"line":6,"transit":false,"station_name":"Sudimara","time":4,"distance":1994,"station_id":"SDM","is_transit":false,"i_lat":-6.296963,"i_long":106.712277},{"distance":4566,"station_id":"RU","i_lat":-6.314823,"is_transit":false,"i_long":106.675475,"time":6,"station_name":"Rawa Buntu","line":6,"transit":false},{"is_transit":false,"time":4,"transit":false,"station_name":"Serpong","line":6,"distance":2413,"station_id":"SRP","i_lat":-6.319871,"i_long":106.66566},{"station_name":"Cisauk","is_transit":false,"line":3,"distance":1784,"station_id":"CSK","time":4,"i_lat":-6.32484,"transit":false,"i_long":106.640411},{"is_transit":false,"line":3,"station_name":"Cicayur","station_id":"CC","i_long":106.617853,"transit":false,"distance":2519,"i_lat":-6.329547,"time":4},{"distance":5968,"is_transit":false,"station_name":"Parung Panjang","station_id":"PRP","i_lat":-6.3441410000000005,"transit":false,"i_long":106.568863,"time":8,"line":6},{"is_transit":false,"station_id":"CJT","i_lat":-6.354349,"transit":false,"station_name":"Cilejit","distance":7025,"time":9,"i_long":106.508482,"line":3},{"station_id":"DAR","is_transit":false,"i_long":106.491338,"line":0,"i_lat":-6.338021,"transit":false,"station_name":"Daru","distance":2675,"time":6},{"i_long":106.460812,"station_id":"TEJ","station_name":"Tenjo","distance":3902,"is_transit":false,"i_lat":-6.327251,"transit":false,"time":5,"line":6},{"i_lat":-6.328533,"is_transit":false,"line":6,"transit":false,"station_id":"TGS","distance":2974,"i_long":106.425991,"station_name":"Tigaraksa","time":5}],[{"time":0,"i_lat":-6.258864,"line":1,"transit":false,"station_id":"TB","i_long":107.055722,"station_name":"Tambun","is_transit":false,"distance":0},{"station_id":"BKST","is_transit":false,"i_long":107.016735,"time":7,"transit":false,"line":1,"distance":4460,"i_lat":-6.248029,"station_name":"Bekasi Timur"},{"transit":false,"line":1,"i_lat":-6.236616,"station_name":"Bekasi","is_transit":false,"i_long":106.997013,"station_id":"BKS","distance":2368,"time":2},{"station_id":"KRI","transit":false,"is_transit":false,"line":1,"i_lat":-6.224515,"time":4,"station_name":"Kranji","i_long":106.977657,"distance":2520},{"time":3,"is_transit":false,"station_id":"CUK","transit":false,"distance":3097,"line":1,"i_lat":-6.219053,"station_name":"Cakung","i_long":106.951283},{"time":8,"station_id":"KLDB","i_long":106.939679,"line":1,"transit":false,"is_transit":false,"distance":1385,"station_name":"Klenderbaru","i_lat":-6.217455},{"i_long":106.922662,"distance":1305,"is_transit":false,"line":1,"i_lat":-6.215568,"transit":false,"time":1,"station_name":"Buaran","station_id":"BUA"},{"transit":false,"line":1,"time":2,"i_lat":-6.2135,"is_transit":false,"station_id":"KLD","i_long":106.899548,"station_name":"Klender","distance":3100},{"transit":true,"station_id":"JNG","station_name":"Jatinegara","i_lat":-6.215091,"i_long":106.86807400000001,"time":3,"distance":3395,"is_transit":true,"line":1},{"i_lat":-6.209188,"transit":false,"line":11,"time":2,"distance":1236,"is_transit":false,"station_name":"Pondok Jati","station_id":"POK","i_long":106.861737},{"station_name":"Kramat","is_transit":false,"line":11,"distance":1829,"transit":false,"station_id":"KMT","i_long":106.855437,"time":2,"i_lat":-6.193792},{"is_transit":false,"i_long":106.850107,"line":11,"distance":973,"i_lat":-6.185975,"time":1,"station_name":"Gang Sentiong","transit":false,"station_id":"GST"},{"i_long":106.84368,"transit":false,"station_id":"PSE","i_lat":-6.174784,"line":11,"time":8,"station_name":"Pasar Senen","distance":1567,"is_transit":false},{"i_lat":-6.161728,"is_transit":false,"station_name":"Kemayoran","i_long":106.839204,"time":4,"transit":false,"station_id":"KMO","distance":1436,"line":11},{"i_long":106.836569,"time":5,"transit":false,"distance":1901,"station_id":"RJW","line":11,"i_lat":-6.14505,"station_name":"Rajawali","is_transit":false},{"line":4,"i_long":106.826365,"transit":true,"station_name":"Kampung Bandan","i_lat":-6.132549,"is_transit":true,"distance":1444,"time":3,"station_id":"KPB"},{"station_id":"AK","i_lat":-6.144674,"transit":false,"time":9,"station_name":"Angke","distance":4102,"i_long":106.79867,"line":1,"is_transit":false},{"line":1,"station_id":"DU","transit":false,"i_lat":-6.155215,"time":4,"i_long":106.800832,"distance":1230,"station_name":"Duri","is_transit":false},{"station_id":"THB","distance":3632,"i_lat":-6.185545,"transit":true,"station_name":"Tanah Abang","line":1,"i_long":106.811091,"time":8,"is_transit":true},{"time":6,"is_transit":false,"i_long":106.79689,"station_name":"Palmerah","distance":3191,"i_lat":-6.207404,"transit":false,"station_id":"PLM","line":6},{"distance":3737,"i_long":106.780334,"station_id":"KBY","station_name":"Kebayoran","transit":false,"i_lat":-6.237242,"line":6,"is_transit":false,"time":7},{"transit":false,"distance":6218,"station_name":"Pondokranji","station_id":"PDJ","i_lat":-6.276362,"line":6,"i_long":106.74273,"is_transit":false,"time":8},{"distance":2179,"transit":false,"i_lat":-6.288927,"i_long":106.728916,"time":3,"line":6,"station_name":"Jurangmangu","is_transit":false,"station_id":"JMU"},{"station_id":"SDM","distance":1994,"time":4,"station_name":"Sudimara","i_lat":-6.296963,"line":6,"i_long":106.712277,"is_transit":false,"transit":false},{"station_name":"Rawa Buntu","distance":4566,"line":6,"i_long":106.675475,"transit":false,"station_id":"RU","time":6,"is_transit":false,"i_lat":-6.314823},{"time":4,"i_lat":-6.319871,"station_id":"SRP","line":6,"is_transit":false,"transit":false,"station_name":"Serpong","distance":2413,"i_long":106.66566},{"i_lat":-6.32484,"is_transit":false,"distance":1784,"i_long":106.640411,"time":4,"line":3,"station_id":"CSK","station_name":"Cisauk","transit":false},{"station_id":"CC","line":3,"i_lat":-6.329547,"transit":false,"time":4,"distance":2519,"is_transit":false,"i_long":106.617853,"station_name":"Cicayur"},{"distance":5968,"transit":false,"i_lat":-6.3441410000000005,"station_id":"PRP","i_long":106.568863,"time":8,"line":6,"station_name":"Parung Panjang","is_transit":false},{"is_transit":false,"i_lat":-6.354349,"transit":false,"time":9,"distance":7025,"line":3,"station_name":"Cilejit","i_long":106.508482,"station_id":"CJT"},{"station_name":"Daru","i_lat":-6.338021,"transit":false,"i_long":106.491338,"line":0,"station_id":"DAR","time":6,"distance":2675,"is_transit":false},{"time":5,"i_lat":-6.327251,"line":6,"distance":3902,"station_id":"TEJ","transit":false,"is_transit":false,"i_long":106.460812,"station_name":"Tenjo"},{"is_transit":false,"station_id":"TGS","distance":2974,"i_lat":-6.328533,"line":6,"transit":false,"i_long":106.425991,"time":5,"station_name":"Tigaraksa"}],[{"distance":0,"time":0,"i_long":107.055722,"station_id":"TB","line":1,"i_lat":-6.258864,"is_transit":false,"station_name":"Tambun","transit":false},{"is_transit":false,"line":1,"time":7,"i_lat":-6.248029,"station_id":"BKST","station_name":"Bekasi Timur","i_long":107.016735,"transit":false,"distance":4460},{"station_id":"BKS","i_lat":-6.236616,"is_transit":false,"transit":false,"time":2,"distance":2368,"i_long":106.997013,"line":1,"station_name":"Bekasi"},{"line":1,"is_transit":false,"time":4,"transit":false,"station_id":"KRI","i_long":106.977657,"station_name":"Kranji","i_lat":-6.224515,"distance":2520},{"station_name":"Cakung","transit":false,"line":1,"distance":3097,"is_transit":false,"time":3,"station_id":"CUK","i_lat":-6.219053,"i_long":106.951283},{"line":1,"station_name":"Klenderbaru","i_lat":-6.217455,"is_transit":false,"distance":1385,"time":8,"station_id":"KLDB","transit":false,"i_long":106.939679},{"is_transit":false,"i_long":106.922662,"station_name":"Buaran","line":1,"i_lat":-6.215568,"distance":1305,"station_id":"BUA","time":1,"transit":false},{"distance":3100,"station_name":"Klender","transit":false,"i_long":106.899548,"time":2,"station_id":"KLD","line":1,"i_lat":-6.2135,"is_transit":false},{"time":3,"station_id":"JNG","i_long":106.86807400000001,"distance":3395,"i_lat":-6.215091,"line":1,"station_name":"Jatinegara","transit":false,"is_transit":false},{"time":2,"transit":false,"is_transit":false,"station_id":"MTR","i_long":106.858896,"i_lat":-6.212485,"station_name":"Matraman","line":1,"distance":1377},{"i_long":106.84912,"line":2,"station_id":"MRI","station_name":"Manggarai","time":2,"is_transit":true,"i_lat":-6.209883,"transit":true,"distance":1275},{"transit":false,"time":4,"station_name":"Cikini","distance":1590,"is_transit":false,"line":2,"station_id":"CKI","i_lat":-6.198556,"i_long":106.840169},{"i_long":106.832183,"station_id":"GDD","time":3,"station_name":"Gondangdia","transit":false,"is_transit":false,"i_lat":-6.186295,"line":2,"distance":1750},{"transit":false,"distance":2015,"time":4,"station_id":"JUA","is_transit":false,"i_lat":-6.166716,"i_long":106.828284,"station_name":"Juanda","line":2},{"time":2,"is_transit":false,"station_id":"SW","distance":1149,"i_lat":-6.160725,"station_name":"Sawah Besar","i_long":106.827103,"line":2,"transit":false},{"distance":906,"line":2,"transit":false,"station_id":"MGB","station_name":"Manggabesar","i_long":106.82482,"time":2,"i_lat":-6.149769,"is_transit":false},{"station_id":"JAY","line":2,"is_transit":false,"i_long":106.820901,"i_lat":-6.141205,"distance":1080,"station_name":"Jayakarta","time":2,"transit":false},{"i_lat":-6.137569,"distance":1264,"station_name":"Jakarta Kota","transit":true,"station_id":"JAKK","line":2,"is_transit":true,"time":4,"i_long":106.812439},{"transit":true,"station_name":"Kampung Bandan","station_id":"KPB","distance":1364,"i_lat":-6.132549,"time":3,"i_long":106.826365,"line":4,"is_transit":true},{"line":1,"time":9,"distance":4102,"transit":false,"station_id":"AK","i_lat":-6.144674,"i_long":106.79867,"is_transit":false,"station_name":"Angke"},{"time":4,"distance":1230,"i_long":106.800832,"station_name":"Duri","station_id":"DU","transit":false,"is_transit":false,"i_lat":-6.155215,"line":1},{"distance":3632,"time":8,"transit":true,"station_name":"Tanah Abang","is_transit":true,"station_id":"THB","i_lat":-6.185545,"i_long":106.811091,"line":1},{"transit":false,"time":6,"station_name":"Palmerah","line":6,"station_id":"PLM","distance":3191,"i_long":106.79689,"is_transit":false,"i_lat":-6.207404},{"line":6,"time":7,"transit":false,"i_lat":-6.237242,"is_transit":false,"i_long":106.780334,"station_name":"Kebayoran","distance":3737,"station_id":"KBY"},{"i_long":106.74273,"time":8,"station_id":"PDJ","i_lat":-6.276362,"transit":false,"station_name":"Pondokranji","distance":6218,"line":6,"is_transit":false},{"is_transit":false,"i_lat":-6.288927,"time":3,"transit":false,"station_id":"JMU","i_long":106.728916,"station_name":"Jurangmangu","distance":2179,"line":6},{"time":4,"station_name":"Sudimara","station_id":"SDM","transit":false,"is_transit":false,"i_long":106.712277,"line":6,"i_lat":-6.296963,"distance":1994},{"i_lat":-6.314823,"station_name":"Rawa Buntu","transit":false,"i_long":106.675475,"is_transit":false,"line":6,"station_id":"RU","time":6,"distance":4566},{"transit":false,"station_name":"Serpong","distance":2413,"station_id":"SRP","i_lat":-6.319871,"i_long":106.66566,"line":6,"time":4,"is_transit":false},{"time":4,"i_lat":-6.32484,"distance":1784,"transit":false,"station_name":"Cisauk","is_transit":false,"station_id":"CSK","i_long":106.640411,"line":3},{"i_long":106.617853,"transit":false,"station_name":"Cicayur","time":4,"i_lat":-6.329547,"distance":2519,"line":3,"is_transit":false,"station_id":"CC"},{"time":8,"transit":false,"line":6,"station_id":"PRP","is_transit":false,"station_name":"Parung Panjang","i_lat":-6.3441410000000005,"i_long":106.568863,"distance":5968},{"i_long":106.508482,"i_lat":-6.354349,"transit":false,"line":3,"time":9,"station_id":"CJT","distance":7025,"station_name":"Cilejit","is_transit":false},{"station_name":"Daru","transit":false,"i_lat":-6.338021,"distance":2675,"is_transit":false,"station_id":"DAR","time":6,"i_long":106.491338,"line":0},{"i_long":106.460812,"distance":3902,"is_transit":false,"station_id":"TEJ","line":6,"time":5,"transit":false,"station_name":"Tenjo","i_lat":-6.327251},{"transit":false,"distance":2974,"i_long":106.425991,"station_name":"Tigaraksa","line":6,"time":5,"station_id":"TGS","i_lat":-6.328533,"is_transit":false}],[{"line":1,"station_name":"Tambun","station_id":"TB","i_long":107.055722,"transit":false,"time":0,"distance":0,"is_transit":false,"i_lat":-6.258864},{"distance":4460,"time":7,"i_lat":-6.248029,"transit":false,"is_transit":false,"station_id":"BKST","line":1,"station_name":"Bekasi Timur","i_long":107.016735},{"i_lat":-6.236616,"i_long":106.997013,"is_transit":false,"station_name":"Bekasi","time":2,"station_id":"BKS","line":1,"transit":false,"distance":2368},{"line":1,"transit":false,"station_name":"Kranji","station_id":"KRI","i_long":106.977657,"is_transit":false,"i_lat":-6.224515,"distance":2520,"time":4},{"transit":false,"time":3,"is_transit":false,"line":1,"station_name":"Cakung","distance":3097,"i_long":106.951283,"i_lat":-6.219053,"station_id":"CUK"},{"transit":false,"station_name":"Klenderbaru","is_transit":false,"i_lat":-6.217455,"time":8,"i_long":106.939679,"line":1,"distance":1385,"station_id":"KLDB"},{"is_transit":false,"station_id":"BUA","time":1,"i_long":106.922662,"transit":false,"station_name":"Buaran","i_lat":-6.215568,"line":1,"distance":1305},{"i_long":106.899548,"time":2,"line":1,"station_name":"Klender","is_transit":false,"distance":3100,"station_id":"KLD","i_lat":-6.2135,"transit":false},{"i_lat":-6.215091,"transit":true,"station_name":"Jatinegara","time":3,"station_id":"JNG","distance":3395,"i_long":106.86807400000001,"is_transit":true,"line":1},{"i_lat":-6.209188,"transit":false,"station_name":"Pondok Jati","line":11,"is_transit":false,"i_long":106.861737,"station_id":"POK","time":2,"distance":1236},{"transit":false,"distance":1829,"is_transit":false,"line":11,"i_lat":-6.193792,"station_name":"Kramat","station_id":"KMT","i_long":106.855437,"time":2},{"line":11,"time":1,"i_long":106.850107,"station_id":"GST","station_name":"Gang Sentiong","transit":false,"i_lat":-6.185975,"is_transit":false,"distance":973},{"i_long":106.84368,"station_id":"PSE","line":11,"distance":1567,"station_name":"Pasar Senen","is_transit":false,"i_lat":-6.174784,"transit":false,"time":8},{"station_name":"Kemayoran","i_long":106.839204,"transit":false,"time":4,"station_id":"KMO","i_lat":-6.161728,"is_transit":false,"distance":1436,"line":11},{"is_transit":false,"i_long":106.836569,"line":11,"time":5,"i_lat":-6.14505,"station_name":"Rajawali","transit":false,"distance":1901,"station_id":"RJW"},{"is_transit":true,"station_name":"Kampung Bandan","distance":1444,"i_lat":-6.132549,"transit":true,"i_long":106.826365,"line":4,"time":3,"station_id":"KPB"},{"time":3,"station_id":"JAKK","i_long":106.812439,"distance":1364,"line":2,"transit":true,"station_name":"Jakarta Kota","i_lat":-6.137569,"is_transit":true},{"distance":1264,"transit":false,"i_lat":-6.141205,"station_name":"Jayakarta","i_long":106.820901,"time":4,"line":2,"station_id":"JAY","is_transit":false},{"transit":false,"time":2,"i_lat":-6.149769,"is_transit":false,"station_name":"Manggabesar","station_id":"MGB","line":2,"i_long":106.82482,"distance":1080},{"i_lat":-6.160725,"time":2,"is_transit":false,"line":2,"transit":false,"distance":906,"i_long":106.827103,"station_id":"SW","station_name":"Sawah Besar"},{"transit":false,"station_name":"Juanda","i_long":106.828284,"is_transit":false,"time":2,"line":2,"distance":1149,"station_id":"JUA","i_lat":-6.166716},{"i_lat":-6.186295,"transit":false,"time":4,"distance":2015,"station_id":"GDD","i_long":106.832183,"line":2,"is_transit":false,"station_name":"Gondangdia"},{"i_lat":-6.198556,"station_id":"CKI","transit":false,"station_name":"Cikini","is_transit":false,"i_long":106.840169,"line":2,"distance":1750,"time":3},{"time":4,"line":2,"distance":1590,"transit":true,"station_name":"Manggarai","i_lat":-6.209883,"i_long":106.84912,"is_transit":true,"station_id":"MRI"},{"line":1,"transit":false,"time":4,"i_lat":-6.202263,"is_transit":false,"i_long":106.822649,"station_id":"SUD","station_name":"Sudirman","distance":3186},{"i_long":106.819881,"station_id":"SUDB","is_transit":false,"distance":280,"station_name":"Sudirman Baru","i_lat":-6.201433,"line":1,"time":1,"transit":false},{"transit":false,"i_lat":-6.20132,"is_transit":false,"i_long":106.816351,"line":1,"station_name":"Karet","station_id":"KAT","time":1,"distance":471},{"station_id":"THB","distance":2029,"i_long":106.811091,"line":1,"transit":true,"station_name":"Tanah Abang","i_lat":-6.185545,"is_transit":true,"time":5},{"transit":false,"is_transit":false,"station_name":"Palmerah","i_lat":-6.207404,"line":6,"time":6,"distance":3191,"station_id":"PLM","i_long":106.79689},{"line":6,"i_lat":-6.237242,"i_long":106.780334,"time":7,"transit":false,"distance":3737,"station_id":"KBY","station_name":"Kebayoran","is_transit":false},{"station_name":"Pondokranji","i_lat":-6.276362,"i_long":106.74273,"line":6,"transit":false,"station_id":"PDJ","is_transit":false,"distance":6218,"time":8},{"distance":2179,"time":3,"is_transit":false,"station_name":"Jurangmangu","i_lat":-6.288927,"i_long":106.728916,"line":6,"transit":false,"station_id":"JMU"},{"line":6,"distance":1994,"is_transit":false,"time":4,"station_id":"SDM","i_lat":-6.296963,"transit":false,"station_name":"Sudimara","i_long":106.712277},{"distance":4566,"station_name":"Rawa Buntu","line":6,"transit":false,"time":6,"is_transit":false,"i_long":106.675475,"station_id":"RU","i_lat":-6.314823},{"station_name":"Serpong","station_id":"SRP","line":6,"time":4,"i_long":106.66566,"distance":2413,"is_transit":false,"transit":false,"i_lat":-6.319871},{"time":4,"line":3,"station_id":"CSK","is_transit":false,"distance":1784,"i_long":106.640411,"i_lat":-6.32484,"station_name":"Cisauk","transit":false},{"transit":false,"station_name":"Cicayur","is_transit":false,"i_long":106.617853,"line":3,"time":4,"station_id":"CC","distance":2519,"i_lat":-6.329547},{"i_lat":-6.3441410000000005,"i_long":106.568863,"line":6,"transit":false,"time":8,"station_name":"Parung Panjang","station_id":"PRP","distance":5968,"is_transit":false},{"i_lat":-6.354349,"is_transit":false,"station_name":"Cilejit","station_id":"CJT","line":3,"distance":7025,"i_long":106.508482,"transit":false,"time":9},{"station_name":"Daru","distance":2675,"is_transit":false,"time":6,"line":0,"i_long":106.491338,"transit":false,"station_id":"DAR","i_lat":-6.338021},{"station_id":"TEJ","time":5,"transit":false,"is_transit":false,"i_lat":-6.327251,"i_long":106.460812,"line":6,"station_name":"Tenjo","distance":3902},{"i_lat":-6.328533,"station_name":"Tigaraksa","i_long":106.425991,"distance":2974,"transit":false,"is_transit":false,"time":5,"line":6,"station_id":"TGS"}]]}