{"data":[[{"time":0,"station_id":"TB","i_lat":-6.258864,"i_long":107.055722,"distance":0,"line":1,"transit":false,"is_transit":false,"station_name":"Tambun"},{"station_id":"BKST","is_transit":false,"line":1,"i_long":107.016735,"time":7,"station_name":"Bekasi Timur","distance":4460,"transit":false,"i_lat":-6.248029},{"station_id":"BKS","i_lat":-6.236616,"line":1,"distance":2368,"is_transit":false,"station_name":"Bekasi","time":2,"i_long":106.997013,"transit":false},{"station_name":"Kranji","line":1,"station_id":"KRI","transit":false,"i_long":106.977657,"is_transit":false,"time":4,"i_lat":-6.224515,"distance":2520},{"i_long":106.951283,"station_name":"Cakung","distance":3097,"time":3,"station_id":"CUK","line":1,"transit":false,"is_transit":false,"i_lat":-6.219053},{"station_name":"Klenderbaru","i_lat":-6.217455,"station_id":"KLDB","i_long":106.939679,"is_transit":false,"distance":1385,"line":1,"time":8,"transit":false},{"i_lat":-6.215568,"time":1,"station_id":"BUA","transit":false,"is_transit":false,"station_name":"Buaran","i_long":106.922662,"distance":1305,"line":1},{"distance":3100,"is_transit":false,"line":1,"time":2,"station_name":"Klender","i_lat":-6.2135,"station_id":"KLD","transit":false,"i_long":106.899548},{"time":3,"station_name":"Jatinegara","distance":3395,"i_long":106.86807400000001,"i_lat":-6.215091,"line":1,"transit":false,"is_transit":false,"station_id":"JNG"},{"station_id":"MTR","line":1,"station_name":"Matraman","distance":1377,"i_lat":-6.212485,"transit":false,"time":2,"is_transit":false,"i_long":106.858896},{"transit":true,"station_name":"Manggarai","i_long":106.84912,"time":2,"is_transit":true,"i_lat":-6.209883,"line":2,"station_id":"MRI","distance":1275},{"transit":false,"line":2,"time":4,"station_name":"Tebet","i_lat":-6.226659,"station_id":"TEB","distance":2610,"is_transit":false,"i_long":106.857948},{"distance":1230,"is_transit":false,"i_lat":-6.242512,"i_long":106.856607,"line":2,"station_id":"CW","transit":false,"station_name":"Cawang","time":2},{"distance":1546,"time":3,"i_lat":-6.255332,"transit":false,"is_transit":false,"station_id":"DRN","station_name":"Duren Kalibata","i_long":106.85449,"line":2},{"station_name":"Pasar Minggu Baru","distance":824,"station_id":"PSMB","line":2,"transit":false,"time":2,"i_lat":-6.263214,"i_long":106.851577,"is_transit":false},{"station_name":"Pasar Minggu","i_long":106.843999,"transit":false,"distance":2380,"station_id":"PSM","is_transit":false,"i_lat":-6.2842400000000005,"time":2,"line":2},{"distance":2820,"station_name":"Tanjung Barat","i_lat":-6.3080680000000005,"transit":false,"is_transit":false,"i_long":106.838896,"time":4,"line":2,"station_id":"TNT"},{"is_transit":false,"station_id":"LNA","line":2,"i_long":106.832616,"i_lat":-6.330363,"transit":false,"distance":2671,"station_name":"Lenteng Agung","time":3},{"distance":1029,"i_lat":-6.339291,"transit":false,"is_transit":false,"time":2,"i_long":106.834175,"line":2,"station_name":"Univ. Pancasila","station_id":"UP"},{"time":3,"transit":false,"distance":2264,"is_transit":false,"station_id":"UI","i_lat":-6.360749,"line":2,"i_long":106.831474,"station_name":"Univ. Indonesia"}],[{"distance":0,"is_transit":false,"line":1,"station_id":"TB","i_lat":-6.258864,"transit":false,"station_name":"Tambun","i_long":107.055722,"time":0},{"line":1,"station_name":"Bekasi Timur","i_long":107.016735,"transit":false,"is_transit":false,"station_id":"BKST","distance":4460,"time":7,"i_lat":-6.248029},{"station_name":"Bekasi","is_transit":false,"time":2,"transit":false,"distance":2368,"i_lat":-6.236616,"station_id":"BKS","line":1,"i_long":106.997013},{"transit":false,"is_transit":false,"i_lat":-6.224515,"station_id":"KRI","line":1,"station_name":"Kranji","time":4,"i_long":106.977657,"distance":2520},{"i_long":106.951283,"i_lat":-6.219053,"transit":false,"station_name":"Cakung","distance":3097,"station_id":"CUK","is_transit":false,"line":1,"time":3},{"time":8,"station_name":"Klenderbaru","is_transit":false,"i_lat":-6.217455,"i_long":106.939679,"distance":1385,"transit":false,"station_id":"KLDB","line":1},{"i_long":106.922662,"station_id":"BUA","distance":1305,"line":1,"time":1,"station_name":"Buaran","is_transit":false,"i_lat":-6.215568,"transit":false},{"i_lat":-6.2135,"i_long":106.899548,"station_id":"KLD","line":1,"station_name":"Klender","time":2,"transit":false,"is_transit":false,"distance":3100},{"station_id":"JNG","transit":true,"i_lat":-6.215091,"i_long":106.86807400000001,"distance":3395,"station_name":"Jatinegara","time":3,"is_transit":true,"line":1},{"distance":1236,"time":2,"i_lat":-6.209188,"line":11,"station_id":"POK","station_name":"Pondok Jati","is_transit":false,"i_long":106.861737,"transit":false},{"distance":1829,"transit":false,"i_lat":-6.193792,"station_id":"KMT","i_long":106.855437,"line":11,"station_name":"Kramat","is_transit":false,"time":2},{"i_long":106.850107,"station_name":"Gang Sentiong","is_transit":false,"station_id":"GST","transit":false,"time":1,"distance":973,"i_lat":-6.185975,"line":11},{"station_name":"Pasar Senen","is_transit":false,"distance":1567,"i_lat":-6.174784,"time":8,"transit":false,"station_id":"PSE","i_long":106.84368,"line":11},{"line":11,"i_long":106.839204,"is_transit":false,"station_id":"KMO","time":4,"station_name":"Kemayoran","distance":1436,"i_lat":-6.161728,"transit":false},{"time":5,"distance":1901,"i_lat":-6.14505,"i_long":106.836569,"transit":false,"line":11,"is_transit":false,"station_id":"RJW","station_name":"Rajawali"},{"station_name":"Kampung Bandan","is_transit":true,"i_lat":-6.132549,"transit":true,"time":3,"distance":1444,"station_id":"KPB","i_long":106.826365,"line":4},{"i_lat":-6.144674,"is_transit":false,"distance":4102,"station_name":"Angke","time":9,"transit":false,"line":1,"station_id":"AK","i_long":106.79867},{"i_lat":-6.155215,"station_id":"DU","distance":1230,"i_long":106.800832,"line":1,"time":4,"transit":false,"station_name":"Duri","is_transit":false},{"i_lat":-6.185545,"station_name":"Tanah Abang","time":8,"i_long":106.811091,"is_transit":false,"station_id":"THB","transit":false,"distance":3632,"line":1},{"station_id":"KAT","line":1,"time":5,"is_transit":false,"i_lat":-6.20132,"distance":2029,"station_name":"Karet","transit":false,"i_long":106.816351},{"station_id":"SUDB","is_transit":false,"station_name":"Sudirman Baru","i_lat":-6.201433,"i_long":106.819881,"distance":471,"line":1,"transit":false,"time":1},{"i_lat":-6.202263,"station_name":"Sudirman","line":1,"is_transit":false,"time":1,"station_id":"SUD","distance":280,"transit":false,"i_long":106.822649},{"distance":3186,"i_lat":-6.209883,"transit":true,"i_long":106.84912,"station_id":"MRI","line":2,"station_name":"Manggarai","is_transit":true,"time":4},{"i_lat":-6.226659,"line":2,"is_transit":false,"time":4,"i_long":106.857948,"transit":false,"station_name":"Tebet","station_id":"TEB","distance":2610},{"is_transit":false,"transit":false,"time":2,"distance":1230,"station_name":"Cawang","i_lat":-6.242512,"i_long":106.856607,"line":2,"station_id":"CW"},{"i_lat":-6.255332,"i_long":106.85449,"station_id":"DRN","is_transit":false,"time":3,"transit":false,"station_name":"Duren Kalibata","distance":1546,"line":2},{"distance":824,"transit":false,"station_name":"Pasar Minggu Baru","is_transit":false,"i_lat":-6.263214,"i_long":106.851577,"station_id":"PSMB","time":2,"line":2},{"i_lat":-6.2842400000000005,"line":2,"transit":false,"station_id":"PSM","is_transit":false,"i_long":106.843999,"station_name":"Pasar Minggu","time":2,"distance":2380},{"transit":false,"station_id":"TNT","i_lat":-6.3080680000000005,"line":2,"distance":2820,"time":4,"station_name":"Tanjung Barat","is_transit":false,"i_long":106.838896},{"i_long":106.832616,"station_id":"LNA","line":2,"transit":false,"station_name":"Lenteng Agung","is_transit":false,"time":3,"distance":2671,"i_lat":-6.330363},{"i_lat":-6.339291,"distance":1029,"line":2,"i_long":106.834175,"transit":false,"station_name":"Univ. Pancasila","time":2,"station_id":"UP","is_transit":false},{"i_long":106.831474,"transit":false,"station_name":"Univ. Indonesia","line":2,"time":3,"is_transit":false,"station_id":"UI","distance":2264,"i_lat":-6.360749}],[{"line":1,"i_long":107.055722,"i_lat":-6.258864,"distance":0,"is_transit":false,"time":0,"transit":false,"station_name":"Tambun","station_id":"TB"},{"i_lat":-6.248029,"station_id":"BKST","line":1,"transit":false,"i_long":107.016735,"distance":4460,"time":7,"station_name":"Bekasi Timur","is_transit":false},{"i_lat":-6.236616,"line":1,"is_transit":false,"i_long":106.997013,"station_name":"Bekasi","time":2,"station_id":"BKS","distance":2368,"transit":false},{"distance":2520,"line":1,"is_transit":false,"transit":false,"time":4,"station_id":"KRI","i_lat":-6.224515,"station_name":"Kranji","i_long":106.977657},{"transit":false,"is_transit":false,"i_long":106.951283,"i_lat":-6.219053,"station_name":"Cakung","station_id":"CUK","line":1,"distance":3097,"time":3},{"is_transit":false,"station_id":"KLDB","distance":1385,"i_lat":-6.217455,"i_long":106.939679,"line":1,"transit":false,"time":8,"station_name":"Klenderbaru"},{"distance":1305,"station_name":"Buaran","station_id":"BUA","time":1,"line":1,"i_lat":-6.215568,"i_long":106.922662,"transit":false,"is_transit":false},{"distance":3100,"i_long":106.899548,"station_name":"Klender","transit":false,"is_transit":false,"time":2,"i_lat":-6.2135,"line":1,"station_id":"KLD"},{"line":1,"station_name":"Jatinegara","transit":true,"is_transit":true,"station_id":"JNG","i_lat":-6.215091,"time":3,"distance":3395,"i_long":106.86807400000001},{"station_name":"Pondok Jati","is_transit":false,"station_id":"POK","transit":false,"i_lat":-6.209188,"i_long":106.861737,"distance":1236,"line":11,"time":2},{"station_id":"KMT","line":11,"i_lat":-6.193792,"transit":false,"distance":1829,"time":2,"i_long":106.855437,"is_transit":false,"station_name":"Kramat"},{"i_long":106.850107,"station_name":"Gang Sentiong","time":1,"transit":false,"station_id":"GST","line":11,"i_lat":-6.185975,"distance":973,"is_transit":false},{"i_lat":-6.174784,"i_long":106.84368,"station_name":"Pasar Senen","transit":false,"is_transit":false,"station_id":"PSE","distance":1567,"line":11,"time":8},{"station_name":"Kemayoran","distance":1436,"transit":false,"i_lat":-6.161728,"time":4,"is_transit":false,"station_id":"KMO","i_long":106.839204,"line":11},{"station_id":"RJW","distance":1901,"time":5,"i_long":106.836569,"i_lat":-6.14505,"transit":false,"station_name":"Rajawali","line":11,"is_transit":false},{"station_name":"Kampung Bandan","distance":1444,"i_lat":-6.132549,"i_long":106.826365,"transit":true,"line":4,"station_id":"KPB","is_transit":true,"time":3},{"i_lat":-6.137569,"is_transit":true,"station_name":"Jakarta Kota","station_id":"JAKK","line":2,"time":3,"transit":true,"distance":1364,"i_long":106.812439},{"i_long":106.820901,"station_id":"JAY","time":4,"distance":1264,"is_transit":false,"line":2,"station_name":"Jayakarta","transit":false,"i_lat":-6.141205},{"is_transit":false,"i_lat":-6.149769,"distance":1080,"line":2,"station_id":"MGB","station_name":"Manggabesar","time":2,"transit":false,"i_long":106.82482},{"time":2,"station_name":"Sawah Besar","i_lat":-6.160725,"distance":906,"is_transit":false,"station_id":"SW","transit":false,"line":2,"i_long":106.827103},{"distance":1149,"line":2,"transit":false,"i_long":106.828284,"i_lat":-6.166716,"is_transit":false,"time":2,"station_name":"Juanda","station_id":"JUA"},{"transit":false,"station_id":"GDD","line":2,"i_long":106.832183,"station_name":"Gondangdia","i_lat":-6.186295,"time":4,"is_transit":false,"distance":2015},{"time":3,"station_id":"CKI","i_lat":-6.198556,"line":2,"transit":false,"is_transit":false,"station_name":"Cikini","distance":1750,"i_long":106.840169},{"i_lat":-6.209883,"is_transit":false,"station_id":"MRI","line":2,"station_name":"Manggarai","distance":1590,"transit":false,"i_long":106.84912,"time":4},{"i_lat":-6.226659,"time":4,"station_name":"Tebet","i_long":106.857948,"station_id":"TEB","transit":false,"is_transit":false,"line":2,"distance":2610},{"time":2,"distance":1230,"i_long":106.856607,"line":2,"i_lat":-6.242512,"station_id":"CW","station_name":"Cawang","is_transit":false,"transit":false},{"distance":1546,"line":2,"i_long":106.85449,"station_id":"DRN","i_lat":-6.255332,"transit":false,"station_name":"Duren Kalibata","is_transit":false,"time":3},{"distance":824,"time":2,"is_transit":false,"i_lat":-6.263214,"station_name":"Pasar Minggu Baru","station_id":"PSMB","transit":false,"line":2,"i_long":106.851577},{"i_lat":-6.2842400000000005,"i_long":106.843999,"line":2,"distance":2380,"station_name":"Pasar Minggu","time":2,"is_transit":false,"transit":false,"station_id":"PSM"},{"distance":2820,"time":4,"station_name":"Tanjung Barat","line":2,"transit":false,"i_long":106.838896,"i_lat":-6.3080680000000005,"station_id":"TNT","is_transit":false},{"i_lat":-6.330363,"line":2,"i_long":106.832616,"distance":2671,"station_id":"LNA","station_name":"Lenteng Agung","time":3,"is_transit":false,"transit":false},{"i_long":106.834175,"station_name":"Univ. Pancasila","is_transit":false,"transit":false,"time":2,"station_id":"UP","distance":1029,"i_lat":-6.339291,"line":2},{"i_lat":-6.360749,"transit":false,"time":3,"station_name":"Univ. Indonesia","i_long":106.831474,"line":2,"is_transit":false,"station_id":"UI","distance":2264}]]}