{"data":[[{"i_lat":-6.258864,"line":1,"distance":0,"station_name":"Tambun","station_id":"TB","time":0,"i_long":107.055722,"transit":false,"is_transit":false},{"transit":false,"station_id":"BKST","distance":4460,"time":7,"i_long":107.016735,"line":1,"station_name":"Bekasi Timur","i_lat":-6.248029,"is_transit":false},{"station_id":"BKS","transit":false,"is_transit":false,"i_long":106.997013,"time":2,"line":1,"i_lat":-6.236616,"distance":2368,"station_name":"Bekasi"},{"i_lat":-6.224515,"station_name":"Kranji","transit":false,"time":4,"station_id":"KRI","is_transit":false,"i_long":106.977657,"line":1,"distance":2520},{"transit":false,"i_lat":-6.219053,"distance":3097,"station_name":"Cakung","station_id":"CUK","i_long":106.951283,"is_transit":false,"time":3,"line":1},{"distance":1385,"station_id":"KLDB","i_lat":-6.217455,"i_long":106.939679,"transit":false,"is_transit":false,"time":8,"line":1,"station_name":"Klenderbaru"},{"transit":false,"i_long":106.922662,"i_lat":-6.215568,"time":1,"station_name":"Buaran","distance":1305,"is_transit":false,"line":1,"station_id":"BUA"},{"time":2,"i_lat":-6.2135,"line":1,"transit":false,"is_transit":false,"station_name":"Klender","station_id":"KLD","distance":3100,"i_long":106.899548},{"transit":false,"i_lat":-6.215091,"station_name":"Jatinegara","station_id":"JNG","distance":3395,"time":3,"i_long":106.86807400000001,"is_transit":false,"line":1},{"distance":1377,"line":1,"i_long":106.858896,"transit":false,"time":2,"station_name":"Matraman","station_id":"MTR","i_lat":-6.212485,"is_transit":false},{"i_long":106.84912,"line":2,"station_id":"MRI","transit":true,"station_name":"Manggarai","is_transit":true,"time":2,"distance":1275,"i_lat":-6.209883},{"is_transit":false,"time":4,"line":2,"station_name":"Tebet","i_long":106.857948,"distance":2610,"i_lat":-6.226659,"station_id":"TEB","transit":false},{"station_id":"CW","i_lat":-6.242512,"station_name":"Cawang","distance":1230,"is_transit":false,"i_long":106.856607,"line":2,"time":2,"transit":false},{"distance":1546,"is_transit":false,"time":3,"station_name":"Duren Kalibata","i_long":106.85449,"i_lat":-6.255332,"transit":false,"line":2,"station_id":"DRN"},{"distance":824,"i_lat":-6.263214,"is_transit":false,"time":2,"station_id":"PSMB","station_name":"Pasar Minggu Baru","i_long":106.851577,"transit":false,"line":2},{"is_transit":false,"transit":false,"distance":2380,"line":2,"station_id":"PSM","time":2,"station_name":"Pasar Minggu","i_lat":-6.2842400000000005,"i_long":106.843999},{"time":4,"station_id":"TNT","transit":false,"station_name":"Tanjung Barat","is_transit":false,"distance":2820,"i_lat":-6.3080680000000005,"i_long":106.838896,"line":2},{"distance":2671,"time":3,"station_name":"Lenteng Agung","is_transit":false,"i_lat":-6.330363,"transit":false,"station_id":"LNA","i_long":106.832616,"line":2},{"i_lat":-6.339291,"line":2,"distance":1029,"transit":false,"i_long":106.834175,"is_transit":false,"station_name":"Univ. Pancasila","station_id":"UP","time":2}],[{"i_long":107.055722,"transit":false,"time":0,"station_name":"Tambun","i_lat":-6.258864,"is_transit":false,"station_id":"TB","distance":0,"line":1},{"transit":false,"station_name":"Bekasi Timur","station_id":"BKST","is_transit":false,"line":1,"i_lat":-6.248029,"distance":4460,"time":7,"i_long":107.016735},{"distance":2368,"i_long":106.997013,"time":2,"i_lat":-6.236616,"station_id":"BKS","line":1,"station_name":"Bekasi","transit":false,"is_transit":false},{"i_long":106.977657,"distance":2520,"transit":false,"i_lat":-6.224515,"line":1,"is_transit":false,"station_name":"Kranji","time":4,"station_id":"KRI"},{"is_transit":false,"time":3,"station_id":"CUK","i_long":106.951283,"i_lat":-6.219053,"line":1,"distance":3097,"station_name":"Cakung","transit":false},{"time":8,"is_transit":false,"i_long":106.939679,"line":1,"transit":false,"distance":1385,"station_name":"Klenderbaru","station_id":"KLDB","i_lat":-6.217455},{"i_lat":-6.215568,"is_transit":false,"i_long":106.922662,"station_name":"Buaran","line":1,"transit":false,"time":1,"distance":1305,"station_id":"BUA"},{"i_lat":-6.2135,"is_transit":false,"station_id":"KLD","distance":3100,"i_long":106.899548,"transit":false,"time":2,"station_name":"Klender","line":1},{"station_name":"Jatinegara","i_long":106.86807400000001,"distance":3395,"station_id":"JNG","i_lat":-6.215091,"line":1,"time":3,"transit":true,"is_transit":true},{"line":11,"station_name":"Pondok Jati","transit":false,"distance":1236,"i_lat":-6.209188,"i_long":106.861737,"station_id":"POK","time":2,"is_transit":false},{"i_long":106.855437,"i_lat":-6.193792,"station_id":"KMT","line":11,"station_name":"Kramat","transit":false,"is_transit":false,"distance":1829,"time":2},{"transit":false,"time":1,"station_name":"Gang Sentiong","station_id":"GST","i_lat":-6.185975,"distance":973,"i_long":106.850107,"is_transit":false,"line":11},{"is_transit":false,"line":11,"time":8,"station_name":"Pasar Senen","transit":false,"station_id":"PSE","i_lat":-6.174784,"i_long":106.84368,"distance":1567},{"transit":false,"time":4,"station_name":"Kemayoran","i_lat":-6.161728,"i_long":106.839204,"distance":1436,"line":11,"station_id":"KMO","is_transit":false},{"time":5,"distance":1901,"i_lat":-6.14505,"line":11,"i_long":106.836569,"station_id":"RJW","transit":false,"is_transit":false,"station_name":"Rajawali"},{"is_transit":true,"line":4,"station_name":"Kampung Bandan","distance":1444,"i_long":106.826365,"station_id":"KPB","i_lat":-6.132549,"time":3,"transit":true},{"transit":false,"line":1,"is_transit":false,"time":9,"distance":4102,"i_lat":-6.144674,"station_id":"AK","i_long":106.79867,"station_name":"Angke"},{"is_transit":false,"i_long":106.800832,"station_id":"DU","i_lat":-6.155215,"transit":false,"station_name":"Duri","time":4,"distance":1230,"line":1},{"i_lat":-6.185545,"i_long":106.811091,"station_name":"Tanah Abang","transit":false,"line":1,"station_id":"THB","is_transit":false,"time":8,"distance":3632},{"transit":false,"station_id":"KAT","i_lat":-6.20132,"line":1,"station_name":"Karet","distance":2029,"is_transit":false,"time":5,"i_long":106.816351},{"i_long":106.819881,"transit":false,"is_transit":false,"i_lat":-6.201433,"time":1,"station_name":"Sudirman Baru","line":1,"station_id":"SUDB","distance":471},{"time":1,"i_lat":-6.202263,"i_long":106.822649,"is_transit":false,"station_id":"SUD","distance":280,"transit":false,"station_name":"Sudirman","line":1},{"distance":3186,"transit":true,"station_id":"MRI","is_transit":true,"i_lat":-6.209883,"time":4,"line":2,"i_long":106.84912,"station_name":"Manggarai"},{"station_name":"Tebet","time":4,"is_transit":false,"transit":false,"i_lat":-6.226659,"line":2,"station_id":"TEB","distance":2610,"i_long":106.857948},{"station_id":"CW","time":2,"transit":false,"station_name":"Cawang","is_transit":false,"i_lat":-6.242512,"i_long":106.856607,"line":2,"distance":1230},{"station_id":"DRN","i_long":106.85449,"distance":1546,"is_transit":false,"line":2,"transit":false,"time":3,"i_lat":-6.255332,"station_name":"Duren Kalibata"},{"transit":false,"station_id":"PSMB","i_lat":-6.263214,"station_name":"Pasar Minggu Baru","time":2,"i_long":106.851577,"line":2,"distance":824,"is_transit":false},{"time":2,"i_lat":-6.2842400000000005,"line":2,"is_transit":false,"i_long":106.843999,"distance":2380,"station_id":"PSM","station_name":"Pasar Minggu","transit":false},{"station_id":"TNT","station_name":"Tanjung Barat","is_transit":false,"distance":2820,"i_long":106.838896,"transit":false,"i_lat":-6.3080680000000005,"line":2,"time":4},{"station_name":"Lenteng Agung","is_transit":false,"time":3,"i_lat":-6.330363,"station_id":"LNA","line":2,"transit":false,"distance":2671,"i_long":106.832616},{"distance":1029,"transit":false,"station_id":"UP","line":2,"is_transit":false,"i_lat":-6.339291,"time":2,"station_name":"Univ. Pancasila","i_long":106.834175}],[{"i_lat":-6.258864,"i_long":107.055722,"time":0,"line":1,"station_name":"Tambun","station_id":"TB","distance":0,"is_transit":false,"transit":false},{"is_transit":false,"time":7,"transit":false,"i_lat":-6.248029,"station_name":"Bekasi Timur","station_id":"BKST","distance":4460,"i_long":107.016735,"line":1},{"is_transit":false,"distance":2368,"line":1,"station_name":"Bekasi","transit":false,"i_long":106.997013,"station_id":"BKS","time":2,"i_lat":-6.236616},{"station_id":"KRI","time":4,"i_lat":-6.224515,"i_long":106.977657,"line":1,"distance":2520,"is_transit":false,"transit":false,"station_name":"Kranji"},{"station_name":"Cakung","distance":3097,"station_id":"CUK","i_lat":-6.219053,"line":1,"transit":false,"is_transit":false,"time":3,"i_long":106.951283},{"i_lat":-6.217455,"distance":1385,"line":1,"i_long":106.939679,"is_transit":false,"transit":false,"station_name":"Klenderbaru","time":8,"station_id":"KLDB"},{"line":1,"station_id":"BUA","i_lat":-6.215568,"station_name":"Buaran","transit":false,"time":1,"distance":1305,"i_long":106.922662,"is_transit":false},{"time":2,"is_transit":false,"i_lat":-6.2135,"station_id":"KLD","distance":3100,"i_long":106.899548,"transit":false,"station_name":"Klender","line":1},{"i_long":106.86807400000001,"time":3,"transit":true,"station_name":"Jatinegara","line":1,"station_id":"JNG","is_transit":true,"distance":3395,"i_lat":-6.215091},{"i_lat":-6.209188,"station_id":"POK","station_name":"Pondok Jati","i_long":106.861737,"is_transit":false,"distance":1236,"line":11,"time":2,"transit":false},{"i_long":106.855437,"is_transit":false,"i_lat":-6.193792,"distance":1829,"time":2,"station_id":"KMT","line":11,"station_name":"Kramat","transit":false},{"transit":false,"i_lat":-6.185975,"distance":973,"line":11,"i_long":106.850107,"is_transit":false,"station_name":"Gang Sentiong","station_id":"GST","time":1},{"line":11,"station_id":"PSE","i_lat":-6.174784,"station_name":"Pasar Senen","is_transit":false,"i_long":106.84368,"time":8,"transit":false,"distance":1567},{"i_long":106.839204,"i_lat":-6.161728,"line":11,"transit":false,"station_name":"Kemayoran","is_transit":false,"time":4,"station_id":"KMO","distance":1436},{"line":11,"is_transit":false,"time":5,"i_lat":-6.14505,"station_name":"Rajawali","transit":false,"station_id":"RJW","distance":1901,"i_long":106.836569},{"transit":true,"is_transit":true,"station_id":"KPB","station_name":"Kampung Bandan","time":3,"distance":1444,"i_lat":-6.132549,"i_long":106.826365,"line":4},{"i_long":106.812439,"station_id":"JAKK","line":2,"distance":1364,"is_transit":true,"station_name":"Jakarta Kota","i_lat":-6.137569,"transit":true,"time":3},{"i_lat":-6.141205,"line":2,"station_name":"Jayakarta","distance":1264,"is_transit":false,"time":4,"i_long":106.820901,"transit":false,"station_id":"JAY"},{"station_id":"MGB","time":2,"line":2,"station_name":"Manggabesar","distance":1080,"is_transit":false,"i_long":106.82482,"transit":false,"i_lat":-6.149769},{"station_name":"Sawah Besar","station_id":"SW","transit":false,"i_lat":-6.160725,"is_transit":false,"i_long":106.827103,"time":2,"distance":906,"line":2},{"time":2,"station_id":"JUA","is_transit":false,"line":2,"i_lat":-6.166716,"station_name":"Juanda","i_long":106.828284,"transit":false,"distance":1149},{"time":4,"station_id":"GDD","station_name":"Gondangdia","distance":2015,"i_lat":-6.186295,"is_transit":false,"line":2,"i_long":106.832183,"transit":false},{"i_long":106.840169,"line":2,"station_name":"Cikini","station_id":"CKI","i_lat":-6.198556,"transit":false,"time":3,"distance":1750,"is_transit":false},{"station_id":"MRI","is_transit":false,"i_lat":-6.209883,"transit":false,"time":4,"i_long":106.84912,"line":2,"station_name":"Manggarai","distance":1590},{"station_name":"Tebet","station_id":"TEB","line":2,"time":4,"is_transit":false,"distance":2610,"i_lat":-6.226659,"i_long":106.857948,"transit":false},{"transit":false,"station_id":"CW","distance":1230,"station_name":"Cawang","i_long":106.856607,"i_lat":-6.242512,"is_transit":false,"time":2,"line":2},{"distance":1546,"station_name":"Duren Kalibata","i_lat":-6.255332,"station_id":"DRN","is_transit":false,"i_long":106.85449,"transit":false,"time":3,"line":2},{"i_long":106.851577,"transit":false,"station_id":"PSMB","distance":824,"line":2,"time":2,"is_transit":false,"station_name":"Pasar Minggu Baru","i_lat":-6.263214},{"station_id":"PSM","is_transit":false,"transit":false,"time":2,"distance":2380,"i_lat":-6.2842400000000005,"line":2,"i_long":106.843999,"station_name":"Pasar Minggu"},{"i_long":106.838896,"station_name":"Tanjung Barat","distance":2820,"line":2,"station_id":"TNT","transit":false,"is_transit":false,"time":4,"i_lat":-6.3080680000000005},{"distance":2671,"i_long":106.832616,"transit":false,"is_transit":false,"time":3,"station_id":"LNA","i_lat":-6.330363,"line":2,"station_name":"Lenteng Agung"},{"station_name":"Univ. Pancasila","time":2,"i_lat":-6.339291,"line":2,"distance":1029,"transit":false,"i_long":106.834175,"is_transit":false,"station_id":"UP"}]]}