{"data":[[{"i_long":107.055722,"time":0,"transit":false,"is_transit":false,"distance":0,"i_lat":-6.258864,"line":1,"station_id":"TB","station_name":"Tambun"},{"station_id":"BKST","is_transit":false,"time":7,"i_lat":-6.248029,"i_long":107.016735,"line":0,"distance":4460,"transit":false,"station_name":"Bekasi Timur"},{"station_id":"BKS","i_long":106.997013,"distance":2368,"line":0,"station_name":"Bekasi","time":2,"is_transit":false,"i_lat":-6.236616,"transit":false},{"station_id":"KRI","transit":false,"is_transit":false,"distance":2520,"i_lat":-6.224515,"time":4,"station_name":"Kranji","i_long":106.977657,"line":1},{"time":3,"is_transit":false,"line":0,"distance":3097,"i_lat":-6.219053,"station_id":"CUK","i_long":106.951283,"station_name":"Cakung","transit":false},{"station_id":"KLDB","time":8,"is_transit":false,"i_long":106.939679,"station_name":"Klenderbaru","transit":false,"line":1,"i_lat":-6.217455,"distance":1385},{"station_name":"Buaran","time":1,"i_long":106.922662,"station_id":"BUA","line":0,"distance":1305,"is_transit":false,"transit":false,"i_lat":-6.215568},{"distance":3100,"station_name":"Klender","transit":false,"line":1,"i_long":106.899548,"time":2,"station_id":"KLD","i_lat":-6.2135,"is_transit":false},{"station_name":"Jatinegara","time":3,"is_transit":true,"distance":3395,"i_long":106.86807400000001,"line":0,"station_id":"JNG","transit":false,"i_lat":-6.215091},{"is_transit":false,"i_lat":-6.212485,"distance":1377,"line":1,"time":2,"transit":false,"i_long":106.858896,"station_id":"MTR","station_name":"Matraman"},{"distance":1275,"station_id":"MRI","time":2,"transit":true,"i_long":106.84912,"i_lat":-6.209883,"line":0,"is_transit":true,"station_name":"Manggarai"},{"time":4,"line":2,"is_transit":false,"station_name":"Tebet","i_lat":-6.226659,"station_id":"TEB","i_long":106.857948,"distance":2610,"transit":false},{"station_name":"Cawang","station_id":"CW","time":2,"distance":1230,"line":0,"transit":false,"i_long":106.856607,"i_lat":-6.242512,"is_transit":false},{"distance":1546,"i_lat":-6.255332,"station_name":"Duren Kalibata","station_id":"DRN","time":3,"line":0,"is_transit":false,"i_long":106.85449,"transit":false},{"distance":824,"time":2,"i_long":106.851577,"is_transit":false,"transit":false,"i_lat":-6.263214,"line":2,"station_name":"Pasar Minggu Baru","station_id":"PSMB"},{"time":2,"i_lat":-6.2842400000000005,"station_id":"PSM","i_long":106.843999,"distance":2380,"station_name":"Pasar Minggu","transit":false,"line":2,"is_transit":false},{"transit":false,"i_long":106.838896,"distance":2820,"station_name":"Tanjung Barat","station_id":"TNT","line":2,"time":4,"i_lat":-6.3080680000000005,"is_transit":false},{"i_lat":-6.330363,"distance":2671,"is_transit":false,"line":2,"station_id":"LNA","time":3,"i_long":106.832616,"station_name":"Lenteng Agung","transit":false},{"distance":1029,"is_transit":false,"station_name":"Univ. Pancasila","transit":false,"time":2,"i_lat":-6.339291,"line":2,"station_id":"UP","i_long":106.834175},{"station_name":"Univ. Indonesia","i_lat":-6.360749,"is_transit":false,"line":2,"station_id":"UI","i_long":106.831474,"time":3,"transit":false,"distance":2264}],[{"i_long":107.055722,"distance":0,"i_lat":-6.258864,"station_name":"Tambun","line":1,"station_id":"TB","time":0,"is_transit":false,"transit":false},{"distance":4460,"transit":false,"i_lat":-6.248029,"station_name":"Bekasi Timur","line":0,"is_transit":false,"i_long":107.016735,"time":7,"station_id":"BKST"},{"time":2,"transit":false,"line":0,"station_name":"Bekasi","i_lat":-6.236616,"distance":2368,"i_long":106.997013,"is_transit":false,"station_id":"BKS"},{"station_name":"Kranji","i_long":106.977657,"is_transit":false,"station_id":"KRI","transit":false,"i_lat":-6.224515,"line":1,"distance":2520,"time":4},{"is_transit":false,"time":3,"i_long":106.951283,"station_name":"Cakung","i_lat":-6.219053,"line":0,"transit":false,"station_id":"CUK","distance":3097},{"station_name":"Klenderbaru","i_lat":-6.217455,"i_long":106.939679,"line":1,"transit":false,"is_transit":false,"distance":1385,"station_id":"KLDB","time":8},{"time":1,"i_long":106.922662,"is_transit":false,"station_id":"BUA","transit":false,"line":0,"distance":1305,"station_name":"Buaran","i_lat":-6.215568},{"is_transit":false,"line":1,"time":2,"station_name":"Klender","i_lat":-6.2135,"station_id":"KLD","transit":false,"i_long":106.899548,"distance":3100},{"i_long":106.86807400000001,"station_name":"Jatinegara","line":0,"i_lat":-6.215091,"distance":3395,"is_transit":true,"time":3,"station_id":"JNG","transit":true},{"line":11,"is_transit":false,"station_id":"POK","distance":1236,"i_lat":-6.209188,"station_name":"Pondok Jati","time":2,"i_long":106.861737,"transit":false},{"distance":1829,"i_lat":-6.193792,"i_long":106.855437,"station_name":"Kramat","station_id":"KMT","line":11,"is_transit":false,"time":2,"transit":false},{"time":1,"station_name":"Gang Sentiong","i_long":106.850107,"i_lat":-6.185975,"line":11,"distance":973,"is_transit":false,"station_id":"GST","transit":false},{"i_lat":-6.174784,"station_id":"PSE","line":11,"distance":1567,"time":8,"transit":false,"is_transit":false,"station_name":"Pasar Senen","i_long":106.84368},{"is_transit":false,"time":4,"i_long":106.839204,"station_name":"Kemayoran","i_lat":-6.161728,"line":11,"distance":1436,"station_id":"KMO","transit":false},{"station_id":"RJW","line":11,"time":5,"is_transit":false,"station_name":"Rajawali","distance":1901,"transit":false,"i_lat":-6.14505,"i_long":106.836569},{"distance":1444,"station_name":"Kampung Bandan","transit":true,"i_long":106.826365,"is_transit":true,"i_lat":-6.132549,"time":3,"station_id":"KPB","line":0},{"i_long":106.79867,"time":9,"i_lat":-6.144674,"is_transit":false,"station_name":"Angke","line":0,"distance":4102,"station_id":"AK","transit":false},{"station_id":"DU","transit":true,"i_lat":-6.155215,"line":1,"is_transit":true,"distance":1230,"station_name":"Duri","time":4,"i_long":106.800832},{"station_id":"THB","transit":false,"time":8,"i_long":106.811091,"i_lat":-6.185545,"distance":3632,"is_transit":true,"line":1,"station_name":"Tanah Abang"},{"line":1,"time":5,"i_long":106.816351,"is_transit":false,"distance":2029,"transit":false,"station_name":"Karet","station_id":"KAT","i_lat":-6.20132},{"line":1,"i_long":106.819881,"i_lat":-6.201433,"station_name":"Sudirman Baru","transit":false,"distance":471,"is_transit":false,"station_id":"SUDB","time":1},{"station_id":"SUD","distance":280,"i_long":106.822649,"is_transit":false,"i_lat":-6.202263,"transit":false,"time":1,"line":1,"station_name":"Sudirman"},{"station_name":"Manggarai","time":4,"i_lat":-6.209883,"line":0,"i_long":106.84912,"distance":3186,"station_id":"MRI","transit":true,"is_transit":true},{"i_long":106.857948,"line":2,"is_transit":false,"station_id":"TEB","station_name":"Tebet","time":4,"distance":2610,"transit":false,"i_lat":-6.226659},{"is_transit":false,"station_id":"CW","time":2,"i_lat":-6.242512,"station_name":"Cawang","transit":false,"i_long":106.856607,"line":0,"distance":1230},{"i_long":106.85449,"line":0,"i_lat":-6.255332,"is_transit":false,"transit":false,"station_id":"DRN","time":3,"station_name":"Duren Kalibata","distance":1546},{"time":2,"i_lat":-6.263214,"i_long":106.851577,"line":2,"transit":false,"station_name":"Pasar Minggu Baru","is_transit":false,"station_id":"PSMB","distance":824},{"distance":2380,"station_id":"PSM","station_name":"Pasar Minggu","transit":false,"i_lat":-6.2842400000000005,"line":2,"time":2,"is_transit":false,"i_long":106.843999},{"distance":2820,"transit":false,"i_lat":-6.3080680000000005,"time":4,"station_id":"TNT","line":2,"is_transit":false,"i_long":106.838896,"station_name":"Tanjung Barat"},{"is_transit":false,"i_lat":-6.330363,"station_name":"Lenteng Agung","distance":2671,"line":2,"time":3,"station_id":"LNA","i_long":106.832616,"transit":false},{"is_transit":false,"station_id":"UP","i_long":106.834175,"line":2,"distance":1029,"station_name":"Univ. Pancasila","i_lat":-6.339291,"time":2,"transit":false},{"time":3,"station_id":"UI","i_long":106.831474,"distance":2264,"is_transit":false,"station_name":"Univ. Indonesia","line":2,"i_lat":-6.360749,"transit":false}],[{"station_name":"Tambun","i_long":107.055722,"i_lat":-6.258864,"line":1,"transit":false,"distance":0,"time":0,"station_id":"TB","is_transit":false},{"distance":4460,"transit":false,"is_transit":false,"i_lat":-6.248029,"station_id":"BKST","time":7,"station_name":"Bekasi Timur","i_long":107.016735,"line":0},{"station_id":"BKS","distance":2368,"is_transit":false,"i_lat":-6.236616,"station_name":"Bekasi","transit":false,"i_long":106.997013,"line":0,"time":2},{"station_name":"Kranji","station_id":"KRI","line":1,"is_transit":false,"i_long":106.977657,"transit":false,"i_lat":-6.224515,"time":4,"distance":2520},{"station_name":"Cakung","transit":false,"i_lat":-6.219053,"time":3,"distance":3097,"is_transit":false,"line":0,"station_id":"CUK","i_long":106.951283},{"line":1,"distance":1385,"time":8,"is_transit":false,"station_name":"Klenderbaru","i_lat":-6.217455,"i_long":106.939679,"transit":false,"station_id":"KLDB"},{"line":0,"station_id":"BUA","i_lat":-6.215568,"i_long":106.922662,"station_name":"Buaran","is_transit":false,"time":1,"distance":1305,"transit":false},{"line":1,"station_name":"Klender","transit":false,"time":2,"is_transit":false,"station_id":"KLD","i_lat":-6.2135,"i_long":106.899548,"distance":3100},{"distance":3395,"is_transit":true,"station_id":"JNG","i_lat":-6.215091,"i_long":106.86807400000001,"time":3,"transit":true,"station_name":"Jatinegara","line":0},{"station_name":"Pondok Jati","distance":1236,"is_transit":false,"line":11,"transit":false,"station_id":"POK","i_lat":-6.209188,"time":2,"i_long":106.861737},{"station_name":"Kramat","transit":false,"i_long":106.855437,"line":11,"time":2,"is_transit":false,"distance":1829,"station_id":"KMT","i_lat":-6.193792},{"i_long":106.850107,"i_lat":-6.185975,"station_id":"GST","is_transit":false,"line":11,"time":1,"transit":false,"distance":973,"station_name":"Gang Sentiong"},{"is_transit":false,"station_id":"PSE","line":11,"i_long":106.84368,"time":8,"i_lat":-6.174784,"distance":1567,"station_name":"Pasar Senen","transit":false},{"is_transit":false,"transit":false,"station_name":"Kemayoran","time":4,"line":11,"i_long":106.839204,"station_id":"KMO","distance":1436,"i_lat":-6.161728},{"i_long":106.836569,"time":5,"line":11,"distance":1901,"station_id":"RJW","station_name":"Rajawali","i_lat":-6.14505,"is_transit":false,"transit":false},{"i_long":106.826365,"distance":1444,"station_name":"Kampung Bandan","transit":true,"i_lat":-6.132549,"is_transit":true,"station_id":"KPB","time":3,"line":0},{"station_id":"JAKK","station_name":"Jakarta Kota","transit":true,"time":3,"distance":1364,"i_long":106.812439,"line":0,"is_transit":true,"i_lat":-6.137569},{"line":7,"distance":1264,"station_id":"JAY","time":4,"is_transit":false,"i_lat":-6.141205,"station_name":"Jayakarta","transit":false,"i_long":106.820901},{"line":2,"time":2,"distance":1080,"i_long":106.82482,"station_name":"Manggabesar","i_lat":-6.149769,"station_id":"MGB","is_transit":false,"transit":false},{"transit":false,"line":2,"is_transit":false,"station_id":"SW","distance":906,"station_name":"Sawah Besar","time":2,"i_long":106.827103,"i_lat":-6.160725},{"station_name":"Juanda","i_lat":-6.166716,"is_transit":false,"distance":1149,"time":2,"i_long":106.828284,"station_id":"JUA","transit":false,"line":2},{"transit":false,"distance":2015,"i_lat":-6.186295,"station_name":"Gondangdia","i_long":106.832183,"line":2,"time":4,"is_transit":false,"station_id":"GDD"},{"station_name":"Cikini","transit":false,"station_id":"CKI","distance":1750,"line":0,"i_lat":-6.198556,"i_long":106.840169,"is_transit":false,"time":3},{"i_lat":-6.209883,"distance":1590,"i_long":106.84912,"line":0,"station_id":"MRI","is_transit":true,"station_name":"Manggarai","transit":true,"time":4},{"station_name":"Tebet","station_id":"TEB","distance":2610,"transit":false,"time":4,"i_lat":-6.226659,"line":2,"i_long":106.857948,"is_transit":false},{"is_transit":false,"station_name":"Cawang","time":2,"i_long":106.856607,"line":0,"distance":1230,"station_id":"CW","transit":false,"i_lat":-6.242512},{"i_lat":-6.255332,"distance":1546,"station_name":"Duren Kalibata","i_long":106.85449,"transit":false,"time":3,"line":0,"is_transit":false,"station_id":"DRN"},{"station_name":"Pasar Minggu Baru","distance":824,"station_id":"PSMB","transit":false,"i_long":106.851577,"time":2,"i_lat":-6.263214,"line":2,"is_transit":false},{"station_id":"PSM","time":2,"i_long":106.843999,"is_transit":false,"distance":2380,"line":2,"transit":false,"station_name":"Pasar Minggu","i_lat":-6.2842400000000005},{"line":2,"station_id":"TNT","i_lat":-6.3080680000000005,"is_transit":false,"time":4,"distance":2820,"station_name":"Tanjung Barat","i_long":106.838896,"transit":false},{"i_long":106.832616,"line":2,"station_name":"Lenteng Agung","is_transit":false,"distance":2671,"station_id":"LNA","transit":false,"time":3,"i_lat":-6.330363},{"line":2,"distance":1029,"is_transit":false,"station_name":"Univ. Pancasila","time":2,"transit":false,"i_long":106.834175,"i_lat":-6.339291,"station_id":"UP"},{"i_long":106.831474,"distance":2264,"time":3,"station_name":"Univ. Indonesia","transit":false,"i_lat":-6.360749,"line":2,"station_id":"UI","is_transit":false}]]}