{"data":[[{"is_transit":false,"i_lat":-6.258864,"i_long":107.055722,"station_id":"TB","line":1,"transit":false,"station_name":"Tambun","time":0,"distance":0},{"i_long":107.016735,"i_lat":-6.248029,"station_id":"BKST","time":7,"station_name":"Bekasi Timur","is_transit":false,"transit":false,"line":1,"distance":4460},{"distance":2368,"time":2,"line":1,"station_id":"BKS","transit":false,"is_transit":false,"i_lat":-6.236616,"i_long":106.997013,"station_name":"Bekasi"},{"station_id":"KRI","station_name":"Kranji","line":1,"transit":false,"time":4,"i_lat":-6.224515,"distance":2520,"is_transit":false,"i_long":106.977657},{"is_transit":false,"line":1,"time":3,"i_lat":-6.219053,"station_name":"Cakung","i_long":106.951283,"station_id":"CUK","distance":3097,"transit":false},{"distance":1385,"line":1,"is_transit":false,"i_lat":-6.217455,"time":8,"station_name":"Klenderbaru","transit":false,"station_id":"KLDB","i_long":106.939679},{"station_name":"Buaran","i_long":106.922662,"is_transit":false,"transit":false,"time":1,"i_lat":-6.215568,"station_id":"BUA","line":1,"distance":1305},{"time":2,"station_name":"Klender","station_id":"KLD","transit":false,"i_lat":-6.2135,"line":1,"distance":3100,"is_transit":false,"i_long":106.899548},{"is_transit":false,"station_id":"JNG","i_long":106.86807400000001,"time":3,"i_lat":-6.215091,"station_name":"Jatinegara","transit":false,"distance":3395,"line":1},{"station_name":"Matraman","time":2,"is_transit":false,"i_lat":-6.212485,"transit":false,"i_long":106.858896,"station_id":"MTR","distance":1377,"line":1},{"line":2,"time":2,"distance":1275,"transit":true,"station_name":"Manggarai","i_lat":-6.209883,"is_transit":true,"station_id":"MRI","i_long":106.84912},{"station_name":"Tebet","distance":2610,"i_long":106.857948,"time":4,"is_transit":false,"transit":false,"station_id":"TEB","line":2,"i_lat":-6.226659},{"is_transit":false,"station_id":"CW","transit":false,"distance":1230,"i_lat":-6.242512,"time":2,"station_name":"Cawang","i_long":106.856607,"line":2},{"transit":false,"i_long":106.85449,"station_name":"Duren Kalibata","distance":1546,"line":2,"time":3,"is_transit":false,"station_id":"DRN","i_lat":-6.255332},{"line":2,"is_transit":false,"distance":824,"transit":false,"station_id":"PSMB","station_name":"Pasar Minggu Baru","i_lat":-6.263214,"time":2,"i_long":106.851577},{"line":2,"time":2,"station_id":"PSM","station_name":"Pasar Minggu","is_transit":false,"transit":false,"i_lat":-6.2842400000000005,"distance":2380,"i_long":106.843999},{"distance":2820,"station_id":"TNT","time":4,"i_long":106.838896,"station_name":"Tanjung Barat","is_transit":false,"line":2,"transit":false,"i_lat":-6.3080680000000005},{"is_transit":false,"transit":false,"station_name":"Lenteng Agung","station_id":"LNA","line":2,"i_lat":-6.330363,"i_long":106.832616,"distance":2671,"time":3},{"is_transit":false,"station_name":"Univ. Pancasila","i_lat":-6.339291,"time":2,"distance":1029,"transit":false,"station_id":"UP","line":2,"i_long":106.834175}],[{"i_long":107.055722,"line":1,"is_transit":false,"distance":0,"time":0,"station_id":"TB","transit":false,"i_lat":-6.258864,"station_name":"Tambun"},{"line":1,"station_name":"Bekasi Timur","station_id":"BKST","i_lat":-6.248029,"transit":false,"i_long":107.016735,"time":7,"distance":4460,"is_transit":false},{"station_id":"BKS","time":2,"line":1,"transit":false,"distance":2368,"station_name":"Bekasi","i_lat":-6.236616,"i_long":106.997013,"is_transit":false},{"time":4,"transit":false,"i_lat":-6.224515,"distance":2520,"line":1,"i_long":106.977657,"station_id":"KRI","station_name":"Kranji","is_transit":false},{"line":1,"is_transit":false,"transit":false,"distance":3097,"station_name":"Cakung","i_lat":-6.219053,"station_id":"CUK","i_long":106.951283,"time":3},{"distance":1385,"time":8,"i_lat":-6.217455,"station_id":"KLDB","i_long":106.939679,"transit":false,"station_name":"Klenderbaru","is_transit":false,"line":1},{"time":1,"distance":1305,"line":1,"is_transit":false,"station_name":"Buaran","transit":false,"station_id":"BUA","i_lat":-6.215568,"i_long":106.922662},{"distance":3100,"transit":false,"station_id":"KLD","i_lat":-6.2135,"station_name":"Klender","line":1,"i_long":106.899548,"time":2,"is_transit":false},{"station_name":"Jatinegara","is_transit":true,"i_long":106.86807400000001,"line":1,"station_id":"JNG","transit":true,"i_lat":-6.215091,"time":3,"distance":3395},{"line":11,"time":2,"i_lat":-6.209188,"is_transit":false,"transit":false,"station_name":"Pondok Jati","station_id":"POK","i_long":106.861737,"distance":1236},{"time":2,"is_transit":false,"station_name":"Kramat","i_long":106.855437,"distance":1829,"transit":false,"line":11,"station_id":"KMT","i_lat":-6.193792},{"station_name":"Gang Sentiong","distance":973,"station_id":"GST","i_lat":-6.185975,"time":1,"is_transit":false,"line":11,"transit":false,"i_long":106.850107},{"i_lat":-6.174784,"i_long":106.84368,"line":11,"station_name":"Pasar Senen","time":8,"is_transit":false,"transit":false,"station_id":"PSE","distance":1567},{"i_lat":-6.161728,"line":11,"station_name":"Kemayoran","station_id":"KMO","distance":1436,"is_transit":false,"transit":false,"time":4,"i_long":106.839204},{"station_name":"Rajawali","i_lat":-6.14505,"transit":false,"i_long":106.836569,"line":11,"station_id":"RJW","distance":1901,"time":5,"is_transit":false},{"time":3,"distance":1444,"station_id":"KPB","is_transit":true,"i_lat":-6.132549,"i_long":106.826365,"line":4,"transit":true,"station_name":"Kampung Bandan"},{"distance":4102,"time":9,"station_name":"Angke","station_id":"AK","i_lat":-6.144674,"is_transit":false,"i_long":106.79867,"transit":false,"line":1},{"transit":false,"station_id":"DU","is_transit":false,"i_long":106.800832,"station_name":"Duri","distance":1230,"line":1,"i_lat":-6.155215,"time":4},{"i_lat":-6.185545,"time":8,"line":1,"distance":3632,"i_long":106.811091,"station_name":"Tanah Abang","transit":false,"is_transit":false,"station_id":"THB"},{"i_long":106.816351,"station_name":"Karet","transit":false,"line":1,"station_id":"KAT","distance":2029,"is_transit":false,"i_lat":-6.20132,"time":5},{"station_id":"SUDB","i_lat":-6.201433,"i_long":106.819881,"distance":471,"time":1,"is_transit":false,"line":1,"station_name":"Sudirman Baru","transit":false},{"station_id":"SUD","distance":280,"time":1,"is_transit":false,"station_name":"Sudirman","line":1,"transit":false,"i_long":106.822649,"i_lat":-6.202263},{"line":2,"distance":3186,"station_id":"MRI","time":4,"station_name":"Manggarai","i_lat":-6.209883,"is_transit":true,"i_long":106.84912,"transit":true},{"line":2,"distance":2610,"i_long":106.857948,"station_name":"Tebet","transit":false,"is_transit":false,"station_id":"TEB","time":4,"i_lat":-6.226659},{"i_lat":-6.242512,"line":2,"time":2,"station_id":"CW","is_transit":false,"i_long":106.856607,"transit":false,"distance":1230,"station_name":"Cawang"},{"i_lat":-6.255332,"time":3,"distance":1546,"station_id":"DRN","station_name":"Duren Kalibata","i_long":106.85449,"transit":false,"line":2,"is_transit":false},{"line":2,"is_transit":false,"time":2,"station_name":"Pasar Minggu Baru","transit":false,"station_id":"PSMB","distance":824,"i_lat":-6.263214,"i_long":106.851577},{"i_lat":-6.2842400000000005,"transit":false,"i_long":106.843999,"station_id":"PSM","distance":2380,"line":2,"is_transit":false,"time":2,"station_name":"Pasar Minggu"},{"i_long":106.838896,"is_transit":false,"distance":2820,"station_name":"Tanjung Barat","time":4,"transit":false,"station_id":"TNT","line":2,"i_lat":-6.3080680000000005},{"distance":2671,"time":3,"line":2,"station_id":"LNA","transit":false,"is_transit":false,"station_name":"Lenteng Agung","i_lat":-6.330363,"i_long":106.832616},{"distance":1029,"transit":false,"time":2,"line":2,"is_transit":false,"i_long":106.834175,"i_lat":-6.339291,"station_name":"Univ. Pancasila","station_id":"UP"}],[{"station_id":"TB","is_transit":false,"station_name":"Tambun","transit":false,"distance":0,"i_lat":-6.258864,"line":1,"time":0,"i_long":107.055722},{"distance":4460,"is_transit":false,"i_long":107.016735,"transit":false,"time":7,"station_name":"Bekasi Timur","line":1,"i_lat":-6.248029,"station_id":"BKST"},{"line":1,"is_transit":false,"distance":2368,"time":2,"i_lat":-6.236616,"station_id":"BKS","transit":false,"station_name":"Bekasi","i_long":106.997013},{"time":4,"distance":2520,"line":1,"station_id":"KRI","is_transit":false,"station_name":"Kranji","transit":false,"i_long":106.977657,"i_lat":-6.224515},{"time":3,"station_name":"Cakung","station_id":"CUK","transit":false,"is_transit":false,"i_long":106.951283,"line":1,"distance":3097,"i_lat":-6.219053},{"line":1,"distance":1385,"i_lat":-6.217455,"time":8,"station_name":"Klenderbaru","is_transit":false,"i_long":106.939679,"transit":false,"station_id":"KLDB"},{"station_id":"BUA","station_name":"Buaran","distance":1305,"transit":false,"is_transit":false,"i_long":106.922662,"line":1,"time":1,"i_lat":-6.215568},{"is_transit":false,"transit":false,"i_lat":-6.2135,"station_name":"Klender","time":2,"i_long":106.899548,"line":1,"distance":3100,"station_id":"KLD"},{"station_name":"Jatinegara","i_long":106.86807400000001,"distance":3395,"is_transit":true,"time":3,"transit":true,"station_id":"JNG","i_lat":-6.215091,"line":1},{"line":11,"station_name":"Pondok Jati","distance":1236,"transit":false,"i_long":106.861737,"i_lat":-6.209188,"time":2,"station_id":"POK","is_transit":false},{"transit":false,"i_long":106.855437,"line":11,"is_transit":false,"station_id":"KMT","time":2,"distance":1829,"station_name":"Kramat","i_lat":-6.193792},{"line":11,"distance":973,"station_id":"GST","i_long":106.850107,"is_transit":false,"station_name":"Gang Sentiong","time":1,"i_lat":-6.185975,"transit":false},{"i_long":106.84368,"transit":false,"time":8,"distance":1567,"station_name":"Pasar Senen","station_id":"PSE","is_transit":false,"line":11,"i_lat":-6.174784},{"time":4,"station_name":"Kemayoran","station_id":"KMO","i_long":106.839204,"transit":false,"distance":1436,"is_transit":false,"line":11,"i_lat":-6.161728},{"i_lat":-6.14505,"station_id":"RJW","i_long":106.836569,"station_name":"Rajawali","is_transit":false,"time":5,"transit":false,"distance":1901,"line":11},{"station_id":"KPB","station_name":"Kampung Bandan","i_lat":-6.132549,"is_transit":true,"distance":1444,"time":3,"line":4,"i_long":106.826365,"transit":true},{"station_id":"JAKK","transit":true,"time":3,"is_transit":true,"distance":1364,"station_name":"Jakarta Kota","line":2,"i_long":106.812439,"i_lat":-6.137569},{"i_long":106.820901,"line":2,"i_lat":-6.141205,"time":4,"transit":false,"station_id":"JAY","distance":1264,"station_name":"Jayakarta","is_transit":false},{"i_lat":-6.149769,"station_id":"MGB","distance":1080,"i_long":106.82482,"is_transit":false,"time":2,"transit":false,"line":2,"station_name":"Manggabesar"},{"station_id":"SW","line":2,"i_lat":-6.160725,"transit":false,"distance":906,"time":2,"i_long":106.827103,"station_name":"Sawah Besar","is_transit":false},{"transit":false,"station_id":"JUA","distance":1149,"station_name":"Juanda","i_lat":-6.166716,"is_transit":false,"line":2,"time":2,"i_long":106.828284},{"time":4,"is_transit":false,"i_lat":-6.186295,"line":2,"transit":false,"station_id":"GDD","station_name":"Gondangdia","distance":2015,"i_long":106.832183},{"line":2,"transit":false,"is_transit":false,"station_id":"CKI","station_name":"Cikini","i_long":106.840169,"time":3,"distance":1750,"i_lat":-6.198556},{"line":2,"transit":false,"distance":1590,"is_transit":false,"i_long":106.84912,"station_name":"Manggarai","i_lat":-6.209883,"time":4,"station_id":"MRI"},{"line":2,"transit":false,"i_long":106.857948,"station_id":"TEB","time":4,"distance":2610,"station_name":"Tebet","i_lat":-6.226659,"is_transit":false},{"time":2,"station_id":"CW","is_transit":false,"transit":false,"line":2,"station_name":"Cawang","distance":1230,"i_long":106.856607,"i_lat":-6.242512},{"is_transit":false,"i_long":106.85449,"transit":false,"i_lat":-6.255332,"line":2,"time":3,"station_name":"Duren Kalibata","station_id":"DRN","distance":1546},{"i_long":106.851577,"line":2,"is_transit":false,"transit":false,"station_name":"Pasar Minggu Baru","time":2,"distance":824,"i_lat":-6.263214,"station_id":"PSMB"},{"line":2,"i_lat":-6.2842400000000005,"time":2,"station_id":"PSM","transit":false,"station_name":"Pasar Minggu","is_transit":false,"i_long":106.843999,"distance":2380},{"line":2,"time":4,"station_name":"Tanjung Barat","transit":false,"is_transit":false,"station_id":"TNT","distance":2820,"i_lat":-6.3080680000000005,"i_long":106.838896},{"line":2,"distance":2671,"transit":false,"i_lat":-6.330363,"station_name":"Lenteng Agung","station_id":"LNA","time":3,"is_transit":false,"i_long":106.832616},{"line":2,"transit":false,"station_id":"UP","i_lat":-6.339291,"i_long":106.834175,"distance":1029,"time":2,"station_name":"Univ. Pancasila","is_transit":false}]]}