{"data":[[{"distance":0,"station_id":"TB","transit":false,"i_long":107.055722,"line":1,"is_transit":false,"i_lat":-6.258864,"station_name":"Tambun","time":0},{"i_long":107.016735,"transit":false,"i_lat":-6.248029,"line":0,"station_name":"Bekasi Timur","station_id":"BKST","distance":4460,"is_transit":false,"time":7},{"i_lat":-6.236616,"line":0,"station_id":"BKS","time":2,"i_long":106.997013,"transit":false,"is_transit":false,"distance":2368,"station_name":"Bekasi"},{"distance":2520,"is_transit":false,"transit":false,"i_lat":-6.224515,"time":4,"i_long":106.977657,"station_id":"KRI","line":1,"station_name":"Kranji"},{"is_transit":false,"station_name":"Cakung","time":3,"i_long":106.951283,"line":0,"distance":3097,"station_id":"CUK","transit":false,"i_lat":-6.219053},{"is_transit":false,"station_name":"Klenderbaru","line":1,"time":8,"transit":false,"station_id":"KLDB","i_long":106.939679,"distance":1385,"i_lat":-6.217455},{"distance":1305,"i_lat":-6.215568,"is_transit":false,"station_id":"BUA","station_name":"Buaran","transit":false,"line":0,"i_long":106.922662,"time":1},{"time":2,"i_lat":-6.2135,"line":1,"station_id":"KLD","distance":3100,"station_name":"Klender","transit":false,"is_transit":false,"i_long":106.899548},{"i_lat":-6.215091,"line":0,"station_id":"JNG","time":3,"i_long":106.86807400000001,"is_transit":true,"distance":3395,"station_name":"Jatinegara","transit":false},{"station_name":"Matraman","time":2,"i_lat":-6.212485,"i_long":106.858896,"is_transit":false,"distance":1377,"station_id":"MTR","transit":false,"line":1},{"station_name":"Manggarai","station_id":"MRI","i_lat":-6.209883,"line":0,"is_transit":true,"i_long":106.84912,"transit":true,"time":2,"distance":1275},{"i_lat":-6.226659,"time":4,"transit":false,"i_long":106.857948,"line":2,"distance":2610,"station_id":"TEB","station_name":"Tebet","is_transit":false},{"is_transit":false,"time":2,"i_long":106.856607,"station_name":"Cawang","transit":false,"station_id":"CW","i_lat":-6.242512,"distance":1230,"line":0},{"distance":1546,"i_long":106.85449,"transit":false,"station_name":"Duren Kalibata","i_lat":-6.255332,"is_transit":false,"time":3,"line":0,"station_id":"DRN"},{"station_name":"Pasar Minggu Baru","i_lat":-6.263214,"i_long":106.851577,"line":2,"time":2,"distance":824,"is_transit":false,"transit":false,"station_id":"PSMB"},{"time":2,"distance":2380,"i_long":106.843999,"i_lat":-6.2842400000000005,"line":2,"station_id":"PSM","station_name":"Pasar Minggu","transit":false,"is_transit":false},{"i_lat":-6.3080680000000005,"line":2,"i_long":106.838896,"station_name":"Tanjung Barat","distance":2820,"is_transit":false,"transit":false,"time":4,"station_id":"TNT"},{"is_transit":false,"station_id":"LNA","i_lat":-6.330363,"transit":false,"line":2,"distance":2671,"station_name":"Lenteng Agung","i_long":106.832616,"time":3},{"station_name":"Univ. Pancasila","is_transit":false,"transit":false,"time":2,"station_id":"UP","i_lat":-6.339291,"i_long":106.834175,"line":2,"distance":1029}],[{"distance":0,"station_name":"Tambun","station_id":"TB","transit":false,"i_long":107.055722,"is_transit":false,"time":0,"i_lat":-6.258864,"line":1},{"line":0,"station_id":"BKST","i_lat":-6.248029,"distance":4460,"is_transit":false,"transit":false,"time":7,"i_long":107.016735,"station_name":"Bekasi Timur"},{"transit":false,"time":2,"is_transit":false,"station_id":"BKS","i_lat":-6.236616,"station_name":"Bekasi","i_long":106.997013,"line":0,"distance":2368},{"distance":2520,"i_long":106.977657,"station_name":"Kranji","station_id":"KRI","is_transit":false,"line":1,"transit":false,"time":4,"i_lat":-6.224515},{"is_transit":false,"i_lat":-6.219053,"time":3,"line":0,"station_name":"Cakung","distance":3097,"station_id":"CUK","i_long":106.951283,"transit":false},{"distance":1385,"transit":false,"i_lat":-6.217455,"station_name":"Klenderbaru","is_transit":false,"line":1,"time":8,"station_id":"KLDB","i_long":106.939679},{"time":1,"i_lat":-6.215568,"line":0,"station_name":"Buaran","transit":false,"station_id":"BUA","is_transit":false,"i_long":106.922662,"distance":1305},{"is_transit":false,"time":2,"station_name":"Klender","line":1,"station_id":"KLD","transit":false,"i_lat":-6.2135,"i_long":106.899548,"distance":3100},{"is_transit":true,"station_name":"Jatinegara","i_lat":-6.215091,"i_long":106.86807400000001,"distance":3395,"line":0,"time":3,"station_id":"JNG","transit":true},{"is_transit":false,"distance":1236,"station_name":"Pondok Jati","time":2,"i_lat":-6.209188,"transit":false,"i_long":106.861737,"line":11,"station_id":"POK"},{"i_lat":-6.193792,"line":11,"time":2,"distance":1829,"i_long":106.855437,"transit":false,"station_id":"KMT","is_transit":false,"station_name":"Kramat"},{"line":11,"transit":false,"i_lat":-6.185975,"station_name":"Gang Sentiong","distance":973,"station_id":"GST","time":1,"i_long":106.850107,"is_transit":false},{"time":8,"station_id":"PSE","transit":false,"i_long":106.84368,"line":11,"station_name":"Pasar Senen","distance":1567,"i_lat":-6.174784,"is_transit":false},{"i_lat":-6.161728,"i_long":106.839204,"line":11,"time":4,"distance":1436,"is_transit":false,"transit":false,"station_id":"KMO","station_name":"Kemayoran"},{"transit":false,"is_transit":false,"i_long":106.836569,"time":5,"line":11,"station_name":"Rajawali","distance":1901,"i_lat":-6.14505,"station_id":"RJW"},{"transit":true,"station_name":"Kampung Bandan","i_long":106.826365,"line":0,"time":3,"distance":1444,"is_transit":true,"i_lat":-6.132549,"station_id":"KPB"},{"is_transit":false,"station_id":"AK","transit":false,"line":0,"i_long":106.79867,"station_name":"Angke","time":9,"distance":4102,"i_lat":-6.144674},{"i_lat":-6.155215,"is_transit":true,"distance":1230,"time":4,"station_id":"DU","transit":true,"station_name":"Duri","line":1,"i_long":106.800832},{"station_id":"THB","is_transit":true,"transit":false,"i_lat":-6.185545,"line":1,"i_long":106.811091,"distance":3632,"time":8,"station_name":"Tanah Abang"},{"transit":false,"is_transit":false,"station_name":"Karet","line":1,"station_id":"KAT","i_lat":-6.20132,"distance":2029,"time":5,"i_long":106.816351},{"i_long":106.819881,"station_id":"SUDB","station_name":"Sudirman Baru","i_lat":-6.201433,"distance":471,"is_transit":false,"time":1,"line":1,"transit":false},{"distance":280,"station_id":"SUD","line":1,"time":1,"i_lat":-6.202263,"station_name":"Sudirman","i_long":106.822649,"is_transit":false,"transit":false},{"time":4,"line":0,"station_id":"MRI","i_long":106.84912,"is_transit":true,"transit":true,"distance":3186,"station_name":"Manggarai","i_lat":-6.209883},{"i_long":106.857948,"is_transit":false,"station_id":"TEB","station_name":"Tebet","distance":2610,"transit":false,"time":4,"i_lat":-6.226659,"line":2},{"distance":1230,"is_transit":false,"time":2,"i_lat":-6.242512,"transit":false,"line":0,"i_long":106.856607,"station_id":"CW","station_name":"Cawang"},{"i_lat":-6.255332,"time":3,"line":0,"station_name":"Duren Kalibata","station_id":"DRN","transit":false,"is_transit":false,"i_long":106.85449,"distance":1546},{"i_long":106.851577,"station_id":"PSMB","i_lat":-6.263214,"is_transit":false,"station_name":"Pasar Minggu Baru","distance":824,"time":2,"transit":false,"line":2},{"station_name":"Pasar Minggu","is_transit":false,"time":2,"line":2,"station_id":"PSM","distance":2380,"transit":false,"i_lat":-6.2842400000000005,"i_long":106.843999},{"i_long":106.838896,"line":2,"station_name":"Tanjung Barat","station_id":"TNT","i_lat":-6.3080680000000005,"distance":2820,"is_transit":false,"time":4,"transit":false},{"distance":2671,"is_transit":false,"transit":false,"i_lat":-6.330363,"station_id":"LNA","station_name":"Lenteng Agung","line":2,"time":3,"i_long":106.832616},{"i_lat":-6.339291,"time":2,"i_long":106.834175,"distance":1029,"station_id":"UP","transit":false,"line":2,"is_transit":false,"station_name":"Univ. Pancasila"}],[{"is_transit":false,"station_id":"TB","station_name":"Tambun","transit":false,"i_lat":-6.258864,"i_long":107.055722,"distance":0,"line":1,"time":0},{"transit":false,"station_name":"Bekasi Timur","station_id":"BKST","i_lat":-6.248029,"time":7,"i_long":107.016735,"is_transit":false,"line":0,"distance":4460},{"line":0,"transit":false,"i_long":106.997013,"station_id":"BKS","i_lat":-6.236616,"is_transit":false,"distance":2368,"station_name":"Bekasi","time":2},{"i_lat":-6.224515,"transit":false,"station_id":"KRI","station_name":"Kranji","time":4,"i_long":106.977657,"distance":2520,"line":1,"is_transit":false},{"transit":false,"line":0,"distance":3097,"is_transit":false,"station_name":"Cakung","i_long":106.951283,"station_id":"CUK","i_lat":-6.219053,"time":3},{"station_id":"KLDB","i_lat":-6.217455,"i_long":106.939679,"distance":1385,"line":1,"is_transit":false,"transit":false,"time":8,"station_name":"Klenderbaru"},{"i_lat":-6.215568,"time":1,"distance":1305,"station_id":"BUA","station_name":"Buaran","i_long":106.922662,"is_transit":false,"line":0,"transit":false},{"line":1,"i_lat":-6.2135,"station_name":"Klender","time":2,"is_transit":false,"station_id":"KLD","i_long":106.899548,"distance":3100,"transit":false},{"i_lat":-6.215091,"transit":true,"station_name":"Jatinegara","i_long":106.86807400000001,"line":0,"station_id":"JNG","distance":3395,"time":3,"is_transit":true},{"is_transit":false,"station_id":"POK","station_name":"Pondok Jati","i_lat":-6.209188,"time":2,"i_long":106.861737,"line":11,"distance":1236,"transit":false},{"station_name":"Kramat","line":11,"station_id":"KMT","transit":false,"i_lat":-6.193792,"is_transit":false,"i_long":106.855437,"time":2,"distance":1829},{"time":1,"transit":false,"i_long":106.850107,"line":11,"station_name":"Gang Sentiong","i_lat":-6.185975,"distance":973,"station_id":"GST","is_transit":false},{"line":11,"is_transit":false,"station_name":"Pasar Senen","time":8,"distance":1567,"i_lat":-6.174784,"transit":false,"i_long":106.84368,"station_id":"PSE"},{"station_id":"KMO","i_long":106.839204,"station_name":"Kemayoran","transit":false,"time":4,"i_lat":-6.161728,"line":11,"distance":1436,"is_transit":false},{"is_transit":false,"station_id":"RJW","distance":1901,"time":5,"transit":false,"line":11,"i_long":106.836569,"i_lat":-6.14505,"station_name":"Rajawali"},{"transit":true,"time":3,"i_lat":-6.132549,"station_name":"Kampung Bandan","line":0,"is_transit":true,"i_long":106.826365,"distance":1444,"station_id":"KPB"},{"is_transit":true,"station_id":"JAKK","station_name":"Jakarta Kota","i_lat":-6.137569,"line":0,"transit":true,"time":3,"i_long":106.812439,"distance":1364},{"distance":1264,"transit":false,"line":7,"station_name":"Jayakarta","time":4,"station_id":"JAY","is_transit":false,"i_long":106.820901,"i_lat":-6.141205},{"line":2,"transit":false,"station_name":"Manggabesar","is_transit":false,"distance":1080,"time":2,"i_lat":-6.149769,"station_id":"MGB","i_long":106.82482},{"is_transit":false,"time":2,"i_lat":-6.160725,"station_name":"Sawah Besar","station_id":"SW","distance":906,"transit":false,"i_long":106.827103,"line":2},{"station_name":"Juanda","station_id":"JUA","distance":1149,"is_transit":false,"transit":false,"time":2,"i_lat":-6.166716,"i_long":106.828284,"line":2},{"time":4,"i_long":106.832183,"station_id":"GDD","transit":false,"line":2,"i_lat":-6.186295,"station_name":"Gondangdia","distance":2015,"is_transit":false},{"time":3,"line":0,"is_transit":false,"i_long":106.840169,"distance":1750,"station_id":"CKI","i_lat":-6.198556,"transit":false,"station_name":"Cikini"},{"distance":1590,"time":4,"i_long":106.84912,"station_id":"MRI","station_name":"Manggarai","is_transit":true,"transit":true,"i_lat":-6.209883,"line":0},{"time":4,"i_lat":-6.226659,"i_long":106.857948,"distance":2610,"is_transit":false,"station_name":"Tebet","station_id":"TEB","transit":false,"line":2},{"time":2,"i_long":106.856607,"distance":1230,"transit":false,"i_lat":-6.242512,"line":0,"is_transit":false,"station_id":"CW","station_name":"Cawang"},{"distance":1546,"station_id":"DRN","station_name":"Duren Kalibata","i_long":106.85449,"line":0,"time":3,"is_transit":false,"i_lat":-6.255332,"transit":false},{"line":2,"is_transit":false,"distance":824,"transit":false,"i_lat":-6.263214,"station_id":"PSMB","station_name":"Pasar Minggu Baru","i_long":106.851577,"time":2},{"i_lat":-6.2842400000000005,"transit":false,"distance":2380,"station_id":"PSM","station_name":"Pasar Minggu","time":2,"i_long":106.843999,"is_transit":false,"line":2},{"station_id":"TNT","line":2,"station_name":"Tanjung Barat","time":4,"distance":2820,"transit":false,"is_transit":false,"i_long":106.838896,"i_lat":-6.3080680000000005},{"i_long":106.832616,"transit":false,"is_transit":false,"station_name":"Lenteng Agung","time":3,"station_id":"LNA","line":2,"distance":2671,"i_lat":-6.330363},{"station_id":"UP","i_lat":-6.339291,"distance":1029,"station_name":"Univ. Pancasila","i_long":106.834175,"transit":false,"time":2,"line":2,"is_transit":false}]]}