{"data":[[{"is_transit":false,"transit":false,"distance":0,"station_name":"Tambun","station_id":"TB","i_lat":-6.258864,"time":0,"i_long":107.055722,"line":1},{"time":7,"is_transit":false,"distance":4460,"transit":false,"i_lat":-6.248029,"station_id":"BKST","i_long":107.016735,"line":1,"station_name":"Bekasi Timur"},{"station_id":"BKS","is_transit":false,"distance":2368,"i_lat":-6.236616,"transit":false,"station_name":"Bekasi","time":2,"line":1,"i_long":106.997013},{"station_name":"Kranji","is_transit":false,"distance":2520,"station_id":"KRI","transit":false,"time":4,"i_lat":-6.224515,"i_long":106.977657,"line":1},{"time":3,"is_transit":false,"line":1,"i_long":106.951283,"station_id":"CUK","distance":3097,"i_lat":-6.219053,"station_name":"Cakung","transit":false},{"distance":1385,"is_transit":false,"i_long":106.939679,"line":1,"i_lat":-6.217455,"transit":false,"time":8,"station_id":"KLDB","station_name":"Klenderbaru"},{"time":1,"i_long":106.922662,"station_name":"Buaran","station_id":"BUA","line":1,"transit":false,"is_transit":false,"i_lat":-6.215568,"distance":1305},{"i_lat":-6.2135,"time":2,"station_id":"KLD","is_transit":false,"i_long":106.899548,"transit":false,"line":1,"station_name":"Klender","distance":3100},{"transit":false,"station_id":"JNG","time":3,"distance":3395,"i_lat":-6.215091,"line":1,"station_name":"Jatinegara","is_transit":false,"i_long":106.86807400000001},{"transit":false,"is_transit":false,"station_id":"MTR","i_lat":-6.212485,"i_long":106.858896,"line":1,"distance":1377,"time":2,"station_name":"Matraman"},{"i_lat":-6.209883,"line":2,"distance":1275,"station_name":"Manggarai","is_transit":true,"i_long":106.84912,"station_id":"MRI","time":2,"transit":true},{"i_long":106.857948,"station_id":"TEB","i_lat":-6.226659,"time":4,"station_name":"Tebet","line":2,"distance":2610,"transit":false,"is_transit":false},{"i_lat":-6.242512,"i_long":106.856607,"line":2,"transit":false,"time":2,"station_id":"CW","station_name":"Cawang","distance":1230,"is_transit":false},{"is_transit":false,"line":2,"transit":false,"distance":1546,"time":3,"station_name":"Duren Kalibata","i_lat":-6.255332,"station_id":"DRN","i_long":106.85449},{"i_long":106.851577,"distance":824,"transit":false,"is_transit":false,"line":2,"station_name":"Pasar Minggu Baru","i_lat":-6.263214,"station_id":"PSMB","time":2},{"transit":false,"time":2,"is_transit":false,"i_lat":-6.2842400000000005,"station_id":"PSM","station_name":"Pasar Minggu","i_long":106.843999,"line":2,"distance":2380},{"i_lat":-6.3080680000000005,"time":4,"i_long":106.838896,"transit":false,"station_name":"Tanjung Barat","distance":2820,"is_transit":false,"station_id":"TNT","line":2},{"station_id":"LNA","i_long":106.832616,"i_lat":-6.330363,"station_name":"Lenteng Agung","transit":false,"line":2,"distance":2671,"time":3,"is_transit":false},{"i_lat":-6.339291,"station_name":"Univ. Pancasila","is_transit":false,"distance":1029,"station_id":"UP","i_long":106.834175,"line":2,"transit":false,"time":2}],[{"i_long":107.055722,"distance":0,"line":1,"time":0,"i_lat":-6.258864,"station_name":"Tambun","station_id":"TB","transit":false,"is_transit":false},{"line":1,"i_lat":-6.248029,"time":7,"is_transit":false,"i_long":107.016735,"station_name":"Bekasi Timur","transit":false,"station_id":"BKST","distance":4460},{"i_long":106.997013,"line":1,"time":2,"is_transit":false,"i_lat":-6.236616,"distance":2368,"transit":false,"station_name":"Bekasi","station_id":"BKS"},{"time":4,"i_long":106.977657,"station_name":"Kranji","i_lat":-6.224515,"station_id":"KRI","line":1,"distance":2520,"is_transit":false,"transit":false},{"distance":3097,"station_id":"CUK","line":1,"i_lat":-6.219053,"i_long":106.951283,"station_name":"Cakung","time":3,"is_transit":false,"transit":false},{"distance":1385,"station_name":"Klenderbaru","time":8,"station_id":"KLDB","transit":false,"is_transit":false,"i_long":106.939679,"line":1,"i_lat":-6.217455},{"station_name":"Buaran","time":1,"transit":false,"is_transit":false,"station_id":"BUA","i_lat":-6.215568,"i_long":106.922662,"distance":1305,"line":1},{"station_name":"Klender","time":2,"transit":false,"is_transit":false,"i_lat":-6.2135,"i_long":106.899548,"line":1,"station_id":"KLD","distance":3100},{"is_transit":true,"i_long":106.86807400000001,"station_id":"JNG","distance":3395,"line":1,"station_name":"Jatinegara","time":3,"i_lat":-6.215091,"transit":true},{"is_transit":false,"time":2,"i_long":106.861737,"station_name":"Pondok Jati","transit":false,"i_lat":-6.209188,"line":11,"distance":1236,"station_id":"POK"},{"station_name":"Kramat","i_long":106.855437,"line":11,"is_transit":false,"transit":false,"station_id":"KMT","distance":1829,"time":2,"i_lat":-6.193792},{"time":1,"station_id":"GST","i_lat":-6.185975,"transit":false,"i_long":106.850107,"distance":973,"line":11,"station_name":"Gang Sentiong","is_transit":false},{"i_long":106.84368,"station_name":"Pasar Senen","is_transit":false,"station_id":"PSE","transit":false,"distance":1567,"i_lat":-6.174784,"line":11,"time":8},{"i_lat":-6.161728,"distance":1436,"is_transit":false,"transit":false,"station_name":"Kemayoran","i_long":106.839204,"line":11,"time":4,"station_id":"KMO"},{"i_lat":-6.14505,"transit":false,"distance":1901,"is_transit":false,"time":5,"line":11,"i_long":106.836569,"station_name":"Rajawali","station_id":"RJW"},{"i_long":106.826365,"station_name":"Kampung Bandan","transit":true,"time":3,"i_lat":-6.132549,"is_transit":true,"line":4,"station_id":"KPB","distance":1444},{"line":1,"time":9,"transit":false,"station_id":"AK","i_lat":-6.144674,"station_name":"Angke","i_long":106.79867,"distance":4102,"is_transit":false},{"i_lat":-6.155215,"line":1,"time":4,"is_transit":false,"transit":false,"i_long":106.800832,"distance":1230,"station_name":"Duri","station_id":"DU"},{"is_transit":false,"i_long":106.811091,"time":8,"distance":3632,"line":1,"i_lat":-6.185545,"station_name":"Tanah Abang","transit":false,"station_id":"THB"},{"is_transit":false,"station_id":"KAT","line":1,"i_lat":-6.20132,"i_long":106.816351,"transit":false,"time":5,"station_name":"Karet","distance":2029},{"station_id":"SUDB","station_name":"Sudirman Baru","i_lat":-6.201433,"line":1,"transit":false,"is_transit":false,"i_long":106.819881,"distance":471,"time":1},{"is_transit":false,"time":1,"i_lat":-6.202263,"line":1,"station_id":"SUD","station_name":"Sudirman","transit":false,"distance":280,"i_long":106.822649},{"is_transit":true,"time":4,"i_long":106.84912,"line":2,"i_lat":-6.209883,"station_id":"MRI","transit":true,"distance":3186,"station_name":"Manggarai"},{"i_long":106.857948,"transit":false,"distance":2610,"station_name":"Tebet","is_transit":false,"i_lat":-6.226659,"line":2,"time":4,"station_id":"TEB"},{"transit":false,"line":2,"station_id":"CW","time":2,"distance":1230,"i_lat":-6.242512,"i_long":106.856607,"station_name":"Cawang","is_transit":false},{"station_id":"DRN","transit":false,"station_name":"Duren Kalibata","i_lat":-6.255332,"is_transit":false,"line":2,"time":3,"distance":1546,"i_long":106.85449},{"is_transit":false,"distance":824,"i_lat":-6.263214,"station_name":"Pasar Minggu Baru","station_id":"PSMB","time":2,"i_long":106.851577,"transit":false,"line":2},{"station_name":"Pasar Minggu","i_lat":-6.2842400000000005,"distance":2380,"station_id":"PSM","is_transit":false,"transit":false,"i_long":106.843999,"time":2,"line":2},{"is_transit":false,"i_lat":-6.3080680000000005,"transit":false,"i_long":106.838896,"station_name":"Tanjung Barat","time":4,"station_id":"TNT","line":2,"distance":2820},{"transit":false,"i_lat":-6.330363,"distance":2671,"time":3,"i_long":106.832616,"line":2,"station_id":"LNA","station_name":"Lenteng Agung","is_transit":false},{"i_lat":-6.339291,"time":2,"distance":1029,"transit":false,"station_name":"Univ. Pancasila","i_long":106.834175,"line":2,"station_id":"UP","is_transit":false}],[{"distance":0,"station_id":"TB","i_lat":-6.258864,"line":1,"i_long":107.055722,"transit":false,"is_transit":false,"station_name":"Tambun","time":0},{"line":1,"i_long":107.016735,"is_transit":false,"station_name":"Bekasi Timur","transit":false,"time":7,"station_id":"BKST","i_lat":-6.248029,"distance":4460},{"distance":2368,"transit":false,"is_transit":false,"i_lat":-6.236616,"station_name":"Bekasi","time":2,"station_id":"BKS","line":1,"i_long":106.997013},{"distance":2520,"i_long":106.977657,"line":1,"i_lat":-6.224515,"transit":false,"time":4,"station_id":"KRI","station_name":"Kranji","is_transit":false},{"distance":3097,"station_name":"Cakung","station_id":"CUK","transit":false,"i_long":106.951283,"is_transit":false,"time":3,"i_lat":-6.219053,"line":1},{"distance":1385,"i_lat":-6.217455,"line":1,"time":8,"i_long":106.939679,"station_name":"Klenderbaru","station_id":"KLDB","transit":false,"is_transit":false},{"i_lat":-6.215568,"transit":false,"station_id":"BUA","station_name":"Buaran","is_transit":false,"line":1,"time":1,"distance":1305,"i_long":106.922662},{"i_lat":-6.2135,"is_transit":false,"station_id":"KLD","distance":3100,"station_name":"Klender","transit":false,"i_long":106.899548,"time":2,"line":1},{"i_lat":-6.215091,"station_name":"Jatinegara","station_id":"JNG","is_transit":true,"time":3,"i_long":106.86807400000001,"distance":3395,"line":1,"transit":true},{"i_lat":-6.209188,"is_transit":false,"line":11,"transit":false,"distance":1236,"i_long":106.861737,"station_name":"Pondok Jati","time":2,"station_id":"POK"},{"i_long":106.855437,"time":2,"distance":1829,"i_lat":-6.193792,"station_id":"KMT","line":11,"is_transit":false,"transit":false,"station_name":"Kramat"},{"i_long":106.850107,"i_lat":-6.185975,"distance":973,"station_id":"GST","transit":false,"station_name":"Gang Sentiong","is_transit":false,"time":1,"line":11},{"distance":1567,"i_long":106.84368,"transit":false,"is_transit":false,"line":11,"station_name":"Pasar Senen","time":8,"station_id":"PSE","i_lat":-6.174784},{"i_lat":-6.161728,"station_id":"KMO","line":11,"is_transit":false,"distance":1436,"i_long":106.839204,"station_name":"Kemayoran","transit":false,"time":4},{"station_name":"Rajawali","line":11,"time":5,"i_lat":-6.14505,"transit":false,"i_long":106.836569,"is_transit":false,"station_id":"RJW","distance":1901},{"i_lat":-6.132549,"is_transit":true,"distance":1444,"time":3,"station_id":"KPB","line":4,"i_long":106.826365,"transit":true,"station_name":"Kampung Bandan"},{"line":2,"distance":1364,"is_transit":true,"station_name":"Jakarta Kota","i_lat":-6.137569,"time":3,"station_id":"JAKK","i_long":106.812439,"transit":true},{"distance":1264,"line":2,"transit":false,"station_id":"JAY","station_name":"Jayakarta","i_lat":-6.141205,"time":4,"i_long":106.820901,"is_transit":false},{"time":2,"line":2,"station_id":"MGB","is_transit":false,"station_name":"Manggabesar","i_lat":-6.149769,"transit":false,"i_long":106.82482,"distance":1080},{"i_long":106.827103,"station_id":"SW","station_name":"Sawah Besar","is_transit":false,"line":2,"transit":false,"time":2,"i_lat":-6.160725,"distance":906},{"i_long":106.828284,"line":2,"distance":1149,"station_name":"Juanda","time":2,"station_id":"JUA","transit":false,"i_lat":-6.166716,"is_transit":false},{"is_transit":false,"transit":false,"i_lat":-6.186295,"station_id":"GDD","line":2,"distance":2015,"station_name":"Gondangdia","time":4,"i_long":106.832183},{"station_id":"CKI","distance":1750,"i_long":106.840169,"line":2,"station_name":"Cikini","is_transit":false,"i_lat":-6.198556,"time":3,"transit":false},{"station_name":"Manggarai","i_long":106.84912,"distance":1590,"is_transit":false,"i_lat":-6.209883,"line":2,"transit":false,"station_id":"MRI","time":4},{"station_id":"TEB","i_lat":-6.226659,"transit":false,"i_long":106.857948,"time":4,"line":2,"is_transit":false,"distance":2610,"station_name":"Tebet"},{"i_long":106.856607,"station_name":"Cawang","i_lat":-6.242512,"line":2,"transit":false,"is_transit":false,"time":2,"station_id":"CW","distance":1230},{"station_id":"DRN","i_lat":-6.255332,"transit":false,"station_name":"Duren Kalibata","is_transit":false,"time":3,"line":2,"distance":1546,"i_long":106.85449},{"is_transit":false,"line":2,"distance":824,"time":2,"station_id":"PSMB","transit":false,"station_name":"Pasar Minggu Baru","i_lat":-6.263214,"i_long":106.851577},{"time":2,"station_name":"Pasar Minggu","is_transit":false,"station_id":"PSM","i_lat":-6.2842400000000005,"distance":2380,"i_long":106.843999,"transit":false,"line":2},{"station_name":"Tanjung Barat","line":2,"station_id":"TNT","is_transit":false,"distance":2820,"transit":false,"time":4,"i_lat":-6.3080680000000005,"i_long":106.838896},{"transit":false,"station_id":"LNA","time":3,"line":2,"station_name":"Lenteng Agung","is_transit":false,"distance":2671,"i_long":106.832616,"i_lat":-6.330363},{"i_lat":-6.339291,"distance":1029,"is_transit":false,"i_long":106.834175,"transit":false,"station_name":"Univ. Pancasila","line":2,"time":2,"station_id":"UP"}]]}