{"data":[[{"i_long":107.055722,"line":1,"i_lat":-6.258864,"is_transit":false,"transit":false,"distance":0,"station_name":"Tambun","station_id":"TB","time":0},{"is_transit":false,"distance":4460,"i_lat":-6.248029,"time":7,"transit":false,"station_name":"Bekasi Timur","station_id":"BKST","i_long":107.016735,"line":1},{"time":2,"station_id":"BKS","station_name":"Bekasi","line":1,"transit":false,"is_transit":false,"i_lat":-6.236616,"i_long":106.997013,"distance":2368},{"station_name":"Kranji","is_transit":false,"distance":2520,"line":1,"i_lat":-6.224515,"i_long":106.977657,"transit":false,"station_id":"KRI","time":4},{"is_transit":false,"distance":3097,"time":3,"transit":false,"i_lat":-6.219053,"i_long":106.951283,"line":1,"station_name":"Cakung","station_id":"CUK"},{"transit":false,"station_id":"KLDB","is_transit":false,"distance":1385,"i_lat":-6.217455,"i_long":106.939679,"line":1,"time":8,"station_name":"Klenderbaru"},{"station_id":"BUA","station_name":"Buaran","line":1,"time":1,"transit":false,"is_transit":false,"distance":1305,"i_long":106.922662,"i_lat":-6.215568},{"time":2,"station_id":"KLD","i_lat":-6.2135,"station_name":"Klender","line":1,"transit":false,"is_transit":false,"distance":3100,"i_long":106.899548},{"station_name":"Jatinegara","transit":false,"station_id":"JNG","is_transit":false,"time":3,"distance":3395,"i_long":106.86807400000001,"i_lat":-6.215091,"line":1},{"is_transit":false,"station_name":"Matraman","transit":false,"time":2,"distance":1377,"i_long":106.858896,"line":1,"i_lat":-6.212485,"station_id":"MTR"},{"is_transit":true,"time":2,"i_long":106.84912,"transit":true,"station_id":"MRI","line":2,"station_name":"Manggarai","distance":1275,"i_lat":-6.209883},{"time":4,"is_transit":false,"i_lat":-6.226659,"distance":2610,"line":2,"station_name":"Tebet","i_long":106.857948,"station_id":"TEB","transit":false},{"is_transit":false,"line":2,"distance":1230,"station_id":"CW","time":2,"station_name":"Cawang","i_long":106.856607,"transit":false,"i_lat":-6.242512},{"time":3,"i_long":106.85449,"i_lat":-6.255332,"distance":1546,"line":2,"station_name":"Duren Kalibata","is_transit":false,"transit":false,"station_id":"DRN"},{"station_name":"Pasar Minggu Baru","station_id":"PSMB","distance":824,"line":2,"time":2,"transit":false,"i_lat":-6.263214,"i_long":106.851577,"is_transit":false},{"station_id":"PSM","i_long":106.843999,"line":2,"station_name":"Pasar Minggu","distance":2380,"transit":false,"is_transit":false,"time":2,"i_lat":-6.2842400000000005},{"station_name":"Tanjung Barat","line":2,"distance":2820,"station_id":"TNT","transit":false,"time":4,"i_long":106.838896,"i_lat":-6.3080680000000005,"is_transit":false},{"station_name":"Lenteng Agung","transit":false,"station_id":"LNA","is_transit":false,"line":2,"time":3,"i_lat":-6.330363,"i_long":106.832616,"distance":2671},{"transit":false,"station_id":"UP","time":2,"i_lat":-6.339291,"distance":1029,"station_name":"Univ. Pancasila","is_transit":false,"i_long":106.834175,"line":2},{"line":2,"transit":false,"is_transit":false,"station_name":"Univ. Indonesia","station_id":"UI","i_lat":-6.360749,"time":3,"distance":2264,"i_long":106.831474}],[{"i_lat":-6.258864,"is_transit":false,"line":1,"time":0,"transit":false,"i_long":107.055722,"station_id":"TB","distance":0,"station_name":"Tambun"},{"i_long":107.016735,"transit":false,"station_id":"BKST","time":7,"line":1,"distance":4460,"is_transit":false,"station_name":"Bekasi Timur","i_lat":-6.248029},{"station_name":"Bekasi","i_lat":-6.236616,"time":2,"distance":2368,"is_transit":false,"transit":false,"station_id":"BKS","line":1,"i_long":106.997013},{"distance":2520,"transit":false,"station_name":"Kranji","station_id":"KRI","i_lat":-6.224515,"is_transit":false,"line":1,"time":4,"i_long":106.977657},{"station_id":"CUK","line":1,"i_long":106.951283,"station_name":"Cakung","time":3,"distance":3097,"transit":false,"i_lat":-6.219053,"is_transit":false},{"time":8,"i_lat":-6.217455,"station_id":"KLDB","transit":false,"station_name":"Klenderbaru","is_transit":false,"line":1,"distance":1385,"i_long":106.939679},{"i_long":106.922662,"line":1,"station_name":"Buaran","station_id":"BUA","is_transit":false,"time":1,"distance":1305,"i_lat":-6.215568,"transit":false},{"distance":3100,"station_name":"Klender","i_long":106.899548,"is_transit":false,"station_id":"KLD","time":2,"line":1,"transit":false,"i_lat":-6.2135},{"distance":3395,"is_transit":true,"station_name":"Jatinegara","i_lat":-6.215091,"line":1,"station_id":"JNG","transit":true,"time":3,"i_long":106.86807400000001},{"i_lat":-6.209188,"transit":false,"station_name":"Pondok Jati","is_transit":false,"line":11,"station_id":"POK","distance":1236,"time":2,"i_long":106.861737},{"time":2,"line":11,"distance":1829,"transit":false,"station_name":"Kramat","station_id":"KMT","is_transit":false,"i_lat":-6.193792,"i_long":106.855437},{"station_name":"Gang Sentiong","line":11,"i_lat":-6.185975,"i_long":106.850107,"station_id":"GST","is_transit":false,"distance":973,"time":1,"transit":false},{"line":11,"time":8,"i_long":106.84368,"station_id":"PSE","i_lat":-6.174784,"station_name":"Pasar Senen","transit":false,"is_transit":false,"distance":1567},{"i_long":106.839204,"i_lat":-6.161728,"transit":false,"line":11,"station_name":"Kemayoran","distance":1436,"station_id":"KMO","time":4,"is_transit":false},{"i_long":106.836569,"i_lat":-6.14505,"is_transit":false,"time":5,"transit":false,"station_name":"Rajawali","station_id":"RJW","distance":1901,"line":11},{"transit":true,"i_lat":-6.132549,"station_id":"KPB","time":3,"i_long":106.826365,"is_transit":true,"line":4,"distance":1444,"station_name":"Kampung Bandan"},{"station_name":"Angke","i_long":106.79867,"i_lat":-6.144674,"transit":false,"time":9,"distance":4102,"station_id":"AK","is_transit":false,"line":1},{"station_name":"Duri","time":4,"distance":1230,"i_lat":-6.155215,"transit":false,"line":1,"is_transit":false,"i_long":106.800832,"station_id":"DU"},{"transit":false,"i_lat":-6.185545,"is_transit":false,"i_long":106.811091,"station_name":"Tanah Abang","station_id":"THB","time":8,"distance":3632,"line":1},{"is_transit":false,"transit":false,"distance":2029,"i_long":106.816351,"i_lat":-6.20132,"station_name":"Karet","line":1,"time":5,"station_id":"KAT"},{"is_transit":false,"line":1,"station_name":"Sudirman Baru","time":1,"transit":false,"distance":471,"station_id":"SUDB","i_lat":-6.201433,"i_long":106.819881},{"is_transit":false,"transit":false,"station_id":"SUD","i_lat":-6.202263,"distance":280,"line":1,"time":1,"i_long":106.822649,"station_name":"Sudirman"},{"i_long":106.84912,"line":2,"i_lat":-6.209883,"time":4,"transit":true,"station_id":"MRI","is_transit":true,"distance":3186,"station_name":"Manggarai"},{"station_id":"TEB","station_name":"Tebet","transit":false,"i_lat":-6.226659,"distance":2610,"i_long":106.857948,"is_transit":false,"line":2,"time":4},{"i_long":106.856607,"station_id":"CW","is_transit":false,"distance":1230,"line":2,"transit":false,"time":2,"station_name":"Cawang","i_lat":-6.242512},{"time":3,"i_lat":-6.255332,"line":2,"is_transit":false,"transit":false,"station_id":"DRN","i_long":106.85449,"station_name":"Duren Kalibata","distance":1546},{"i_long":106.851577,"station_name":"Pasar Minggu Baru","transit":false,"distance":824,"line":2,"i_lat":-6.263214,"time":2,"is_transit":false,"station_id":"PSMB"},{"distance":2380,"i_long":106.843999,"station_id":"PSM","transit":false,"is_transit":false,"i_lat":-6.2842400000000005,"station_name":"Pasar Minggu","time":2,"line":2},{"station_id":"TNT","distance":2820,"time":4,"transit":false,"i_long":106.838896,"line":2,"station_name":"Tanjung Barat","is_transit":false,"i_lat":-6.3080680000000005},{"i_long":106.832616,"transit":false,"station_name":"Lenteng Agung","station_id":"LNA","i_lat":-6.330363,"is_transit":false,"line":2,"distance":2671,"time":3},{"i_long":106.834175,"i_lat":-6.339291,"line":2,"transit":false,"time":2,"distance":1029,"station_id":"UP","is_transit":false,"station_name":"Univ. Pancasila"},{"i_lat":-6.360749,"line":2,"distance":2264,"i_long":106.831474,"station_id":"UI","station_name":"Univ. Indonesia","is_transit":false,"time":3,"transit":false}],[{"transit":false,"distance":0,"line":1,"station_id":"TB","is_transit":false,"time":0,"i_long":107.055722,"i_lat":-6.258864,"station_name":"Tambun"},{"line":1,"distance":4460,"station_id":"BKST","transit":false,"i_long":107.016735,"is_transit":false,"time":7,"station_name":"Bekasi Timur","i_lat":-6.248029},{"transit":false,"i_lat":-6.236616,"line":1,"station_name":"Bekasi","is_transit":false,"i_long":106.997013,"time":2,"station_id":"BKS","distance":2368},{"transit":false,"line":1,"time":4,"i_lat":-6.224515,"is_transit":false,"station_name":"Kranji","station_id":"KRI","distance":2520,"i_long":106.977657},{"i_lat":-6.219053,"distance":3097,"i_long":106.951283,"time":3,"is_transit":false,"station_id":"CUK","line":1,"transit":false,"station_name":"Cakung"},{"transit":false,"i_lat":-6.217455,"is_transit":false,"time":8,"distance":1385,"line":1,"station_id":"KLDB","station_name":"Klenderbaru","i_long":106.939679},{"line":1,"station_id":"BUA","station_name":"Buaran","is_transit":false,"time":1,"distance":1305,"i_lat":-6.215568,"i_long":106.922662,"transit":false},{"distance":3100,"station_name":"Klender","time":2,"station_id":"KLD","i_lat":-6.2135,"line":1,"i_long":106.899548,"transit":false,"is_transit":false},{"station_id":"JNG","distance":3395,"time":3,"transit":true,"station_name":"Jatinegara","i_long":106.86807400000001,"i_lat":-6.215091,"is_transit":true,"line":1},{"distance":1236,"i_lat":-6.209188,"transit":false,"station_id":"POK","i_long":106.861737,"station_name":"Pondok Jati","is_transit":false,"time":2,"line":11},{"station_id":"KMT","distance":1829,"line":11,"i_lat":-6.193792,"time":2,"is_transit":false,"i_long":106.855437,"transit":false,"station_name":"Kramat"},{"station_id":"GST","time":1,"transit":false,"i_long":106.850107,"i_lat":-6.185975,"is_transit":false,"distance":973,"station_name":"Gang Sentiong","line":11},{"time":8,"is_transit":false,"i_lat":-6.174784,"station_id":"PSE","transit":false,"station_name":"Pasar Senen","distance":1567,"i_long":106.84368,"line":11},{"i_lat":-6.161728,"transit":false,"station_id":"KMO","station_name":"Kemayoran","time":4,"distance":1436,"i_long":106.839204,"line":11,"is_transit":false},{"transit":false,"station_id":"RJW","line":11,"i_lat":-6.14505,"time":5,"i_long":106.836569,"distance":1901,"station_name":"Rajawali","is_transit":false},{"i_long":106.826365,"is_transit":true,"i_lat":-6.132549,"time":3,"line":4,"station_id":"KPB","distance":1444,"transit":true,"station_name":"Kampung Bandan"},{"station_name":"Jakarta Kota","i_long":106.812439,"line":2,"i_lat":-6.137569,"time":3,"station_id":"JAKK","transit":true,"is_transit":true,"distance":1364},{"distance":1264,"is_transit":false,"station_name":"Jayakarta","line":2,"i_lat":-6.141205,"i_long":106.820901,"time":4,"transit":false,"station_id":"JAY"},{"station_name":"Manggabesar","i_long":106.82482,"transit":false,"time":2,"line":2,"i_lat":-6.149769,"station_id":"MGB","is_transit":false,"distance":1080},{"i_long":106.827103,"distance":906,"transit":false,"line":2,"station_id":"SW","time":2,"station_name":"Sawah Besar","is_transit":false,"i_lat":-6.160725},{"i_long":106.828284,"line":2,"is_transit":false,"distance":1149,"station_id":"JUA","time":2,"station_name":"Juanda","i_lat":-6.166716,"transit":false},{"distance":2015,"station_name":"Gondangdia","station_id":"GDD","i_lat":-6.186295,"i_long":106.832183,"is_transit":false,"time":4,"transit":false,"line":2},{"transit":false,"station_id":"CKI","distance":1750,"line":2,"is_transit":false,"i_lat":-6.198556,"time":3,"i_long":106.840169,"station_name":"Cikini"},{"i_lat":-6.209883,"is_transit":false,"transit":false,"time":4,"station_id":"MRI","station_name":"Manggarai","i_long":106.84912,"line":2,"distance":1590},{"transit":false,"station_name":"Tebet","time":4,"station_id":"TEB","i_lat":-6.226659,"line":2,"is_transit":false,"distance":2610,"i_long":106.857948},{"time":2,"station_id":"CW","line":2,"i_lat":-6.242512,"is_transit":false,"transit":false,"station_name":"Cawang","distance":1230,"i_long":106.856607},{"time":3,"distance":1546,"line":2,"station_name":"Duren Kalibata","i_long":106.85449,"is_transit":false,"i_lat":-6.255332,"transit":false,"station_id":"DRN"},{"i_long":106.851577,"time":2,"station_name":"Pasar Minggu Baru","distance":824,"i_lat":-6.263214,"is_transit":false,"station_id":"PSMB","line":2,"transit":false},{"is_transit":false,"time":2,"i_lat":-6.2842400000000005,"i_long":106.843999,"line":2,"distance":2380,"station_id":"PSM","transit":false,"station_name":"Pasar Minggu"},{"distance":2820,"transit":false,"station_id":"TNT","i_long":106.838896,"time":4,"i_lat":-6.3080680000000005,"station_name":"Tanjung Barat","is_transit":false,"line":2},{"transit":false,"line":2,"distance":2671,"i_long":106.832616,"is_transit":false,"station_id":"LNA","station_name":"Lenteng Agung","time":3,"i_lat":-6.330363},{"line":2,"station_name":"Univ. Pancasila","is_transit":false,"distance":1029,"i_lat":-6.339291,"i_long":106.834175,"station_id":"UP","time":2,"transit":false},{"i_lat":-6.360749,"line":2,"i_long":106.831474,"station_id":"UI","is_transit":false,"time":3,"transit":false,"distance":2264,"station_name":"Univ. Indonesia"}]]}