{"data":[[{"time":0,"i_lat":-6.258864,"transit":false,"station_id":"TB","station_name":"Tambun","is_transit":false,"line":1,"distance":0,"i_long":107.055722},{"station_id":"BKST","i_long":107.016735,"transit":false,"line":1,"time":7,"is_transit":false,"station_name":"Bekasi Timur","i_lat":-6.248029,"distance":4460},{"i_lat":-6.236616,"i_long":106.997013,"station_id":"BKS","transit":false,"line":1,"distance":2368,"time":2,"station_name":"Bekasi","is_transit":false},{"station_name":"Kranji","transit":false,"i_long":106.977657,"station_id":"KRI","is_transit":false,"line":1,"distance":2520,"i_lat":-6.224515,"time":4},{"station_name":"Cakung","station_id":"CUK","line":1,"i_long":106.951283,"time":3,"distance":3097,"is_transit":false,"transit":false,"i_lat":-6.219053},{"i_long":106.939679,"line":1,"station_id":"KLDB","time":8,"distance":1385,"is_transit":false,"i_lat":-6.217455,"station_name":"Klenderbaru","transit":false},{"station_id":"BUA","i_long":106.922662,"line":1,"is_transit":false,"transit":false,"time":1,"distance":1305,"station_name":"Buaran","i_lat":-6.215568},{"distance":3100,"time":2,"is_transit":false,"i_long":106.899548,"station_name":"Klender","i_lat":-6.2135,"transit":false,"line":1,"station_id":"KLD"},{"time":3,"is_transit":false,"i_lat":-6.215091,"i_long":106.86807400000001,"station_id":"JNG","line":1,"transit":false,"distance":3395,"station_name":"Jatinegara"},{"station_id":"MTR","time":2,"distance":1377,"is_transit":false,"station_name":"Matraman","transit":false,"i_long":106.858896,"line":1,"i_lat":-6.212485},{"time":2,"transit":true,"distance":1275,"is_transit":true,"i_long":106.84912,"station_id":"MRI","i_lat":-6.209883,"station_name":"Manggarai","line":2},{"i_long":106.857948,"line":2,"transit":false,"station_id":"TEB","time":4,"distance":2610,"station_name":"Tebet","is_transit":false,"i_lat":-6.226659},{"time":2,"line":2,"i_lat":-6.242512,"transit":false,"i_long":106.856607,"distance":1230,"station_name":"Cawang","is_transit":false,"station_id":"CW"},{"station_name":"Duren Kalibata","distance":1546,"is_transit":false,"i_lat":-6.255332,"transit":false,"station_id":"DRN","i_long":106.85449,"time":3,"line":2},{"is_transit":false,"i_lat":-6.263214,"station_name":"Pasar Minggu Baru","line":2,"time":2,"distance":824,"station_id":"PSMB","transit":false,"i_long":106.851577},{"station_id":"PSM","station_name":"Pasar Minggu","i_lat":-6.2842400000000005,"transit":false,"line":2,"time":2,"distance":2380,"is_transit":false,"i_long":106.843999},{"i_lat":-6.3080680000000005,"i_long":106.838896,"station_name":"Tanjung Barat","transit":false,"station_id":"TNT","is_transit":false,"line":2,"distance":2820,"time":4},{"transit":false,"station_name":"Lenteng Agung","station_id":"LNA","i_lat":-6.330363,"is_transit":false,"distance":2671,"time":3,"i_long":106.832616,"line":2},{"i_long":106.834175,"distance":1029,"station_id":"UP","time":2,"station_name":"Univ. Pancasila","is_transit":false,"transit":false,"i_lat":-6.339291,"line":2},{"i_lat":-6.360749,"is_transit":false,"station_name":"Univ. Indonesia","station_id":"UI","distance":2264,"transit":false,"i_long":106.831474,"line":2,"time":3}],[{"distance":0,"is_transit":false,"i_lat":-6.258864,"time":0,"transit":false,"station_name":"Tambun","i_long":107.055722,"line":1,"station_id":"TB"},{"station_id":"BKST","i_long":107.016735,"is_transit":false,"i_lat":-6.248029,"distance":4460,"station_name":"Bekasi Timur","line":1,"transit":false,"time":7},{"transit":false,"station_id":"BKS","station_name":"Bekasi","i_lat":-6.236616,"time":2,"line":1,"i_long":106.997013,"is_transit":false,"distance":2368},{"station_name":"Kranji","is_transit":false,"i_long":106.977657,"line":1,"transit":false,"i_lat":-6.224515,"time":4,"distance":2520,"station_id":"KRI"},{"line":1,"station_id":"CUK","i_long":106.951283,"i_lat":-6.219053,"station_name":"Cakung","distance":3097,"time":3,"is_transit":false,"transit":false},{"time":8,"distance":1385,"i_lat":-6.217455,"transit":false,"station_id":"KLDB","is_transit":false,"station_name":"Klenderbaru","i_long":106.939679,"line":1},{"is_transit":false,"distance":1305,"transit":false,"station_id":"BUA","station_name":"Buaran","time":1,"i_long":106.922662,"line":1,"i_lat":-6.215568},{"station_id":"KLD","transit":false,"station_name":"Klender","i_lat":-6.2135,"i_long":106.899548,"time":2,"is_transit":false,"line":1,"distance":3100},{"line":1,"i_lat":-6.215091,"time":3,"i_long":106.86807400000001,"station_name":"Jatinegara","is_transit":true,"station_id":"JNG","transit":true,"distance":3395},{"i_long":106.861737,"i_lat":-6.209188,"is_transit":false,"transit":false,"station_id":"POK","line":11,"station_name":"Pondok Jati","distance":1236,"time":2},{"time":2,"station_name":"Kramat","station_id":"KMT","is_transit":false,"i_lat":-6.193792,"i_long":106.855437,"distance":1829,"transit":false,"line":11},{"i_long":106.850107,"line":11,"is_transit":false,"time":1,"distance":973,"i_lat":-6.185975,"transit":false,"station_id":"GST","station_name":"Gang Sentiong"},{"i_long":106.84368,"station_name":"Pasar Senen","line":11,"i_lat":-6.174784,"transit":false,"is_transit":false,"station_id":"PSE","time":8,"distance":1567},{"distance":1436,"line":11,"is_transit":false,"transit":false,"station_name":"Kemayoran","time":4,"station_id":"KMO","i_lat":-6.161728,"i_long":106.839204},{"is_transit":false,"station_name":"Rajawali","i_long":106.836569,"station_id":"RJW","distance":1901,"line":11,"transit":false,"i_lat":-6.14505,"time":5},{"station_name":"Kampung Bandan","i_long":106.826365,"station_id":"KPB","i_lat":-6.132549,"line":4,"is_transit":true,"distance":1444,"time":3,"transit":true},{"i_long":106.79867,"distance":4102,"time":9,"station_id":"AK","i_lat":-6.144674,"transit":false,"line":1,"is_transit":false,"station_name":"Angke"},{"i_lat":-6.155215,"i_long":106.800832,"transit":false,"distance":1230,"station_id":"DU","time":4,"is_transit":false,"line":1,"station_name":"Duri"},{"i_long":106.811091,"line":1,"is_transit":false,"distance":3632,"i_lat":-6.185545,"transit":false,"time":8,"station_name":"Tanah Abang","station_id":"THB"},{"line":1,"station_id":"KAT","time":5,"distance":2029,"i_lat":-6.20132,"i_long":106.816351,"station_name":"Karet","is_transit":false,"transit":false},{"i_lat":-6.201433,"is_transit":false,"i_long":106.819881,"station_id":"SUDB","transit":false,"line":1,"distance":471,"time":1,"station_name":"Sudirman Baru"},{"is_transit":false,"transit":false,"station_id":"SUD","time":1,"distance":280,"line":1,"i_long":106.822649,"station_name":"Sudirman","i_lat":-6.202263},{"station_id":"MRI","transit":true,"station_name":"Manggarai","line":2,"i_lat":-6.209883,"time":4,"i_long":106.84912,"is_transit":true,"distance":3186},{"time":4,"transit":false,"is_transit":false,"station_id":"TEB","i_lat":-6.226659,"distance":2610,"i_long":106.857948,"line":2,"station_name":"Tebet"},{"i_lat":-6.242512,"transit":false,"time":2,"station_id":"CW","station_name":"Cawang","i_long":106.856607,"distance":1230,"is_transit":false,"line":2},{"line":2,"station_id":"DRN","transit":false,"distance":1546,"i_lat":-6.255332,"time":3,"station_name":"Duren Kalibata","i_long":106.85449,"is_transit":false},{"distance":824,"is_transit":false,"station_id":"PSMB","transit":false,"i_long":106.851577,"i_lat":-6.263214,"station_name":"Pasar Minggu Baru","line":2,"time":2},{"station_id":"PSM","is_transit":false,"distance":2380,"line":2,"i_lat":-6.2842400000000005,"transit":false,"time":2,"i_long":106.843999,"station_name":"Pasar Minggu"},{"is_transit":false,"i_long":106.838896,"i_lat":-6.3080680000000005,"transit":false,"station_name":"Tanjung Barat","time":4,"line":2,"distance":2820,"station_id":"TNT"},{"line":2,"station_name":"Lenteng Agung","is_transit":false,"distance":2671,"i_lat":-6.330363,"time":3,"station_id":"LNA","transit":false,"i_long":106.832616},{"station_name":"Univ. Pancasila","distance":1029,"transit":false,"i_long":106.834175,"line":2,"time":2,"station_id":"UP","is_transit":false,"i_lat":-6.339291},{"station_id":"UI","transit":false,"is_transit":false,"i_long":106.831474,"distance":2264,"station_name":"Univ. Indonesia","i_lat":-6.360749,"time":3,"line":2}],[{"time":0,"transit":false,"station_name":"Tambun","i_long":107.055722,"is_transit":false,"line":1,"i_lat":-6.258864,"distance":0,"station_id":"TB"},{"time":7,"i_lat":-6.248029,"line":1,"distance":4460,"station_name":"Bekasi Timur","i_long":107.016735,"transit":false,"is_transit":false,"station_id":"BKST"},{"station_id":"BKS","i_lat":-6.236616,"time":2,"line":1,"station_name":"Bekasi","transit":false,"is_transit":false,"i_long":106.997013,"distance":2368},{"station_id":"KRI","is_transit":false,"transit":false,"line":1,"distance":2520,"station_name":"Kranji","i_lat":-6.224515,"time":4,"i_long":106.977657},{"distance":3097,"i_lat":-6.219053,"i_long":106.951283,"line":1,"station_id":"CUK","station_name":"Cakung","transit":false,"time":3,"is_transit":false},{"is_transit":false,"i_long":106.939679,"transit":false,"distance":1385,"i_lat":-6.217455,"time":8,"station_id":"KLDB","line":1,"station_name":"Klenderbaru"},{"line":1,"distance":1305,"transit":false,"i_long":106.922662,"station_id":"BUA","i_lat":-6.215568,"time":1,"station_name":"Buaran","is_transit":false},{"time":2,"station_name":"Klender","i_long":106.899548,"distance":3100,"i_lat":-6.2135,"station_id":"KLD","line":1,"is_transit":false,"transit":false},{"i_long":106.86807400000001,"distance":3395,"transit":true,"time":3,"is_transit":true,"station_name":"Jatinegara","i_lat":-6.215091,"line":1,"station_id":"JNG"},{"i_lat":-6.209188,"line":11,"station_name":"Pondok Jati","time":2,"distance":1236,"is_transit":false,"i_long":106.861737,"transit":false,"station_id":"POK"},{"station_name":"Kramat","i_lat":-6.193792,"distance":1829,"line":11,"station_id":"KMT","transit":false,"time":2,"i_long":106.855437,"is_transit":false},{"time":1,"station_name":"Gang Sentiong","i_lat":-6.185975,"transit":false,"station_id":"GST","is_transit":false,"line":11,"i_long":106.850107,"distance":973},{"i_lat":-6.174784,"line":11,"i_long":106.84368,"time":8,"transit":false,"distance":1567,"station_id":"PSE","is_transit":false,"station_name":"Pasar Senen"},{"line":11,"distance":1436,"transit":false,"is_transit":false,"i_long":106.839204,"station_id":"KMO","i_lat":-6.161728,"station_name":"Kemayoran","time":4},{"transit":false,"station_id":"RJW","line":11,"i_long":106.836569,"i_lat":-6.14505,"distance":1901,"station_name":"Rajawali","is_transit":false,"time":5},{"distance":1444,"i_long":106.826365,"i_lat":-6.132549,"station_name":"Kampung Bandan","is_transit":true,"transit":true,"line":4,"time":3,"station_id":"KPB"},{"distance":1364,"transit":true,"time":3,"is_transit":true,"station_name":"Jakarta Kota","i_lat":-6.137569,"i_long":106.812439,"station_id":"JAKK","line":2},{"i_lat":-6.141205,"station_name":"Jayakarta","distance":1264,"is_transit":false,"transit":false,"line":2,"station_id":"JAY","time":4,"i_long":106.820901},{"transit":false,"is_transit":false,"station_name":"Manggabesar","i_lat":-6.149769,"line":2,"i_long":106.82482,"station_id":"MGB","time":2,"distance":1080},{"is_transit":false,"i_long":106.827103,"time":2,"distance":906,"line":2,"station_id":"SW","station_name":"Sawah Besar","transit":false,"i_lat":-6.160725},{"i_long":106.828284,"line":2,"distance":1149,"is_transit":false,"transit":false,"station_id":"JUA","station_name":"Juanda","i_lat":-6.166716,"time":2},{"i_lat":-6.186295,"is_transit":false,"time":4,"transit":false,"i_long":106.832183,"distance":2015,"line":2,"station_id":"GDD","station_name":"Gondangdia"},{"i_long":106.840169,"i_lat":-6.198556,"line":2,"time":3,"station_name":"Cikini","transit":false,"station_id":"CKI","distance":1750,"is_transit":false},{"is_transit":false,"distance":1590,"station_id":"MRI","transit":false,"line":2,"station_name":"Manggarai","i_lat":-6.209883,"time":4,"i_long":106.84912},{"station_name":"Tebet","i_long":106.857948,"i_lat":-6.226659,"line":2,"time":4,"station_id":"TEB","transit":false,"is_transit":false,"distance":2610},{"i_lat":-6.242512,"transit":false,"is_transit":false,"distance":1230,"line":2,"time":2,"station_id":"CW","station_name":"Cawang","i_long":106.856607},{"i_lat":-6.255332,"line":2,"i_long":106.85449,"transit":false,"station_id":"DRN","is_transit":false,"station_name":"Duren Kalibata","distance":1546,"time":3},{"transit":false,"station_name":"Pasar Minggu Baru","distance":824,"is_transit":false,"station_id":"PSMB","time":2,"line":2,"i_long":106.851577,"i_lat":-6.263214},{"distance":2380,"is_transit":false,"transit":false,"station_id":"PSM","time":2,"line":2,"station_name":"Pasar Minggu","i_lat":-6.2842400000000005,"i_long":106.843999},{"line":2,"time":4,"transit":false,"is_transit":false,"distance":2820,"station_id":"TNT","station_name":"Tanjung Barat","i_lat":-6.3080680000000005,"i_long":106.838896},{"station_id":"LNA","station_name":"Lenteng Agung","i_lat":-6.330363,"i_long":106.832616,"line":2,"is_transit":false,"time":3,"distance":2671,"transit":false},{"i_long":106.834175,"is_transit":false,"station_name":"Univ. Pancasila","line":2,"time":2,"distance":1029,"transit":false,"i_lat":-6.339291,"station_id":"UP"},{"i_long":106.831474,"transit":false,"station_name":"Univ. Indonesia","line":2,"time":3,"station_id":"UI","distance":2264,"is_transit":false,"i_lat":-6.360749}]]}