{"data":[[{"line":2,"time":0,"is_transit":false,"distance":0,"station_name":"Tebet","i_lat":-6.226659,"i_long":106.857948,"transit":false,"station_id":"TEB"},{"station_id":"MRI","i_lat":-6.209883,"time":4,"station_name":"Manggarai","is_transit":true,"line":2,"distance":2610,"transit":true,"i_long":106.84912},{"is_transit":false,"i_long":106.858896,"transit":false,"station_id":"MTR","station_name":"Matraman","line":1,"i_lat":-6.212485,"distance":1275,"time":2},{"time":8,"is_transit":true,"i_lat":-6.215091,"i_long":106.86807400000001,"line":1,"distance":1377,"station_name":"Jatinegara","station_id":"JNG","transit":true},{"is_transit":false,"i_lat":-6.209188,"station_name":"Pondok Jati","time":2,"i_long":106.861737,"transit":false,"station_id":"POK","line":11,"distance":1236},{"i_long":106.855437,"line":11,"station_id":"KMT","transit":false,"station_name":"Kramat","time":2,"distance":1829,"is_transit":false,"i_lat":-6.193792},{"distance":973,"is_transit":false,"transit":false,"line":11,"station_id":"GST","i_lat":-6.185975,"time":1,"station_name":"Gang Sentiong","i_long":106.850107},{"is_transit":false,"station_id":"PSE","line":11,"time":8,"station_name":"Pasar Senen","i_long":106.84368,"distance":1567,"i_lat":-6.174784,"transit":false}],[{"station_id":"TEB","is_transit":false,"i_lat":-6.226659,"time":0,"line":2,"transit":false,"distance":0,"station_name":"Tebet","i_long":106.857948},{"transit":true,"i_lat":-6.209883,"distance":2610,"time":4,"i_long":106.84912,"is_transit":true,"station_name":"Manggarai","station_id":"MRI","line":2},{"i_long":106.822649,"is_transit":false,"transit":false,"station_id":"SUD","distance":3186,"time":4,"i_lat":-6.202263,"line":1,"station_name":"Sudirman"},{"is_transit":false,"station_id":"SUDB","time":1,"i_lat":-6.201433,"transit":false,"i_long":106.819881,"station_name":"Sudirman Baru","line":1,"distance":280},{"station_name":"Karet","is_transit":false,"i_long":106.816351,"line":1,"station_id":"KAT","distance":471,"time":1,"i_lat":-6.20132,"transit":false},{"is_transit":false,"station_name":"Tanah Abang","i_lat":-6.185545,"i_long":106.811091,"distance":2029,"time":5,"station_id":"THB","transit":false,"line":1},{"station_id":"DU","station_name":"Duri","distance":3632,"is_transit":false,"time":8,"i_lat":-6.155215,"transit":false,"i_long":106.800832,"line":1},{"time":4,"is_transit":false,"station_name":"Angke","i_lat":-6.144674,"line":1,"station_id":"AK","i_long":106.79867,"distance":1230,"transit":false},{"i_lat":-6.132549,"i_long":106.826365,"is_transit":true,"time":9,"distance":4102,"station_id":"KPB","transit":true,"station_name":"Kampung Bandan","line":4},{"time":3,"is_transit":false,"i_long":106.836569,"line":11,"station_name":"Rajawali","distance":1444,"transit":false,"i_lat":-6.14505,"station_id":"RJW"},{"line":11,"transit":false,"i_lat":-6.161728,"station_id":"KMO","distance":1901,"station_name":"Kemayoran","time":5,"is_transit":false,"i_long":106.839204},{"is_transit":false,"station_name":"Pasar Senen","distance":1436,"line":11,"i_lat":-6.174784,"time":4,"i_long":106.84368,"transit":false,"station_id":"PSE"}],[{"station_name":"Tebet","time":0,"station_id":"TEB","transit":false,"i_lat":-6.226659,"i_long":106.857948,"distance":0,"line":2,"is_transit":false},{"transit":false,"distance":2610,"station_id":"MRI","is_transit":false,"i_lat":-6.209883,"time":4,"i_long":106.84912,"station_name":"Manggarai","line":2},{"i_lat":-6.198556,"station_name":"Cikini","distance":1590,"time":4,"transit":false,"is_transit":false,"station_id":"CKI","i_long":106.840169,"line":2},{"line":2,"distance":1750,"station_id":"GDD","i_lat":-6.186295,"time":3,"transit":false,"is_transit":false,"station_name":"Gondangdia","i_long":106.832183},{"station_name":"Juanda","time":4,"station_id":"JUA","i_lat":-6.166716,"transit":false,"i_long":106.828284,"distance":2015,"line":2,"is_transit":false},{"line":2,"transit":false,"time":2,"i_lat":-6.160725,"i_long":106.827103,"station_id":"SW","is_transit":false,"distance":1149,"station_name":"Sawah Besar"},{"transit":false,"distance":906,"i_lat":-6.149769,"time":2,"is_transit":false,"i_long":106.82482,"station_id":"MGB","station_name":"Manggabesar","line":2},{"i_lat":-6.141205,"distance":1080,"station_name":"Jayakarta","station_id":"JAY","is_transit":false,"transit":false,"i_long":106.820901,"time":2,"line":2},{"i_lat":-6.137569,"station_id":"JAKK","station_name":"Jakarta Kota","i_long":106.812439,"transit":true,"distance":1264,"time":4,"is_transit":true,"line":2},{"station_id":"KPB","is_transit":true,"line":4,"station_name":"Kampung Bandan","i_lat":-6.132549,"transit":true,"i_long":106.826365,"time":3,"distance":1364},{"station_id":"RJW","distance":1444,"time":3,"i_lat":-6.14505,"is_transit":false,"transit":false,"i_long":106.836569,"station_name":"Rajawali","line":11},{"station_name":"Kemayoran","time":5,"is_transit":false,"i_long":106.839204,"transit":false,"station_id":"KMO","distance":1901,"i_lat":-6.161728,"line":11},{"is_transit":false,"transit":false,"line":11,"station_id":"PSE","station_name":"Pasar Senen","i_long":106.84368,"distance":1436,"i_lat":-6.174784,"time":4}]]}