{"data":[[{"station_id":"TEB","station_name":"Tebet","distance":0,"transit":false,"line":2,"is_transit":false,"i_lat":-6.226659,"time":0,"i_long":106.857948},{"station_name":"Cawang","transit":false,"line":2,"is_transit":false,"station_id":"CW","distance":1230,"i_lat":-6.242512,"time":2,"i_long":106.856607},{"line":2,"is_transit":false,"distance":1546,"time":3,"station_id":"DRN","station_name":"Duren Kalibata","i_lat":-6.255332,"i_long":106.85449,"transit":false},{"i_long":106.851577,"distance":824,"transit":false,"i_lat":-6.263214,"time":2,"station_name":"Pasar Minggu Baru","is_transit":false,"line":2,"station_id":"PSMB"},{"line":2,"station_id":"PSM","i_long":106.843999,"distance":2380,"transit":false,"i_lat":-6.2842400000000005,"time":2,"station_name":"Pasar Minggu","is_transit":false},{"i_lat":-6.3080680000000005,"station_name":"Tanjung Barat","transit":false,"time":4,"station_id":"TNT","distance":2820,"is_transit":false,"line":2,"i_long":106.838896},{"i_lat":-6.330363,"distance":2671,"station_name":"Lenteng Agung","line":2,"transit":false,"is_transit":false,"i_long":106.832616,"time":3,"station_id":"LNA"},{"time":2,"line":2,"i_long":106.834175,"station_name":"Univ. Pancasila","i_lat":-6.339291,"distance":1029,"is_transit":false,"station_id":"UP","transit":false},{"i_long":106.831474,"i_lat":-6.360749,"time":3,"line":2,"station_id":"UI","distance":2264,"transit":false,"is_transit":false,"station_name":"Univ. Indonesia"},{"i_lat":-6.369073,"station_id":"POC","is_transit":false,"distance":1109,"station_name":"Pondok Cina","i_long":106.831114,"line":2,"time":2,"transit":false},{"is_transit":false,"i_long":106.819451,"station_id":"DPB","time":4,"station_name":"Depokbaru","line":2,"i_lat":-6.391065,"distance":2727,"transit":false},{"i_lat":-6.405256,"transit":false,"is_transit":false,"i_long":106.816926,"station_id":"DP","line":2,"time":3,"station_name":"Depok","distance":1584},{"line":2,"station_id":"CTA","time":6,"distance":5084,"station_name":"Citayam","is_transit":true,"transit":true,"i_lat":-6.448811,"i_long":106.800298},{"i_lat":-6.460735,"station_id":"PDRG","station_name":"Pondok Rajeg","is_transit":false,"time":0,"i_long":106.824374,"distance":0,"transit":false,"line":21},{"is_transit":false,"station_name":"Cibinong","line":21,"transit":false,"i_lat":-6.46424,"time":0,"distance":0,"station_id":"CBN","i_long":106.851978}]]}