{"data":[[{"station_name":"Tebet","is_transit":false,"time":0,"line":2,"distance":0,"station_id":"TEB","transit":false,"i_long":106.857948,"i_lat":-6.226659},{"transit":true,"i_lat":-6.209883,"station_name":"Manggarai","distance":2610,"time":4,"station_id":"MRI","is_transit":true,"line":0,"i_long":106.84912},{"is_transit":false,"station_name":"Sudirman","i_lat":-6.202263,"station_id":"SUD","line":1,"transit":false,"i_long":106.822649,"time":4,"distance":3186},{"i_long":106.819881,"station_id":"SUDB","is_transit":false,"distance":280,"station_name":"Sudirman Baru","transit":false,"time":1,"line":1,"i_lat":-6.201433},{"distance":471,"i_long":106.816351,"station_id":"KAT","station_name":"Karet","i_lat":-6.20132,"transit":false,"line":1,"is_transit":false,"time":1},{"distance":2029,"time":5,"i_lat":-6.185545,"transit":true,"i_long":106.811091,"station_name":"Tanah Abang","is_transit":true,"line":1,"station_id":"THB"},{"distance":3191,"station_id":"PLM","line":6,"i_long":106.79689,"transit":false,"i_lat":-6.207404,"is_transit":false,"station_name":"Palmerah","time":6},{"is_transit":false,"station_id":"KBY","station_name":"Kebayoran","distance":3737,"line":6,"time":7,"i_lat":-6.237242,"transit":false,"i_long":106.780334},{"distance":6218,"time":8,"station_name":"Pondokranji","transit":false,"i_lat":-6.276362,"i_long":106.74273,"line":6,"is_transit":false,"station_id":"PDJ"},{"distance":2179,"line":6,"is_transit":false,"station_name":"Jurangmangu","i_lat":-6.288927,"station_id":"JMU","transit":false,"i_long":106.728916,"time":3},{"i_long":106.712277,"station_id":"SDM","distance":1994,"station_name":"Sudimara","is_transit":false,"time":4,"line":6,"transit":false,"i_lat":-6.296963},{"line":6,"is_transit":false,"time":6,"i_lat":-6.314823,"station_id":"RU","distance":4566,"transit":false,"i_long":106.675475,"station_name":"Rawa Buntu"},{"station_name":"Serpong","station_id":"SRP","time":4,"is_transit":false,"line":6,"distance":2413,"i_long":106.66566,"transit":false,"i_lat":-6.319871},{"distance":1784,"time":4,"line":0,"transit":false,"is_transit":false,"station_name":"Cisauk","i_lat":-6.32484,"station_id":"CSK","i_long":106.640411},{"line":0,"time":4,"transit":false,"station_id":"CC","distance":2519,"is_transit":false,"station_name":"Cicayur","i_lat":-6.329547,"i_long":106.617853},{"transit":false,"line":6,"station_id":"PRP","i_long":106.568863,"i_lat":-6.3441410000000005,"time":8,"station_name":"Parung Panjang","distance":5968,"is_transit":false},{"transit":false,"station_id":"CJT","distance":7025,"time":9,"i_lat":-6.354349,"station_name":"Cilejit","is_transit":false,"i_long":106.508482,"line":0},{"station_id":"DAR","i_lat":-6.338021,"distance":2675,"is_transit":false,"station_name":"Daru","transit":false,"line":0,"i_long":106.491338,"time":6}],[{"station_id":"TEB","transit":false,"i_long":106.857948,"time":0,"is_transit":false,"station_name":"Tebet","i_lat":-6.226659,"line":2,"distance":0},{"transit":true,"is_transit":true,"distance":2610,"station_id":"MRI","line":0,"i_lat":-6.209883,"i_long":106.84912,"time":4,"station_name":"Manggarai"},{"station_name":"Cikini","distance":1590,"is_transit":false,"time":4,"line":0,"transit":false,"station_id":"CKI","i_lat":-6.198556,"i_long":106.840169},{"line":2,"station_name":"Gondangdia","i_long":106.832183,"time":3,"station_id":"GDD","is_transit":false,"distance":1750,"transit":false,"i_lat":-6.186295},{"i_long":106.828284,"line":2,"transit":false,"is_transit":false,"station_id":"JUA","i_lat":-6.166716,"time":4,"distance":2015,"station_name":"Juanda"},{"time":2,"i_lat":-6.160725,"is_transit":false,"line":2,"station_name":"Sawah Besar","station_id":"SW","i_long":106.827103,"transit":false,"distance":1149},{"i_long":106.82482,"line":2,"station_name":"Manggabesar","transit":false,"time":2,"station_id":"MGB","distance":906,"i_lat":-6.149769,"is_transit":false},{"i_long":106.820901,"is_transit":false,"station_id":"JAY","time":2,"station_name":"Jayakarta","i_lat":-6.141205,"line":7,"distance":1080,"transit":false},{"distance":1264,"time":4,"station_name":"Jakarta Kota","line":0,"i_lat":-6.137569,"i_long":106.812439,"is_transit":true,"station_id":"JAKK","transit":true},{"station_name":"Kampung Bandan","i_lat":-6.132549,"time":3,"transit":false,"line":0,"is_transit":true,"i_long":106.826365,"distance":1364,"station_id":"KPB"},{"time":9,"i_long":106.79867,"station_name":"Angke","distance":4102,"station_id":"AK","transit":false,"line":0,"i_lat":-6.144674,"is_transit":false},{"transit":true,"time":4,"station_id":"DU","i_long":106.800832,"line":1,"distance":1230,"i_lat":-6.155215,"station_name":"Duri","is_transit":true},{"is_transit":true,"time":8,"line":1,"i_lat":-6.185545,"station_name":"Tanah Abang","station_id":"THB","distance":3632,"transit":true,"i_long":106.811091},{"transit":false,"time":6,"i_lat":-6.207404,"i_long":106.79689,"station_name":"Palmerah","line":6,"distance":3191,"station_id":"PLM","is_transit":false},{"distance":3737,"i_long":106.780334,"station_id":"KBY","is_transit":false,"transit":false,"station_name":"Kebayoran","time":7,"i_lat":-6.237242,"line":6},{"distance":6218,"station_name":"Pondokranji","i_lat":-6.276362,"transit":false,"line":6,"station_id":"PDJ","i_long":106.74273,"is_transit":false,"time":8},{"i_long":106.728916,"station_id":"JMU","transit":false,"time":3,"is_transit":false,"distance":2179,"i_lat":-6.288927,"station_name":"Jurangmangu","line":6},{"line":6,"distance":1994,"i_long":106.712277,"time":4,"station_name":"Sudimara","station_id":"SDM","transit":false,"i_lat":-6.296963,"is_transit":false},{"is_transit":false,"station_name":"Rawa Buntu","line":6,"distance":4566,"transit":false,"time":6,"i_lat":-6.314823,"station_id":"RU","i_long":106.675475},{"line":6,"station_id":"SRP","is_transit":false,"station_name":"Serpong","time":4,"transit":false,"distance":2413,"i_lat":-6.319871,"i_long":106.66566},{"station_name":"Cisauk","i_long":106.640411,"is_transit":false,"time":4,"transit":false,"distance":1784,"line":0,"i_lat":-6.32484,"station_id":"CSK"},{"transit":false,"line":0,"is_transit":false,"time":4,"i_long":106.617853,"station_id":"CC","i_lat":-6.329547,"distance":2519,"station_name":"Cicayur"},{"i_long":106.568863,"distance":5968,"station_name":"Parung Panjang","is_transit":false,"station_id":"PRP","time":8,"i_lat":-6.3441410000000005,"transit":false,"line":6},{"line":0,"transit":false,"distance":7025,"i_long":106.508482,"i_lat":-6.354349,"station_name":"Cilejit","time":9,"is_transit":false,"station_id":"CJT"},{"time":6,"distance":2675,"station_id":"DAR","transit":false,"i_lat":-6.338021,"is_transit":false,"i_long":106.491338,"line":0,"station_name":"Daru"}],[{"station_name":"Tebet","transit":false,"i_lat":-6.226659,"distance":0,"station_id":"TEB","time":0,"i_long":106.857948,"is_transit":false,"line":2},{"station_name":"Manggarai","line":0,"distance":2610,"station_id":"MRI","is_transit":true,"time":4,"i_long":106.84912,"i_lat":-6.209883,"transit":true},{"station_name":"Matraman","transit":false,"i_lat":-6.212485,"line":1,"station_id":"MTR","i_long":106.858896,"is_transit":false,"time":2,"distance":1275},{"transit":true,"i_long":106.86807400000001,"line":0,"distance":1377,"i_lat":-6.215091,"station_name":"Jatinegara","time":8,"station_id":"JNG","is_transit":true},{"transit":false,"i_long":106.861737,"station_id":"POK","i_lat":-6.209188,"station_name":"Pondok Jati","line":11,"distance":1236,"is_transit":false,"time":2},{"i_long":106.855437,"is_transit":false,"time":2,"distance":1829,"i_lat":-6.193792,"station_name":"Kramat","station_id":"KMT","transit":false,"line":11},{"transit":false,"station_name":"Gang Sentiong","line":11,"station_id":"GST","i_lat":-6.185975,"distance":973,"i_long":106.850107,"time":1,"is_transit":false},{"line":11,"time":8,"i_long":106.84368,"transit":false,"station_id":"PSE","distance":1567,"is_transit":false,"station_name":"Pasar Senen","i_lat":-6.174784},{"i_lat":-6.161728,"i_long":106.839204,"distance":1436,"transit":false,"line":11,"station_name":"Kemayoran","time":4,"is_transit":false,"station_id":"KMO"},{"transit":false,"time":5,"line":11,"distance":1901,"i_lat":-6.14505,"station_id":"RJW","is_transit":false,"station_name":"Rajawali","i_long":106.836569},{"i_long":106.826365,"line":0,"transit":true,"i_lat":-6.132549,"time":3,"distance":1444,"is_transit":true,"station_id":"KPB","station_name":"Kampung Bandan"},{"i_lat":-6.144674,"i_long":106.79867,"distance":4102,"line":0,"transit":false,"station_id":"AK","time":9,"station_name":"Angke","is_transit":false},{"i_long":106.800832,"is_transit":true,"station_name":"Duri","time":4,"distance":1230,"station_id":"DU","transit":true,"i_lat":-6.155215,"line":1},{"transit":true,"is_transit":true,"time":8,"station_name":"Tanah Abang","station_id":"THB","i_long":106.811091,"line":1,"distance":3632,"i_lat":-6.185545},{"i_long":106.79689,"line":6,"transit":false,"distance":3191,"station_name":"Palmerah","is_transit":false,"station_id":"PLM","time":6,"i_lat":-6.207404},{"station_id":"KBY","time":7,"i_long":106.780334,"station_name":"Kebayoran","i_lat":-6.237242,"line":6,"is_transit":false,"transit":false,"distance":3737},{"distance":6218,"is_transit":false,"station_id":"PDJ","station_name":"Pondokranji","i_long":106.74273,"transit":false,"line":6,"time":8,"i_lat":-6.276362},{"i_lat":-6.288927,"transit":false,"line":6,"station_name":"Jurangmangu","station_id":"JMU","time":3,"distance":2179,"is_transit":false,"i_long":106.728916},{"time":4,"line":6,"i_long":106.712277,"station_name":"Sudimara","i_lat":-6.296963,"distance":1994,"is_transit":false,"station_id":"SDM","transit":false},{"station_id":"RU","line":6,"distance":4566,"is_transit":false,"i_long":106.675475,"station_name":"Rawa Buntu","transit":false,"time":6,"i_lat":-6.314823},{"is_transit":false,"time":4,"transit":false,"station_id":"SRP","station_name":"Serpong","distance":2413,"i_long":106.66566,"i_lat":-6.319871,"line":6},{"time":4,"distance":1784,"line":0,"station_id":"CSK","is_transit":false,"station_name":"Cisauk","transit":false,"i_lat":-6.32484,"i_long":106.640411},{"station_id":"CC","distance":2519,"station_name":"Cicayur","is_transit":false,"i_long":106.617853,"time":4,"i_lat":-6.329547,"line":0,"transit":false},{"time":8,"is_transit":false,"station_id":"PRP","distance":5968,"transit":false,"i_long":106.568863,"line":6,"station_name":"Parung Panjang","i_lat":-6.3441410000000005},{"time":9,"distance":7025,"is_transit":false,"i_lat":-6.354349,"transit":false,"station_name":"Cilejit","line":0,"i_long":106.508482,"station_id":"CJT"},{"station_name":"Daru","i_long":106.491338,"transit":false,"time":6,"line":0,"station_id":"DAR","distance":2675,"is_transit":false,"i_lat":-6.338021}]]}