{"data":[[{"i_lat":-6.226659,"transit":false,"is_transit":false,"station_name":"Tebet","time":0,"i_long":106.857948,"line":2,"station_id":"TEB","distance":0},{"line":2,"transit":true,"station_name":"Manggarai","station_id":"MRI","is_transit":true,"time":4,"i_lat":-6.209883,"distance":2610,"i_long":106.84912},{"i_lat":-6.212485,"station_id":"MTR","distance":1275,"is_transit":false,"i_long":106.858896,"transit":false,"station_name":"Matraman","line":1,"time":2},{"i_lat":-6.215091,"time":8,"transit":true,"station_name":"Jatinegara","line":1,"station_id":"JNG","distance":1377,"is_transit":true,"i_long":106.86807400000001},{"station_id":"POK","i_lat":-6.209188,"i_long":106.861737,"time":2,"distance":1236,"is_transit":false,"transit":false,"line":11,"station_name":"Pondok Jati"},{"station_name":"Kramat","i_lat":-6.193792,"i_long":106.855437,"is_transit":false,"time":2,"distance":1829,"line":11,"transit":false,"station_id":"KMT"},{"i_long":106.850107,"is_transit":false,"i_lat":-6.185975,"line":11,"station_id":"GST","distance":973,"transit":false,"station_name":"Gang Sentiong","time":1},{"is_transit":false,"transit":false,"station_name":"Pasar Senen","distance":1567,"line":11,"i_lat":-6.174784,"time":8,"station_id":"PSE","i_long":106.84368}],[{"time":0,"i_lat":-6.226659,"is_transit":false,"station_id":"TEB","line":2,"transit":false,"station_name":"Tebet","distance":0,"i_long":106.857948},{"i_lat":-6.209883,"i_long":106.84912,"is_transit":true,"station_id":"MRI","time":4,"line":2,"transit":true,"station_name":"Manggarai","distance":2610},{"time":4,"line":1,"transit":false,"station_name":"Sudirman","is_transit":false,"distance":3186,"i_lat":-6.202263,"i_long":106.822649,"station_id":"SUD"},{"station_id":"SUDB","is_transit":false,"transit":false,"i_lat":-6.201433,"i_long":106.819881,"time":1,"line":1,"distance":280,"station_name":"Sudirman Baru"},{"line":1,"station_name":"Karet","time":1,"transit":false,"i_long":106.816351,"distance":471,"is_transit":false,"i_lat":-6.20132,"station_id":"KAT"},{"line":1,"time":5,"is_transit":false,"i_lat":-6.185545,"transit":false,"i_long":106.811091,"station_id":"THB","station_name":"Tanah Abang","distance":2029},{"station_name":"Duri","time":8,"is_transit":false,"i_lat":-6.155215,"station_id":"DU","line":1,"distance":3632,"i_long":106.800832,"transit":false},{"station_name":"Angke","i_lat":-6.144674,"station_id":"AK","transit":false,"time":4,"i_long":106.79867,"line":1,"is_transit":false,"distance":1230},{"i_long":106.826365,"transit":true,"is_transit":true,"station_name":"Kampung Bandan","distance":4102,"i_lat":-6.132549,"station_id":"KPB","time":9,"line":4},{"distance":1444,"station_name":"Rajawali","i_long":106.836569,"station_id":"RJW","is_transit":false,"time":3,"i_lat":-6.14505,"line":11,"transit":false},{"distance":1901,"is_transit":false,"i_lat":-6.161728,"i_long":106.839204,"line":11,"transit":false,"station_id":"KMO","time":5,"station_name":"Kemayoran"},{"is_transit":false,"time":4,"station_id":"PSE","distance":1436,"line":11,"i_lat":-6.174784,"station_name":"Pasar Senen","i_long":106.84368,"transit":false}],[{"distance":0,"i_lat":-6.226659,"station_id":"TEB","station_name":"Tebet","i_long":106.857948,"line":2,"is_transit":false,"time":0,"transit":false},{"station_id":"MRI","time":4,"i_long":106.84912,"distance":2610,"i_lat":-6.209883,"station_name":"Manggarai","transit":false,"is_transit":false,"line":2},{"is_transit":false,"distance":1590,"i_long":106.840169,"time":4,"transit":false,"line":2,"station_name":"Cikini","station_id":"CKI","i_lat":-6.198556},{"distance":1750,"i_long":106.832183,"time":3,"line":2,"transit":false,"is_transit":false,"i_lat":-6.186295,"station_name":"Gondangdia","station_id":"GDD"},{"i_lat":-6.166716,"station_id":"JUA","time":4,"transit":false,"i_long":106.828284,"station_name":"Juanda","distance":2015,"is_transit":false,"line":2},{"time":2,"transit":false,"station_id":"SW","i_lat":-6.160725,"i_long":106.827103,"is_transit":false,"distance":1149,"line":2,"station_name":"Sawah Besar"},{"transit":false,"time":2,"station_id":"MGB","line":2,"distance":906,"station_name":"Manggabesar","is_transit":false,"i_lat":-6.149769,"i_long":106.82482},{"station_name":"Jayakarta","is_transit":false,"time":2,"i_lat":-6.141205,"transit":false,"line":2,"distance":1080,"station_id":"JAY","i_long":106.820901},{"distance":1264,"station_name":"Jakarta Kota","line":2,"time":4,"i_long":106.812439,"station_id":"JAKK","is_transit":true,"i_lat":-6.137569,"transit":true},{"line":4,"station_id":"KPB","is_transit":true,"station_name":"Kampung Bandan","i_long":106.826365,"i_lat":-6.132549,"transit":true,"time":3,"distance":1364},{"station_name":"Rajawali","i_long":106.836569,"is_transit":false,"station_id":"RJW","i_lat":-6.14505,"line":11,"transit":false,"time":3,"distance":1444},{"station_name":"Kemayoran","distance":1901,"i_lat":-6.161728,"is_transit":false,"transit":false,"station_id":"KMO","i_long":106.839204,"time":5,"line":11},{"i_lat":-6.174784,"line":11,"station_name":"Pasar Senen","time":4,"station_id":"PSE","transit":false,"is_transit":false,"i_long":106.84368,"distance":1436}]]}