{"data":[[{"i_long":106.857948,"distance":0,"station_id":"TEB","i_lat":-6.226659,"is_transit":false,"line":2,"transit":false,"station_name":"Tebet","time":0},{"i_long":106.84912,"is_transit":true,"i_lat":-6.209883,"time":4,"station_id":"MRI","station_name":"Manggarai","transit":true,"line":2,"distance":2610},{"distance":1275,"time":2,"i_lat":-6.212485,"i_long":106.858896,"line":1,"is_transit":false,"station_name":"Matraman","transit":false,"station_id":"MTR"},{"line":1,"transit":false,"i_lat":-6.215091,"is_transit":false,"distance":1377,"i_long":106.86807400000001,"station_name":"Jatinegara","station_id":"JNG","time":8},{"transit":false,"distance":3395,"time":3,"is_transit":false,"i_long":106.899548,"station_name":"Klender","line":1,"station_id":"KLD","i_lat":-6.2135},{"time":2,"i_long":106.922662,"transit":false,"station_name":"Buaran","is_transit":false,"station_id":"BUA","distance":3100,"i_lat":-6.215568,"line":1},{"i_lat":-6.217455,"line":1,"station_id":"KLDB","time":1,"distance":1305,"station_name":"Klenderbaru","i_long":106.939679,"transit":false,"is_transit":false}],[{"station_id":"TEB","station_name":"Tebet","line":2,"i_lat":-6.226659,"transit":false,"distance":0,"is_transit":false,"time":0,"i_long":106.857948},{"i_lat":-6.209883,"station_name":"Manggarai","i_long":106.84912,"transit":true,"is_transit":true,"station_id":"MRI","time":4,"distance":2610,"line":2},{"i_long":106.822649,"i_lat":-6.202263,"time":4,"station_name":"Sudirman","line":1,"distance":3186,"transit":false,"station_id":"SUD","is_transit":false},{"station_id":"SUDB","transit":false,"station_name":"Sudirman Baru","i_long":106.819881,"line":1,"distance":280,"time":1,"i_lat":-6.201433,"is_transit":false},{"station_name":"Karet","station_id":"KAT","i_long":106.816351,"i_lat":-6.20132,"line":1,"time":1,"is_transit":false,"distance":471,"transit":false},{"is_transit":false,"transit":false,"station_name":"Tanah Abang","i_long":106.811091,"line":1,"distance":2029,"time":5,"i_lat":-6.185545,"station_id":"THB"},{"station_id":"DU","i_long":106.800832,"station_name":"Duri","is_transit":false,"i_lat":-6.155215,"distance":3632,"time":8,"line":1,"transit":false},{"transit":false,"station_id":"AK","i_long":106.79867,"line":1,"time":4,"distance":1230,"is_transit":false,"station_name":"Angke","i_lat":-6.144674},{"line":4,"is_transit":true,"station_name":"Kampung Bandan","i_lat":-6.132549,"transit":true,"distance":4102,"time":9,"station_id":"KPB","i_long":106.826365},{"station_id":"RJW","i_long":106.836569,"line":11,"is_transit":false,"distance":1444,"time":3,"station_name":"Rajawali","transit":false,"i_lat":-6.14505},{"station_id":"KMO","i_lat":-6.161728,"distance":1901,"i_long":106.839204,"line":11,"is_transit":false,"time":5,"station_name":"Kemayoran","transit":false},{"station_name":"Pasar Senen","distance":1436,"line":11,"station_id":"PSE","i_lat":-6.174784,"time":4,"transit":false,"i_long":106.84368,"is_transit":false},{"station_id":"GST","distance":1567,"is_transit":false,"station_name":"Gang Sentiong","transit":false,"i_long":106.850107,"line":11,"time":8,"i_lat":-6.185975},{"i_lat":-6.193792,"i_long":106.855437,"distance":973,"transit":false,"time":1,"line":11,"station_id":"KMT","is_transit":false,"station_name":"Kramat"},{"is_transit":false,"distance":1829,"station_id":"POK","time":2,"transit":false,"i_lat":-6.209188,"station_name":"Pondok Jati","i_long":106.861737,"line":11},{"station_id":"JNG","line":1,"distance":1236,"i_long":106.86807400000001,"time":9,"is_transit":true,"station_name":"Jatinegara","transit":true,"i_lat":-6.215091},{"station_name":"Klender","is_transit":false,"i_lat":-6.2135,"distance":3395,"line":1,"i_long":106.899548,"transit":false,"time":3,"station_id":"KLD"},{"i_long":106.922662,"time":2,"i_lat":-6.215568,"is_transit":false,"station_name":"Buaran","station_id":"BUA","line":1,"transit":false,"distance":3100},{"is_transit":false,"distance":1305,"station_id":"KLDB","i_lat":-6.217455,"station_name":"Klenderbaru","line":1,"i_long":106.939679,"time":1,"transit":false}],[{"is_transit":false,"distance":0,"i_lat":-6.226659,"i_long":106.857948,"line":2,"station_name":"Tebet","transit":false,"station_id":"TEB","time":0},{"station_name":"Manggarai","distance":2610,"i_lat":-6.209883,"i_long":106.84912,"time":4,"station_id":"MRI","is_transit":false,"line":2,"transit":false},{"distance":1590,"station_name":"Cikini","i_long":106.840169,"station_id":"CKI","is_transit":false,"line":2,"i_lat":-6.198556,"transit":false,"time":4},{"line":2,"i_lat":-6.186295,"time":3,"i_long":106.832183,"transit":false,"station_name":"Gondangdia","is_transit":false,"distance":1750,"station_id":"GDD"},{"transit":false,"time":4,"station_name":"Juanda","distance":2015,"is_transit":false,"line":2,"station_id":"JUA","i_long":106.828284,"i_lat":-6.166716},{"line":2,"time":2,"transit":false,"station_name":"Sawah Besar","distance":1149,"i_long":106.827103,"is_transit":false,"station_id":"SW","i_lat":-6.160725},{"time":2,"station_name":"Manggabesar","i_lat":-6.149769,"is_transit":false,"transit":false,"distance":906,"i_long":106.82482,"line":2,"station_id":"MGB"},{"line":2,"station_name":"Jayakarta","transit":false,"distance":1080,"i_long":106.820901,"station_id":"JAY","is_transit":false,"time":2,"i_lat":-6.141205},{"station_id":"JAKK","station_name":"Jakarta Kota","transit":true,"i_long":106.812439,"is_transit":true,"line":2,"distance":1264,"time":4,"i_lat":-6.137569},{"i_long":106.826365,"transit":true,"time":3,"station_name":"Kampung Bandan","distance":1364,"station_id":"KPB","line":4,"is_transit":true,"i_lat":-6.132549},{"time":3,"i_long":106.836569,"station_id":"RJW","distance":1444,"i_lat":-6.14505,"transit":false,"station_name":"Rajawali","line":11,"is_transit":false},{"time":5,"transit":false,"station_id":"KMO","i_lat":-6.161728,"i_long":106.839204,"distance":1901,"station_name":"Kemayoran","is_transit":false,"line":11},{"i_long":106.84368,"line":11,"station_id":"PSE","i_lat":-6.174784,"time":4,"distance":1436,"station_name":"Pasar Senen","is_transit":false,"transit":false},{"station_id":"GST","time":8,"station_name":"Gang Sentiong","i_long":106.850107,"line":11,"distance":1567,"i_lat":-6.185975,"transit":false,"is_transit":false},{"i_lat":-6.193792,"station_id":"KMT","i_long":106.855437,"station_name":"Kramat","time":1,"is_transit":false,"transit":false,"distance":973,"line":11},{"station_id":"POK","station_name":"Pondok Jati","i_lat":-6.209188,"i_long":106.861737,"time":2,"transit":false,"distance":1829,"is_transit":false,"line":11},{"station_id":"JNG","is_transit":true,"time":9,"i_lat":-6.215091,"transit":true,"station_name":"Jatinegara","i_long":106.86807400000001,"distance":1236,"line":1},{"i_long":106.899548,"i_lat":-6.2135,"is_transit":false,"station_name":"Klender","station_id":"KLD","time":3,"line":1,"distance":3395,"transit":false},{"station_id":"BUA","distance":3100,"time":2,"station_name":"Buaran","i_lat":-6.215568,"transit":false,"line":1,"i_long":106.922662,"is_transit":false},{"station_id":"KLDB","is_transit":false,"station_name":"Klenderbaru","i_long":106.939679,"transit":false,"i_lat":-6.217455,"time":1,"distance":1305,"line":1}]]}