{"data":[[{"i_long":106.857948,"station_name":"Tebet","transit":false,"time":0,"i_lat":-6.226659,"line":2,"station_id":"TEB","distance":0,"is_transit":false},{"line":0,"station_id":"CW","is_transit":false,"i_long":106.856607,"station_name":"Cawang","time":2,"i_lat":-6.242512,"transit":false,"distance":1230},{"distance":1546,"station_name":"Duren Kalibata","i_lat":-6.255332,"station_id":"DRN","time":3,"transit":false,"line":0,"is_transit":false,"i_long":106.85449},{"station_name":"Pasar Minggu Baru","i_lat":-6.263214,"time":2,"distance":824,"i_long":106.851577,"transit":false,"is_transit":false,"station_id":"PSMB","line":2},{"station_name":"Pasar Minggu","time":2,"i_lat":-6.2842400000000005,"is_transit":false,"transit":false,"station_id":"PSM","line":2,"i_long":106.843999,"distance":2380},{"i_lat":-6.3080680000000005,"station_id":"TNT","station_name":"Tanjung Barat","transit":false,"line":2,"time":4,"i_long":106.838896,"distance":2820,"is_transit":false},{"station_name":"Lenteng Agung","i_lat":-6.330363,"is_transit":false,"transit":false,"time":3,"distance":2671,"i_long":106.832616,"line":2,"station_id":"LNA"},{"transit":false,"line":2,"time":2,"station_name":"Univ. Pancasila","is_transit":false,"distance":1029,"i_long":106.834175,"station_id":"UP","i_lat":-6.339291},{"is_transit":false,"time":3,"i_lat":-6.360749,"station_name":"Univ. Indonesia","line":2,"transit":false,"i_long":106.831474,"distance":2264,"station_id":"UI"},{"is_transit":false,"station_id":"POC","i_lat":-6.369073,"i_long":106.831114,"station_name":"Pondok Cina","transit":false,"time":2,"line":2,"distance":1109},{"station_name":"Depokbaru","i_long":106.819451,"is_transit":false,"time":4,"i_lat":-6.391065,"distance":2727,"line":0,"transit":false,"station_id":"DPB"},{"distance":1584,"station_id":"DP","i_lat":-6.405256,"is_transit":false,"line":0,"transit":false,"i_long":106.816926,"time":3,"station_name":"Depok"},{"transit":false,"time":6,"distance":5084,"line":1,"is_transit":true,"station_name":"Citayam","i_lat":-6.448811,"i_long":106.800298,"station_id":"CTA"}]]}