{"data":[[{"distance":0,"time":0,"station_name":"Tebet","i_long":106.857948,"is_transit":false,"station_id":"TEB","transit":false,"line":2,"i_lat":-6.226659},{"time":4,"station_id":"MRI","is_transit":true,"i_long":106.84912,"i_lat":-6.209883,"line":2,"distance":2610,"station_name":"Manggarai","transit":true},{"line":1,"is_transit":false,"station_name":"Sudirman","time":4,"transit":false,"distance":3186,"station_id":"SUD","i_lat":-6.202263,"i_long":106.822649},{"station_name":"Sudirman Baru","transit":false,"i_long":106.819881,"time":1,"is_transit":false,"line":1,"distance":280,"station_id":"SUDB","i_lat":-6.201433},{"station_id":"KAT","i_lat":-6.20132,"time":1,"i_long":106.816351,"station_name":"Karet","distance":471,"line":1,"is_transit":false,"transit":false},{"is_transit":true,"line":1,"distance":2029,"time":5,"transit":true,"station_name":"Tanah Abang","i_long":106.811091,"i_lat":-6.185545,"station_id":"THB"},{"station_id":"PLM","is_transit":false,"distance":3191,"time":6,"transit":false,"i_long":106.79689,"i_lat":-6.207404,"line":6,"station_name":"Palmerah"},{"distance":3737,"transit":false,"line":6,"station_id":"KBY","i_long":106.780334,"is_transit":false,"i_lat":-6.237242,"station_name":"Kebayoran","time":7},{"station_id":"PDJ","is_transit":false,"line":6,"distance":6218,"i_lat":-6.276362,"station_name":"Pondokranji","i_long":106.74273,"time":8,"transit":false},{"station_name":"Jurangmangu","i_long":106.728916,"line":6,"is_transit":false,"station_id":"JMU","transit":false,"time":3,"i_lat":-6.288927,"distance":2179},{"line":6,"i_lat":-6.296963,"distance":1994,"time":4,"station_id":"SDM","is_transit":false,"transit":false,"station_name":"Sudimara","i_long":106.712277},{"station_id":"RU","time":6,"is_transit":false,"line":6,"station_name":"Rawa Buntu","i_lat":-6.314823,"i_long":106.675475,"transit":false,"distance":4566},{"station_id":"SRP","line":6,"station_name":"Serpong","i_long":106.66566,"time":4,"is_transit":false,"distance":2413,"transit":false,"i_lat":-6.319871},{"is_transit":false,"i_lat":-6.32484,"time":4,"station_id":"CSK","i_long":106.640411,"distance":1784,"transit":false,"station_name":"Cisauk","line":3},{"station_name":"Cicayur","line":3,"is_transit":false,"distance":2519,"time":4,"station_id":"CC","i_lat":-6.329547,"i_long":106.617853,"transit":false},{"transit":false,"line":6,"i_lat":-6.3441410000000005,"is_transit":false,"distance":5968,"time":8,"station_id":"PRP","i_long":106.568863,"station_name":"Parung Panjang"}],[{"line":2,"distance":0,"station_name":"Tebet","time":0,"is_transit":false,"transit":false,"i_lat":-6.226659,"i_long":106.857948,"station_id":"TEB"},{"i_long":106.84912,"time":4,"station_id":"MRI","transit":false,"i_lat":-6.209883,"line":2,"distance":2610,"is_transit":false,"station_name":"Manggarai"},{"time":4,"line":2,"station_id":"CKI","i_lat":-6.198556,"transit":false,"i_long":106.840169,"is_transit":false,"distance":1590,"station_name":"Cikini"},{"distance":1750,"line":2,"i_lat":-6.186295,"time":3,"i_long":106.832183,"station_name":"Gondangdia","transit":false,"station_id":"GDD","is_transit":false},{"i_long":106.828284,"station_id":"JUA","i_lat":-6.166716,"time":4,"distance":2015,"is_transit":false,"transit":false,"station_name":"Juanda","line":2},{"distance":1149,"time":2,"station_name":"Sawah Besar","line":2,"transit":false,"is_transit":false,"i_long":106.827103,"i_lat":-6.160725,"station_id":"SW"},{"distance":906,"is_transit":false,"line":2,"i_long":106.82482,"station_id":"MGB","transit":false,"time":2,"station_name":"Manggabesar","i_lat":-6.149769},{"i_long":106.820901,"station_id":"JAY","line":2,"time":2,"is_transit":false,"distance":1080,"i_lat":-6.141205,"station_name":"Jayakarta","transit":false},{"time":4,"line":2,"distance":1264,"station_id":"JAKK","transit":true,"i_lat":-6.137569,"is_transit":true,"i_long":106.812439,"station_name":"Jakarta Kota"},{"distance":1364,"is_transit":true,"transit":true,"station_name":"Kampung Bandan","time":3,"station_id":"KPB","i_long":106.826365,"line":4,"i_lat":-6.132549},{"is_transit":false,"transit":false,"i_long":106.79867,"i_lat":-6.144674,"station_id":"AK","line":1,"distance":4102,"station_name":"Angke","time":9},{"time":4,"distance":1230,"station_name":"Duri","line":1,"is_transit":false,"station_id":"DU","i_lat":-6.155215,"transit":false,"i_long":106.800832},{"transit":true,"station_name":"Tanah Abang","i_lat":-6.185545,"distance":3632,"i_long":106.811091,"station_id":"THB","is_transit":true,"time":8,"line":1},{"station_name":"Palmerah","line":6,"transit":false,"is_transit":false,"i_long":106.79689,"i_lat":-6.207404,"distance":3191,"station_id":"PLM","time":6},{"line":6,"distance":3737,"station_name":"Kebayoran","i_long":106.780334,"i_lat":-6.237242,"time":7,"station_id":"KBY","transit":false,"is_transit":false},{"station_id":"PDJ","station_name":"Pondokranji","i_long":106.74273,"time":8,"distance":6218,"transit":false,"is_transit":false,"i_lat":-6.276362,"line":6},{"distance":2179,"transit":false,"i_lat":-6.288927,"i_long":106.728916,"station_id":"JMU","is_transit":false,"station_name":"Jurangmangu","line":6,"time":3},{"line":6,"is_transit":false,"distance":1994,"i_long":106.712277,"time":4,"transit":false,"station_id":"SDM","station_name":"Sudimara","i_lat":-6.296963},{"i_long":106.675475,"line":6,"i_lat":-6.314823,"distance":4566,"transit":false,"time":6,"is_transit":false,"station_id":"RU","station_name":"Rawa Buntu"},{"station_id":"SRP","time":4,"station_name":"Serpong","i_long":106.66566,"distance":2413,"i_lat":-6.319871,"line":6,"transit":false,"is_transit":false},{"station_name":"Cisauk","i_long":106.640411,"station_id":"CSK","transit":false,"is_transit":false,"time":4,"i_lat":-6.32484,"line":3,"distance":1784},{"transit":false,"i_long":106.617853,"distance":2519,"time":4,"station_name":"Cicayur","line":3,"station_id":"CC","is_transit":false,"i_lat":-6.329547},{"i_long":106.568863,"time":8,"station_id":"PRP","transit":false,"i_lat":-6.3441410000000005,"is_transit":false,"distance":5968,"station_name":"Parung Panjang","line":6}],[{"distance":0,"is_transit":false,"transit":false,"line":2,"i_long":106.857948,"i_lat":-6.226659,"station_id":"TEB","station_name":"Tebet","time":0},{"time":4,"transit":true,"distance":2610,"station_id":"MRI","i_lat":-6.209883,"i_long":106.84912,"line":2,"is_transit":true,"station_name":"Manggarai"},{"time":2,"is_transit":false,"transit":false,"i_lat":-6.212485,"station_name":"Matraman","i_long":106.858896,"line":1,"distance":1275,"station_id":"MTR"},{"station_id":"JNG","i_long":106.86807400000001,"line":1,"is_transit":true,"time":8,"transit":true,"distance":1377,"station_name":"Jatinegara","i_lat":-6.215091},{"i_long":106.861737,"line":11,"distance":1236,"station_name":"Pondok Jati","i_lat":-6.209188,"is_transit":false,"station_id":"POK","transit":false,"time":2},{"is_transit":false,"distance":1829,"station_name":"Kramat","station_id":"KMT","transit":false,"i_lat":-6.193792,"i_long":106.855437,"line":11,"time":2},{"station_name":"Gang Sentiong","i_lat":-6.185975,"station_id":"GST","time":1,"distance":973,"transit":false,"line":11,"is_transit":false,"i_long":106.850107},{"time":8,"is_transit":false,"station_name":"Pasar Senen","line":11,"i_lat":-6.174784,"i_long":106.84368,"transit":false,"station_id":"PSE","distance":1567},{"line":11,"i_lat":-6.161728,"station_id":"KMO","station_name":"Kemayoran","distance":1436,"transit":false,"i_long":106.839204,"is_transit":false,"time":4},{"station_id":"RJW","transit":false,"distance":1901,"time":5,"is_transit":false,"station_name":"Rajawali","i_lat":-6.14505,"i_long":106.836569,"line":11},{"station_id":"KPB","transit":true,"i_lat":-6.132549,"time":3,"line":4,"distance":1444,"station_name":"Kampung Bandan","i_long":106.826365,"is_transit":true},{"station_id":"AK","station_name":"Angke","i_lat":-6.144674,"time":9,"is_transit":false,"i_long":106.79867,"line":1,"distance":4102,"transit":false},{"is_transit":false,"distance":1230,"line":1,"time":4,"i_lat":-6.155215,"transit":false,"station_name":"Duri","station_id":"DU","i_long":106.800832},{"line":1,"is_transit":true,"i_lat":-6.185545,"transit":true,"station_id":"THB","distance":3632,"i_long":106.811091,"time":8,"station_name":"Tanah Abang"},{"distance":3191,"line":6,"transit":false,"is_transit":false,"station_id":"PLM","i_lat":-6.207404,"i_long":106.79689,"station_name":"Palmerah","time":6},{"station_id":"KBY","transit":false,"is_transit":false,"time":7,"distance":3737,"i_lat":-6.237242,"station_name":"Kebayoran","i_long":106.780334,"line":6},{"transit":false,"station_id":"PDJ","is_transit":false,"i_long":106.74273,"station_name":"Pondokranji","time":8,"distance":6218,"line":6,"i_lat":-6.276362},{"time":3,"transit":false,"distance":2179,"i_lat":-6.288927,"line":6,"station_id":"JMU","is_transit":false,"station_name":"Jurangmangu","i_long":106.728916},{"distance":1994,"i_long":106.712277,"time":4,"is_transit":false,"i_lat":-6.296963,"station_id":"SDM","transit":false,"line":6,"station_name":"Sudimara"},{"i_lat":-6.314823,"is_transit":false,"line":6,"transit":false,"station_name":"Rawa Buntu","distance":4566,"station_id":"RU","i_long":106.675475,"time":6},{"i_lat":-6.319871,"line":6,"time":4,"station_id":"SRP","transit":false,"station_name":"Serpong","i_long":106.66566,"is_transit":false,"distance":2413},{"transit":false,"station_name":"Cisauk","time":4,"is_transit":false,"i_lat":-6.32484,"i_long":106.640411,"line":3,"distance":1784,"station_id":"CSK"},{"is_transit":false,"station_id":"CC","time":4,"transit":false,"distance":2519,"station_name":"Cicayur","line":3,"i_lat":-6.329547,"i_long":106.617853},{"distance":5968,"i_lat":-6.3441410000000005,"station_id":"PRP","station_name":"Parung Panjang","time":8,"is_transit":false,"line":6,"i_long":106.568863,"transit":false}]]}