{"data":[[{"line":2,"station_id":"TEB","is_transit":false,"distance":0,"station_name":"Tebet","transit":false,"time":0,"i_lat":-6.226659,"i_long":106.857948},{"time":4,"station_id":"MRI","distance":2610,"i_long":106.84912,"transit":true,"i_lat":-6.209883,"is_transit":true,"line":0,"station_name":"Manggarai"},{"time":2,"i_long":106.858896,"is_transit":false,"station_name":"Matraman","station_id":"MTR","distance":1275,"transit":false,"i_lat":-6.212485,"line":1},{"is_transit":true,"i_lat":-6.215091,"station_id":"JNG","distance":1377,"transit":false,"i_long":106.86807400000001,"time":8,"line":0,"station_name":"Jatinegara"},{"line":1,"time":3,"station_name":"Klender","i_lat":-6.2135,"station_id":"KLD","distance":3395,"transit":false,"i_long":106.899548,"is_transit":false},{"distance":3100,"transit":false,"station_id":"BUA","i_lat":-6.215568,"is_transit":false,"i_long":106.922662,"line":0,"station_name":"Buaran","time":2},{"distance":1305,"transit":false,"time":1,"station_id":"KLDB","station_name":"Klenderbaru","i_lat":-6.217455,"line":1,"i_long":106.939679,"is_transit":false}],[{"is_transit":false,"time":0,"i_long":106.857948,"line":2,"station_id":"TEB","station_name":"Tebet","i_lat":-6.226659,"transit":false,"distance":0},{"station_name":"Manggarai","is_transit":true,"transit":true,"i_lat":-6.209883,"line":0,"time":4,"distance":2610,"station_id":"MRI","i_long":106.84912},{"is_transit":false,"transit":false,"i_long":106.822649,"station_name":"Sudirman","station_id":"SUD","line":1,"distance":3186,"time":4,"i_lat":-6.202263},{"station_id":"SUDB","is_transit":false,"station_name":"Sudirman Baru","time":1,"distance":280,"i_long":106.819881,"transit":false,"line":1,"i_lat":-6.201433},{"time":1,"i_long":106.816351,"station_name":"Karet","i_lat":-6.20132,"is_transit":false,"transit":false,"distance":471,"line":1,"station_id":"KAT"},{"i_long":106.811091,"i_lat":-6.185545,"station_name":"Tanah Abang","is_transit":true,"line":1,"transit":false,"station_id":"THB","distance":2029,"time":5},{"time":8,"i_lat":-6.155215,"distance":3632,"station_id":"DU","station_name":"Duri","i_long":106.800832,"line":1,"is_transit":true,"transit":true},{"transit":false,"i_long":106.79867,"is_transit":false,"line":0,"i_lat":-6.144674,"station_id":"AK","distance":1230,"time":4,"station_name":"Angke"},{"transit":true,"time":9,"i_lat":-6.132549,"station_name":"Kampung Bandan","station_id":"KPB","i_long":106.826365,"is_transit":true,"line":0,"distance":4102},{"time":3,"is_transit":false,"distance":1444,"i_lat":-6.14505,"station_id":"RJW","i_long":106.836569,"line":11,"station_name":"Rajawali","transit":false},{"transit":false,"distance":1901,"i_lat":-6.161728,"time":5,"station_name":"Kemayoran","i_long":106.839204,"is_transit":false,"line":11,"station_id":"KMO"},{"station_id":"PSE","distance":1436,"is_transit":false,"station_name":"Pasar Senen","i_lat":-6.174784,"line":11,"transit":false,"time":4,"i_long":106.84368},{"i_lat":-6.185975,"line":11,"is_transit":false,"time":8,"distance":1567,"station_name":"Gang Sentiong","i_long":106.850107,"station_id":"GST","transit":false},{"distance":973,"transit":false,"line":11,"station_id":"KMT","is_transit":false,"i_long":106.855437,"time":1,"station_name":"Kramat","i_lat":-6.193792},{"distance":1829,"line":11,"i_long":106.861737,"is_transit":false,"station_id":"POK","time":2,"transit":false,"i_lat":-6.209188,"station_name":"Pondok Jati"},{"station_id":"JNG","i_long":106.86807400000001,"time":9,"transit":true,"line":0,"station_name":"Jatinegara","is_transit":true,"i_lat":-6.215091,"distance":1236},{"is_transit":false,"distance":3395,"station_id":"KLD","transit":false,"time":3,"i_lat":-6.2135,"i_long":106.899548,"line":1,"station_name":"Klender"},{"distance":3100,"transit":false,"line":0,"is_transit":false,"i_lat":-6.215568,"i_long":106.922662,"time":2,"station_id":"BUA","station_name":"Buaran"},{"line":1,"distance":1305,"time":1,"transit":false,"is_transit":false,"i_long":106.939679,"station_id":"KLDB","station_name":"Klenderbaru","i_lat":-6.217455}],[{"line":2,"time":0,"transit":false,"i_lat":-6.226659,"i_long":106.857948,"distance":0,"station_id":"TEB","is_transit":false,"station_name":"Tebet"},{"distance":2610,"transit":true,"i_lat":-6.209883,"time":4,"line":0,"station_name":"Manggarai","i_long":106.84912,"is_transit":true,"station_id":"MRI"},{"transit":false,"time":4,"station_id":"CKI","line":0,"distance":1590,"is_transit":false,"station_name":"Cikini","i_lat":-6.198556,"i_long":106.840169},{"time":3,"i_lat":-6.186295,"line":2,"distance":1750,"i_long":106.832183,"is_transit":false,"station_id":"GDD","station_name":"Gondangdia","transit":false},{"transit":false,"i_lat":-6.166716,"station_name":"Juanda","station_id":"JUA","is_transit":false,"line":2,"time":4,"distance":2015,"i_long":106.828284},{"i_lat":-6.160725,"line":2,"is_transit":false,"transit":false,"distance":1149,"station_id":"SW","station_name":"Sawah Besar","time":2,"i_long":106.827103},{"station_name":"Manggabesar","distance":906,"station_id":"MGB","time":2,"i_lat":-6.149769,"line":2,"i_long":106.82482,"transit":false,"is_transit":false},{"station_id":"JAY","time":2,"transit":false,"line":7,"station_name":"Jayakarta","i_lat":-6.141205,"i_long":106.820901,"distance":1080,"is_transit":false},{"line":0,"is_transit":true,"station_name":"Jakarta Kota","distance":1264,"transit":true,"station_id":"JAKK","i_long":106.812439,"i_lat":-6.137569,"time":4},{"is_transit":true,"station_id":"KPB","station_name":"Kampung Bandan","transit":true,"distance":1364,"time":3,"i_long":106.826365,"i_lat":-6.132549,"line":0},{"is_transit":false,"i_lat":-6.14505,"time":3,"i_long":106.836569,"station_id":"RJW","distance":1444,"station_name":"Rajawali","line":11,"transit":false},{"transit":false,"i_lat":-6.161728,"time":5,"is_transit":false,"station_name":"Kemayoran","distance":1901,"line":11,"i_long":106.839204,"station_id":"KMO"},{"is_transit":false,"transit":false,"i_lat":-6.174784,"i_long":106.84368,"line":11,"time":4,"station_id":"PSE","station_name":"Pasar Senen","distance":1436},{"line":11,"station_id":"GST","distance":1567,"time":8,"i_lat":-6.185975,"station_name":"Gang Sentiong","transit":false,"i_long":106.850107,"is_transit":false},{"time":1,"is_transit":false,"i_long":106.855437,"distance":973,"transit":false,"i_lat":-6.193792,"line":11,"station_id":"KMT","station_name":"Kramat"},{"station_name":"Pondok Jati","i_lat":-6.209188,"i_long":106.861737,"transit":false,"time":2,"line":11,"is_transit":false,"distance":1829,"station_id":"POK"},{"i_lat":-6.215091,"station_id":"JNG","i_long":106.86807400000001,"line":0,"station_name":"Jatinegara","distance":1236,"time":9,"transit":true,"is_transit":true},{"is_transit":false,"station_name":"Klender","transit":false,"i_long":106.899548,"station_id":"KLD","distance":3395,"time":3,"i_lat":-6.2135,"line":1},{"station_id":"BUA","i_lat":-6.215568,"distance":3100,"station_name":"Buaran","line":0,"is_transit":false,"transit":false,"time":2,"i_long":106.922662},{"is_transit":false,"station_id":"KLDB","distance":1305,"station_name":"Klenderbaru","transit":false,"time":1,"i_lat":-6.217455,"i_long":106.939679,"line":1}]]}