{"data":[[{"time":0,"station_id":"TEB","i_long":106.857948,"station_name":"Tebet","i_lat":-6.226659,"transit":false,"is_transit":false,"line":2,"distance":0},{"i_long":106.84912,"line":2,"distance":2610,"transit":true,"station_id":"MRI","time":4,"station_name":"Manggarai","i_lat":-6.209883,"is_transit":true},{"distance":1275,"is_transit":false,"line":1,"time":2,"station_name":"Matraman","i_long":106.858896,"transit":false,"station_id":"MTR","i_lat":-6.212485}],[{"i_lat":-6.226659,"i_long":106.857948,"station_name":"Tebet","transit":false,"station_id":"TEB","distance":0,"line":2,"is_transit":false,"time":0},{"station_name":"Manggarai","line":2,"i_lat":-6.209883,"i_long":106.84912,"is_transit":true,"distance":2610,"transit":true,"time":4,"station_id":"MRI"},{"station_id":"SUD","station_name":"Sudirman","is_transit":false,"distance":3186,"i_long":106.822649,"line":1,"i_lat":-6.202263,"transit":false,"time":4},{"distance":280,"time":1,"station_id":"SUDB","is_transit":false,"transit":false,"station_name":"Sudirman Baru","i_lat":-6.201433,"line":1,"i_long":106.819881},{"time":1,"i_lat":-6.20132,"station_id":"KAT","i_long":106.816351,"station_name":"Karet","line":1,"transit":false,"distance":471,"is_transit":false},{"transit":false,"i_lat":-6.185545,"station_id":"THB","station_name":"Tanah Abang","i_long":106.811091,"distance":2029,"line":1,"is_transit":false,"time":5},{"station_name":"Duri","i_lat":-6.155215,"transit":false,"is_transit":false,"i_long":106.800832,"distance":3632,"time":8,"station_id":"DU","line":1},{"station_id":"AK","distance":1230,"i_long":106.79867,"transit":false,"line":1,"is_transit":false,"time":4,"station_name":"Angke","i_lat":-6.144674},{"time":9,"transit":true,"i_long":106.826365,"line":4,"is_transit":true,"station_id":"KPB","i_lat":-6.132549,"station_name":"Kampung Bandan","distance":4102},{"i_lat":-6.14505,"i_long":106.836569,"distance":1444,"line":11,"station_name":"Rajawali","transit":false,"station_id":"RJW","time":3,"is_transit":false},{"station_id":"KMO","transit":false,"line":11,"i_lat":-6.161728,"is_transit":false,"station_name":"Kemayoran","i_long":106.839204,"distance":1901,"time":5},{"is_transit":false,"station_name":"Pasar Senen","station_id":"PSE","i_lat":-6.174784,"i_long":106.84368,"line":11,"time":4,"transit":false,"distance":1436},{"station_id":"GST","time":8,"transit":false,"line":11,"i_long":106.850107,"distance":1567,"is_transit":false,"station_name":"Gang Sentiong","i_lat":-6.185975},{"i_lat":-6.193792,"station_id":"KMT","i_long":106.855437,"time":1,"station_name":"Kramat","distance":973,"transit":false,"is_transit":false,"line":11},{"station_name":"Pondok Jati","time":2,"transit":false,"distance":1829,"station_id":"POK","line":11,"i_long":106.861737,"i_lat":-6.209188,"is_transit":false},{"transit":true,"time":9,"is_transit":true,"station_id":"JNG","i_long":106.86807400000001,"i_lat":-6.215091,"station_name":"Jatinegara","distance":1236,"line":1},{"time":2,"distance":1377,"station_id":"MTR","i_lat":-6.212485,"transit":false,"i_long":106.858896,"line":1,"is_transit":false,"station_name":"Matraman"}],[{"distance":0,"time":0,"transit":false,"i_lat":-6.226659,"i_long":106.857948,"station_name":"Tebet","line":2,"is_transit":false,"station_id":"TEB"},{"time":4,"i_lat":-6.209883,"station_id":"MRI","is_transit":false,"station_name":"Manggarai","line":2,"distance":2610,"i_long":106.84912,"transit":false},{"station_id":"CKI","line":2,"distance":1590,"i_long":106.840169,"i_lat":-6.198556,"transit":false,"station_name":"Cikini","is_transit":false,"time":4},{"is_transit":false,"station_name":"Gondangdia","i_lat":-6.186295,"time":3,"i_long":106.832183,"distance":1750,"line":2,"transit":false,"station_id":"GDD"},{"station_id":"JUA","station_name":"Juanda","distance":2015,"is_transit":false,"line":2,"time":4,"transit":false,"i_long":106.828284,"i_lat":-6.166716},{"station_name":"Sawah Besar","time":2,"is_transit":false,"transit":false,"i_lat":-6.160725,"i_long":106.827103,"distance":1149,"line":2,"station_id":"SW"},{"line":2,"i_long":106.82482,"i_lat":-6.149769,"station_name":"Manggabesar","time":2,"transit":false,"distance":906,"is_transit":false,"station_id":"MGB"},{"i_long":106.820901,"line":2,"station_id":"JAY","i_lat":-6.141205,"is_transit":false,"distance":1080,"transit":false,"station_name":"Jayakarta","time":2},{"station_id":"JAKK","i_long":106.812439,"i_lat":-6.137569,"station_name":"Jakarta Kota","time":4,"is_transit":true,"line":2,"transit":true,"distance":1264},{"distance":1364,"station_id":"KPB","line":4,"transit":true,"i_lat":-6.132549,"time":3,"is_transit":true,"station_name":"Kampung Bandan","i_long":106.826365},{"line":11,"station_id":"RJW","distance":1444,"time":3,"i_long":106.836569,"is_transit":false,"station_name":"Rajawali","transit":false,"i_lat":-6.14505},{"transit":false,"line":11,"station_name":"Kemayoran","distance":1901,"time":5,"is_transit":false,"i_lat":-6.161728,"station_id":"KMO","i_long":106.839204},{"station_id":"PSE","transit":false,"i_long":106.84368,"distance":1436,"line":11,"i_lat":-6.174784,"time":4,"is_transit":false,"station_name":"Pasar Senen"},{"i_long":106.850107,"transit":false,"line":11,"time":8,"is_transit":false,"distance":1567,"station_name":"Gang Sentiong","station_id":"GST","i_lat":-6.185975},{"time":1,"is_transit":false,"i_long":106.855437,"transit":false,"line":11,"station_name":"Kramat","station_id":"KMT","distance":973,"i_lat":-6.193792},{"station_id":"POK","station_name":"Pondok Jati","line":11,"is_transit":false,"i_lat":-6.209188,"time":2,"distance":1829,"transit":false,"i_long":106.861737},{"station_name":"Jatinegara","time":9,"distance":1236,"is_transit":true,"station_id":"JNG","transit":true,"i_lat":-6.215091,"i_long":106.86807400000001,"line":1},{"station_name":"Matraman","transit":false,"time":2,"is_transit":false,"station_id":"MTR","i_lat":-6.212485,"line":1,"i_long":106.858896,"distance":1377}]]}