{"data":[[{"transit":false,"time":0,"i_lat":-6.226659,"line":2,"station_id":"TEB","is_transit":false,"station_name":"Tebet","i_long":106.857948,"distance":0},{"distance":1230,"transit":false,"i_lat":-6.242512,"station_id":"CW","i_long":106.856607,"line":2,"is_transit":false,"station_name":"Cawang","time":2},{"i_long":106.85449,"is_transit":false,"station_id":"DRN","station_name":"Duren Kalibata","transit":false,"distance":1546,"time":3,"i_lat":-6.255332,"line":2},{"station_name":"Pasar Minggu Baru","is_transit":false,"distance":824,"i_lat":-6.263214,"time":2,"station_id":"PSMB","transit":false,"i_long":106.851577,"line":2},{"line":2,"i_long":106.843999,"is_transit":false,"station_id":"PSM","distance":2380,"time":2,"station_name":"Pasar Minggu","i_lat":-6.2842400000000005,"transit":false},{"time":4,"station_name":"Tanjung Barat","i_lat":-6.3080680000000005,"i_long":106.838896,"transit":false,"line":2,"is_transit":false,"station_id":"TNT","distance":2820},{"is_transit":false,"station_name":"Lenteng Agung","i_lat":-6.330363,"time":3,"transit":false,"distance":2671,"station_id":"LNA","i_long":106.832616,"line":2},{"i_lat":-6.339291,"distance":1029,"is_transit":false,"station_name":"Univ. Pancasila","time":2,"transit":false,"line":2,"station_id":"UP","i_long":106.834175},{"is_transit":false,"i_lat":-6.360749,"station_id":"UI","station_name":"Univ. Indonesia","line":2,"i_long":106.831474,"time":3,"transit":false,"distance":2264},{"station_id":"POC","is_transit":false,"i_long":106.831114,"distance":1109,"i_lat":-6.369073,"transit":false,"station_name":"Pondok Cina","line":2,"time":2},{"distance":2727,"time":4,"line":2,"transit":false,"i_long":106.819451,"station_name":"Depokbaru","station_id":"DPB","is_transit":false,"i_lat":-6.391065},{"transit":false,"distance":1584,"line":2,"time":3,"station_id":"DP","is_transit":false,"i_lat":-6.405256,"i_long":106.816926,"station_name":"Depok"},{"is_transit":false,"i_long":106.800298,"distance":5084,"station_id":"CTA","time":6,"transit":false,"i_lat":-6.448811,"line":2,"station_name":"Citayam"}]]}