{"data":[[{"is_transit":false,"distance":0,"station_name":"Tebet","time":0,"line":2,"i_long":106.857948,"station_id":"TEB","transit":false,"i_lat":-6.226659},{"station_name":"Cawang","i_lat":-6.242512,"station_id":"CW","i_long":106.856607,"transit":false,"distance":1230,"line":0,"time":2,"is_transit":false},{"station_id":"DRN","i_lat":-6.255332,"transit":false,"time":3,"i_long":106.85449,"is_transit":false,"station_name":"Duren Kalibata","line":0,"distance":1546},{"i_long":106.851577,"line":2,"time":2,"is_transit":false,"transit":false,"distance":824,"i_lat":-6.263214,"station_id":"PSMB","station_name":"Pasar Minggu Baru"},{"is_transit":false,"i_long":106.843999,"line":2,"transit":false,"i_lat":-6.2842400000000005,"station_name":"Pasar Minggu","time":2,"distance":2380,"station_id":"PSM"},{"station_name":"Tanjung Barat","distance":2820,"line":2,"station_id":"TNT","transit":false,"i_long":106.838896,"is_transit":false,"time":4,"i_lat":-6.3080680000000005},{"station_id":"LNA","station_name":"Lenteng Agung","line":2,"transit":false,"distance":2671,"time":3,"i_lat":-6.330363,"i_long":106.832616,"is_transit":false},{"station_id":"UP","i_lat":-6.339291,"transit":false,"time":2,"i_long":106.834175,"distance":1029,"is_transit":false,"line":2,"station_name":"Univ. Pancasila"},{"i_lat":-6.360749,"distance":2264,"time":3,"is_transit":false,"transit":false,"i_long":106.831474,"line":2,"station_id":"UI","station_name":"Univ. Indonesia"},{"time":2,"station_name":"Pondok Cina","station_id":"POC","transit":false,"distance":1109,"is_transit":false,"line":2,"i_lat":-6.369073,"i_long":106.831114},{"line":0,"station_name":"Depokbaru","station_id":"DPB","is_transit":false,"transit":false,"i_lat":-6.391065,"i_long":106.819451,"distance":2727,"time":4},{"i_long":106.816926,"time":3,"distance":1584,"is_transit":false,"i_lat":-6.405256,"station_id":"DP","station_name":"Depok","transit":false,"line":0},{"i_lat":-6.448811,"line":1,"distance":5084,"time":6,"is_transit":true,"transit":false,"station_id":"CTA","i_long":106.800298,"station_name":"Citayam"},{"distance":6740,"i_long":106.851978,"line":0,"is_transit":false,"station_id":"CBN","station_name":"Cibinong","i_lat":-6.46424,"time":10,"transit":false}]]}