{"data":[[{"station_id":"TEB","station_name":"Tebet","time":0,"distance":0,"is_transit":false,"i_lat":-6.226659,"i_long":106.857948,"line":2,"transit":false},{"i_lat":-6.242512,"is_transit":false,"line":0,"station_id":"CW","distance":1230,"i_long":106.856607,"time":2,"transit":false,"station_name":"Cawang"},{"station_name":"Duren Kalibata","transit":false,"time":3,"i_lat":-6.255332,"line":0,"distance":1546,"station_id":"DRN","i_long":106.85449,"is_transit":false},{"i_long":106.851577,"transit":false,"distance":824,"station_name":"Pasar Minggu Baru","line":2,"time":2,"i_lat":-6.263214,"station_id":"PSMB","is_transit":false},{"i_lat":-6.2842400000000005,"station_id":"PSM","line":2,"station_name":"Pasar Minggu","distance":2380,"i_long":106.843999,"time":2,"is_transit":false,"transit":false},{"transit":false,"time":4,"i_lat":-6.3080680000000005,"i_long":106.838896,"line":2,"is_transit":false,"station_name":"Tanjung Barat","distance":2820,"station_id":"TNT"},{"station_id":"LNA","is_transit":false,"transit":false,"line":2,"station_name":"Lenteng Agung","i_lat":-6.330363,"i_long":106.832616,"distance":2671,"time":3}]]}