{"data":[[{"transit":false,"station_name":"Tebet","station_id":"TEB","is_transit":false,"time":0,"distance":0,"i_long":106.857948,"line":2,"i_lat":-6.226659},{"transit":true,"station_name":"Manggarai","is_transit":true,"distance":2610,"i_long":106.84912,"line":2,"station_id":"MRI","time":4,"i_lat":-6.209883},{"station_name":"Sudirman","i_lat":-6.202263,"line":1,"time":4,"distance":3186,"transit":false,"station_id":"SUD","i_long":106.822649,"is_transit":false},{"i_long":106.819881,"line":1,"station_name":"Sudirman Baru","station_id":"SUDB","distance":280,"is_transit":false,"transit":false,"i_lat":-6.201433,"time":1},{"time":1,"station_name":"Karet","is_transit":false,"transit":false,"i_lat":-6.20132,"line":1,"distance":471,"station_id":"KAT","i_long":106.816351},{"time":5,"distance":2029,"i_long":106.811091,"transit":false,"i_lat":-6.185545,"line":1,"station_name":"Tanah Abang","station_id":"THB","is_transit":false},{"transit":false,"station_name":"Duri","is_transit":false,"i_lat":-6.155215,"distance":3632,"line":1,"time":8,"station_id":"DU","i_long":106.800832},{"i_lat":-6.144674,"distance":1230,"station_id":"AK","line":1,"is_transit":false,"time":4,"i_long":106.79867,"transit":false,"station_name":"Angke"},{"time":9,"distance":4102,"station_name":"Kampung Bandan","i_lat":-6.132549,"transit":true,"i_long":106.826365,"is_transit":true,"line":4,"station_id":"KPB"},{"station_id":"AC","i_lat":-6.128023,"line":4,"station_name":"Ancol","is_transit":false,"i_long":106.84464,"transit":false,"time":4,"distance":2185},{"station_id":"TPK","station_name":"Tanjung Priuk","line":4,"time":9,"i_long":106.880089,"distance":4566,"is_transit":false,"transit":false,"i_lat":-6.1109480000000005}],[{"distance":0,"i_lat":-6.226659,"station_id":"TEB","is_transit":false,"time":0,"i_long":106.857948,"line":2,"station_name":"Tebet","transit":false},{"line":2,"distance":2610,"station_name":"Manggarai","time":4,"i_lat":-6.209883,"transit":false,"i_long":106.84912,"is_transit":false,"station_id":"MRI"},{"transit":false,"distance":1590,"is_transit":false,"i_long":106.840169,"time":4,"station_id":"CKI","station_name":"Cikini","i_lat":-6.198556,"line":2},{"transit":false,"line":2,"is_transit":false,"i_long":106.832183,"station_name":"Gondangdia","station_id":"GDD","time":3,"distance":1750,"i_lat":-6.186295},{"distance":2015,"transit":false,"line":2,"station_id":"JUA","i_long":106.828284,"is_transit":false,"i_lat":-6.166716,"station_name":"Juanda","time":4},{"transit":false,"time":2,"station_name":"Sawah Besar","distance":1149,"station_id":"SW","line":2,"is_transit":false,"i_lat":-6.160725,"i_long":106.827103},{"is_transit":false,"station_id":"MGB","distance":906,"line":2,"time":2,"transit":false,"station_name":"Manggabesar","i_lat":-6.149769,"i_long":106.82482},{"station_id":"JAY","distance":1080,"i_lat":-6.141205,"line":2,"time":2,"station_name":"Jayakarta","transit":false,"is_transit":false,"i_long":106.820901},{"transit":true,"station_name":"Jakarta Kota","distance":1264,"i_lat":-6.137569,"is_transit":true,"i_long":106.812439,"time":4,"line":2,"station_id":"JAKK"},{"distance":1364,"i_lat":-6.132549,"i_long":106.826365,"line":4,"transit":true,"station_id":"KPB","is_transit":true,"station_name":"Kampung Bandan","time":3},{"time":4,"line":4,"is_transit":false,"distance":2185,"i_long":106.84464,"station_id":"AC","i_lat":-6.128023,"transit":false,"station_name":"Ancol"},{"is_transit":false,"line":4,"i_long":106.880089,"time":9,"distance":4566,"i_lat":-6.1109480000000005,"station_name":"Tanjung Priuk","station_id":"TPK","transit":false}],[{"line":2,"time":0,"i_long":106.857948,"station_name":"Tebet","distance":0,"transit":false,"is_transit":false,"i_lat":-6.226659,"station_id":"TEB"},{"i_long":106.84912,"station_name":"Manggarai","line":2,"station_id":"MRI","distance":2610,"i_lat":-6.209883,"transit":true,"is_transit":true,"time":4},{"transit":false,"distance":1275,"station_id":"MTR","station_name":"Matraman","i_long":106.858896,"is_transit":false,"i_lat":-6.212485,"time":2,"line":1},{"is_transit":true,"transit":true,"station_id":"JNG","distance":1377,"i_long":106.86807400000001,"time":8,"line":1,"i_lat":-6.215091,"station_name":"Jatinegara"},{"line":11,"station_id":"POK","i_long":106.861737,"distance":1236,"is_transit":false,"station_name":"Pondok Jati","transit":false,"i_lat":-6.209188,"time":2},{"i_lat":-6.193792,"transit":false,"station_name":"Kramat","station_id":"KMT","i_long":106.855437,"line":11,"is_transit":false,"time":2,"distance":1829},{"i_lat":-6.185975,"line":11,"time":1,"i_long":106.850107,"transit":false,"station_name":"Gang Sentiong","station_id":"GST","is_transit":false,"distance":973},{"i_long":106.84368,"is_transit":false,"transit":false,"station_name":"Pasar Senen","i_lat":-6.174784,"station_id":"PSE","time":8,"line":11,"distance":1567},{"is_transit":false,"station_name":"Kemayoran","i_lat":-6.161728,"transit":false,"time":4,"i_long":106.839204,"distance":1436,"station_id":"KMO","line":11},{"i_lat":-6.14505,"station_id":"RJW","line":11,"distance":1901,"station_name":"Rajawali","is_transit":false,"transit":false,"time":5,"i_long":106.836569},{"is_transit":true,"station_id":"KPB","i_lat":-6.132549,"line":4,"transit":true,"station_name":"Kampung Bandan","i_long":106.826365,"time":3,"distance":1444},{"i_long":106.84464,"i_lat":-6.128023,"line":4,"transit":false,"station_name":"Ancol","is_transit":false,"station_id":"AC","distance":2185,"time":4},{"i_lat":-6.1109480000000005,"transit":false,"is_transit":false,"line":4,"station_id":"TPK","station_name":"Tanjung Priuk","time":9,"distance":4566,"i_long":106.880089}]]}