{"data":[[{"line":2,"time":0,"distance":0,"i_lat":-6.226659,"i_long":106.857948,"is_transit":false,"station_id":"TEB","transit":false,"station_name":"Tebet"},{"is_transit":true,"i_long":106.84912,"station_name":"Manggarai","i_lat":-6.209883,"distance":2610,"time":4,"transit":true,"line":2,"station_id":"MRI"},{"station_name":"Sudirman","is_transit":false,"time":4,"i_long":106.822649,"line":1,"transit":false,"i_lat":-6.202263,"distance":3186,"station_id":"SUD"},{"i_long":106.819881,"time":1,"station_id":"SUDB","station_name":"Sudirman Baru","i_lat":-6.201433,"line":1,"transit":false,"distance":280,"is_transit":false},{"station_name":"Karet","transit":false,"is_transit":false,"distance":471,"i_long":106.816351,"line":1,"i_lat":-6.20132,"time":1,"station_id":"KAT"},{"transit":false,"line":1,"is_transit":false,"time":5,"i_lat":-6.185545,"i_long":106.811091,"distance":2029,"station_id":"THB","station_name":"Tanah Abang"},{"station_name":"Duri","is_transit":true,"transit":true,"distance":3632,"line":1,"i_lat":-6.155215,"i_long":106.800832,"station_id":"DU","time":8},{"station_id":"GGL","time":3,"distance":1700,"is_transit":false,"i_lat":-6.162021,"transit":false,"line":5,"i_long":106.788277,"station_name":"Grogol"},{"i_lat":-6.161433,"distance":2036,"station_name":"Pesing","transit":false,"station_id":"PSG","i_long":106.771379,"line":5,"is_transit":false,"time":2},{"line":5,"distance":1614,"is_transit":false,"station_name":"Taman Kota","transit":false,"i_long":106.756522,"station_id":"TKO","time":2,"i_lat":-6.1587309999999995},{"i_long":106.737035,"station_name":"Bojongindah","distance":2334,"time":2,"transit":false,"is_transit":false,"line":5,"i_lat":-6.159876,"station_id":"BOI"},{"station_name":"Rawa Buaya","time":4,"distance":1152,"i_long":106.723064,"is_transit":false,"i_lat":-6.162758,"transit":false,"station_id":"RW","line":5},{"distance":2504,"time":3,"station_name":"Kalideres","i_lat":-6.166068,"station_id":"KDS","line":5,"transit":false,"i_long":106.701612,"is_transit":false}],[{"line":2,"transit":false,"station_name":"Tebet","distance":0,"is_transit":false,"i_lat":-6.226659,"time":0,"station_id":"TEB","i_long":106.857948},{"transit":false,"i_long":106.84912,"time":4,"distance":2610,"station_id":"MRI","station_name":"Manggarai","line":2,"i_lat":-6.209883,"is_transit":false},{"distance":1590,"is_transit":false,"station_name":"Cikini","i_lat":-6.198556,"i_long":106.840169,"time":4,"station_id":"CKI","transit":false,"line":2},{"station_id":"GDD","time":3,"i_long":106.832183,"transit":false,"station_name":"Gondangdia","line":2,"distance":1750,"i_lat":-6.186295,"is_transit":false},{"distance":2015,"station_id":"JUA","station_name":"Juanda","is_transit":false,"line":2,"time":4,"i_lat":-6.166716,"i_long":106.828284,"transit":false},{"time":2,"is_transit":false,"station_name":"Sawah Besar","transit":false,"i_lat":-6.160725,"line":2,"distance":1149,"station_id":"SW","i_long":106.827103},{"line":2,"is_transit":false,"distance":906,"station_id":"MGB","i_long":106.82482,"station_name":"Manggabesar","transit":false,"i_lat":-6.149769,"time":2},{"line":2,"time":2,"station_name":"Jayakarta","transit":false,"i_lat":-6.141205,"i_long":106.820901,"station_id":"JAY","is_transit":false,"distance":1080},{"time":4,"line":2,"station_name":"Jakarta Kota","i_long":106.812439,"station_id":"JAKK","transit":true,"distance":1264,"is_transit":true,"i_lat":-6.137569},{"time":3,"station_id":"KPB","transit":true,"i_lat":-6.132549,"is_transit":true,"line":4,"distance":1364,"i_long":106.826365,"station_name":"Kampung Bandan"},{"station_name":"Angke","is_transit":false,"i_long":106.79867,"time":9,"i_lat":-6.144674,"line":1,"station_id":"AK","transit":false,"distance":4102},{"transit":true,"i_lat":-6.155215,"i_long":106.800832,"line":1,"time":4,"station_id":"DU","is_transit":true,"station_name":"Duri","distance":1230},{"transit":false,"line":5,"i_lat":-6.162021,"station_id":"GGL","station_name":"Grogol","time":3,"distance":1700,"is_transit":false,"i_long":106.788277},{"is_transit":false,"transit":false,"i_long":106.771379,"station_id":"PSG","station_name":"Pesing","i_lat":-6.161433,"line":5,"time":2,"distance":2036},{"is_transit":false,"time":2,"distance":1614,"line":5,"station_name":"Taman Kota","transit":false,"station_id":"TKO","i_lat":-6.1587309999999995,"i_long":106.756522},{"transit":false,"i_lat":-6.159876,"i_long":106.737035,"station_name":"Bojongindah","distance":2334,"line":5,"time":2,"is_transit":false,"station_id":"BOI"},{"is_transit":false,"i_long":106.723064,"station_id":"RW","line":5,"i_lat":-6.162758,"time":4,"transit":false,"distance":1152,"station_name":"Rawa Buaya"},{"time":3,"line":5,"i_long":106.701612,"i_lat":-6.166068,"is_transit":false,"station_name":"Kalideres","station_id":"KDS","transit":false,"distance":2504}],[{"i_long":106.857948,"station_id":"TEB","is_transit":false,"distance":0,"line":2,"transit":false,"station_name":"Tebet","i_lat":-6.226659,"time":0},{"i_lat":-6.209883,"time":4,"line":2,"station_name":"Manggarai","transit":true,"distance":2610,"station_id":"MRI","is_transit":true,"i_long":106.84912},{"station_name":"Matraman","i_long":106.858896,"time":2,"distance":1275,"line":1,"i_lat":-6.212485,"station_id":"MTR","is_transit":false,"transit":false},{"i_long":106.86807400000001,"line":1,"station_name":"Jatinegara","i_lat":-6.215091,"transit":true,"station_id":"JNG","time":8,"distance":1377,"is_transit":true},{"is_transit":false,"line":11,"distance":1236,"transit":false,"station_id":"POK","i_lat":-6.209188,"time":2,"station_name":"Pondok Jati","i_long":106.861737},{"station_name":"Kramat","distance":1829,"station_id":"KMT","i_lat":-6.193792,"transit":false,"time":2,"i_long":106.855437,"is_transit":false,"line":11},{"distance":973,"line":11,"is_transit":false,"transit":false,"station_id":"GST","station_name":"Gang Sentiong","i_lat":-6.185975,"time":1,"i_long":106.850107},{"distance":1567,"is_transit":false,"transit":false,"i_long":106.84368,"i_lat":-6.174784,"station_name":"Pasar Senen","line":11,"station_id":"PSE","time":8},{"time":4,"station_id":"KMO","i_lat":-6.161728,"distance":1436,"transit":false,"is_transit":false,"station_name":"Kemayoran","i_long":106.839204,"line":11},{"time":5,"i_long":106.836569,"line":11,"is_transit":false,"distance":1901,"station_id":"RJW","i_lat":-6.14505,"transit":false,"station_name":"Rajawali"},{"is_transit":true,"i_lat":-6.132549,"i_long":106.826365,"distance":1444,"line":4,"transit":true,"station_name":"Kampung Bandan","station_id":"KPB","time":3},{"station_id":"AK","line":1,"transit":false,"is_transit":false,"station_name":"Angke","time":9,"i_lat":-6.144674,"i_long":106.79867,"distance":4102},{"distance":1230,"is_transit":true,"i_lat":-6.155215,"line":1,"station_name":"Duri","transit":true,"i_long":106.800832,"time":4,"station_id":"DU"},{"time":3,"distance":1700,"transit":false,"i_long":106.788277,"line":5,"is_transit":false,"station_name":"Grogol","station_id":"GGL","i_lat":-6.162021},{"i_long":106.771379,"line":5,"distance":2036,"station_name":"Pesing","transit":false,"station_id":"PSG","is_transit":false,"i_lat":-6.161433,"time":2},{"transit":false,"distance":1614,"station_id":"TKO","time":2,"i_long":106.756522,"line":5,"is_transit":false,"station_name":"Taman Kota","i_lat":-6.1587309999999995},{"distance":2334,"is_transit":false,"line":5,"time":2,"i_lat":-6.159876,"station_name":"Bojongindah","transit":false,"i_long":106.737035,"station_id":"BOI"},{"station_id":"RW","i_long":106.723064,"line":5,"is_transit":false,"distance":1152,"i_lat":-6.162758,"time":4,"station_name":"Rawa Buaya","transit":false},{"distance":2504,"i_long":106.701612,"time":3,"is_transit":false,"transit":false,"i_lat":-6.166068,"station_id":"KDS","line":5,"station_name":"Kalideres"}]]}