{"data":[[{"distance":0,"is_transit":false,"station_id":"TEB","station_name":"Tebet","i_lat":-6.226659,"transit":false,"time":0,"line":2,"i_long":106.857948},{"i_lat":-6.209883,"time":4,"station_id":"MRI","is_transit":false,"transit":false,"station_name":"Manggarai","distance":2610,"i_long":106.84912,"line":2},{"time":4,"station_name":"Cikini","station_id":"CKI","transit":false,"is_transit":false,"i_lat":-6.198556,"distance":1590,"i_long":106.840169,"line":2}],[{"is_transit":false,"i_lat":-6.226659,"transit":false,"distance":0,"i_long":106.857948,"line":2,"station_name":"Tebet","station_id":"TEB","time":0},{"station_name":"Manggarai","is_transit":true,"i_lat":-6.209883,"line":2,"transit":true,"station_id":"MRI","distance":2610,"time":4,"i_long":106.84912},{"distance":3186,"station_name":"Sudirman","transit":false,"i_lat":-6.202263,"line":1,"i_long":106.822649,"time":4,"station_id":"SUD","is_transit":false},{"is_transit":false,"i_long":106.819881,"station_id":"SUDB","station_name":"Sudirman Baru","line":1,"time":1,"distance":280,"i_lat":-6.201433,"transit":false},{"i_long":106.816351,"is_transit":false,"station_id":"KAT","station_name":"Karet","time":1,"distance":471,"i_lat":-6.20132,"line":1,"transit":false},{"transit":false,"i_long":106.811091,"time":5,"i_lat":-6.185545,"distance":2029,"is_transit":false,"station_id":"THB","line":1,"station_name":"Tanah Abang"},{"line":1,"station_name":"Duri","i_long":106.800832,"distance":3632,"time":8,"i_lat":-6.155215,"station_id":"DU","is_transit":false,"transit":false},{"i_lat":-6.144674,"is_transit":false,"transit":false,"station_name":"Angke","station_id":"AK","i_long":106.79867,"line":1,"time":4,"distance":1230},{"station_id":"KPB","line":4,"i_long":106.826365,"distance":4102,"station_name":"Kampung Bandan","transit":true,"time":9,"i_lat":-6.132549,"is_transit":true},{"i_lat":-6.137569,"distance":1364,"i_long":106.812439,"is_transit":true,"transit":true,"station_name":"Jakarta Kota","time":3,"line":2,"station_id":"JAKK"},{"transit":false,"time":4,"station_id":"JAY","line":2,"distance":1264,"i_long":106.820901,"station_name":"Jayakarta","is_transit":false,"i_lat":-6.141205},{"distance":1080,"i_long":106.82482,"i_lat":-6.149769,"line":2,"is_transit":false,"station_id":"MGB","station_name":"Manggabesar","transit":false,"time":2},{"i_lat":-6.160725,"time":2,"station_id":"SW","i_long":106.827103,"distance":906,"is_transit":false,"transit":false,"line":2,"station_name":"Sawah Besar"},{"i_lat":-6.166716,"i_long":106.828284,"time":2,"distance":1149,"line":2,"station_name":"Juanda","station_id":"JUA","transit":false,"is_transit":false},{"is_transit":false,"station_id":"GDD","transit":false,"line":2,"station_name":"Gondangdia","distance":2015,"i_long":106.832183,"time":4,"i_lat":-6.186295},{"distance":1750,"i_long":106.840169,"time":3,"is_transit":false,"transit":false,"line":2,"station_name":"Cikini","i_lat":-6.198556,"station_id":"CKI"}],[{"i_long":106.857948,"time":0,"distance":0,"line":2,"station_name":"Tebet","station_id":"TEB","transit":false,"is_transit":false,"i_lat":-6.226659},{"i_lat":-6.209883,"station_id":"MRI","line":2,"distance":2610,"station_name":"Manggarai","i_long":106.84912,"is_transit":true,"transit":true,"time":4},{"is_transit":false,"transit":false,"line":1,"station_name":"Matraman","distance":1275,"time":2,"i_lat":-6.212485,"i_long":106.858896,"station_id":"MTR"},{"station_name":"Jatinegara","time":8,"i_long":106.86807400000001,"line":1,"i_lat":-6.215091,"is_transit":true,"station_id":"JNG","distance":1377,"transit":true},{"line":11,"i_lat":-6.209188,"distance":1236,"station_id":"POK","transit":false,"is_transit":false,"station_name":"Pondok Jati","time":2,"i_long":106.861737},{"time":2,"distance":1829,"station_name":"Kramat","i_long":106.855437,"transit":false,"is_transit":false,"i_lat":-6.193792,"line":11,"station_id":"KMT"},{"station_name":"Gang Sentiong","transit":false,"is_transit":false,"distance":973,"line":11,"station_id":"GST","time":1,"i_lat":-6.185975,"i_long":106.850107},{"station_id":"PSE","distance":1567,"transit":false,"time":8,"i_lat":-6.174784,"station_name":"Pasar Senen","i_long":106.84368,"line":11,"is_transit":false},{"station_name":"Kemayoran","transit":false,"line":11,"station_id":"KMO","i_long":106.839204,"is_transit":false,"distance":1436,"time":4,"i_lat":-6.161728},{"transit":false,"station_name":"Rajawali","i_lat":-6.14505,"i_long":106.836569,"time":5,"line":11,"station_id":"RJW","distance":1901,"is_transit":false},{"station_name":"Kampung Bandan","is_transit":true,"transit":true,"i_long":106.826365,"distance":1444,"time":3,"line":4,"station_id":"KPB","i_lat":-6.132549},{"time":3,"line":2,"is_transit":true,"transit":true,"station_name":"Jakarta Kota","i_lat":-6.137569,"station_id":"JAKK","distance":1364,"i_long":106.812439},{"is_transit":false,"i_lat":-6.141205,"station_name":"Jayakarta","time":4,"station_id":"JAY","distance":1264,"i_long":106.820901,"transit":false,"line":2},{"i_long":106.82482,"transit":false,"line":2,"time":2,"station_name":"Manggabesar","is_transit":false,"distance":1080,"station_id":"MGB","i_lat":-6.149769},{"transit":false,"i_lat":-6.160725,"i_long":106.827103,"station_id":"SW","time":2,"line":2,"station_name":"Sawah Besar","is_transit":false,"distance":906},{"station_name":"Juanda","is_transit":false,"transit":false,"time":2,"station_id":"JUA","distance":1149,"i_lat":-6.166716,"line":2,"i_long":106.828284},{"time":4,"station_name":"Gondangdia","is_transit":false,"line":2,"transit":false,"i_lat":-6.186295,"station_id":"GDD","i_long":106.832183,"distance":2015},{"distance":1750,"line":2,"transit":false,"time":3,"is_transit":false,"i_long":106.840169,"station_name":"Cikini","station_id":"CKI","i_lat":-6.198556}]]}