{"data":[[{"station_name":"Tebet","station_id":"TEB","time":0,"distance":0,"line":2,"i_long":106.857948,"i_lat":-6.226659,"is_transit":false,"transit":false},{"station_id":"MRI","i_long":106.84912,"is_transit":true,"station_name":"Manggarai","time":4,"transit":true,"distance":2610,"i_lat":-6.209883,"line":0},{"station_id":"MTR","transit":false,"i_lat":-6.212485,"distance":1275,"time":2,"station_name":"Matraman","i_long":106.858896,"is_transit":false,"line":1},{"line":0,"i_long":106.86807400000001,"distance":1377,"is_transit":true,"transit":false,"station_id":"JNG","time":8,"station_name":"Jatinegara","i_lat":-6.215091},{"transit":false,"i_long":106.899548,"is_transit":false,"time":3,"station_name":"Klender","i_lat":-6.2135,"line":1,"distance":3395,"station_id":"KLD"},{"station_id":"BUA","i_long":106.922662,"station_name":"Buaran","i_lat":-6.215568,"distance":3100,"is_transit":false,"line":0,"time":2,"transit":false},{"time":1,"station_id":"KLDB","distance":1305,"transit":false,"i_lat":-6.217455,"i_long":106.939679,"station_name":"Klenderbaru","line":1,"is_transit":false},{"is_transit":false,"distance":1385,"i_lat":-6.219053,"i_long":106.951283,"station_name":"Cakung","transit":false,"station_id":"CUK","line":0,"time":8},{"i_lat":-6.224515,"distance":3097,"station_name":"Kranji","station_id":"KRI","time":3,"i_long":106.977657,"transit":false,"line":1,"is_transit":false},{"is_transit":false,"distance":2520,"i_lat":-6.236616,"i_long":106.997013,"station_name":"Bekasi","station_id":"BKS","line":0,"time":4,"transit":false},{"i_lat":-6.248029,"station_name":"Bekasi Timur","is_transit":false,"i_long":107.016735,"station_id":"BKST","distance":2368,"transit":false,"time":2,"line":0},{"i_long":107.055722,"is_transit":false,"time":7,"station_id":"TB","distance":4460,"transit":false,"station_name":"Tambun","i_lat":-6.258864,"line":1},{"distance":3420,"time":3,"station_name":"Cibitung","line":0,"transit":false,"station_id":"CIT","is_transit":false,"i_lat":-6.261877,"i_long":107.083084},{"transit":false,"i_lat":-6.262938,"station_id":"TLM","is_transit":false,"station_name":"Metland Telaga Murni","i_long":107.093313,"time":2,"distance":2800,"line":1}],[{"is_transit":false,"i_lat":-6.226659,"station_id":"TEB","transit":false,"station_name":"Tebet","line":2,"i_long":106.857948,"time":0,"distance":0},{"line":0,"is_transit":true,"time":4,"station_id":"MRI","station_name":"Manggarai","i_lat":-6.209883,"distance":2610,"transit":true,"i_long":106.84912},{"station_name":"Sudirman","is_transit":false,"distance":3186,"i_lat":-6.202263,"transit":false,"i_long":106.822649,"line":1,"time":4,"station_id":"SUD"},{"distance":280,"station_id":"SUDB","is_transit":false,"station_name":"Sudirman Baru","transit":false,"i_lat":-6.201433,"line":1,"i_long":106.819881,"time":1},{"line":1,"station_name":"Karet","transit":false,"i_lat":-6.20132,"is_transit":false,"distance":471,"time":1,"station_id":"KAT","i_long":106.816351},{"time":5,"i_lat":-6.185545,"station_id":"THB","distance":2029,"station_name":"Tanah Abang","line":1,"i_long":106.811091,"is_transit":true,"transit":false},{"distance":3632,"i_long":106.800832,"station_id":"DU","i_lat":-6.155215,"time":8,"is_transit":true,"line":1,"station_name":"Duri","transit":true},{"station_name":"Angke","is_transit":false,"i_long":106.79867,"distance":1230,"time":4,"station_id":"AK","transit":false,"i_lat":-6.144674,"line":0},{"transit":true,"i_long":106.826365,"distance":4102,"line":0,"time":9,"is_transit":true,"station_id":"KPB","station_name":"Kampung Bandan","i_lat":-6.132549},{"i_lat":-6.14505,"time":3,"is_transit":false,"station_name":"Rajawali","station_id":"RJW","i_long":106.836569,"line":11,"distance":1444,"transit":false},{"station_id":"KMO","time":5,"transit":false,"distance":1901,"is_transit":false,"station_name":"Kemayoran","line":11,"i_lat":-6.161728,"i_long":106.839204},{"is_transit":false,"distance":1436,"station_id":"PSE","line":11,"i_lat":-6.174784,"time":4,"i_long":106.84368,"station_name":"Pasar Senen","transit":false},{"time":8,"transit":false,"line":11,"is_transit":false,"distance":1567,"i_lat":-6.185975,"i_long":106.850107,"station_id":"GST","station_name":"Gang Sentiong"},{"line":11,"i_long":106.855437,"station_name":"Kramat","is_transit":false,"distance":973,"station_id":"KMT","i_lat":-6.193792,"time":1,"transit":false},{"line":11,"station_id":"POK","station_name":"Pondok Jati","time":2,"distance":1829,"is_transit":false,"i_long":106.861737,"i_lat":-6.209188,"transit":false},{"distance":1236,"station_name":"Jatinegara","i_lat":-6.215091,"line":0,"station_id":"JNG","i_long":106.86807400000001,"is_transit":true,"transit":true,"time":9},{"line":1,"transit":false,"station_id":"KLD","is_transit":false,"time":3,"i_lat":-6.2135,"station_name":"Klender","distance":3395,"i_long":106.899548},{"is_transit":false,"time":2,"line":0,"i_lat":-6.215568,"i_long":106.922662,"transit":false,"station_name":"Buaran","station_id":"BUA","distance":3100},{"transit":false,"distance":1305,"i_lat":-6.217455,"line":1,"is_transit":false,"time":1,"station_id":"KLDB","i_long":106.939679,"station_name":"Klenderbaru"},{"station_name":"Cakung","transit":false,"station_id":"CUK","time":8,"distance":1385,"i_long":106.951283,"i_lat":-6.219053,"line":0,"is_transit":false},{"i_long":106.977657,"distance":3097,"i_lat":-6.224515,"station_id":"KRI","time":3,"is_transit":false,"transit":false,"station_name":"Kranji","line":1},{"station_name":"Bekasi","i_lat":-6.236616,"distance":2520,"is_transit":false,"time":4,"transit":false,"line":0,"i_long":106.997013,"station_id":"BKS"},{"station_id":"BKST","station_name":"Bekasi Timur","transit":false,"time":2,"line":0,"i_long":107.016735,"is_transit":false,"distance":2368,"i_lat":-6.248029},{"station_name":"Tambun","transit":false,"station_id":"TB","distance":4460,"line":1,"i_lat":-6.258864,"time":7,"is_transit":false,"i_long":107.055722},{"line":0,"i_long":107.083084,"is_transit":false,"distance":3420,"i_lat":-6.261877,"station_id":"CIT","transit":false,"time":3,"station_name":"Cibitung"},{"i_lat":-6.262938,"station_id":"TLM","time":2,"distance":2800,"transit":false,"station_name":"Metland Telaga Murni","line":1,"i_long":107.093313,"is_transit":false}],[{"distance":0,"transit":false,"line":2,"station_id":"TEB","is_transit":false,"i_lat":-6.226659,"time":0,"station_name":"Tebet","i_long":106.857948},{"transit":true,"station_id":"MRI","time":4,"station_name":"Manggarai","line":0,"is_transit":true,"distance":2610,"i_lat":-6.209883,"i_long":106.84912},{"is_transit":false,"line":0,"transit":false,"i_long":106.840169,"i_lat":-6.198556,"station_id":"CKI","station_name":"Cikini","time":4,"distance":1590},{"line":2,"station_id":"GDD","is_transit":false,"time":3,"station_name":"Gondangdia","i_lat":-6.186295,"distance":1750,"i_long":106.832183,"transit":false},{"is_transit":false,"line":2,"transit":false,"time":4,"i_long":106.828284,"i_lat":-6.166716,"distance":2015,"station_id":"JUA","station_name":"Juanda"},{"distance":1149,"transit":false,"line":2,"station_id":"SW","is_transit":false,"i_long":106.827103,"station_name":"Sawah Besar","time":2,"i_lat":-6.160725},{"line":2,"station_id":"MGB","i_lat":-6.149769,"transit":false,"is_transit":false,"distance":906,"station_name":"Manggabesar","i_long":106.82482,"time":2},{"is_transit":false,"i_lat":-6.141205,"station_id":"JAY","station_name":"Jayakarta","line":7,"time":2,"transit":false,"distance":1080,"i_long":106.820901},{"transit":true,"i_long":106.812439,"station_name":"Jakarta Kota","station_id":"JAKK","line":0,"distance":1264,"i_lat":-6.137569,"is_transit":true,"time":4},{"distance":1364,"station_id":"KPB","time":3,"transit":true,"i_long":106.826365,"station_name":"Kampung Bandan","line":0,"is_transit":true,"i_lat":-6.132549},{"i_long":106.836569,"line":11,"is_transit":false,"distance":1444,"time":3,"station_name":"Rajawali","station_id":"RJW","transit":false,"i_lat":-6.14505},{"is_transit":false,"distance":1901,"station_id":"KMO","station_name":"Kemayoran","transit":false,"i_lat":-6.161728,"time":5,"i_long":106.839204,"line":11},{"line":11,"time":4,"station_name":"Pasar Senen","is_transit":false,"i_long":106.84368,"transit":false,"i_lat":-6.174784,"station_id":"PSE","distance":1436},{"station_id":"GST","time":8,"transit":false,"is_transit":false,"distance":1567,"i_long":106.850107,"i_lat":-6.185975,"station_name":"Gang Sentiong","line":11},{"i_lat":-6.193792,"station_id":"KMT","transit":false,"station_name":"Kramat","time":1,"distance":973,"i_long":106.855437,"line":11,"is_transit":false},{"transit":false,"is_transit":false,"station_name":"Pondok Jati","line":11,"distance":1829,"station_id":"POK","i_lat":-6.209188,"i_long":106.861737,"time":2},{"is_transit":true,"station_id":"JNG","station_name":"Jatinegara","i_lat":-6.215091,"transit":true,"time":9,"distance":1236,"line":0,"i_long":106.86807400000001},{"transit":false,"station_id":"KLD","i_lat":-6.2135,"is_transit":false,"station_name":"Klender","line":1,"i_long":106.899548,"time":3,"distance":3395},{"i_lat":-6.215568,"time":2,"i_long":106.922662,"distance":3100,"transit":false,"line":0,"is_transit":false,"station_id":"BUA","station_name":"Buaran"},{"station_name":"Klenderbaru","i_lat":-6.217455,"time":1,"transit":false,"distance":1305,"i_long":106.939679,"is_transit":false,"station_id":"KLDB","line":1},{"time":8,"transit":false,"i_long":106.951283,"i_lat":-6.219053,"is_transit":false,"line":0,"station_id":"CUK","station_name":"Cakung","distance":1385},{"i_long":106.977657,"is_transit":false,"distance":3097,"station_id":"KRI","transit":false,"i_lat":-6.224515,"time":3,"line":1,"station_name":"Kranji"},{"time":4,"transit":false,"distance":2520,"i_lat":-6.236616,"station_id":"BKS","i_long":106.997013,"is_transit":false,"line":0,"station_name":"Bekasi"},{"time":2,"i_long":107.016735,"transit":false,"line":0,"is_transit":false,"distance":2368,"station_name":"Bekasi Timur","i_lat":-6.248029,"station_id":"BKST"},{"distance":4460,"station_name":"Tambun","station_id":"TB","i_lat":-6.258864,"i_long":107.055722,"line":1,"transit":false,"time":7,"is_transit":false},{"distance":3420,"line":0,"transit":false,"time":3,"i_lat":-6.261877,"station_name":"Cibitung","i_long":107.083084,"station_id":"CIT","is_transit":false},{"line":1,"time":2,"transit":false,"i_long":107.093313,"station_id":"TLM","is_transit":false,"station_name":"Metland Telaga Murni","i_lat":-6.262938,"distance":2800}]]}