{"data":[[{"station_name":"Tebet","distance":0,"line":2,"is_transit":false,"station_id":"TEB","transit":false,"time":0,"i_lat":-6.226659,"i_long":106.857948},{"transit":true,"i_lat":-6.209883,"line":2,"station_id":"MRI","station_name":"Manggarai","distance":2610,"is_transit":true,"time":4,"i_long":106.84912},{"station_name":"Sudirman","i_lat":-6.202263,"i_long":106.822649,"transit":false,"line":1,"is_transit":false,"station_id":"SUD","time":4,"distance":3186},{"transit":false,"station_name":"Sudirman Baru","i_lat":-6.201433,"station_id":"SUDB","line":1,"i_long":106.819881,"time":1,"is_transit":false,"distance":280},{"transit":false,"station_name":"Karet","distance":471,"station_id":"KAT","time":1,"i_lat":-6.20132,"is_transit":false,"i_long":106.816351,"line":1},{"is_transit":true,"i_lat":-6.185545,"i_long":106.811091,"line":1,"station_name":"Tanah Abang","transit":true,"distance":2029,"time":5,"station_id":"THB"},{"distance":3191,"line":6,"station_name":"Palmerah","transit":false,"station_id":"PLM","i_lat":-6.207404,"i_long":106.79689,"time":6,"is_transit":false},{"transit":false,"i_long":106.780334,"station_id":"KBY","distance":3737,"station_name":"Kebayoran","is_transit":false,"time":7,"i_lat":-6.237242,"line":6},{"is_transit":false,"station_id":"PDJ","line":6,"transit":false,"distance":6218,"i_long":106.74273,"time":8,"station_name":"Pondokranji","i_lat":-6.276362},{"station_name":"Jurangmangu","station_id":"JMU","time":3,"transit":false,"i_lat":-6.288927,"distance":2179,"i_long":106.728916,"is_transit":false,"line":6},{"i_lat":-6.296963,"time":4,"transit":false,"station_id":"SDM","line":6,"distance":1994,"is_transit":false,"i_long":106.712277,"station_name":"Sudimara"},{"transit":false,"station_id":"RU","is_transit":false,"i_lat":-6.314823,"line":6,"i_long":106.675475,"time":6,"distance":4566,"station_name":"Rawa Buntu"},{"transit":false,"distance":2413,"i_long":106.66566,"station_name":"Serpong","line":6,"time":4,"i_lat":-6.319871,"is_transit":false,"station_id":"SRP"},{"is_transit":false,"distance":1784,"i_long":106.640411,"time":4,"transit":false,"station_id":"CSK","station_name":"Cisauk","i_lat":-6.32484,"line":3},{"station_id":"CC","line":3,"station_name":"Cicayur","i_long":106.617853,"distance":2519,"transit":false,"time":4,"is_transit":false,"i_lat":-6.329547},{"distance":5968,"time":8,"i_lat":-6.3441410000000005,"is_transit":false,"line":6,"transit":false,"station_id":"PRP","i_long":106.568863,"station_name":"Parung Panjang"}],[{"distance":0,"time":0,"line":2,"i_lat":-6.226659,"is_transit":false,"station_name":"Tebet","station_id":"TEB","transit":false,"i_long":106.857948},{"time":4,"i_lat":-6.209883,"line":2,"station_name":"Manggarai","transit":false,"distance":2610,"i_long":106.84912,"station_id":"MRI","is_transit":false},{"is_transit":false,"time":4,"station_name":"Cikini","i_lat":-6.198556,"i_long":106.840169,"distance":1590,"line":2,"transit":false,"station_id":"CKI"},{"distance":1750,"i_lat":-6.186295,"station_name":"Gondangdia","is_transit":false,"line":2,"station_id":"GDD","time":3,"i_long":106.832183,"transit":false},{"i_lat":-6.166716,"is_transit":false,"i_long":106.828284,"transit":false,"time":4,"line":2,"distance":2015,"station_name":"Juanda","station_id":"JUA"},{"station_id":"SW","is_transit":false,"distance":1149,"time":2,"i_long":106.827103,"line":2,"i_lat":-6.160725,"transit":false,"station_name":"Sawah Besar"},{"station_name":"Manggabesar","station_id":"MGB","distance":906,"time":2,"i_long":106.82482,"is_transit":false,"transit":false,"i_lat":-6.149769,"line":2},{"station_id":"JAY","time":2,"distance":1080,"transit":false,"is_transit":false,"i_long":106.820901,"line":2,"station_name":"Jayakarta","i_lat":-6.141205},{"time":4,"distance":1264,"station_id":"JAKK","is_transit":true,"i_lat":-6.137569,"line":2,"station_name":"Jakarta Kota","i_long":106.812439,"transit":true},{"time":3,"i_long":106.826365,"station_name":"Kampung Bandan","i_lat":-6.132549,"is_transit":true,"transit":true,"distance":1364,"line":4,"station_id":"KPB"},{"i_lat":-6.144674,"transit":false,"station_name":"Angke","time":9,"is_transit":false,"line":1,"i_long":106.79867,"station_id":"AK","distance":4102},{"station_name":"Duri","transit":false,"is_transit":false,"distance":1230,"i_lat":-6.155215,"line":1,"time":4,"station_id":"DU","i_long":106.800832},{"i_lat":-6.185545,"station_name":"Tanah Abang","is_transit":true,"time":8,"distance":3632,"line":1,"transit":true,"i_long":106.811091,"station_id":"THB"},{"i_long":106.79689,"transit":false,"station_name":"Palmerah","i_lat":-6.207404,"line":6,"is_transit":false,"distance":3191,"station_id":"PLM","time":6},{"transit":false,"i_long":106.780334,"line":6,"station_id":"KBY","i_lat":-6.237242,"time":7,"station_name":"Kebayoran","distance":3737,"is_transit":false},{"i_lat":-6.276362,"station_name":"Pondokranji","i_long":106.74273,"line":6,"transit":false,"station_id":"PDJ","is_transit":false,"time":8,"distance":6218},{"i_lat":-6.288927,"station_id":"JMU","station_name":"Jurangmangu","distance":2179,"i_long":106.728916,"line":6,"transit":false,"is_transit":false,"time":3},{"transit":false,"time":4,"i_long":106.712277,"station_id":"SDM","station_name":"Sudimara","is_transit":false,"distance":1994,"line":6,"i_lat":-6.296963},{"is_transit":false,"distance":4566,"station_name":"Rawa Buntu","time":6,"transit":false,"station_id":"RU","line":6,"i_long":106.675475,"i_lat":-6.314823},{"time":4,"line":6,"distance":2413,"is_transit":false,"station_name":"Serpong","station_id":"SRP","i_long":106.66566,"i_lat":-6.319871,"transit":false},{"station_name":"Cisauk","distance":1784,"transit":false,"station_id":"CSK","time":4,"is_transit":false,"line":3,"i_long":106.640411,"i_lat":-6.32484},{"distance":2519,"i_long":106.617853,"line":3,"time":4,"is_transit":false,"transit":false,"station_id":"CC","i_lat":-6.329547,"station_name":"Cicayur"},{"i_lat":-6.3441410000000005,"station_id":"PRP","time":8,"i_long":106.568863,"line":6,"distance":5968,"transit":false,"is_transit":false,"station_name":"Parung Panjang"}],[{"station_name":"Tebet","i_long":106.857948,"is_transit":false,"distance":0,"transit":false,"i_lat":-6.226659,"time":0,"station_id":"TEB","line":2},{"station_name":"Manggarai","time":4,"is_transit":true,"i_long":106.84912,"distance":2610,"i_lat":-6.209883,"line":2,"transit":true,"station_id":"MRI"},{"distance":1275,"i_lat":-6.212485,"is_transit":false,"i_long":106.858896,"transit":false,"line":1,"time":2,"station_id":"MTR","station_name":"Matraman"},{"line":1,"i_lat":-6.215091,"station_name":"Jatinegara","transit":true,"station_id":"JNG","distance":1377,"i_long":106.86807400000001,"time":8,"is_transit":true},{"station_id":"POK","is_transit":false,"distance":1236,"i_lat":-6.209188,"i_long":106.861737,"time":2,"station_name":"Pondok Jati","line":11,"transit":false},{"line":11,"station_id":"KMT","i_long":106.855437,"transit":false,"is_transit":false,"time":2,"i_lat":-6.193792,"distance":1829,"station_name":"Kramat"},{"is_transit":false,"distance":973,"i_long":106.850107,"transit":false,"i_lat":-6.185975,"station_name":"Gang Sentiong","line":11,"time":1,"station_id":"GST"},{"transit":false,"line":11,"distance":1567,"i_long":106.84368,"is_transit":false,"station_name":"Pasar Senen","i_lat":-6.174784,"time":8,"station_id":"PSE"},{"station_name":"Kemayoran","transit":false,"is_transit":false,"station_id":"KMO","time":4,"i_lat":-6.161728,"i_long":106.839204,"line":11,"distance":1436},{"station_name":"Rajawali","i_lat":-6.14505,"station_id":"RJW","i_long":106.836569,"transit":false,"is_transit":false,"time":5,"distance":1901,"line":11},{"time":3,"line":4,"station_id":"KPB","distance":1444,"i_long":106.826365,"station_name":"Kampung Bandan","transit":true,"i_lat":-6.132549,"is_transit":true},{"is_transit":false,"i_long":106.79867,"transit":false,"i_lat":-6.144674,"station_name":"Angke","line":1,"time":9,"station_id":"AK","distance":4102},{"time":4,"i_lat":-6.155215,"distance":1230,"station_name":"Duri","is_transit":false,"line":1,"transit":false,"i_long":106.800832,"station_id":"DU"},{"station_id":"THB","line":1,"time":8,"transit":true,"is_transit":true,"i_lat":-6.185545,"i_long":106.811091,"station_name":"Tanah Abang","distance":3632},{"i_lat":-6.207404,"time":6,"distance":3191,"station_name":"Palmerah","station_id":"PLM","is_transit":false,"line":6,"i_long":106.79689,"transit":false},{"is_transit":false,"transit":false,"i_lat":-6.237242,"i_long":106.780334,"station_id":"KBY","time":7,"line":6,"distance":3737,"station_name":"Kebayoran"},{"i_lat":-6.276362,"transit":false,"station_name":"Pondokranji","i_long":106.74273,"distance":6218,"line":6,"time":8,"is_transit":false,"station_id":"PDJ"},{"station_id":"JMU","time":3,"i_long":106.728916,"station_name":"Jurangmangu","line":6,"i_lat":-6.288927,"transit":false,"distance":2179,"is_transit":false},{"i_long":106.712277,"transit":false,"station_id":"SDM","distance":1994,"i_lat":-6.296963,"is_transit":false,"station_name":"Sudimara","line":6,"time":4},{"line":6,"transit":false,"is_transit":false,"distance":4566,"station_id":"RU","time":6,"station_name":"Rawa Buntu","i_lat":-6.314823,"i_long":106.675475},{"i_long":106.66566,"time":4,"transit":false,"station_id":"SRP","is_transit":false,"line":6,"i_lat":-6.319871,"distance":2413,"station_name":"Serpong"},{"i_long":106.640411,"station_name":"Cisauk","time":4,"i_lat":-6.32484,"distance":1784,"station_id":"CSK","transit":false,"is_transit":false,"line":3},{"distance":2519,"station_name":"Cicayur","i_lat":-6.329547,"is_transit":false,"i_long":106.617853,"transit":false,"time":4,"line":3,"station_id":"CC"},{"transit":false,"is_transit":false,"i_long":106.568863,"line":6,"distance":5968,"station_id":"PRP","station_name":"Parung Panjang","time":8,"i_lat":-6.3441410000000005}]]}