{"data":[[{"transit":false,"station_name":"Tebet","is_transit":false,"i_lat":-6.226659,"i_long":106.857948,"line":2,"time":0,"station_id":"TEB","distance":0},{"time":4,"transit":true,"station_name":"Manggarai","i_long":106.84912,"line":2,"distance":2610,"station_id":"MRI","is_transit":true,"i_lat":-6.209883},{"station_name":"Sudirman","time":4,"station_id":"SUD","is_transit":false,"distance":3186,"i_long":106.822649,"i_lat":-6.202263,"transit":false,"line":1},{"line":1,"transit":false,"station_id":"SUDB","time":1,"station_name":"Sudirman Baru","i_lat":-6.201433,"i_long":106.819881,"is_transit":false,"distance":280},{"i_lat":-6.20132,"station_id":"KAT","time":1,"transit":false,"is_transit":false,"station_name":"Karet","i_long":106.816351,"line":1,"distance":471},{"time":5,"i_long":106.811091,"line":1,"i_lat":-6.185545,"is_transit":false,"transit":false,"station_id":"THB","distance":2029,"station_name":"Tanah Abang"},{"station_id":"DU","is_transit":true,"distance":3632,"i_lat":-6.155215,"i_long":106.800832,"transit":true,"station_name":"Duri","time":8,"line":1},{"time":3,"station_id":"GGL","station_name":"Grogol","distance":1700,"is_transit":false,"transit":false,"i_long":106.788277,"i_lat":-6.162021,"line":5},{"transit":false,"station_id":"PSG","is_transit":false,"i_lat":-6.161433,"station_name":"Pesing","distance":2036,"time":2,"i_long":106.771379,"line":5},{"distance":1614,"i_long":106.756522,"station_name":"Taman Kota","station_id":"TKO","is_transit":false,"line":5,"transit":false,"time":2,"i_lat":-6.1587309999999995},{"line":5,"time":2,"station_name":"Bojongindah","i_lat":-6.159876,"transit":false,"distance":2334,"i_long":106.737035,"station_id":"BOI","is_transit":false},{"i_lat":-6.162758,"station_name":"Rawa Buaya","is_transit":false,"distance":1152,"i_long":106.723064,"transit":false,"time":4,"line":5,"station_id":"RW"},{"time":3,"station_id":"KDS","is_transit":false,"distance":2504,"station_name":"Kalideres","line":5,"i_lat":-6.166068,"transit":false,"i_long":106.701612}],[{"i_lat":-6.226659,"line":2,"distance":0,"station_id":"TEB","station_name":"Tebet","is_transit":false,"i_long":106.857948,"transit":false,"time":0},{"i_lat":-6.209883,"i_long":106.84912,"distance":2610,"line":2,"station_name":"Manggarai","is_transit":false,"station_id":"MRI","transit":false,"time":4},{"transit":false,"time":4,"station_name":"Cikini","is_transit":false,"i_long":106.840169,"line":2,"distance":1590,"station_id":"CKI","i_lat":-6.198556},{"station_name":"Gondangdia","station_id":"GDD","distance":1750,"is_transit":false,"i_long":106.832183,"transit":false,"i_lat":-6.186295,"time":3,"line":2},{"time":4,"station_name":"Juanda","i_long":106.828284,"is_transit":false,"i_lat":-6.166716,"distance":2015,"line":2,"station_id":"JUA","transit":false},{"distance":1149,"is_transit":false,"line":2,"transit":false,"station_name":"Sawah Besar","i_long":106.827103,"station_id":"SW","i_lat":-6.160725,"time":2},{"is_transit":false,"i_lat":-6.149769,"time":2,"i_long":106.82482,"station_id":"MGB","line":2,"station_name":"Manggabesar","transit":false,"distance":906},{"i_long":106.820901,"line":2,"station_id":"JAY","station_name":"Jayakarta","distance":1080,"i_lat":-6.141205,"transit":false,"is_transit":false,"time":2},{"transit":true,"time":4,"station_name":"Jakarta Kota","station_id":"JAKK","is_transit":true,"i_long":106.812439,"distance":1264,"i_lat":-6.137569,"line":2},{"transit":true,"station_id":"KPB","i_lat":-6.132549,"line":4,"distance":1364,"i_long":106.826365,"station_name":"Kampung Bandan","time":3,"is_transit":true},{"i_long":106.79867,"transit":false,"line":1,"station_name":"Angke","time":9,"is_transit":false,"i_lat":-6.144674,"station_id":"AK","distance":4102},{"station_id":"DU","line":1,"station_name":"Duri","i_long":106.800832,"i_lat":-6.155215,"transit":true,"is_transit":true,"time":4,"distance":1230},{"time":3,"is_transit":false,"distance":1700,"i_long":106.788277,"transit":false,"i_lat":-6.162021,"line":5,"station_name":"Grogol","station_id":"GGL"},{"station_id":"PSG","i_lat":-6.161433,"line":5,"time":2,"is_transit":false,"station_name":"Pesing","distance":2036,"i_long":106.771379,"transit":false},{"line":5,"station_name":"Taman Kota","station_id":"TKO","time":2,"i_lat":-6.1587309999999995,"transit":false,"distance":1614,"is_transit":false,"i_long":106.756522},{"station_id":"BOI","distance":2334,"transit":false,"time":2,"is_transit":false,"station_name":"Bojongindah","i_lat":-6.159876,"i_long":106.737035,"line":5},{"line":5,"station_id":"RW","transit":false,"i_long":106.723064,"distance":1152,"station_name":"Rawa Buaya","is_transit":false,"i_lat":-6.162758,"time":4},{"i_long":106.701612,"station_id":"KDS","station_name":"Kalideres","is_transit":false,"transit":false,"distance":2504,"time":3,"line":5,"i_lat":-6.166068}],[{"station_name":"Tebet","station_id":"TEB","transit":false,"distance":0,"is_transit":false,"time":0,"i_lat":-6.226659,"line":2,"i_long":106.857948},{"station_id":"MRI","is_transit":true,"i_lat":-6.209883,"distance":2610,"station_name":"Manggarai","time":4,"transit":true,"line":2,"i_long":106.84912},{"i_long":106.858896,"station_name":"Matraman","station_id":"MTR","distance":1275,"line":1,"transit":false,"is_transit":false,"time":2,"i_lat":-6.212485},{"station_name":"Jatinegara","station_id":"JNG","i_long":106.86807400000001,"i_lat":-6.215091,"line":1,"is_transit":true,"time":8,"distance":1377,"transit":true},{"is_transit":false,"i_lat":-6.209188,"i_long":106.861737,"station_name":"Pondok Jati","line":11,"station_id":"POK","transit":false,"distance":1236,"time":2},{"distance":1829,"station_id":"KMT","i_lat":-6.193792,"transit":false,"line":11,"i_long":106.855437,"time":2,"is_transit":false,"station_name":"Kramat"},{"is_transit":false,"i_lat":-6.185975,"line":11,"station_id":"GST","transit":false,"i_long":106.850107,"time":1,"distance":973,"station_name":"Gang Sentiong"},{"station_name":"Pasar Senen","time":8,"line":11,"distance":1567,"station_id":"PSE","transit":false,"i_lat":-6.174784,"i_long":106.84368,"is_transit":false},{"station_id":"KMO","line":11,"i_long":106.839204,"distance":1436,"station_name":"Kemayoran","time":4,"i_lat":-6.161728,"is_transit":false,"transit":false},{"transit":false,"i_lat":-6.14505,"i_long":106.836569,"station_id":"RJW","station_name":"Rajawali","time":5,"distance":1901,"is_transit":false,"line":11},{"station_name":"Kampung Bandan","i_lat":-6.132549,"time":3,"line":4,"transit":true,"station_id":"KPB","i_long":106.826365,"is_transit":true,"distance":1444},{"station_name":"Angke","is_transit":false,"time":9,"transit":false,"i_lat":-6.144674,"station_id":"AK","line":1,"i_long":106.79867,"distance":4102},{"line":1,"station_id":"DU","station_name":"Duri","is_transit":true,"i_long":106.800832,"i_lat":-6.155215,"distance":1230,"transit":true,"time":4},{"station_name":"Grogol","i_lat":-6.162021,"station_id":"GGL","time":3,"i_long":106.788277,"line":5,"is_transit":false,"transit":false,"distance":1700},{"is_transit":false,"i_lat":-6.161433,"station_id":"PSG","station_name":"Pesing","time":2,"transit":false,"i_long":106.771379,"line":5,"distance":2036},{"is_transit":false,"time":2,"distance":1614,"i_lat":-6.1587309999999995,"i_long":106.756522,"line":5,"transit":false,"station_id":"TKO","station_name":"Taman Kota"},{"station_id":"BOI","time":2,"distance":2334,"station_name":"Bojongindah","i_long":106.737035,"is_transit":false,"transit":false,"i_lat":-6.159876,"line":5},{"station_name":"Rawa Buaya","station_id":"RW","transit":false,"is_transit":false,"time":4,"distance":1152,"i_long":106.723064,"i_lat":-6.162758,"line":5},{"distance":2504,"time":3,"i_long":106.701612,"station_id":"KDS","is_transit":false,"i_lat":-6.166068,"line":5,"transit":false,"station_name":"Kalideres"}]]}