{"data":[[{"transit":false,"station_id":"TEB","i_lat":-6.226659,"i_long":106.857948,"distance":0,"time":0,"is_transit":false,"line":2,"station_name":"Tebet"},{"station_id":"CW","distance":1230,"i_lat":-6.242512,"transit":false,"station_name":"Cawang","time":2,"i_long":106.856607,"is_transit":false,"line":2},{"station_name":"Duren Kalibata","transit":false,"station_id":"DRN","i_lat":-6.255332,"is_transit":false,"i_long":106.85449,"time":3,"distance":1546,"line":2},{"station_id":"PSMB","station_name":"Pasar Minggu Baru","is_transit":false,"time":2,"distance":824,"i_long":106.851577,"transit":false,"line":2,"i_lat":-6.263214},{"i_lat":-6.2842400000000005,"i_long":106.843999,"distance":2380,"is_transit":false,"transit":false,"station_id":"PSM","time":2,"line":2,"station_name":"Pasar Minggu"},{"transit":false,"is_transit":false,"distance":2820,"i_lat":-6.3080680000000005,"station_id":"TNT","i_long":106.838896,"line":2,"station_name":"Tanjung Barat","time":4},{"station_name":"Lenteng Agung","i_long":106.832616,"transit":false,"time":3,"station_id":"LNA","i_lat":-6.330363,"is_transit":false,"line":2,"distance":2671}]]}