{"data":[[{"transit":false,"line":2,"distance":0,"i_lat":-6.226659,"i_long":106.857948,"station_name":"Tebet","station_id":"TEB","is_transit":false,"time":0},{"line":0,"transit":true,"station_name":"Manggarai","station_id":"MRI","distance":2610,"is_transit":true,"time":4,"i_lat":-6.209883,"i_long":106.84912},{"is_transit":false,"station_name":"Cikini","transit":false,"station_id":"CKI","line":0,"time":4,"distance":1590,"i_lat":-6.198556,"i_long":106.840169},{"station_id":"GDD","line":2,"time":3,"distance":1750,"i_lat":-6.186295,"is_transit":false,"station_name":"Gondangdia","transit":false,"i_long":106.832183},{"line":2,"station_id":"JUA","transit":false,"distance":2015,"time":4,"station_name":"Juanda","i_lat":-6.166716,"is_transit":false,"i_long":106.828284},{"line":2,"i_lat":-6.160725,"i_long":106.827103,"transit":false,"time":2,"distance":1149,"is_transit":false,"station_id":"SW","station_name":"Sawah Besar"}],[{"distance":0,"i_long":106.857948,"is_transit":false,"i_lat":-6.226659,"line":2,"station_name":"Tebet","time":0,"transit":false,"station_id":"TEB"},{"is_transit":true,"station_id":"MRI","distance":2610,"i_long":106.84912,"station_name":"Manggarai","transit":true,"line":0,"time":4,"i_lat":-6.209883},{"station_id":"SUD","is_transit":false,"time":4,"line":1,"transit":false,"i_long":106.822649,"station_name":"Sudirman","i_lat":-6.202263,"distance":3186},{"is_transit":false,"i_lat":-6.201433,"i_long":106.819881,"transit":false,"line":1,"distance":280,"station_name":"Sudirman Baru","station_id":"SUDB","time":1},{"is_transit":false,"station_id":"KAT","station_name":"Karet","time":1,"distance":471,"transit":false,"i_lat":-6.20132,"line":1,"i_long":106.816351},{"station_name":"Tanah Abang","i_long":106.811091,"station_id":"THB","distance":2029,"transit":false,"is_transit":true,"line":1,"i_lat":-6.185545,"time":5},{"distance":3632,"i_long":106.800832,"is_transit":true,"i_lat":-6.155215,"line":1,"station_name":"Duri","time":8,"transit":true,"station_id":"DU"},{"i_long":106.79867,"station_name":"Angke","station_id":"AK","line":0,"i_lat":-6.144674,"time":4,"is_transit":false,"transit":false,"distance":1230},{"transit":false,"i_long":106.826365,"i_lat":-6.132549,"station_name":"Kampung Bandan","is_transit":true,"distance":4102,"time":9,"station_id":"KPB","line":0},{"time":3,"transit":true,"i_lat":-6.137569,"station_name":"Jakarta Kota","is_transit":true,"station_id":"JAKK","i_long":106.812439,"distance":1364,"line":0},{"station_name":"Jayakarta","i_long":106.820901,"is_transit":false,"station_id":"JAY","i_lat":-6.141205,"line":7,"transit":false,"time":4,"distance":1264},{"i_lat":-6.149769,"distance":1080,"transit":false,"station_id":"MGB","station_name":"Manggabesar","time":2,"is_transit":false,"i_long":106.82482,"line":2},{"station_name":"Sawah Besar","distance":906,"station_id":"SW","line":2,"i_lat":-6.160725,"time":2,"i_long":106.827103,"is_transit":false,"transit":false}],[{"distance":0,"time":0,"transit":false,"i_long":106.857948,"is_transit":false,"i_lat":-6.226659,"station_name":"Tebet","line":2,"station_id":"TEB"},{"i_long":106.84912,"distance":2610,"line":0,"station_id":"MRI","i_lat":-6.209883,"time":4,"station_name":"Manggarai","transit":true,"is_transit":true},{"station_id":"MTR","is_transit":false,"i_long":106.858896,"time":2,"i_lat":-6.212485,"transit":false,"station_name":"Matraman","line":1,"distance":1275},{"station_id":"JNG","is_transit":true,"transit":true,"i_lat":-6.215091,"distance":1377,"line":0,"time":8,"station_name":"Jatinegara","i_long":106.86807400000001},{"transit":false,"station_id":"POK","time":2,"i_lat":-6.209188,"is_transit":false,"distance":1236,"line":11,"station_name":"Pondok Jati","i_long":106.861737},{"station_name":"Kramat","distance":1829,"station_id":"KMT","i_lat":-6.193792,"transit":false,"is_transit":false,"time":2,"i_long":106.855437,"line":11},{"station_name":"Gang Sentiong","is_transit":false,"station_id":"GST","time":1,"distance":973,"transit":false,"i_lat":-6.185975,"i_long":106.850107,"line":11},{"line":11,"station_id":"PSE","transit":false,"i_lat":-6.174784,"i_long":106.84368,"station_name":"Pasar Senen","distance":1567,"time":8,"is_transit":false},{"station_id":"KMO","time":4,"line":11,"transit":false,"is_transit":false,"distance":1436,"i_lat":-6.161728,"i_long":106.839204,"station_name":"Kemayoran"},{"i_long":106.836569,"distance":1901,"station_id":"RJW","time":5,"transit":false,"i_lat":-6.14505,"line":11,"station_name":"Rajawali","is_transit":false},{"time":3,"i_lat":-6.132549,"line":0,"station_id":"KPB","is_transit":true,"distance":1444,"transit":true,"station_name":"Kampung Bandan","i_long":106.826365},{"station_name":"Jakarta Kota","time":3,"transit":true,"is_transit":true,"i_lat":-6.137569,"station_id":"JAKK","i_long":106.812439,"distance":1364,"line":0},{"line":7,"i_lat":-6.141205,"i_long":106.820901,"station_id":"JAY","transit":false,"station_name":"Jayakarta","distance":1264,"is_transit":false,"time":4},{"i_long":106.82482,"time":2,"is_transit":false,"station_name":"Manggabesar","transit":false,"distance":1080,"station_id":"MGB","i_lat":-6.149769,"line":2},{"line":2,"station_name":"Sawah Besar","time":2,"is_transit":false,"i_long":106.827103,"distance":906,"transit":false,"station_id":"SW","i_lat":-6.160725}]]}