{"data":[[{"transit":false,"is_transit":false,"i_lat":-6.226659,"station_id":"TEB","station_name":"Tebet","time":0,"distance":0,"i_long":106.857948,"line":2},{"i_lat":-6.209883,"station_name":"Manggarai","line":2,"transit":true,"distance":2610,"is_transit":true,"time":4,"i_long":106.84912,"station_id":"MRI"},{"distance":1275,"transit":false,"time":2,"i_long":106.858896,"i_lat":-6.212485,"station_name":"Matraman","is_transit":false,"line":1,"station_id":"MTR"},{"distance":1377,"transit":true,"line":1,"i_lat":-6.215091,"is_transit":true,"station_id":"JNG","time":8,"i_long":106.86807400000001,"station_name":"Jatinegara"},{"is_transit":false,"distance":1236,"i_long":106.861737,"station_id":"POK","i_lat":-6.209188,"transit":false,"line":11,"station_name":"Pondok Jati","time":2},{"distance":1829,"is_transit":false,"station_name":"Kramat","line":11,"i_lat":-6.193792,"i_long":106.855437,"time":2,"transit":false,"station_id":"KMT"}],[{"station_name":"Tebet","i_long":106.857948,"transit":false,"time":0,"line":2,"i_lat":-6.226659,"station_id":"TEB","is_transit":false,"distance":0},{"i_long":106.84912,"distance":2610,"transit":true,"line":2,"station_id":"MRI","time":4,"station_name":"Manggarai","is_transit":true,"i_lat":-6.209883},{"i_long":106.822649,"line":1,"is_transit":false,"distance":3186,"station_id":"SUD","time":4,"station_name":"Sudirman","i_lat":-6.202263,"transit":false},{"distance":280,"station_name":"Sudirman Baru","station_id":"SUDB","i_lat":-6.201433,"i_long":106.819881,"is_transit":false,"time":1,"transit":false,"line":1},{"transit":false,"station_id":"KAT","distance":471,"line":1,"is_transit":false,"i_lat":-6.20132,"time":1,"i_long":106.816351,"station_name":"Karet"},{"i_lat":-6.185545,"is_transit":false,"transit":false,"time":5,"station_id":"THB","station_name":"Tanah Abang","i_long":106.811091,"line":1,"distance":2029},{"transit":false,"station_name":"Duri","time":8,"station_id":"DU","i_lat":-6.155215,"line":1,"is_transit":false,"distance":3632,"i_long":106.800832},{"time":4,"station_id":"AK","line":1,"i_lat":-6.144674,"is_transit":false,"transit":false,"station_name":"Angke","distance":1230,"i_long":106.79867},{"time":9,"distance":4102,"line":4,"station_name":"Kampung Bandan","i_long":106.826365,"is_transit":true,"i_lat":-6.132549,"transit":true,"station_id":"KPB"},{"i_long":106.836569,"time":3,"station_name":"Rajawali","distance":1444,"i_lat":-6.14505,"is_transit":false,"station_id":"RJW","line":11,"transit":false},{"is_transit":false,"time":5,"i_lat":-6.161728,"i_long":106.839204,"line":11,"distance":1901,"station_id":"KMO","transit":false,"station_name":"Kemayoran"},{"distance":1436,"transit":false,"station_id":"PSE","i_long":106.84368,"time":4,"i_lat":-6.174784,"station_name":"Pasar Senen","is_transit":false,"line":11},{"transit":false,"line":11,"distance":1567,"i_long":106.850107,"is_transit":false,"station_id":"GST","station_name":"Gang Sentiong","time":8,"i_lat":-6.185975},{"line":11,"station_name":"Kramat","is_transit":false,"distance":973,"i_lat":-6.193792,"i_long":106.855437,"station_id":"KMT","time":1,"transit":false}],[{"i_lat":-6.226659,"line":2,"i_long":106.857948,"station_id":"TEB","is_transit":false,"time":0,"transit":false,"distance":0,"station_name":"Tebet"},{"distance":2610,"transit":false,"time":4,"station_name":"Manggarai","i_long":106.84912,"station_id":"MRI","line":2,"is_transit":false,"i_lat":-6.209883},{"transit":false,"station_id":"CKI","station_name":"Cikini","is_transit":false,"time":4,"distance":1590,"i_lat":-6.198556,"line":2,"i_long":106.840169},{"is_transit":false,"time":3,"distance":1750,"i_long":106.832183,"transit":false,"station_id":"GDD","i_lat":-6.186295,"line":2,"station_name":"Gondangdia"},{"distance":2015,"i_long":106.828284,"station_id":"JUA","transit":false,"time":4,"station_name":"Juanda","i_lat":-6.166716,"is_transit":false,"line":2},{"is_transit":false,"station_name":"Sawah Besar","line":2,"distance":1149,"time":2,"transit":false,"i_long":106.827103,"station_id":"SW","i_lat":-6.160725},{"is_transit":false,"time":2,"distance":906,"i_lat":-6.149769,"i_long":106.82482,"line":2,"station_name":"Manggabesar","transit":false,"station_id":"MGB"},{"station_name":"Jayakarta","time":2,"transit":false,"station_id":"JAY","i_long":106.820901,"is_transit":false,"distance":1080,"i_lat":-6.141205,"line":2},{"station_id":"JAKK","i_lat":-6.137569,"line":2,"time":4,"is_transit":true,"transit":true,"station_name":"Jakarta Kota","distance":1264,"i_long":106.812439},{"station_name":"Kampung Bandan","time":3,"transit":true,"is_transit":true,"distance":1364,"station_id":"KPB","i_long":106.826365,"i_lat":-6.132549,"line":4},{"station_name":"Rajawali","transit":false,"station_id":"RJW","is_transit":false,"distance":1444,"i_long":106.836569,"time":3,"i_lat":-6.14505,"line":11},{"i_lat":-6.161728,"station_id":"KMO","transit":false,"is_transit":false,"i_long":106.839204,"line":11,"time":5,"station_name":"Kemayoran","distance":1901},{"i_long":106.84368,"station_id":"PSE","transit":false,"is_transit":false,"station_name":"Pasar Senen","time":4,"distance":1436,"i_lat":-6.174784,"line":11},{"i_lat":-6.185975,"distance":1567,"station_name":"Gang Sentiong","transit":false,"line":11,"time":8,"i_long":106.850107,"is_transit":false,"station_id":"GST"},{"distance":973,"is_transit":false,"time":1,"line":11,"i_long":106.855437,"station_name":"Kramat","station_id":"KMT","transit":false,"i_lat":-6.193792}]]}