{"data":[[{"transit":false,"i_long":106.857948,"is_transit":false,"station_name":"Tebet","i_lat":-6.226659,"distance":0,"station_id":"TEB","time":0,"line":2},{"i_long":106.84912,"i_lat":-6.209883,"station_id":"MRI","transit":false,"is_transit":false,"station_name":"Manggarai","time":4,"distance":2610,"line":2},{"station_id":"CKI","transit":false,"is_transit":false,"distance":1590,"line":2,"time":4,"i_long":106.840169,"i_lat":-6.198556,"station_name":"Cikini"},{"is_transit":false,"i_long":106.832183,"line":2,"time":3,"transit":false,"distance":1750,"station_name":"Gondangdia","station_id":"GDD","i_lat":-6.186295},{"i_lat":-6.166716,"line":2,"station_id":"JUA","distance":2015,"time":4,"i_long":106.828284,"transit":false,"station_name":"Juanda","is_transit":false},{"is_transit":false,"i_long":106.827103,"station_id":"SW","station_name":"Sawah Besar","time":2,"i_lat":-6.160725,"distance":1149,"line":2,"transit":false},{"i_long":106.82482,"station_id":"MGB","line":2,"time":2,"transit":false,"i_lat":-6.149769,"station_name":"Manggabesar","distance":906,"is_transit":false},{"station_name":"Jayakarta","i_long":106.820901,"is_transit":false,"station_id":"JAY","transit":false,"i_lat":-6.141205,"line":2,"time":2,"distance":1080}],[{"is_transit":false,"station_id":"TEB","station_name":"Tebet","i_lat":-6.226659,"distance":0,"i_long":106.857948,"time":0,"line":2,"transit":false},{"transit":true,"time":4,"line":2,"station_id":"MRI","station_name":"Manggarai","distance":2610,"i_lat":-6.209883,"i_long":106.84912,"is_transit":true},{"time":4,"i_long":106.822649,"station_id":"SUD","line":1,"transit":false,"distance":3186,"i_lat":-6.202263,"station_name":"Sudirman","is_transit":false},{"i_lat":-6.201433,"distance":280,"station_id":"SUDB","is_transit":false,"time":1,"station_name":"Sudirman Baru","i_long":106.819881,"line":1,"transit":false},{"distance":471,"transit":false,"line":1,"i_lat":-6.20132,"station_name":"Karet","time":1,"is_transit":false,"station_id":"KAT","i_long":106.816351},{"station_id":"THB","transit":false,"station_name":"Tanah Abang","time":5,"is_transit":false,"distance":2029,"i_long":106.811091,"line":1,"i_lat":-6.185545},{"time":8,"i_lat":-6.155215,"transit":false,"distance":3632,"is_transit":false,"station_name":"Duri","station_id":"DU","i_long":106.800832,"line":1},{"distance":1230,"transit":false,"time":4,"station_name":"Angke","line":1,"station_id":"AK","is_transit":false,"i_lat":-6.144674,"i_long":106.79867},{"time":9,"line":4,"is_transit":true,"station_name":"Kampung Bandan","i_long":106.826365,"station_id":"KPB","i_lat":-6.132549,"distance":4102,"transit":true},{"station_name":"Jakarta Kota","transit":true,"is_transit":true,"station_id":"JAKK","i_lat":-6.137569,"i_long":106.812439,"time":3,"distance":1364,"line":2},{"distance":1264,"time":4,"is_transit":false,"station_name":"Jayakarta","i_long":106.820901,"station_id":"JAY","i_lat":-6.141205,"transit":false,"line":2}],[{"i_long":106.857948,"i_lat":-6.226659,"station_name":"Tebet","time":0,"transit":false,"station_id":"TEB","distance":0,"is_transit":false,"line":2},{"station_name":"Manggarai","station_id":"MRI","distance":2610,"i_long":106.84912,"line":2,"is_transit":true,"i_lat":-6.209883,"transit":true,"time":4},{"line":1,"time":2,"is_transit":false,"distance":1275,"station_name":"Matraman","i_long":106.858896,"transit":false,"i_lat":-6.212485,"station_id":"MTR"},{"i_long":106.86807400000001,"transit":true,"station_id":"JNG","station_name":"Jatinegara","time":8,"i_lat":-6.215091,"distance":1377,"line":1,"is_transit":true},{"is_transit":false,"line":11,"transit":false,"i_long":106.861737,"station_name":"Pondok Jati","time":2,"distance":1236,"i_lat":-6.209188,"station_id":"POK"},{"time":2,"i_long":106.855437,"distance":1829,"transit":false,"station_id":"KMT","i_lat":-6.193792,"is_transit":false,"line":11,"station_name":"Kramat"},{"station_id":"GST","is_transit":false,"transit":false,"time":1,"station_name":"Gang Sentiong","line":11,"distance":973,"i_lat":-6.185975,"i_long":106.850107},{"line":11,"transit":false,"station_id":"PSE","distance":1567,"time":8,"station_name":"Pasar Senen","is_transit":false,"i_lat":-6.174784,"i_long":106.84368},{"transit":false,"distance":1436,"i_lat":-6.161728,"i_long":106.839204,"line":11,"time":4,"station_name":"Kemayoran","station_id":"KMO","is_transit":false},{"is_transit":false,"line":11,"i_long":106.836569,"distance":1901,"i_lat":-6.14505,"station_id":"RJW","time":5,"station_name":"Rajawali","transit":false},{"distance":1444,"i_lat":-6.132549,"i_long":106.826365,"transit":true,"is_transit":true,"time":3,"station_name":"Kampung Bandan","line":4,"station_id":"KPB"},{"transit":true,"i_lat":-6.137569,"station_name":"Jakarta Kota","is_transit":true,"time":3,"i_long":106.812439,"distance":1364,"station_id":"JAKK","line":2},{"line":2,"station_name":"Jayakarta","distance":1264,"time":4,"i_lat":-6.141205,"transit":false,"station_id":"JAY","is_transit":false,"i_long":106.820901}]]}