{"data":[[{"transit":false,"station_name":"Tebet","station_id":"TEB","time":0,"i_long":106.857948,"distance":0,"is_transit":false,"i_lat":-6.226659,"line":2},{"i_lat":-6.209883,"station_name":"Manggarai","transit":true,"station_id":"MRI","time":4,"is_transit":true,"distance":2610,"line":2,"i_long":106.84912},{"time":4,"is_transit":false,"station_name":"Sudirman","distance":3186,"line":1,"transit":false,"station_id":"SUD","i_lat":-6.202263,"i_long":106.822649},{"transit":false,"is_transit":false,"i_lat":-6.201433,"distance":280,"i_long":106.819881,"station_name":"Sudirman Baru","line":1,"station_id":"SUDB","time":1},{"station_name":"Karet","distance":471,"i_long":106.816351,"transit":false,"station_id":"KAT","is_transit":false,"time":1,"i_lat":-6.20132,"line":1},{"is_transit":true,"line":1,"station_name":"Tanah Abang","distance":2029,"transit":true,"station_id":"THB","time":5,"i_lat":-6.185545,"i_long":106.811091},{"i_lat":-6.207404,"is_transit":false,"station_name":"Palmerah","station_id":"PLM","distance":3191,"i_long":106.79689,"time":6,"line":6,"transit":false},{"time":7,"transit":false,"line":6,"station_id":"KBY","i_lat":-6.237242,"is_transit":false,"station_name":"Kebayoran","distance":3737,"i_long":106.780334},{"transit":false,"is_transit":false,"time":8,"i_long":106.74273,"distance":6218,"i_lat":-6.276362,"line":6,"station_id":"PDJ","station_name":"Pondokranji"},{"transit":false,"is_transit":false,"time":3,"i_long":106.728916,"station_name":"Jurangmangu","i_lat":-6.288927,"station_id":"JMU","distance":2179,"line":6},{"line":6,"i_long":106.712277,"distance":1994,"station_name":"Sudimara","transit":false,"station_id":"SDM","is_transit":false,"time":4,"i_lat":-6.296963},{"station_name":"Rawa Buntu","line":6,"i_lat":-6.314823,"is_transit":false,"transit":false,"time":6,"station_id":"RU","distance":4566,"i_long":106.675475},{"i_long":106.66566,"time":4,"line":6,"station_name":"Serpong","i_lat":-6.319871,"station_id":"SRP","transit":false,"distance":2413,"is_transit":false},{"station_name":"Cisauk","time":4,"transit":false,"distance":1784,"line":3,"station_id":"CSK","is_transit":false,"i_lat":-6.32484,"i_long":106.640411},{"distance":2519,"line":3,"i_lat":-6.329547,"station_name":"Cicayur","is_transit":false,"transit":false,"station_id":"CC","i_long":106.617853,"time":4},{"i_lat":-6.3441410000000005,"line":6,"station_id":"PRP","is_transit":false,"time":8,"i_long":106.568863,"station_name":"Parung Panjang","transit":false,"distance":5968},{"distance":7025,"is_transit":false,"station_name":"Cilejit","i_lat":-6.354349,"line":3,"transit":false,"station_id":"CJT","i_long":106.508482,"time":9},{"line":0,"i_long":106.491338,"station_name":"Daru","is_transit":false,"time":6,"i_lat":-6.338021,"transit":false,"distance":2675,"station_id":"DAR"},{"transit":false,"i_long":106.460812,"is_transit":false,"station_name":"Tenjo","i_lat":-6.327251,"distance":3902,"station_id":"TEJ","time":5,"line":6},{"i_long":106.425991,"i_lat":-6.328533,"station_id":"TGS","transit":false,"is_transit":false,"station_name":"Tigaraksa","time":5,"distance":2974,"line":6},{"station_id":"CKY","transit":false,"is_transit":false,"distance":2651,"line":3,"time":3,"i_long":106.411216,"i_lat":-6.33561,"station_name":"Cikoya"},{"is_transit":false,"i_long":106.394373,"line":6,"time":4,"transit":false,"distance":1853,"station_name":"Maja","station_id":"MJ","i_lat":-6.332307},{"i_lat":-6.334892,"line":3,"station_id":"CTR","distance":7293,"time":10,"i_long":106.332092,"transit":false,"station_name":"Citeras","is_transit":false}],[{"is_transit":false,"i_long":106.857948,"station_id":"TEB","station_name":"Tebet","time":0,"i_lat":-6.226659,"distance":0,"line":2,"transit":false},{"i_long":106.84912,"station_id":"MRI","line":2,"time":4,"transit":false,"i_lat":-6.209883,"station_name":"Manggarai","distance":2610,"is_transit":false},{"station_name":"Cikini","i_long":106.840169,"is_transit":false,"station_id":"CKI","transit":false,"i_lat":-6.198556,"line":2,"time":4,"distance":1590},{"is_transit":false,"station_id":"GDD","station_name":"Gondangdia","i_lat":-6.186295,"distance":1750,"i_long":106.832183,"time":3,"line":2,"transit":false},{"transit":false,"time":4,"line":2,"station_id":"JUA","station_name":"Juanda","distance":2015,"i_lat":-6.166716,"i_long":106.828284,"is_transit":false},{"time":2,"i_long":106.827103,"station_id":"SW","line":2,"transit":false,"distance":1149,"i_lat":-6.160725,"station_name":"Sawah Besar","is_transit":false},{"i_lat":-6.149769,"distance":906,"station_id":"MGB","is_transit":false,"time":2,"station_name":"Manggabesar","i_long":106.82482,"line":2,"transit":false},{"distance":1080,"transit":false,"line":2,"i_lat":-6.141205,"station_name":"Jayakarta","time":2,"is_transit":false,"station_id":"JAY","i_long":106.820901},{"station_id":"JAKK","transit":true,"station_name":"Jakarta Kota","time":4,"is_transit":true,"distance":1264,"i_long":106.812439,"line":2,"i_lat":-6.137569},{"time":3,"i_lat":-6.132549,"transit":true,"distance":1364,"is_transit":true,"station_name":"Kampung Bandan","station_id":"KPB","i_long":106.826365,"line":4},{"distance":4102,"transit":false,"time":9,"station_name":"Angke","line":1,"station_id":"AK","is_transit":false,"i_lat":-6.144674,"i_long":106.79867},{"time":4,"line":1,"is_transit":false,"station_name":"Duri","i_long":106.800832,"station_id":"DU","i_lat":-6.155215,"distance":1230,"transit":false},{"station_name":"Tanah Abang","transit":true,"is_transit":true,"station_id":"THB","i_lat":-6.185545,"i_long":106.811091,"time":8,"distance":3632,"line":1},{"distance":3191,"time":6,"is_transit":false,"station_name":"Palmerah","i_long":106.79689,"station_id":"PLM","i_lat":-6.207404,"transit":false,"line":6},{"i_long":106.780334,"i_lat":-6.237242,"station_name":"Kebayoran","time":7,"transit":false,"station_id":"KBY","distance":3737,"is_transit":false,"line":6},{"station_name":"Pondokranji","station_id":"PDJ","distance":6218,"i_long":106.74273,"line":6,"is_transit":false,"i_lat":-6.276362,"transit":false,"time":8},{"line":6,"time":3,"is_transit":false,"distance":2179,"station_name":"Jurangmangu","i_long":106.728916,"transit":false,"i_lat":-6.288927,"station_id":"JMU"},{"i_long":106.712277,"station_name":"Sudimara","time":4,"is_transit":false,"distance":1994,"transit":false,"i_lat":-6.296963,"station_id":"SDM","line":6},{"time":6,"transit":false,"distance":4566,"line":6,"station_name":"Rawa Buntu","is_transit":false,"i_lat":-6.314823,"station_id":"RU","i_long":106.675475},{"time":4,"station_name":"Serpong","i_lat":-6.319871,"station_id":"SRP","distance":2413,"line":6,"i_long":106.66566,"is_transit":false,"transit":false},{"time":4,"station_name":"Cisauk","line":3,"i_long":106.640411,"i_lat":-6.32484,"distance":1784,"transit":false,"station_id":"CSK","is_transit":false},{"station_id":"CC","time":4,"line":3,"station_name":"Cicayur","i_long":106.617853,"transit":false,"is_transit":false,"distance":2519,"i_lat":-6.329547},{"is_transit":false,"i_lat":-6.3441410000000005,"time":8,"distance":5968,"i_long":106.568863,"line":6,"station_id":"PRP","transit":false,"station_name":"Parung Panjang"},{"is_transit":false,"i_lat":-6.354349,"distance":7025,"i_long":106.508482,"station_id":"CJT","time":9,"line":3,"transit":false,"station_name":"Cilejit"},{"i_lat":-6.338021,"is_transit":false,"station_id":"DAR","station_name":"Daru","distance":2675,"i_long":106.491338,"line":0,"transit":false,"time":6},{"i_long":106.460812,"line":6,"transit":false,"distance":3902,"time":5,"is_transit":false,"i_lat":-6.327251,"station_name":"Tenjo","station_id":"TEJ"},{"station_name":"Tigaraksa","time":5,"station_id":"TGS","is_transit":false,"i_long":106.425991,"transit":false,"i_lat":-6.328533,"distance":2974,"line":6},{"station_name":"Cikoya","line":3,"time":3,"is_transit":false,"i_long":106.411216,"i_lat":-6.33561,"transit":false,"station_id":"CKY","distance":2651},{"i_lat":-6.332307,"line":6,"station_id":"MJ","i_long":106.394373,"station_name":"Maja","distance":1853,"transit":false,"is_transit":false,"time":4},{"i_lat":-6.334892,"time":10,"transit":false,"station_id":"CTR","distance":7293,"i_long":106.332092,"line":3,"is_transit":false,"station_name":"Citeras"}],[{"station_name":"Tebet","station_id":"TEB","distance":0,"line":2,"is_transit":false,"transit":false,"i_long":106.857948,"time":0,"i_lat":-6.226659},{"distance":2610,"i_lat":-6.209883,"time":4,"station_name":"Manggarai","is_transit":true,"line":2,"station_id":"MRI","transit":true,"i_long":106.84912},{"i_long":106.858896,"time":2,"distance":1275,"station_name":"Matraman","i_lat":-6.212485,"is_transit":false,"line":1,"station_id":"MTR","transit":false},{"i_lat":-6.215091,"station_id":"JNG","time":8,"distance":1377,"transit":true,"i_long":106.86807400000001,"is_transit":true,"line":1,"station_name":"Jatinegara"},{"line":11,"station_name":"Pondok Jati","transit":false,"distance":1236,"station_id":"POK","i_long":106.861737,"time":2,"is_transit":false,"i_lat":-6.209188},{"i_lat":-6.193792,"i_long":106.855437,"station_id":"KMT","distance":1829,"is_transit":false,"transit":false,"time":2,"line":11,"station_name":"Kramat"},{"transit":false,"i_lat":-6.185975,"is_transit":false,"line":11,"station_id":"GST","distance":973,"i_long":106.850107,"station_name":"Gang Sentiong","time":1},{"station_id":"PSE","i_lat":-6.174784,"station_name":"Pasar Senen","transit":false,"i_long":106.84368,"distance":1567,"line":11,"is_transit":false,"time":8},{"is_transit":false,"line":11,"station_name":"Kemayoran","transit":false,"station_id":"KMO","distance":1436,"i_lat":-6.161728,"time":4,"i_long":106.839204},{"i_long":106.836569,"is_transit":false,"time":5,"line":11,"station_name":"Rajawali","i_lat":-6.14505,"transit":false,"distance":1901,"station_id":"RJW"},{"is_transit":true,"i_long":106.826365,"station_name":"Kampung Bandan","i_lat":-6.132549,"transit":true,"time":3,"distance":1444,"station_id":"KPB","line":4},{"i_lat":-6.144674,"i_long":106.79867,"time":9,"line":1,"distance":4102,"station_name":"Angke","is_transit":false,"transit":false,"station_id":"AK"},{"line":1,"distance":1230,"i_long":106.800832,"is_transit":false,"station_id":"DU","transit":false,"station_name":"Duri","time":4,"i_lat":-6.155215},{"station_name":"Tanah Abang","line":1,"station_id":"THB","i_lat":-6.185545,"distance":3632,"is_transit":true,"i_long":106.811091,"transit":true,"time":8},{"distance":3191,"station_id":"PLM","line":6,"station_name":"Palmerah","is_transit":false,"i_lat":-6.207404,"time":6,"i_long":106.79689,"transit":false},{"transit":false,"distance":3737,"station_name":"Kebayoran","time":7,"i_long":106.780334,"line":6,"is_transit":false,"i_lat":-6.237242,"station_id":"KBY"},{"i_lat":-6.276362,"time":8,"transit":false,"station_id":"PDJ","i_long":106.74273,"line":6,"distance":6218,"station_name":"Pondokranji","is_transit":false},{"i_long":106.728916,"station_id":"JMU","distance":2179,"line":6,"station_name":"Jurangmangu","is_transit":false,"transit":false,"time":3,"i_lat":-6.288927},{"time":4,"transit":false,"i_lat":-6.296963,"i_long":106.712277,"line":6,"station_id":"SDM","is_transit":false,"distance":1994,"station_name":"Sudimara"},{"time":6,"is_transit":false,"i_lat":-6.314823,"transit":false,"distance":4566,"line":6,"station_name":"Rawa Buntu","station_id":"RU","i_long":106.675475},{"station_id":"SRP","time":4,"station_name":"Serpong","line":6,"transit":false,"distance":2413,"is_transit":false,"i_long":106.66566,"i_lat":-6.319871},{"transit":false,"distance":1784,"is_transit":false,"time":4,"i_lat":-6.32484,"station_name":"Cisauk","station_id":"CSK","line":3,"i_long":106.640411},{"i_long":106.617853,"station_id":"CC","time":4,"line":3,"i_lat":-6.329547,"is_transit":false,"station_name":"Cicayur","distance":2519,"transit":false},{"transit":false,"i_lat":-6.3441410000000005,"station_name":"Parung Panjang","time":8,"is_transit":false,"i_long":106.568863,"line":6,"station_id":"PRP","distance":5968},{"i_lat":-6.354349,"station_id":"CJT","distance":7025,"i_long":106.508482,"is_transit":false,"line":3,"transit":false,"time":9,"station_name":"Cilejit"},{"i_lat":-6.338021,"distance":2675,"station_name":"Daru","transit":false,"station_id":"DAR","is_transit":false,"i_long":106.491338,"line":0,"time":6},{"is_transit":false,"line":6,"station_name":"Tenjo","distance":3902,"i_long":106.460812,"time":5,"station_id":"TEJ","transit":false,"i_lat":-6.327251},{"line":6,"time":5,"station_id":"TGS","i_long":106.425991,"is_transit":false,"distance":2974,"i_lat":-6.328533,"station_name":"Tigaraksa","transit":false},{"distance":2651,"i_lat":-6.33561,"time":3,"transit":false,"is_transit":false,"station_name":"Cikoya","station_id":"CKY","i_long":106.411216,"line":3},{"station_name":"Maja","time":4,"i_lat":-6.332307,"distance":1853,"station_id":"MJ","i_long":106.394373,"line":6,"transit":false,"is_transit":false},{"i_lat":-6.334892,"time":10,"station_name":"Citeras","station_id":"CTR","distance":7293,"is_transit":false,"i_long":106.332092,"line":3,"transit":false}]]}