{"data":[[{"transit":false,"time":0,"station_name":"Tebet","station_id":"TEB","line":2,"i_long":106.857948,"distance":0,"is_transit":false,"i_lat":-6.226659},{"transit":true,"time":4,"line":0,"is_transit":true,"station_id":"MRI","i_lat":-6.209883,"i_long":106.84912,"station_name":"Manggarai","distance":2610},{"i_long":106.822649,"is_transit":false,"transit":false,"station_name":"Sudirman","distance":3186,"i_lat":-6.202263,"line":1,"station_id":"SUD","time":4},{"transit":false,"distance":280,"station_id":"SUDB","i_long":106.819881,"time":1,"i_lat":-6.201433,"line":1,"station_name":"Sudirman Baru","is_transit":false},{"i_long":106.816351,"distance":471,"is_transit":false,"transit":false,"line":1,"time":1,"station_id":"KAT","station_name":"Karet","i_lat":-6.20132},{"time":5,"i_lat":-6.185545,"i_long":106.811091,"line":1,"transit":true,"distance":2029,"station_id":"THB","station_name":"Tanah Abang","is_transit":true},{"line":6,"station_name":"Palmerah","station_id":"PLM","i_lat":-6.207404,"distance":3191,"is_transit":false,"time":6,"i_long":106.79689,"transit":false},{"distance":3737,"is_transit":false,"i_lat":-6.237242,"station_name":"Kebayoran","time":7,"station_id":"KBY","i_long":106.780334,"transit":false,"line":6},{"line":6,"i_lat":-6.276362,"time":8,"station_id":"PDJ","distance":6218,"is_transit":false,"transit":false,"station_name":"Pondokranji","i_long":106.74273},{"i_long":106.728916,"line":6,"i_lat":-6.288927,"transit":false,"is_transit":false,"distance":2179,"station_id":"JMU","station_name":"Jurangmangu","time":3},{"distance":1994,"transit":false,"time":4,"i_lat":-6.296963,"i_long":106.712277,"is_transit":false,"station_id":"SDM","station_name":"Sudimara","line":6},{"line":6,"transit":false,"distance":4566,"time":6,"station_id":"RU","i_long":106.675475,"station_name":"Rawa Buntu","is_transit":false,"i_lat":-6.314823},{"transit":false,"time":4,"line":6,"station_id":"SRP","i_long":106.66566,"i_lat":-6.319871,"is_transit":false,"station_name":"Serpong","distance":2413},{"transit":false,"station_name":"Cisauk","time":4,"is_transit":false,"line":0,"distance":1784,"i_lat":-6.32484,"station_id":"CSK","i_long":106.640411},{"station_id":"CC","i_long":106.617853,"line":0,"i_lat":-6.329547,"distance":2519,"is_transit":false,"time":4,"station_name":"Cicayur","transit":false},{"station_id":"PRP","i_lat":-6.3441410000000005,"distance":5968,"transit":false,"time":8,"i_long":106.568863,"line":6,"is_transit":false,"station_name":"Parung Panjang"},{"distance":7025,"i_lat":-6.354349,"station_name":"Cilejit","time":9,"i_long":106.508482,"line":0,"is_transit":false,"station_id":"CJT","transit":false},{"station_id":"DAR","transit":false,"time":6,"line":0,"distance":2675,"i_lat":-6.338021,"station_name":"Daru","is_transit":false,"i_long":106.491338},{"i_lat":-6.327251,"distance":3902,"is_transit":false,"i_long":106.460812,"time":5,"station_id":"TEJ","transit":false,"line":6,"station_name":"Tenjo"},{"station_name":"Tigaraksa","time":5,"i_long":106.425991,"line":6,"is_transit":false,"transit":false,"station_id":"TGS","distance":2974,"i_lat":-6.328533},{"i_long":106.411216,"time":3,"distance":2651,"station_name":"Cikoya","station_id":"CKY","i_lat":-6.33561,"transit":false,"line":0,"is_transit":false},{"line":6,"distance":1853,"i_long":106.394373,"transit":false,"is_transit":false,"time":4,"i_lat":-6.332307,"station_id":"MJ","station_name":"Maja"},{"station_name":"Citeras","i_long":106.332092,"is_transit":false,"transit":false,"line":0,"time":10,"station_id":"CTR","distance":7293,"i_lat":-6.334892}],[{"i_lat":-6.226659,"distance":0,"is_transit":false,"i_long":106.857948,"station_id":"TEB","time":0,"transit":false,"line":2,"station_name":"Tebet"},{"transit":true,"station_id":"MRI","i_lat":-6.209883,"station_name":"Manggarai","line":0,"time":4,"i_long":106.84912,"is_transit":true,"distance":2610},{"line":0,"time":4,"station_name":"Cikini","i_lat":-6.198556,"station_id":"CKI","transit":false,"distance":1590,"is_transit":false,"i_long":106.840169},{"distance":1750,"i_lat":-6.186295,"station_name":"Gondangdia","is_transit":false,"transit":false,"time":3,"station_id":"GDD","i_long":106.832183,"line":2},{"transit":false,"station_name":"Juanda","distance":2015,"station_id":"JUA","line":2,"i_lat":-6.166716,"is_transit":false,"time":4,"i_long":106.828284},{"is_transit":false,"i_long":106.827103,"i_lat":-6.160725,"transit":false,"line":2,"station_id":"SW","station_name":"Sawah Besar","time":2,"distance":1149},{"is_transit":false,"time":2,"i_lat":-6.149769,"station_name":"Manggabesar","i_long":106.82482,"station_id":"MGB","line":2,"transit":false,"distance":906},{"i_long":106.820901,"is_transit":false,"station_name":"Jayakarta","line":7,"transit":false,"distance":1080,"station_id":"JAY","time":2,"i_lat":-6.141205},{"is_transit":true,"i_long":106.812439,"station_id":"JAKK","transit":true,"time":4,"distance":1264,"station_name":"Jakarta Kota","i_lat":-6.137569,"line":0},{"station_name":"Kampung Bandan","time":3,"i_long":106.826365,"station_id":"KPB","transit":false,"i_lat":-6.132549,"distance":1364,"line":0,"is_transit":true},{"line":0,"transit":false,"station_name":"Angke","i_long":106.79867,"i_lat":-6.144674,"station_id":"AK","is_transit":false,"time":9,"distance":4102},{"station_name":"Duri","i_long":106.800832,"time":4,"line":1,"transit":true,"distance":1230,"station_id":"DU","i_lat":-6.155215,"is_transit":true},{"i_lat":-6.185545,"line":1,"station_id":"THB","station_name":"Tanah Abang","time":8,"i_long":106.811091,"distance":3632,"is_transit":true,"transit":true},{"line":6,"is_transit":false,"i_long":106.79689,"transit":false,"time":6,"distance":3191,"station_id":"PLM","i_lat":-6.207404,"station_name":"Palmerah"},{"distance":3737,"transit":false,"i_long":106.780334,"station_name":"Kebayoran","station_id":"KBY","line":6,"is_transit":false,"time":7,"i_lat":-6.237242},{"distance":6218,"station_id":"PDJ","i_lat":-6.276362,"line":6,"is_transit":false,"station_name":"Pondokranji","transit":false,"i_long":106.74273,"time":8},{"time":3,"is_transit":false,"i_lat":-6.288927,"transit":false,"i_long":106.728916,"station_name":"Jurangmangu","distance":2179,"station_id":"JMU","line":6},{"station_name":"Sudimara","distance":1994,"time":4,"station_id":"SDM","i_long":106.712277,"line":6,"is_transit":false,"transit":false,"i_lat":-6.296963},{"time":6,"i_long":106.675475,"station_id":"RU","transit":false,"line":6,"station_name":"Rawa Buntu","distance":4566,"i_lat":-6.314823,"is_transit":false},{"i_lat":-6.319871,"i_long":106.66566,"station_name":"Serpong","line":6,"is_transit":false,"distance":2413,"transit":false,"time":4,"station_id":"SRP"},{"i_lat":-6.32484,"is_transit":false,"i_long":106.640411,"station_id":"CSK","station_name":"Cisauk","distance":1784,"transit":false,"time":4,"line":0},{"station_name":"Cicayur","distance":2519,"i_long":106.617853,"i_lat":-6.329547,"transit":false,"line":0,"station_id":"CC","time":4,"is_transit":false},{"transit":false,"time":8,"line":6,"i_lat":-6.3441410000000005,"i_long":106.568863,"station_name":"Parung Panjang","distance":5968,"is_transit":false,"station_id":"PRP"},{"is_transit":false,"station_id":"CJT","distance":7025,"transit":false,"i_lat":-6.354349,"time":9,"line":0,"station_name":"Cilejit","i_long":106.508482},{"station_id":"DAR","is_transit":false,"time":6,"line":0,"distance":2675,"station_name":"Daru","i_long":106.491338,"transit":false,"i_lat":-6.338021},{"is_transit":false,"station_name":"Tenjo","station_id":"TEJ","line":6,"transit":false,"i_lat":-6.327251,"i_long":106.460812,"distance":3902,"time":5},{"station_id":"TGS","transit":false,"distance":2974,"is_transit":false,"station_name":"Tigaraksa","i_lat":-6.328533,"line":6,"time":5,"i_long":106.425991},{"transit":false,"distance":2651,"i_lat":-6.33561,"line":0,"is_transit":false,"i_long":106.411216,"station_id":"CKY","station_name":"Cikoya","time":3},{"distance":1853,"transit":false,"is_transit":false,"station_id":"MJ","station_name":"Maja","i_long":106.394373,"time":4,"line":6,"i_lat":-6.332307},{"i_lat":-6.334892,"is_transit":false,"station_id":"CTR","i_long":106.332092,"distance":7293,"line":0,"time":10,"transit":false,"station_name":"Citeras"}],[{"is_transit":false,"time":0,"transit":false,"station_id":"TEB","distance":0,"station_name":"Tebet","i_long":106.857948,"line":2,"i_lat":-6.226659},{"station_id":"MRI","station_name":"Manggarai","transit":true,"line":0,"time":4,"is_transit":true,"i_lat":-6.209883,"distance":2610,"i_long":106.84912},{"time":2,"distance":1275,"is_transit":false,"i_lat":-6.212485,"i_long":106.858896,"station_id":"MTR","transit":false,"station_name":"Matraman","line":1},{"i_long":106.86807400000001,"transit":true,"station_id":"JNG","i_lat":-6.215091,"is_transit":true,"time":8,"line":0,"station_name":"Jatinegara","distance":1377},{"time":2,"is_transit":false,"i_lat":-6.209188,"station_name":"Pondok Jati","station_id":"POK","i_long":106.861737,"line":11,"transit":false,"distance":1236},{"time":2,"line":11,"station_name":"Kramat","station_id":"KMT","transit":false,"i_lat":-6.193792,"distance":1829,"i_long":106.855437,"is_transit":false},{"distance":973,"station_name":"Gang Sentiong","i_long":106.850107,"station_id":"GST","time":1,"is_transit":false,"transit":false,"line":11,"i_lat":-6.185975},{"time":8,"transit":false,"line":11,"station_id":"PSE","station_name":"Pasar Senen","distance":1567,"is_transit":false,"i_lat":-6.174784,"i_long":106.84368},{"station_id":"KMO","line":11,"transit":false,"distance":1436,"is_transit":false,"station_name":"Kemayoran","i_lat":-6.161728,"i_long":106.839204,"time":4},{"line":11,"distance":1901,"i_long":106.836569,"station_name":"Rajawali","is_transit":false,"i_lat":-6.14505,"time":5,"station_id":"RJW","transit":false},{"i_lat":-6.132549,"line":0,"transit":true,"station_name":"Kampung Bandan","time":3,"i_long":106.826365,"is_transit":true,"distance":1444,"station_id":"KPB"},{"is_transit":false,"station_id":"AK","time":9,"i_lat":-6.144674,"station_name":"Angke","transit":false,"distance":4102,"line":0,"i_long":106.79867},{"i_lat":-6.155215,"station_id":"DU","i_long":106.800832,"line":1,"transit":true,"time":4,"station_name":"Duri","distance":1230,"is_transit":true},{"line":1,"station_id":"THB","i_lat":-6.185545,"time":8,"is_transit":true,"i_long":106.811091,"distance":3632,"station_name":"Tanah Abang","transit":true},{"station_id":"PLM","transit":false,"time":6,"i_lat":-6.207404,"station_name":"Palmerah","i_long":106.79689,"line":6,"distance":3191,"is_transit":false},{"distance":3737,"transit":false,"is_transit":false,"station_name":"Kebayoran","time":7,"station_id":"KBY","i_lat":-6.237242,"i_long":106.780334,"line":6},{"time":8,"station_id":"PDJ","distance":6218,"i_lat":-6.276362,"line":6,"i_long":106.74273,"is_transit":false,"station_name":"Pondokranji","transit":false},{"line":6,"i_lat":-6.288927,"distance":2179,"station_id":"JMU","time":3,"transit":false,"station_name":"Jurangmangu","i_long":106.728916,"is_transit":false},{"i_lat":-6.296963,"time":4,"i_long":106.712277,"station_id":"SDM","distance":1994,"line":6,"is_transit":false,"station_name":"Sudimara","transit":false},{"station_name":"Rawa Buntu","is_transit":false,"i_long":106.675475,"line":6,"transit":false,"time":6,"distance":4566,"station_id":"RU","i_lat":-6.314823},{"distance":2413,"line":6,"station_id":"SRP","is_transit":false,"i_lat":-6.319871,"time":4,"i_long":106.66566,"station_name":"Serpong","transit":false},{"i_long":106.640411,"station_name":"Cisauk","station_id":"CSK","transit":false,"i_lat":-6.32484,"line":0,"time":4,"distance":1784,"is_transit":false},{"station_name":"Cicayur","is_transit":false,"time":4,"station_id":"CC","i_long":106.617853,"i_lat":-6.329547,"transit":false,"distance":2519,"line":0},{"station_id":"PRP","station_name":"Parung Panjang","line":6,"is_transit":false,"transit":false,"time":8,"i_long":106.568863,"distance":5968,"i_lat":-6.3441410000000005},{"station_id":"CJT","time":9,"line":0,"is_transit":false,"station_name":"Cilejit","i_lat":-6.354349,"distance":7025,"transit":false,"i_long":106.508482},{"i_lat":-6.338021,"station_name":"Daru","distance":2675,"transit":false,"station_id":"DAR","i_long":106.491338,"time":6,"line":0,"is_transit":false},{"line":6,"time":5,"station_name":"Tenjo","transit":false,"distance":3902,"i_long":106.460812,"i_lat":-6.327251,"is_transit":false,"station_id":"TEJ"},{"station_id":"TGS","line":6,"is_transit":false,"transit":false,"i_lat":-6.328533,"time":5,"distance":2974,"station_name":"Tigaraksa","i_long":106.425991},{"is_transit":false,"time":3,"station_id":"CKY","station_name":"Cikoya","i_long":106.411216,"i_lat":-6.33561,"distance":2651,"line":0,"transit":false},{"line":6,"i_lat":-6.332307,"station_name":"Maja","distance":1853,"is_transit":false,"transit":false,"i_long":106.394373,"station_id":"MJ","time":4},{"distance":7293,"time":10,"line":0,"is_transit":false,"transit":false,"i_lat":-6.334892,"station_id":"CTR","i_long":106.332092,"station_name":"Citeras"}]]}