{"data":[[{"station_name":"Tebet","is_transit":false,"time":0,"i_long":106.857948,"line":2,"station_id":"TEB","i_lat":-6.226659,"transit":false,"distance":0},{"time":4,"i_lat":-6.209883,"transit":true,"line":2,"station_name":"Manggarai","is_transit":true,"distance":2610,"station_id":"MRI","i_long":106.84912},{"transit":false,"station_name":"Matraman","is_transit":false,"distance":1275,"line":1,"i_long":106.858896,"station_id":"MTR","time":2,"i_lat":-6.212485},{"i_lat":-6.215091,"line":1,"i_long":106.86807400000001,"station_name":"Jatinegara","distance":1377,"station_id":"JNG","transit":false,"time":8,"is_transit":false},{"transit":false,"distance":3395,"i_long":106.899548,"station_name":"Klender","is_transit":false,"station_id":"KLD","line":1,"time":3,"i_lat":-6.2135},{"station_name":"Buaran","i_long":106.922662,"line":1,"station_id":"BUA","transit":false,"is_transit":false,"i_lat":-6.215568,"distance":3100,"time":2},{"station_id":"KLDB","line":1,"is_transit":false,"station_name":"Klenderbaru","transit":false,"i_long":106.939679,"distance":1305,"i_lat":-6.217455,"time":1},{"distance":1385,"station_id":"CUK","i_long":106.951283,"is_transit":false,"station_name":"Cakung","line":1,"time":8,"i_lat":-6.219053,"transit":false},{"time":3,"i_long":106.977657,"station_id":"KRI","distance":3097,"i_lat":-6.224515,"station_name":"Kranji","line":1,"transit":false,"is_transit":false},{"i_lat":-6.236616,"is_transit":false,"distance":2520,"i_long":106.997013,"station_id":"BKS","transit":false,"line":1,"time":4,"station_name":"Bekasi"},{"transit":false,"is_transit":false,"time":2,"distance":2368,"i_lat":-6.248029,"station_id":"BKST","i_long":107.016735,"station_name":"Bekasi Timur","line":1},{"distance":4460,"line":1,"i_lat":-6.258864,"transit":false,"time":7,"station_id":"TB","station_name":"Tambun","i_long":107.055722,"is_transit":false},{"distance":3420,"i_long":107.083084,"line":1,"i_lat":-6.261877,"transit":false,"time":3,"station_name":"Cibitung","is_transit":false,"station_id":"CIT"},{"time":2,"station_id":"TLM","i_long":107.093313,"line":1,"i_lat":-6.262938,"is_transit":false,"transit":false,"station_name":"Metland Telaga Murni","distance":2800}],[{"station_name":"Tebet","transit":false,"distance":0,"station_id":"TEB","i_lat":-6.226659,"line":2,"time":0,"is_transit":false,"i_long":106.857948},{"i_lat":-6.209883,"transit":true,"time":4,"station_name":"Manggarai","station_id":"MRI","line":2,"is_transit":true,"i_long":106.84912,"distance":2610},{"i_long":106.822649,"is_transit":false,"line":1,"station_id":"SUD","station_name":"Sudirman","time":4,"distance":3186,"i_lat":-6.202263,"transit":false},{"is_transit":false,"i_lat":-6.201433,"transit":false,"station_id":"SUDB","line":1,"i_long":106.819881,"time":1,"station_name":"Sudirman Baru","distance":280},{"i_lat":-6.20132,"line":1,"transit":false,"i_long":106.816351,"distance":471,"station_name":"Karet","station_id":"KAT","is_transit":false,"time":1},{"is_transit":false,"transit":false,"i_lat":-6.185545,"i_long":106.811091,"line":1,"time":5,"station_name":"Tanah Abang","distance":2029,"station_id":"THB"},{"time":8,"is_transit":false,"station_id":"DU","i_lat":-6.155215,"distance":3632,"station_name":"Duri","transit":false,"line":1,"i_long":106.800832},{"time":4,"is_transit":false,"i_long":106.79867,"station_id":"AK","i_lat":-6.144674,"line":1,"distance":1230,"station_name":"Angke","transit":false},{"is_transit":true,"transit":true,"i_long":106.826365,"time":9,"i_lat":-6.132549,"line":4,"distance":4102,"station_name":"Kampung Bandan","station_id":"KPB"},{"station_id":"RJW","transit":false,"distance":1444,"line":11,"time":3,"i_lat":-6.14505,"i_long":106.836569,"is_transit":false,"station_name":"Rajawali"},{"line":11,"station_id":"KMO","time":5,"transit":false,"distance":1901,"i_long":106.839204,"is_transit":false,"station_name":"Kemayoran","i_lat":-6.161728},{"is_transit":false,"i_long":106.84368,"station_id":"PSE","transit":false,"line":11,"distance":1436,"time":4,"i_lat":-6.174784,"station_name":"Pasar Senen"},{"i_lat":-6.185975,"station_id":"GST","distance":1567,"is_transit":false,"station_name":"Gang Sentiong","time":8,"transit":false,"i_long":106.850107,"line":11},{"is_transit":false,"time":1,"station_name":"Kramat","distance":973,"station_id":"KMT","i_lat":-6.193792,"line":11,"transit":false,"i_long":106.855437},{"station_id":"POK","transit":false,"distance":1829,"i_lat":-6.209188,"line":11,"time":2,"is_transit":false,"i_long":106.861737,"station_name":"Pondok Jati"},{"i_lat":-6.215091,"station_id":"JNG","distance":1236,"is_transit":true,"transit":true,"time":9,"i_long":106.86807400000001,"line":1,"station_name":"Jatinegara"},{"transit":false,"station_id":"KLD","time":3,"i_long":106.899548,"is_transit":false,"station_name":"Klender","distance":3395,"line":1,"i_lat":-6.2135},{"time":2,"station_id":"BUA","i_lat":-6.215568,"transit":false,"is_transit":false,"distance":3100,"line":1,"station_name":"Buaran","i_long":106.922662},{"time":1,"distance":1305,"station_id":"KLDB","is_transit":false,"line":1,"station_name":"Klenderbaru","transit":false,"i_lat":-6.217455,"i_long":106.939679},{"is_transit":false,"transit":false,"time":8,"distance":1385,"station_id":"CUK","line":1,"i_lat":-6.219053,"i_long":106.951283,"station_name":"Cakung"},{"transit":false,"is_transit":false,"station_id":"KRI","i_lat":-6.224515,"time":3,"station_name":"Kranji","i_long":106.977657,"distance":3097,"line":1},{"i_long":106.997013,"station_id":"BKS","i_lat":-6.236616,"line":1,"time":4,"is_transit":false,"station_name":"Bekasi","transit":false,"distance":2520},{"line":1,"i_lat":-6.248029,"transit":false,"station_id":"BKST","time":2,"distance":2368,"i_long":107.016735,"is_transit":false,"station_name":"Bekasi Timur"},{"transit":false,"distance":4460,"station_id":"TB","i_long":107.055722,"is_transit":false,"line":1,"station_name":"Tambun","time":7,"i_lat":-6.258864},{"time":3,"transit":false,"i_long":107.083084,"station_id":"CIT","line":1,"distance":3420,"is_transit":false,"station_name":"Cibitung","i_lat":-6.261877},{"transit":false,"is_transit":false,"i_long":107.093313,"station_name":"Metland Telaga Murni","distance":2800,"station_id":"TLM","i_lat":-6.262938,"line":1,"time":2}],[{"station_id":"TEB","time":0,"is_transit":false,"distance":0,"station_name":"Tebet","transit":false,"i_lat":-6.226659,"line":2,"i_long":106.857948},{"line":2,"i_lat":-6.209883,"station_name":"Manggarai","is_transit":false,"station_id":"MRI","time":4,"transit":false,"i_long":106.84912,"distance":2610},{"is_transit":false,"i_long":106.840169,"station_id":"CKI","time":4,"station_name":"Cikini","transit":false,"i_lat":-6.198556,"line":2,"distance":1590},{"station_id":"GDD","i_lat":-6.186295,"i_long":106.832183,"line":2,"transit":false,"is_transit":false,"time":3,"station_name":"Gondangdia","distance":1750},{"line":2,"is_transit":false,"time":4,"station_name":"Juanda","i_lat":-6.166716,"transit":false,"distance":2015,"station_id":"JUA","i_long":106.828284},{"transit":false,"station_name":"Sawah Besar","time":2,"is_transit":false,"i_long":106.827103,"distance":1149,"station_id":"SW","i_lat":-6.160725,"line":2},{"is_transit":false,"distance":906,"line":2,"transit":false,"time":2,"i_lat":-6.149769,"station_id":"MGB","station_name":"Manggabesar","i_long":106.82482},{"line":2,"is_transit":false,"time":2,"i_lat":-6.141205,"distance":1080,"transit":false,"station_name":"Jayakarta","station_id":"JAY","i_long":106.820901},{"i_long":106.812439,"station_name":"Jakarta Kota","distance":1264,"is_transit":true,"line":2,"transit":true,"i_lat":-6.137569,"station_id":"JAKK","time":4},{"distance":1364,"i_lat":-6.132549,"transit":true,"i_long":106.826365,"time":3,"station_name":"Kampung Bandan","is_transit":true,"station_id":"KPB","line":4},{"station_id":"RJW","i_long":106.836569,"transit":false,"time":3,"distance":1444,"i_lat":-6.14505,"line":11,"is_transit":false,"station_name":"Rajawali"},{"time":5,"distance":1901,"station_id":"KMO","i_lat":-6.161728,"is_transit":false,"station_name":"Kemayoran","line":11,"transit":false,"i_long":106.839204},{"is_transit":false,"time":4,"station_name":"Pasar Senen","i_long":106.84368,"i_lat":-6.174784,"transit":false,"line":11,"distance":1436,"station_id":"PSE"},{"i_long":106.850107,"station_name":"Gang Sentiong","distance":1567,"i_lat":-6.185975,"is_transit":false,"station_id":"GST","time":8,"line":11,"transit":false},{"is_transit":false,"time":1,"station_name":"Kramat","distance":973,"station_id":"KMT","i_lat":-6.193792,"line":11,"i_long":106.855437,"transit":false},{"distance":1829,"i_lat":-6.209188,"station_id":"POK","i_long":106.861737,"time":2,"is_transit":false,"station_name":"Pondok Jati","line":11,"transit":false},{"transit":true,"i_long":106.86807400000001,"time":9,"station_name":"Jatinegara","station_id":"JNG","i_lat":-6.215091,"distance":1236,"is_transit":true,"line":1},{"distance":3395,"i_lat":-6.2135,"line":1,"time":3,"transit":false,"station_id":"KLD","station_name":"Klender","i_long":106.899548,"is_transit":false},{"i_lat":-6.215568,"station_id":"BUA","i_long":106.922662,"is_transit":false,"time":2,"line":1,"transit":false,"station_name":"Buaran","distance":3100},{"i_long":106.939679,"station_name":"Klenderbaru","transit":false,"time":1,"i_lat":-6.217455,"station_id":"KLDB","line":1,"distance":1305,"is_transit":false},{"i_lat":-6.219053,"i_long":106.951283,"station_name":"Cakung","is_transit":false,"time":8,"distance":1385,"line":1,"transit":false,"station_id":"CUK"},{"station_name":"Kranji","transit":false,"line":1,"time":3,"distance":3097,"station_id":"KRI","i_lat":-6.224515,"is_transit":false,"i_long":106.977657},{"time":4,"distance":2520,"station_name":"Bekasi","transit":false,"station_id":"BKS","i_lat":-6.236616,"is_transit":false,"i_long":106.997013,"line":1},{"i_long":107.016735,"distance":2368,"transit":false,"i_lat":-6.248029,"time":2,"is_transit":false,"line":1,"station_name":"Bekasi Timur","station_id":"BKST"},{"station_name":"Tambun","i_lat":-6.258864,"distance":4460,"time":7,"transit":false,"is_transit":false,"station_id":"TB","i_long":107.055722,"line":1},{"i_lat":-6.261877,"i_long":107.083084,"distance":3420,"time":3,"station_id":"CIT","station_name":"Cibitung","is_transit":false,"transit":false,"line":1},{"time":2,"station_id":"TLM","station_name":"Metland Telaga Murni","i_long":107.093313,"transit":false,"is_transit":false,"distance":2800,"line":1,"i_lat":-6.262938}]]}