{"data":[[{"distance":0,"transit":false,"i_lat":-6.226659,"time":0,"station_id":"TEB","i_long":106.857948,"line":2,"station_name":"Tebet","is_transit":false},{"line":2,"is_transit":true,"distance":2610,"transit":true,"station_id":"MRI","time":4,"station_name":"Manggarai","i_long":106.84912,"i_lat":-6.209883},{"i_lat":-6.202263,"station_id":"SUD","station_name":"Sudirman","is_transit":false,"line":1,"transit":false,"time":4,"distance":3186,"i_long":106.822649},{"line":1,"distance":280,"station_name":"Sudirman Baru","i_lat":-6.201433,"is_transit":false,"i_long":106.819881,"time":1,"station_id":"SUDB","transit":false},{"station_id":"KAT","line":1,"time":1,"distance":471,"is_transit":false,"transit":false,"i_long":106.816351,"station_name":"Karet","i_lat":-6.20132},{"is_transit":false,"transit":false,"station_name":"Tanah Abang","i_long":106.811091,"line":1,"distance":2029,"station_id":"THB","time":5,"i_lat":-6.185545},{"i_long":106.800832,"distance":3632,"station_id":"DU","line":1,"transit":true,"i_lat":-6.155215,"time":8,"is_transit":true,"station_name":"Duri"},{"i_lat":-6.162021,"line":5,"distance":1700,"is_transit":false,"station_id":"GGL","transit":false,"time":3,"station_name":"Grogol","i_long":106.788277},{"station_name":"Pesing","station_id":"PSG","i_long":106.771379,"distance":2036,"i_lat":-6.161433,"time":2,"transit":false,"is_transit":false,"line":5},{"line":5,"station_name":"Taman Kota","i_lat":-6.1587309999999995,"i_long":106.756522,"time":2,"station_id":"TKO","is_transit":false,"transit":false,"distance":1614}],[{"station_id":"TEB","time":0,"line":2,"i_long":106.857948,"transit":false,"i_lat":-6.226659,"distance":0,"station_name":"Tebet","is_transit":false},{"station_id":"MRI","time":4,"distance":2610,"station_name":"Manggarai","line":2,"is_transit":false,"transit":false,"i_lat":-6.209883,"i_long":106.84912},{"i_lat":-6.198556,"line":2,"station_id":"CKI","time":4,"distance":1590,"is_transit":false,"i_long":106.840169,"transit":false,"station_name":"Cikini"},{"station_name":"Gondangdia","is_transit":false,"time":3,"distance":1750,"i_lat":-6.186295,"line":2,"transit":false,"station_id":"GDD","i_long":106.832183},{"i_long":106.828284,"line":2,"distance":2015,"time":4,"is_transit":false,"station_name":"Juanda","station_id":"JUA","i_lat":-6.166716,"transit":false},{"i_lat":-6.160725,"station_name":"Sawah Besar","station_id":"SW","transit":false,"line":2,"is_transit":false,"i_long":106.827103,"distance":1149,"time":2},{"distance":906,"i_lat":-6.149769,"is_transit":false,"station_name":"Manggabesar","i_long":106.82482,"transit":false,"time":2,"station_id":"MGB","line":2},{"station_id":"JAY","station_name":"Jayakarta","transit":false,"time":2,"is_transit":false,"i_long":106.820901,"line":2,"distance":1080,"i_lat":-6.141205},{"line":2,"i_long":106.812439,"station_id":"JAKK","transit":true,"time":4,"distance":1264,"station_name":"Jakarta Kota","i_lat":-6.137569,"is_transit":true},{"station_id":"KPB","transit":true,"time":3,"i_lat":-6.132549,"line":4,"distance":1364,"i_long":106.826365,"is_transit":true,"station_name":"Kampung Bandan"},{"time":9,"distance":4102,"i_lat":-6.144674,"station_name":"Angke","station_id":"AK","transit":false,"is_transit":false,"line":1,"i_long":106.79867},{"line":1,"i_lat":-6.155215,"station_name":"Duri","transit":true,"station_id":"DU","distance":1230,"time":4,"i_long":106.800832,"is_transit":true},{"is_transit":false,"distance":1700,"station_id":"GGL","line":5,"station_name":"Grogol","transit":false,"i_long":106.788277,"time":3,"i_lat":-6.162021},{"transit":false,"is_transit":false,"i_long":106.771379,"time":2,"station_id":"PSG","line":5,"distance":2036,"i_lat":-6.161433,"station_name":"Pesing"},{"i_long":106.756522,"time":2,"line":5,"station_id":"TKO","transit":false,"distance":1614,"i_lat":-6.1587309999999995,"station_name":"Taman Kota","is_transit":false}],[{"is_transit":false,"transit":false,"station_id":"TEB","line":2,"i_long":106.857948,"distance":0,"time":0,"station_name":"Tebet","i_lat":-6.226659},{"i_long":106.84912,"transit":true,"line":2,"station_name":"Manggarai","station_id":"MRI","time":4,"distance":2610,"i_lat":-6.209883,"is_transit":true},{"line":1,"i_long":106.858896,"distance":1275,"station_id":"MTR","time":2,"station_name":"Matraman","is_transit":false,"transit":false,"i_lat":-6.212485},{"i_long":106.86807400000001,"transit":true,"station_id":"JNG","station_name":"Jatinegara","is_transit":true,"i_lat":-6.215091,"distance":1377,"line":1,"time":8},{"distance":1236,"i_long":106.861737,"i_lat":-6.209188,"is_transit":false,"transit":false,"station_name":"Pondok Jati","line":11,"station_id":"POK","time":2},{"time":2,"distance":1829,"station_name":"Kramat","transit":false,"i_lat":-6.193792,"station_id":"KMT","i_long":106.855437,"line":11,"is_transit":false},{"time":1,"distance":973,"station_name":"Gang Sentiong","transit":false,"i_lat":-6.185975,"line":11,"is_transit":false,"station_id":"GST","i_long":106.850107},{"transit":false,"time":8,"distance":1567,"station_id":"PSE","i_lat":-6.174784,"line":11,"i_long":106.84368,"is_transit":false,"station_name":"Pasar Senen"},{"i_lat":-6.161728,"time":4,"station_id":"KMO","station_name":"Kemayoran","i_long":106.839204,"line":11,"distance":1436,"transit":false,"is_transit":false},{"station_id":"RJW","i_long":106.836569,"transit":false,"station_name":"Rajawali","i_lat":-6.14505,"distance":1901,"is_transit":false,"time":5,"line":11},{"line":4,"station_id":"KPB","is_transit":true,"transit":true,"i_long":106.826365,"distance":1444,"time":3,"i_lat":-6.132549,"station_name":"Kampung Bandan"},{"time":9,"station_id":"AK","i_lat":-6.144674,"line":1,"station_name":"Angke","is_transit":false,"distance":4102,"transit":false,"i_long":106.79867},{"i_lat":-6.155215,"distance":1230,"is_transit":true,"line":1,"time":4,"station_name":"Duri","transit":true,"station_id":"DU","i_long":106.800832},{"transit":false,"distance":1700,"station_name":"Grogol","i_long":106.788277,"line":5,"time":3,"is_transit":false,"i_lat":-6.162021,"station_id":"GGL"},{"transit":false,"i_lat":-6.161433,"time":2,"distance":2036,"station_name":"Pesing","station_id":"PSG","is_transit":false,"i_long":106.771379,"line":5},{"time":2,"is_transit":false,"station_id":"TKO","transit":false,"line":5,"station_name":"Taman Kota","i_lat":-6.1587309999999995,"i_long":106.756522,"distance":1614}]]}