{"data":[[{"is_transit":false,"distance":0,"station_id":"TEB","transit":false,"i_long":106.857948,"line":2,"i_lat":-6.226659,"time":0,"station_name":"Tebet"},{"distance":1230,"time":2,"station_id":"CW","is_transit":false,"transit":false,"station_name":"Cawang","i_lat":-6.242512,"i_long":106.856607,"line":2},{"transit":false,"station_name":"Duren Kalibata","i_lat":-6.255332,"i_long":106.85449,"station_id":"DRN","is_transit":false,"line":2,"distance":1546,"time":3},{"distance":824,"i_lat":-6.263214,"i_long":106.851577,"line":2,"transit":false,"station_id":"PSMB","is_transit":false,"station_name":"Pasar Minggu Baru","time":2},{"distance":2380,"is_transit":false,"i_lat":-6.2842400000000005,"i_long":106.843999,"line":2,"time":2,"station_id":"PSM","station_name":"Pasar Minggu","transit":false},{"station_name":"Tanjung Barat","line":2,"is_transit":false,"i_lat":-6.3080680000000005,"i_long":106.838896,"transit":false,"distance":2820,"station_id":"TNT","time":4},{"i_long":106.832616,"i_lat":-6.330363,"transit":false,"station_name":"Lenteng Agung","line":2,"station_id":"LNA","distance":2671,"time":3,"is_transit":false},{"i_lat":-6.339291,"station_id":"UP","is_transit":false,"i_long":106.834175,"time":2,"line":2,"distance":1029,"transit":false,"station_name":"Univ. Pancasila"},{"station_id":"UI","is_transit":false,"time":3,"i_lat":-6.360749,"line":2,"transit":false,"station_name":"Univ. Indonesia","i_long":106.831474,"distance":2264},{"distance":1109,"transit":false,"station_id":"POC","station_name":"Pondok Cina","i_long":106.831114,"time":2,"i_lat":-6.369073,"line":2,"is_transit":false},{"station_name":"Depokbaru","i_long":106.819451,"time":4,"i_lat":-6.391065,"distance":2727,"station_id":"DPB","is_transit":false,"transit":false,"line":2},{"line":2,"transit":false,"time":3,"i_long":106.816926,"distance":1584,"station_id":"DP","is_transit":false,"station_name":"Depok","i_lat":-6.405256},{"is_transit":true,"station_name":"Citayam","time":6,"station_id":"CTA","i_long":106.800298,"distance":5084,"line":2,"i_lat":-6.448811,"transit":true},{"station_name":"Pondok Rajeg","i_lat":-6.460735,"line":21,"station_id":"PDRG","transit":false,"i_long":106.824374,"distance":0,"time":0,"is_transit":false},{"station_id":"CBN","i_long":106.851978,"transit":false,"line":21,"is_transit":false,"distance":0,"i_lat":-6.46424,"time":0,"station_name":"Cibinong"}]]}