{"data":[[{"station_name":"Tebet","transit":false,"i_lat":-6.226659,"i_long":106.857948,"distance":0,"time":0,"station_id":"TEB","line":2,"is_transit":false},{"transit":true,"distance":2610,"time":4,"station_name":"Manggarai","station_id":"MRI","is_transit":true,"i_lat":-6.209883,"i_long":106.84912,"line":2},{"line":1,"is_transit":false,"transit":false,"i_long":106.858896,"time":2,"station_name":"Matraman","i_lat":-6.212485,"station_id":"MTR","distance":1275},{"i_lat":-6.215091,"distance":1377,"is_transit":false,"transit":false,"time":8,"line":1,"station_name":"Jatinegara","station_id":"JNG","i_long":106.86807400000001},{"distance":3395,"i_lat":-6.2135,"station_name":"Klender","transit":false,"is_transit":false,"time":3,"station_id":"KLD","i_long":106.899548,"line":1},{"distance":3100,"station_id":"BUA","is_transit":false,"time":2,"i_lat":-6.215568,"i_long":106.922662,"transit":false,"line":1,"station_name":"Buaran"},{"station_id":"KLDB","distance":1305,"transit":false,"time":1,"line":1,"i_lat":-6.217455,"station_name":"Klenderbaru","is_transit":false,"i_long":106.939679},{"is_transit":false,"line":1,"distance":1385,"i_lat":-6.219053,"station_name":"Cakung","i_long":106.951283,"time":8,"station_id":"CUK","transit":false},{"i_long":106.977657,"time":3,"line":1,"transit":false,"i_lat":-6.224515,"station_name":"Kranji","distance":3097,"station_id":"KRI","is_transit":false},{"line":1,"time":4,"transit":false,"station_id":"BKS","station_name":"Bekasi","distance":2520,"i_long":106.997013,"is_transit":false,"i_lat":-6.236616},{"transit":false,"station_id":"BKST","i_long":107.016735,"station_name":"Bekasi Timur","is_transit":false,"i_lat":-6.248029,"line":1,"distance":2368,"time":2},{"distance":4460,"i_long":107.055722,"transit":false,"is_transit":false,"i_lat":-6.258864,"station_name":"Tambun","line":1,"time":7,"station_id":"TB"},{"station_id":"CIT","i_long":107.083084,"is_transit":false,"line":1,"time":3,"transit":false,"station_name":"Cibitung","distance":3420,"i_lat":-6.261877},{"line":1,"time":2,"station_id":"TLM","distance":2800,"transit":false,"i_lat":-6.262938,"station_name":"Metland Telaga Murni","is_transit":false,"i_long":107.093313}],[{"station_name":"Tebet","station_id":"TEB","time":0,"distance":0,"is_transit":false,"transit":false,"i_long":106.857948,"i_lat":-6.226659,"line":2},{"station_name":"Manggarai","is_transit":true,"i_long":106.84912,"time":4,"i_lat":-6.209883,"line":2,"transit":true,"station_id":"MRI","distance":2610},{"station_id":"SUD","transit":false,"station_name":"Sudirman","is_transit":false,"i_long":106.822649,"i_lat":-6.202263,"line":1,"time":4,"distance":3186},{"time":1,"is_transit":false,"i_lat":-6.201433,"station_name":"Sudirman Baru","line":1,"transit":false,"station_id":"SUDB","distance":280,"i_long":106.819881},{"i_lat":-6.20132,"station_id":"KAT","distance":471,"station_name":"Karet","time":1,"transit":false,"is_transit":false,"i_long":106.816351,"line":1},{"station_name":"Tanah Abang","time":5,"line":1,"transit":false,"station_id":"THB","is_transit":false,"i_lat":-6.185545,"distance":2029,"i_long":106.811091},{"station_name":"Duri","time":8,"transit":false,"line":1,"distance":3632,"i_long":106.800832,"i_lat":-6.155215,"is_transit":false,"station_id":"DU"},{"station_id":"AK","is_transit":false,"line":1,"transit":false,"distance":1230,"station_name":"Angke","i_lat":-6.144674,"time":4,"i_long":106.79867},{"i_long":106.826365,"station_id":"KPB","time":9,"station_name":"Kampung Bandan","line":4,"is_transit":true,"i_lat":-6.132549,"transit":true,"distance":4102},{"i_long":106.836569,"time":3,"transit":false,"line":11,"station_id":"RJW","station_name":"Rajawali","distance":1444,"is_transit":false,"i_lat":-6.14505},{"line":11,"distance":1901,"is_transit":false,"i_long":106.839204,"station_name":"Kemayoran","time":5,"station_id":"KMO","transit":false,"i_lat":-6.161728},{"line":11,"station_id":"PSE","i_long":106.84368,"transit":false,"time":4,"is_transit":false,"i_lat":-6.174784,"station_name":"Pasar Senen","distance":1436},{"time":8,"transit":false,"distance":1567,"line":11,"station_id":"GST","i_long":106.850107,"station_name":"Gang Sentiong","is_transit":false,"i_lat":-6.185975},{"station_name":"Kramat","distance":973,"station_id":"KMT","i_lat":-6.193792,"line":11,"i_long":106.855437,"time":1,"transit":false,"is_transit":false},{"is_transit":false,"i_long":106.861737,"distance":1829,"transit":false,"i_lat":-6.209188,"station_name":"Pondok Jati","time":2,"station_id":"POK","line":11},{"time":9,"is_transit":true,"i_lat":-6.215091,"i_long":106.86807400000001,"station_name":"Jatinegara","line":1,"transit":true,"distance":1236,"station_id":"JNG"},{"transit":false,"station_name":"Klender","station_id":"KLD","i_long":106.899548,"time":3,"is_transit":false,"line":1,"distance":3395,"i_lat":-6.2135},{"i_lat":-6.215568,"time":2,"station_name":"Buaran","i_long":106.922662,"transit":false,"line":1,"distance":3100,"station_id":"BUA","is_transit":false},{"distance":1305,"is_transit":false,"line":1,"station_name":"Klenderbaru","i_lat":-6.217455,"i_long":106.939679,"station_id":"KLDB","transit":false,"time":1},{"station_id":"CUK","i_lat":-6.219053,"i_long":106.951283,"line":1,"time":8,"is_transit":false,"distance":1385,"transit":false,"station_name":"Cakung"},{"line":1,"is_transit":false,"station_id":"KRI","time":3,"distance":3097,"transit":false,"i_long":106.977657,"station_name":"Kranji","i_lat":-6.224515},{"station_name":"Bekasi","distance":2520,"transit":false,"is_transit":false,"i_lat":-6.236616,"i_long":106.997013,"line":1,"station_id":"BKS","time":4},{"i_long":107.016735,"station_id":"BKST","station_name":"Bekasi Timur","time":2,"transit":false,"distance":2368,"i_lat":-6.248029,"line":1,"is_transit":false},{"line":1,"station_id":"TB","i_lat":-6.258864,"transit":false,"distance":4460,"time":7,"station_name":"Tambun","i_long":107.055722,"is_transit":false},{"is_transit":false,"station_id":"CIT","i_lat":-6.261877,"i_long":107.083084,"transit":false,"time":3,"station_name":"Cibitung","distance":3420,"line":1},{"station_id":"TLM","is_transit":false,"line":1,"transit":false,"station_name":"Metland Telaga Murni","distance":2800,"i_lat":-6.262938,"i_long":107.093313,"time":2}],[{"station_id":"TEB","is_transit":false,"transit":false,"time":0,"distance":0,"i_long":106.857948,"line":2,"station_name":"Tebet","i_lat":-6.226659},{"station_id":"MRI","time":4,"i_lat":-6.209883,"line":2,"is_transit":false,"i_long":106.84912,"station_name":"Manggarai","distance":2610,"transit":false},{"is_transit":false,"i_lat":-6.198556,"distance":1590,"station_id":"CKI","line":2,"i_long":106.840169,"transit":false,"station_name":"Cikini","time":4},{"time":3,"station_id":"GDD","i_long":106.832183,"transit":false,"is_transit":false,"i_lat":-6.186295,"station_name":"Gondangdia","line":2,"distance":1750},{"station_id":"JUA","i_lat":-6.166716,"time":4,"is_transit":false,"distance":2015,"i_long":106.828284,"line":2,"station_name":"Juanda","transit":false},{"line":2,"i_long":106.827103,"time":2,"transit":false,"is_transit":false,"distance":1149,"station_id":"SW","i_lat":-6.160725,"station_name":"Sawah Besar"},{"is_transit":false,"line":2,"i_lat":-6.149769,"station_name":"Manggabesar","station_id":"MGB","time":2,"i_long":106.82482,"transit":false,"distance":906},{"distance":1080,"time":2,"line":2,"is_transit":false,"i_lat":-6.141205,"station_name":"Jayakarta","transit":false,"i_long":106.820901,"station_id":"JAY"},{"is_transit":true,"transit":true,"time":4,"station_id":"JAKK","distance":1264,"i_lat":-6.137569,"line":2,"i_long":106.812439,"station_name":"Jakarta Kota"},{"i_lat":-6.132549,"station_name":"Kampung Bandan","distance":1364,"is_transit":true,"transit":true,"line":4,"time":3,"i_long":106.826365,"station_id":"KPB"},{"distance":1444,"time":3,"station_name":"Rajawali","transit":false,"i_lat":-6.14505,"is_transit":false,"station_id":"RJW","i_long":106.836569,"line":11},{"i_lat":-6.161728,"is_transit":false,"line":11,"transit":false,"distance":1901,"i_long":106.839204,"station_id":"KMO","time":5,"station_name":"Kemayoran"},{"distance":1436,"transit":false,"i_lat":-6.174784,"station_name":"Pasar Senen","station_id":"PSE","is_transit":false,"time":4,"i_long":106.84368,"line":11},{"distance":1567,"station_id":"GST","i_long":106.850107,"time":8,"transit":false,"station_name":"Gang Sentiong","i_lat":-6.185975,"is_transit":false,"line":11},{"station_id":"KMT","transit":false,"time":1,"distance":973,"i_long":106.855437,"line":11,"station_name":"Kramat","is_transit":false,"i_lat":-6.193792},{"is_transit":false,"distance":1829,"time":2,"i_long":106.861737,"line":11,"transit":false,"i_lat":-6.209188,"station_id":"POK","station_name":"Pondok Jati"},{"i_lat":-6.215091,"is_transit":true,"station_name":"Jatinegara","time":9,"transit":true,"i_long":106.86807400000001,"station_id":"JNG","distance":1236,"line":1},{"time":3,"station_name":"Klender","transit":false,"line":1,"is_transit":false,"station_id":"KLD","i_lat":-6.2135,"i_long":106.899548,"distance":3395},{"i_long":106.922662,"line":1,"station_name":"Buaran","transit":false,"station_id":"BUA","is_transit":false,"i_lat":-6.215568,"time":2,"distance":3100},{"time":1,"line":1,"station_id":"KLDB","i_long":106.939679,"distance":1305,"i_lat":-6.217455,"transit":false,"station_name":"Klenderbaru","is_transit":false},{"station_id":"CUK","line":1,"time":8,"i_lat":-6.219053,"distance":1385,"transit":false,"is_transit":false,"station_name":"Cakung","i_long":106.951283},{"station_name":"Kranji","i_long":106.977657,"distance":3097,"line":1,"i_lat":-6.224515,"time":3,"is_transit":false,"station_id":"KRI","transit":false},{"distance":2520,"i_lat":-6.236616,"is_transit":false,"i_long":106.997013,"line":1,"transit":false,"time":4,"station_name":"Bekasi","station_id":"BKS"},{"station_id":"BKST","line":1,"transit":false,"i_long":107.016735,"is_transit":false,"i_lat":-6.248029,"distance":2368,"station_name":"Bekasi Timur","time":2},{"station_id":"TB","is_transit":false,"distance":4460,"i_lat":-6.258864,"transit":false,"i_long":107.055722,"time":7,"station_name":"Tambun","line":1},{"is_transit":false,"time":3,"line":1,"i_lat":-6.261877,"transit":false,"station_id":"CIT","station_name":"Cibitung","distance":3420,"i_long":107.083084},{"i_long":107.093313,"station_name":"Metland Telaga Murni","station_id":"TLM","transit":false,"line":1,"distance":2800,"time":2,"is_transit":false,"i_lat":-6.262938}]]}