{"data":[[{"i_lat":-6.226659,"station_id":"TEB","distance":0,"time":0,"transit":false,"is_transit":false,"station_name":"Tebet","i_long":106.857948,"line":2},{"time":2,"is_transit":false,"transit":false,"station_id":"CW","i_lat":-6.242512,"i_long":106.856607,"line":2,"distance":1230,"station_name":"Cawang"},{"time":3,"is_transit":false,"station_name":"Duren Kalibata","transit":false,"i_long":106.85449,"station_id":"DRN","i_lat":-6.255332,"line":2,"distance":1546},{"station_id":"PSMB","is_transit":false,"line":2,"station_name":"Pasar Minggu Baru","i_lat":-6.263214,"distance":824,"time":2,"i_long":106.851577,"transit":false},{"station_name":"Pasar Minggu","line":2,"time":2,"transit":false,"station_id":"PSM","distance":2380,"is_transit":false,"i_lat":-6.2842400000000005,"i_long":106.843999},{"time":4,"distance":2820,"station_name":"Tanjung Barat","i_lat":-6.3080680000000005,"is_transit":false,"station_id":"TNT","i_long":106.838896,"line":2,"transit":false},{"transit":false,"station_name":"Lenteng Agung","i_long":106.832616,"line":2,"distance":2671,"is_transit":false,"time":3,"station_id":"LNA","i_lat":-6.330363},{"station_id":"UP","is_transit":false,"i_long":106.834175,"station_name":"Univ. Pancasila","i_lat":-6.339291,"line":2,"distance":1029,"time":2,"transit":false},{"time":3,"distance":2264,"station_name":"Univ. Indonesia","line":2,"station_id":"UI","i_lat":-6.360749,"is_transit":false,"i_long":106.831474,"transit":false},{"is_transit":false,"transit":false,"line":2,"station_id":"POC","i_lat":-6.369073,"distance":1109,"i_long":106.831114,"time":2,"station_name":"Pondok Cina"},{"station_name":"Depokbaru","distance":2727,"station_id":"DPB","i_long":106.819451,"line":2,"time":4,"is_transit":false,"i_lat":-6.391065,"transit":false},{"time":3,"station_name":"Depok","distance":1584,"station_id":"DP","transit":false,"i_long":106.816926,"line":2,"i_lat":-6.405256,"is_transit":false},{"distance":5084,"is_transit":false,"transit":false,"i_lat":-6.448811,"station_name":"Citayam","line":2,"station_id":"CTA","time":6,"i_long":106.800298}]]}