{"data":[[{"distance":0,"station_name":"Tebet","i_lat":-6.226659,"transit":false,"line":2,"station_id":"TEB","i_long":106.857948,"is_transit":false,"time":0},{"i_long":106.84912,"station_id":"MRI","transit":true,"time":4,"is_transit":true,"distance":2610,"i_lat":-6.209883,"station_name":"Manggarai","line":0},{"distance":3186,"i_lat":-6.202263,"line":1,"station_id":"SUD","station_name":"Sudirman","is_transit":false,"transit":false,"time":4,"i_long":106.822649},{"distance":280,"station_id":"SUDB","transit":false,"i_lat":-6.201433,"line":1,"time":1,"i_long":106.819881,"station_name":"Sudirman Baru","is_transit":false},{"i_lat":-6.20132,"is_transit":false,"station_id":"KAT","line":1,"time":1,"distance":471,"i_long":106.816351,"transit":false,"station_name":"Karet"},{"line":1,"i_lat":-6.185545,"station_name":"Tanah Abang","distance":2029,"station_id":"THB","is_transit":true,"i_long":106.811091,"time":5,"transit":false},{"is_transit":true,"station_name":"Duri","station_id":"DU","time":8,"i_lat":-6.155215,"i_long":106.800832,"line":1,"transit":true,"distance":3632},{"station_name":"Angke","transit":false,"is_transit":false,"station_id":"AK","line":0,"time":4,"i_lat":-6.144674,"distance":1230,"i_long":106.79867},{"is_transit":true,"station_id":"KPB","time":9,"line":0,"distance":4102,"i_long":106.826365,"transit":false,"i_lat":-6.132549,"station_name":"Kampung Bandan"},{"station_name":"Ancol","time":4,"i_lat":-6.128023,"is_transit":false,"distance":2185,"station_id":"AC","transit":false,"line":0,"i_long":106.84464},{"transit":false,"time":9,"i_lat":-6.1109480000000005,"i_long":106.880089,"line":4,"station_name":"Tanjung Priuk","is_transit":false,"distance":4566,"station_id":"TPK"}],[{"distance":0,"is_transit":false,"station_name":"Tebet","station_id":"TEB","transit":false,"time":0,"i_lat":-6.226659,"i_long":106.857948,"line":2},{"transit":true,"distance":2610,"is_transit":true,"station_id":"MRI","i_lat":-6.209883,"i_long":106.84912,"time":4,"line":0,"station_name":"Manggarai"},{"is_transit":false,"distance":1590,"transit":false,"station_name":"Cikini","i_lat":-6.198556,"line":0,"time":4,"i_long":106.840169,"station_id":"CKI"},{"time":3,"station_id":"GDD","distance":1750,"i_lat":-6.186295,"line":2,"transit":false,"station_name":"Gondangdia","i_long":106.832183,"is_transit":false},{"i_long":106.828284,"distance":2015,"station_name":"Juanda","i_lat":-6.166716,"line":2,"time":4,"is_transit":false,"station_id":"JUA","transit":false},{"station_id":"SW","i_lat":-6.160725,"i_long":106.827103,"distance":1149,"station_name":"Sawah Besar","time":2,"line":2,"is_transit":false,"transit":false},{"station_name":"Manggabesar","line":2,"station_id":"MGB","time":2,"i_long":106.82482,"transit":false,"i_lat":-6.149769,"distance":906,"is_transit":false},{"line":7,"is_transit":false,"transit":false,"station_id":"JAY","distance":1080,"station_name":"Jayakarta","i_lat":-6.141205,"time":2,"i_long":106.820901},{"distance":1264,"time":4,"transit":true,"i_lat":-6.137569,"line":0,"i_long":106.812439,"station_name":"Jakarta Kota","station_id":"JAKK","is_transit":true},{"transit":false,"time":3,"i_long":106.826365,"line":0,"station_id":"KPB","distance":1364,"station_name":"Kampung Bandan","i_lat":-6.132549,"is_transit":true},{"transit":false,"i_lat":-6.128023,"line":0,"i_long":106.84464,"distance":2185,"station_name":"Ancol","time":4,"is_transit":false,"station_id":"AC"},{"time":9,"distance":4566,"i_lat":-6.1109480000000005,"line":4,"i_long":106.880089,"is_transit":false,"station_id":"TPK","station_name":"Tanjung Priuk","transit":false}],[{"i_lat":-6.226659,"station_name":"Tebet","line":2,"station_id":"TEB","is_transit":false,"time":0,"i_long":106.857948,"distance":0,"transit":false},{"line":0,"station_id":"MRI","distance":2610,"transit":true,"time":4,"i_long":106.84912,"is_transit":true,"i_lat":-6.209883,"station_name":"Manggarai"},{"station_id":"MTR","time":2,"i_long":106.858896,"distance":1275,"line":1,"i_lat":-6.212485,"station_name":"Matraman","transit":false,"is_transit":false},{"station_id":"JNG","i_lat":-6.215091,"line":0,"is_transit":true,"transit":true,"distance":1377,"i_long":106.86807400000001,"station_name":"Jatinegara","time":8},{"transit":false,"time":2,"i_long":106.861737,"line":11,"station_id":"POK","distance":1236,"station_name":"Pondok Jati","is_transit":false,"i_lat":-6.209188},{"distance":1829,"i_long":106.855437,"station_id":"KMT","is_transit":false,"station_name":"Kramat","transit":false,"time":2,"i_lat":-6.193792,"line":11},{"line":11,"is_transit":false,"time":1,"transit":false,"station_id":"GST","station_name":"Gang Sentiong","i_long":106.850107,"distance":973,"i_lat":-6.185975},{"transit":false,"time":8,"station_name":"Pasar Senen","i_lat":-6.174784,"distance":1567,"line":11,"i_long":106.84368,"station_id":"PSE","is_transit":false},{"transit":false,"station_id":"KMO","time":4,"is_transit":false,"i_long":106.839204,"i_lat":-6.161728,"distance":1436,"station_name":"Kemayoran","line":11},{"time":5,"i_lat":-6.14505,"i_long":106.836569,"station_id":"RJW","transit":false,"line":11,"station_name":"Rajawali","distance":1901,"is_transit":false},{"station_id":"KPB","i_long":106.826365,"line":0,"distance":1444,"i_lat":-6.132549,"station_name":"Kampung Bandan","transit":true,"time":3,"is_transit":true},{"station_id":"AC","i_lat":-6.128023,"line":0,"station_name":"Ancol","time":4,"transit":false,"distance":2185,"is_transit":false,"i_long":106.84464},{"is_transit":false,"station_id":"TPK","station_name":"Tanjung Priuk","line":4,"transit":false,"time":9,"i_lat":-6.1109480000000005,"i_long":106.880089,"distance":4566}]]}