{"data":[[{"i_lat":-6.226659,"line":2,"transit":false,"station_id":"TEB","station_name":"Tebet","is_transit":false,"i_long":106.857948,"time":0,"distance":0},{"i_lat":-6.209883,"is_transit":true,"distance":2610,"i_long":106.84912,"station_id":"MRI","station_name":"Manggarai","transit":true,"line":2,"time":4},{"station_name":"Matraman","time":2,"is_transit":false,"line":1,"transit":false,"distance":1275,"i_long":106.858896,"station_id":"MTR","i_lat":-6.212485},{"transit":false,"line":1,"is_transit":false,"distance":1377,"i_long":106.86807400000001,"station_id":"JNG","time":8,"station_name":"Jatinegara","i_lat":-6.215091},{"line":1,"distance":3395,"station_id":"KLD","station_name":"Klender","transit":false,"i_lat":-6.2135,"time":3,"i_long":106.899548,"is_transit":false},{"time":2,"station_name":"Buaran","i_lat":-6.215568,"is_transit":false,"transit":false,"distance":3100,"i_long":106.922662,"line":1,"station_id":"BUA"},{"station_id":"KLDB","distance":1305,"station_name":"Klenderbaru","is_transit":false,"i_lat":-6.217455,"line":1,"time":1,"i_long":106.939679,"transit":false},{"transit":false,"station_name":"Cakung","distance":1385,"i_lat":-6.219053,"i_long":106.951283,"is_transit":false,"time":8,"line":1,"station_id":"CUK"},{"station_id":"KRI","station_name":"Kranji","time":3,"transit":false,"i_lat":-6.224515,"is_transit":false,"i_long":106.977657,"line":1,"distance":3097},{"time":4,"station_name":"Bekasi","i_lat":-6.236616,"is_transit":false,"i_long":106.997013,"station_id":"BKS","distance":2520,"transit":false,"line":1},{"time":2,"distance":2368,"transit":false,"is_transit":false,"i_long":107.016735,"station_name":"Bekasi Timur","station_id":"BKST","i_lat":-6.248029,"line":1}],[{"is_transit":false,"i_long":106.857948,"distance":0,"i_lat":-6.226659,"station_id":"TEB","station_name":"Tebet","transit":false,"line":2,"time":0},{"distance":2610,"i_lat":-6.209883,"is_transit":true,"station_id":"MRI","time":4,"line":2,"i_long":106.84912,"station_name":"Manggarai","transit":true},{"time":4,"distance":3186,"line":1,"is_transit":false,"station_id":"SUD","transit":false,"i_lat":-6.202263,"i_long":106.822649,"station_name":"Sudirman"},{"station_id":"SUDB","station_name":"Sudirman Baru","i_lat":-6.201433,"is_transit":false,"i_long":106.819881,"time":1,"distance":280,"transit":false,"line":1},{"transit":false,"station_id":"KAT","line":1,"time":1,"distance":471,"i_long":106.816351,"is_transit":false,"station_name":"Karet","i_lat":-6.20132},{"i_lat":-6.185545,"line":1,"time":5,"station_id":"THB","is_transit":false,"station_name":"Tanah Abang","i_long":106.811091,"transit":false,"distance":2029},{"time":8,"is_transit":false,"i_long":106.800832,"i_lat":-6.155215,"line":1,"station_id":"DU","transit":false,"station_name":"Duri","distance":3632},{"station_id":"AK","i_long":106.79867,"is_transit":false,"distance":1230,"time":4,"line":1,"transit":false,"i_lat":-6.144674,"station_name":"Angke"},{"station_name":"Kampung Bandan","i_long":106.826365,"i_lat":-6.132549,"is_transit":true,"distance":4102,"time":9,"transit":true,"line":4,"station_id":"KPB"},{"station_id":"RJW","is_transit":false,"distance":1444,"station_name":"Rajawali","transit":false,"time":3,"i_lat":-6.14505,"i_long":106.836569,"line":11},{"distance":1901,"i_long":106.839204,"line":11,"is_transit":false,"station_id":"KMO","transit":false,"station_name":"Kemayoran","i_lat":-6.161728,"time":5},{"time":4,"transit":false,"station_name":"Pasar Senen","i_long":106.84368,"line":11,"station_id":"PSE","distance":1436,"is_transit":false,"i_lat":-6.174784},{"distance":1567,"is_transit":false,"i_lat":-6.185975,"i_long":106.850107,"time":8,"line":11,"station_name":"Gang Sentiong","transit":false,"station_id":"GST"},{"station_name":"Kramat","transit":false,"i_lat":-6.193792,"station_id":"KMT","is_transit":false,"line":11,"time":1,"distance":973,"i_long":106.855437},{"i_lat":-6.209188,"distance":1829,"time":2,"is_transit":false,"station_id":"POK","transit":false,"i_long":106.861737,"line":11,"station_name":"Pondok Jati"},{"station_name":"Jatinegara","i_lat":-6.215091,"line":1,"distance":1236,"station_id":"JNG","is_transit":true,"i_long":106.86807400000001,"transit":true,"time":9},{"is_transit":false,"time":3,"line":1,"i_lat":-6.2135,"i_long":106.899548,"station_name":"Klender","transit":false,"station_id":"KLD","distance":3395},{"line":1,"time":2,"i_long":106.922662,"station_name":"Buaran","is_transit":false,"i_lat":-6.215568,"station_id":"BUA","distance":3100,"transit":false},{"station_id":"KLDB","line":1,"transit":false,"i_long":106.939679,"time":1,"station_name":"Klenderbaru","distance":1305,"i_lat":-6.217455,"is_transit":false},{"i_long":106.951283,"time":8,"station_id":"CUK","station_name":"Cakung","is_transit":false,"line":1,"transit":false,"distance":1385,"i_lat":-6.219053},{"time":3,"station_id":"KRI","is_transit":false,"transit":false,"i_long":106.977657,"distance":3097,"station_name":"Kranji","line":1,"i_lat":-6.224515},{"line":1,"station_id":"BKS","transit":false,"i_lat":-6.236616,"time":4,"distance":2520,"station_name":"Bekasi","i_long":106.997013,"is_transit":false},{"station_name":"Bekasi Timur","station_id":"BKST","i_lat":-6.248029,"i_long":107.016735,"time":2,"is_transit":false,"distance":2368,"transit":false,"line":1}],[{"is_transit":false,"line":2,"i_long":106.857948,"transit":false,"i_lat":-6.226659,"time":0,"station_id":"TEB","station_name":"Tebet","distance":0},{"transit":false,"distance":2610,"station_id":"MRI","line":2,"i_lat":-6.209883,"time":4,"i_long":106.84912,"station_name":"Manggarai","is_transit":false},{"i_long":106.840169,"i_lat":-6.198556,"distance":1590,"is_transit":false,"station_name":"Cikini","transit":false,"station_id":"CKI","time":4,"line":2},{"time":3,"distance":1750,"station_name":"Gondangdia","line":2,"station_id":"GDD","is_transit":false,"i_long":106.832183,"transit":false,"i_lat":-6.186295},{"station_id":"JUA","line":2,"transit":false,"i_long":106.828284,"i_lat":-6.166716,"station_name":"Juanda","time":4,"distance":2015,"is_transit":false},{"time":2,"station_id":"SW","transit":false,"i_lat":-6.160725,"is_transit":false,"station_name":"Sawah Besar","i_long":106.827103,"line":2,"distance":1149},{"station_id":"MGB","time":2,"is_transit":false,"transit":false,"station_name":"Manggabesar","i_long":106.82482,"distance":906,"line":2,"i_lat":-6.149769},{"i_long":106.820901,"station_name":"Jayakarta","distance":1080,"i_lat":-6.141205,"line":2,"is_transit":false,"station_id":"JAY","transit":false,"time":2},{"time":4,"distance":1264,"transit":true,"is_transit":true,"i_lat":-6.137569,"i_long":106.812439,"station_name":"Jakarta Kota","line":2,"station_id":"JAKK"},{"i_long":106.826365,"time":3,"distance":1364,"station_id":"KPB","is_transit":true,"i_lat":-6.132549,"transit":true,"station_name":"Kampung Bandan","line":4},{"time":3,"is_transit":false,"i_long":106.836569,"transit":false,"line":11,"i_lat":-6.14505,"station_id":"RJW","distance":1444,"station_name":"Rajawali"},{"line":11,"i_long":106.839204,"transit":false,"time":5,"distance":1901,"is_transit":false,"station_name":"Kemayoran","i_lat":-6.161728,"station_id":"KMO"},{"time":4,"station_name":"Pasar Senen","i_long":106.84368,"is_transit":false,"transit":false,"station_id":"PSE","i_lat":-6.174784,"line":11,"distance":1436},{"i_lat":-6.185975,"station_name":"Gang Sentiong","i_long":106.850107,"station_id":"GST","time":8,"transit":false,"distance":1567,"is_transit":false,"line":11},{"i_lat":-6.193792,"distance":973,"is_transit":false,"line":11,"station_id":"KMT","transit":false,"station_name":"Kramat","time":1,"i_long":106.855437},{"i_long":106.861737,"line":11,"transit":false,"distance":1829,"time":2,"is_transit":false,"station_name":"Pondok Jati","i_lat":-6.209188,"station_id":"POK"},{"transit":true,"distance":1236,"is_transit":true,"line":1,"station_name":"Jatinegara","station_id":"JNG","i_long":106.86807400000001,"time":9,"i_lat":-6.215091},{"i_long":106.899548,"is_transit":false,"line":1,"i_lat":-6.2135,"station_name":"Klender","distance":3395,"transit":false,"station_id":"KLD","time":3},{"i_long":106.922662,"station_id":"BUA","distance":3100,"transit":false,"i_lat":-6.215568,"is_transit":false,"line":1,"station_name":"Buaran","time":2},{"i_lat":-6.217455,"i_long":106.939679,"transit":false,"line":1,"is_transit":false,"distance":1305,"station_id":"KLDB","station_name":"Klenderbaru","time":1},{"i_long":106.951283,"time":8,"station_id":"CUK","line":1,"i_lat":-6.219053,"is_transit":false,"distance":1385,"transit":false,"station_name":"Cakung"},{"is_transit":false,"station_name":"Kranji","transit":false,"distance":3097,"time":3,"line":1,"station_id":"KRI","i_lat":-6.224515,"i_long":106.977657},{"time":4,"station_name":"Bekasi","line":1,"transit":false,"i_lat":-6.236616,"station_id":"BKS","i_long":106.997013,"is_transit":false,"distance":2520},{"station_name":"Bekasi Timur","is_transit":false,"i_long":107.016735,"line":1,"station_id":"BKST","i_lat":-6.248029,"transit":false,"time":2,"distance":2368}]]}