{"data":[[{"time":0,"i_lat":-6.226659,"station_id":"TEB","line":2,"transit":false,"is_transit":false,"i_long":106.857948,"distance":0,"station_name":"Tebet"},{"transit":true,"time":4,"i_lat":-6.209883,"station_name":"Manggarai","is_transit":true,"i_long":106.84912,"line":0,"distance":2610,"station_id":"MRI"},{"i_lat":-6.212485,"time":2,"i_long":106.858896,"distance":1275,"transit":false,"station_id":"MTR","line":1,"is_transit":false,"station_name":"Matraman"},{"station_name":"Jatinegara","station_id":"JNG","time":8,"distance":1377,"is_transit":true,"transit":true,"line":0,"i_lat":-6.215091,"i_long":106.86807400000001},{"distance":1236,"is_transit":false,"i_long":106.861737,"line":11,"station_id":"POK","time":2,"transit":false,"station_name":"Pondok Jati","i_lat":-6.209188},{"distance":1829,"i_long":106.855437,"transit":false,"is_transit":false,"line":11,"station_id":"KMT","station_name":"Kramat","time":2,"i_lat":-6.193792}],[{"transit":false,"i_lat":-6.226659,"line":2,"time":0,"is_transit":false,"station_id":"TEB","station_name":"Tebet","i_long":106.857948,"distance":0},{"station_name":"Manggarai","distance":2610,"time":4,"transit":true,"i_lat":-6.209883,"i_long":106.84912,"line":0,"is_transit":true,"station_id":"MRI"},{"is_transit":false,"station_id":"SUD","time":4,"transit":false,"station_name":"Sudirman","distance":3186,"i_lat":-6.202263,"i_long":106.822649,"line":1},{"time":1,"distance":280,"is_transit":false,"transit":false,"station_id":"SUDB","station_name":"Sudirman Baru","i_lat":-6.201433,"i_long":106.819881,"line":1},{"i_lat":-6.20132,"station_name":"Karet","i_long":106.816351,"time":1,"is_transit":false,"station_id":"KAT","distance":471,"line":1,"transit":false},{"is_transit":true,"distance":2029,"station_id":"THB","station_name":"Tanah Abang","time":5,"i_long":106.811091,"i_lat":-6.185545,"line":1,"transit":false},{"station_name":"Duri","distance":3632,"is_transit":true,"station_id":"DU","time":8,"line":1,"transit":true,"i_lat":-6.155215,"i_long":106.800832},{"station_name":"Angke","distance":1230,"time":4,"station_id":"AK","i_long":106.79867,"line":0,"is_transit":false,"transit":false,"i_lat":-6.144674},{"time":9,"i_long":106.826365,"station_id":"KPB","transit":true,"line":0,"station_name":"Kampung Bandan","distance":4102,"i_lat":-6.132549,"is_transit":true},{"i_lat":-6.14505,"i_long":106.836569,"station_name":"Rajawali","line":11,"is_transit":false,"distance":1444,"transit":false,"time":3,"station_id":"RJW"},{"i_lat":-6.161728,"is_transit":false,"i_long":106.839204,"station_id":"KMO","station_name":"Kemayoran","distance":1901,"transit":false,"time":5,"line":11},{"station_name":"Pasar Senen","distance":1436,"i_long":106.84368,"i_lat":-6.174784,"transit":false,"line":11,"station_id":"PSE","time":4,"is_transit":false},{"transit":false,"time":8,"line":11,"i_lat":-6.185975,"i_long":106.850107,"station_name":"Gang Sentiong","distance":1567,"is_transit":false,"station_id":"GST"},{"is_transit":false,"station_id":"KMT","distance":973,"transit":false,"i_lat":-6.193792,"time":1,"line":11,"station_name":"Kramat","i_long":106.855437}],[{"station_id":"TEB","is_transit":false,"time":0,"line":2,"distance":0,"station_name":"Tebet","i_long":106.857948,"transit":false,"i_lat":-6.226659},{"is_transit":true,"station_name":"Manggarai","station_id":"MRI","line":0,"transit":true,"i_lat":-6.209883,"i_long":106.84912,"distance":2610,"time":4},{"station_id":"CKI","transit":false,"distance":1590,"is_transit":false,"station_name":"Cikini","i_lat":-6.198556,"line":0,"time":4,"i_long":106.840169},{"transit":false,"distance":1750,"i_lat":-6.186295,"line":2,"is_transit":false,"i_long":106.832183,"station_id":"GDD","station_name":"Gondangdia","time":3},{"distance":2015,"transit":false,"is_transit":false,"station_id":"JUA","station_name":"Juanda","i_long":106.828284,"time":4,"line":2,"i_lat":-6.166716},{"i_lat":-6.160725,"is_transit":false,"station_id":"SW","i_long":106.827103,"distance":1149,"line":2,"time":2,"transit":false,"station_name":"Sawah Besar"},{"is_transit":false,"time":2,"transit":false,"station_id":"MGB","distance":906,"station_name":"Manggabesar","i_long":106.82482,"line":2,"i_lat":-6.149769},{"station_id":"JAY","station_name":"Jayakarta","transit":false,"line":7,"time":2,"is_transit":false,"i_lat":-6.141205,"distance":1080,"i_long":106.820901},{"time":4,"distance":1264,"is_transit":true,"i_lat":-6.137569,"i_long":106.812439,"station_id":"JAKK","transit":true,"station_name":"Jakarta Kota","line":0},{"i_long":106.826365,"transit":true,"station_id":"KPB","i_lat":-6.132549,"is_transit":true,"time":3,"line":0,"station_name":"Kampung Bandan","distance":1364},{"time":3,"is_transit":false,"i_lat":-6.14505,"station_name":"Rajawali","station_id":"RJW","i_long":106.836569,"line":11,"transit":false,"distance":1444},{"time":5,"line":11,"station_name":"Kemayoran","station_id":"KMO","transit":false,"i_lat":-6.161728,"distance":1901,"i_long":106.839204,"is_transit":false},{"distance":1436,"station_name":"Pasar Senen","i_long":106.84368,"station_id":"PSE","time":4,"is_transit":false,"transit":false,"line":11,"i_lat":-6.174784},{"time":8,"transit":false,"line":11,"station_id":"GST","station_name":"Gang Sentiong","distance":1567,"is_transit":false,"i_lat":-6.185975,"i_long":106.850107},{"station_id":"KMT","line":11,"transit":false,"distance":973,"is_transit":false,"station_name":"Kramat","i_lat":-6.193792,"i_long":106.855437,"time":1}]]}