{"data":[[{"time":0,"is_transit":false,"station_id":"TEB","station_name":"Tebet","line":2,"distance":0,"i_long":106.857948,"transit":false,"i_lat":-6.226659},{"i_long":106.84912,"transit":true,"station_id":"MRI","is_transit":true,"distance":2610,"line":0,"station_name":"Manggarai","i_lat":-6.209883,"time":4},{"transit":false,"i_lat":-6.212485,"is_transit":false,"station_id":"MTR","distance":1275,"station_name":"Matraman","i_long":106.858896,"line":1,"time":2}],[{"distance":0,"i_lat":-6.226659,"is_transit":false,"station_id":"TEB","station_name":"Tebet","time":0,"transit":false,"line":2,"i_long":106.857948},{"distance":2610,"is_transit":true,"station_name":"Manggarai","transit":true,"line":0,"time":4,"station_id":"MRI","i_lat":-6.209883,"i_long":106.84912},{"time":4,"station_name":"Sudirman","i_lat":-6.202263,"line":1,"distance":3186,"station_id":"SUD","i_long":106.822649,"is_transit":false,"transit":false},{"is_transit":false,"time":1,"i_long":106.819881,"transit":false,"i_lat":-6.201433,"station_name":"Sudirman Baru","station_id":"SUDB","line":1,"distance":280},{"station_id":"KAT","is_transit":false,"i_lat":-6.20132,"station_name":"Karet","line":1,"time":1,"transit":false,"i_long":106.816351,"distance":471},{"station_name":"Tanah Abang","line":1,"distance":2029,"station_id":"THB","is_transit":true,"transit":false,"i_long":106.811091,"time":5,"i_lat":-6.185545},{"station_name":"Duri","station_id":"DU","is_transit":true,"distance":3632,"line":1,"transit":true,"i_lat":-6.155215,"i_long":106.800832,"time":8},{"i_long":106.79867,"station_id":"AK","distance":1230,"transit":false,"time":4,"i_lat":-6.144674,"line":0,"is_transit":false,"station_name":"Angke"},{"is_transit":true,"line":0,"distance":4102,"station_name":"Kampung Bandan","transit":true,"i_lat":-6.132549,"time":9,"station_id":"KPB","i_long":106.826365},{"station_name":"Rajawali","station_id":"RJW","time":3,"is_transit":false,"i_long":106.836569,"distance":1444,"i_lat":-6.14505,"transit":false,"line":11},{"station_name":"Kemayoran","i_lat":-6.161728,"distance":1901,"i_long":106.839204,"line":11,"is_transit":false,"station_id":"KMO","time":5,"transit":false},{"distance":1436,"i_long":106.84368,"transit":false,"station_id":"PSE","line":11,"station_name":"Pasar Senen","is_transit":false,"i_lat":-6.174784,"time":4},{"is_transit":false,"i_long":106.850107,"distance":1567,"station_id":"GST","transit":false,"i_lat":-6.185975,"line":11,"time":8,"station_name":"Gang Sentiong"},{"is_transit":false,"station_name":"Kramat","i_long":106.855437,"distance":973,"line":11,"time":1,"station_id":"KMT","i_lat":-6.193792,"transit":false},{"i_lat":-6.209188,"station_id":"POK","distance":1829,"time":2,"transit":false,"line":11,"station_name":"Pondok Jati","is_transit":false,"i_long":106.861737},{"transit":true,"line":0,"i_long":106.86807400000001,"i_lat":-6.215091,"station_id":"JNG","time":9,"distance":1236,"is_transit":true,"station_name":"Jatinegara"},{"i_lat":-6.212485,"i_long":106.858896,"distance":1377,"line":1,"station_id":"MTR","station_name":"Matraman","transit":false,"is_transit":false,"time":2}],[{"station_id":"TEB","i_lat":-6.226659,"line":2,"is_transit":false,"transit":false,"distance":0,"i_long":106.857948,"station_name":"Tebet","time":0},{"transit":true,"time":4,"i_long":106.84912,"line":0,"station_id":"MRI","distance":2610,"station_name":"Manggarai","is_transit":true,"i_lat":-6.209883},{"distance":1590,"i_long":106.840169,"station_id":"CKI","is_transit":false,"station_name":"Cikini","transit":false,"time":4,"i_lat":-6.198556,"line":0},{"line":2,"is_transit":false,"time":3,"transit":false,"station_id":"GDD","station_name":"Gondangdia","i_long":106.832183,"distance":1750,"i_lat":-6.186295},{"transit":false,"time":4,"station_name":"Juanda","i_lat":-6.166716,"distance":2015,"line":2,"i_long":106.828284,"station_id":"JUA","is_transit":false},{"transit":false,"station_id":"SW","time":2,"is_transit":false,"i_long":106.827103,"i_lat":-6.160725,"distance":1149,"station_name":"Sawah Besar","line":2},{"time":2,"i_lat":-6.149769,"i_long":106.82482,"station_id":"MGB","transit":false,"line":2,"station_name":"Manggabesar","distance":906,"is_transit":false},{"station_id":"JAY","i_long":106.820901,"line":7,"distance":1080,"i_lat":-6.141205,"station_name":"Jayakarta","transit":false,"time":2,"is_transit":false},{"station_id":"JAKK","i_lat":-6.137569,"line":0,"station_name":"Jakarta Kota","time":4,"transit":true,"distance":1264,"is_transit":true,"i_long":106.812439},{"is_transit":true,"station_id":"KPB","station_name":"Kampung Bandan","line":0,"transit":true,"time":3,"i_lat":-6.132549,"i_long":106.826365,"distance":1364},{"line":11,"transit":false,"station_name":"Rajawali","i_lat":-6.14505,"station_id":"RJW","time":3,"i_long":106.836569,"is_transit":false,"distance":1444},{"line":11,"station_name":"Kemayoran","i_lat":-6.161728,"i_long":106.839204,"transit":false,"time":5,"station_id":"KMO","is_transit":false,"distance":1901},{"station_name":"Pasar Senen","i_lat":-6.174784,"distance":1436,"i_long":106.84368,"line":11,"station_id":"PSE","time":4,"transit":false,"is_transit":false},{"is_transit":false,"station_id":"GST","time":8,"line":11,"distance":1567,"transit":false,"station_name":"Gang Sentiong","i_lat":-6.185975,"i_long":106.850107},{"i_lat":-6.193792,"line":11,"i_long":106.855437,"station_id":"KMT","transit":false,"time":1,"is_transit":false,"station_name":"Kramat","distance":973},{"transit":false,"i_long":106.861737,"time":2,"distance":1829,"line":11,"station_name":"Pondok Jati","is_transit":false,"station_id":"POK","i_lat":-6.209188},{"is_transit":true,"station_name":"Jatinegara","line":0,"station_id":"JNG","transit":true,"i_long":106.86807400000001,"time":9,"i_lat":-6.215091,"distance":1236},{"line":1,"time":2,"i_lat":-6.212485,"distance":1377,"i_long":106.858896,"is_transit":false,"transit":false,"station_id":"MTR","station_name":"Matraman"}]]}