{"data":[[{"distance":0,"is_transit":false,"station_name":"Tebet","i_lat":-6.226659,"line":2,"station_id":"TEB","transit":false,"time":0,"i_long":106.857948},{"i_lat":-6.209883,"transit":true,"station_name":"Manggarai","is_transit":true,"line":2,"station_id":"MRI","distance":2610,"time":4,"i_long":106.84912},{"time":4,"line":1,"distance":3186,"transit":false,"station_name":"Sudirman","station_id":"SUD","is_transit":false,"i_lat":-6.202263,"i_long":106.822649},{"station_name":"Sudirman Baru","line":1,"i_lat":-6.201433,"i_long":106.819881,"station_id":"SUDB","is_transit":false,"distance":280,"time":1,"transit":false},{"line":1,"time":1,"i_long":106.816351,"station_id":"KAT","i_lat":-6.20132,"station_name":"Karet","transit":false,"is_transit":false,"distance":471},{"i_long":106.811091,"i_lat":-6.185545,"transit":true,"line":1,"station_name":"Tanah Abang","distance":2029,"station_id":"THB","time":5,"is_transit":true},{"i_long":106.79689,"i_lat":-6.207404,"is_transit":false,"time":6,"transit":false,"station_name":"Palmerah","station_id":"PLM","distance":3191,"line":6},{"transit":false,"i_lat":-6.237242,"station_id":"KBY","time":7,"i_long":106.780334,"is_transit":false,"line":6,"distance":3737,"station_name":"Kebayoran"},{"station_name":"Pondokranji","i_long":106.74273,"i_lat":-6.276362,"transit":false,"time":8,"distance":6218,"station_id":"PDJ","is_transit":false,"line":6},{"i_lat":-6.288927,"is_transit":false,"distance":2179,"station_name":"Jurangmangu","transit":false,"time":3,"i_long":106.728916,"line":6,"station_id":"JMU"},{"is_transit":false,"distance":1994,"i_lat":-6.296963,"time":4,"line":6,"i_long":106.712277,"transit":false,"station_name":"Sudimara","station_id":"SDM"},{"transit":false,"time":6,"i_lat":-6.314823,"i_long":106.675475,"station_id":"RU","distance":4566,"line":6,"station_name":"Rawa Buntu","is_transit":false},{"transit":false,"station_name":"Serpong","is_transit":false,"distance":2413,"i_lat":-6.319871,"line":6,"i_long":106.66566,"station_id":"SRP","time":4},{"is_transit":false,"time":4,"i_lat":-6.32484,"i_long":106.640411,"station_name":"Cisauk","line":3,"station_id":"CSK","transit":false,"distance":1784}],[{"i_long":106.857948,"transit":false,"time":0,"line":2,"distance":0,"is_transit":false,"i_lat":-6.226659,"station_name":"Tebet","station_id":"TEB"},{"i_lat":-6.209883,"time":4,"distance":2610,"is_transit":false,"transit":false,"station_id":"MRI","line":2,"i_long":106.84912,"station_name":"Manggarai"},{"transit":false,"i_long":106.840169,"is_transit":false,"station_name":"Cikini","time":4,"distance":1590,"line":2,"station_id":"CKI","i_lat":-6.198556},{"distance":1750,"i_lat":-6.186295,"time":3,"is_transit":false,"station_name":"Gondangdia","station_id":"GDD","i_long":106.832183,"transit":false,"line":2},{"transit":false,"line":2,"station_id":"JUA","i_lat":-6.166716,"distance":2015,"i_long":106.828284,"time":4,"station_name":"Juanda","is_transit":false},{"distance":1149,"station_name":"Sawah Besar","transit":false,"is_transit":false,"time":2,"i_lat":-6.160725,"line":2,"i_long":106.827103,"station_id":"SW"},{"is_transit":false,"station_name":"Manggabesar","distance":906,"transit":false,"i_long":106.82482,"station_id":"MGB","time":2,"i_lat":-6.149769,"line":2},{"station_id":"JAY","time":2,"distance":1080,"line":2,"station_name":"Jayakarta","i_lat":-6.141205,"i_long":106.820901,"transit":false,"is_transit":false},{"i_lat":-6.137569,"transit":true,"station_id":"JAKK","is_transit":true,"distance":1264,"i_long":106.812439,"station_name":"Jakarta Kota","time":4,"line":2},{"i_long":106.826365,"station_id":"KPB","i_lat":-6.132549,"transit":true,"is_transit":true,"station_name":"Kampung Bandan","distance":1364,"time":3,"line":4},{"distance":4102,"i_long":106.79867,"time":9,"station_id":"AK","station_name":"Angke","is_transit":false,"line":1,"i_lat":-6.144674,"transit":false},{"distance":1230,"is_transit":false,"time":4,"i_lat":-6.155215,"line":1,"station_id":"DU","i_long":106.800832,"station_name":"Duri","transit":false},{"line":1,"i_long":106.811091,"time":8,"transit":true,"station_name":"Tanah Abang","distance":3632,"is_transit":true,"station_id":"THB","i_lat":-6.185545},{"i_lat":-6.207404,"time":6,"i_long":106.79689,"transit":false,"is_transit":false,"line":6,"distance":3191,"station_name":"Palmerah","station_id":"PLM"},{"time":7,"transit":false,"station_id":"KBY","distance":3737,"station_name":"Kebayoran","is_transit":false,"line":6,"i_lat":-6.237242,"i_long":106.780334},{"station_name":"Pondokranji","time":8,"i_long":106.74273,"is_transit":false,"distance":6218,"line":6,"station_id":"PDJ","i_lat":-6.276362,"transit":false},{"time":3,"distance":2179,"line":6,"i_lat":-6.288927,"i_long":106.728916,"station_name":"Jurangmangu","station_id":"JMU","is_transit":false,"transit":false},{"distance":1994,"station_name":"Sudimara","time":4,"station_id":"SDM","i_lat":-6.296963,"line":6,"i_long":106.712277,"transit":false,"is_transit":false},{"station_id":"RU","distance":4566,"time":6,"transit":false,"station_name":"Rawa Buntu","i_long":106.675475,"i_lat":-6.314823,"is_transit":false,"line":6},{"distance":2413,"i_lat":-6.319871,"transit":false,"station_id":"SRP","i_long":106.66566,"station_name":"Serpong","is_transit":false,"time":4,"line":6},{"station_id":"CSK","distance":1784,"line":3,"i_lat":-6.32484,"time":4,"is_transit":false,"i_long":106.640411,"transit":false,"station_name":"Cisauk"}],[{"station_id":"TEB","time":0,"transit":false,"i_long":106.857948,"i_lat":-6.226659,"is_transit":false,"distance":0,"station_name":"Tebet","line":2},{"time":4,"is_transit":true,"i_lat":-6.209883,"station_id":"MRI","transit":true,"station_name":"Manggarai","distance":2610,"i_long":106.84912,"line":2},{"i_lat":-6.212485,"transit":false,"station_id":"MTR","station_name":"Matraman","time":2,"distance":1275,"i_long":106.858896,"line":1,"is_transit":false},{"transit":true,"station_id":"JNG","line":1,"i_lat":-6.215091,"time":8,"i_long":106.86807400000001,"distance":1377,"station_name":"Jatinegara","is_transit":true},{"i_long":106.861737,"is_transit":false,"i_lat":-6.209188,"time":2,"line":11,"station_id":"POK","distance":1236,"transit":false,"station_name":"Pondok Jati"},{"station_name":"Kramat","i_long":106.855437,"line":11,"i_lat":-6.193792,"time":2,"station_id":"KMT","transit":false,"is_transit":false,"distance":1829},{"time":1,"i_long":106.850107,"transit":false,"i_lat":-6.185975,"station_name":"Gang Sentiong","distance":973,"line":11,"station_id":"GST","is_transit":false},{"station_name":"Pasar Senen","transit":false,"i_long":106.84368,"station_id":"PSE","time":8,"is_transit":false,"distance":1567,"i_lat":-6.174784,"line":11},{"line":11,"transit":false,"time":4,"station_name":"Kemayoran","station_id":"KMO","distance":1436,"i_lat":-6.161728,"is_transit":false,"i_long":106.839204},{"station_name":"Rajawali","distance":1901,"time":5,"i_lat":-6.14505,"is_transit":false,"i_long":106.836569,"line":11,"transit":false,"station_id":"RJW"},{"transit":true,"line":4,"distance":1444,"i_long":106.826365,"i_lat":-6.132549,"station_id":"KPB","station_name":"Kampung Bandan","is_transit":true,"time":3},{"time":9,"station_id":"AK","distance":4102,"transit":false,"station_name":"Angke","is_transit":false,"i_lat":-6.144674,"i_long":106.79867,"line":1},{"station_id":"DU","i_lat":-6.155215,"is_transit":false,"line":1,"i_long":106.800832,"station_name":"Duri","time":4,"distance":1230,"transit":false},{"time":8,"i_lat":-6.185545,"station_name":"Tanah Abang","transit":true,"station_id":"THB","distance":3632,"is_transit":true,"i_long":106.811091,"line":1},{"line":6,"time":6,"i_lat":-6.207404,"station_name":"Palmerah","station_id":"PLM","distance":3191,"is_transit":false,"i_long":106.79689,"transit":false},{"station_id":"KBY","i_long":106.780334,"station_name":"Kebayoran","i_lat":-6.237242,"line":6,"transit":false,"time":7,"is_transit":false,"distance":3737},{"i_long":106.74273,"transit":false,"i_lat":-6.276362,"station_id":"PDJ","is_transit":false,"station_name":"Pondokranji","time":8,"distance":6218,"line":6},{"is_transit":false,"time":3,"i_lat":-6.288927,"i_long":106.728916,"line":6,"distance":2179,"station_id":"JMU","transit":false,"station_name":"Jurangmangu"},{"distance":1994,"transit":false,"station_id":"SDM","i_long":106.712277,"time":4,"i_lat":-6.296963,"station_name":"Sudimara","is_transit":false,"line":6},{"transit":false,"line":6,"distance":4566,"i_long":106.675475,"is_transit":false,"station_id":"RU","station_name":"Rawa Buntu","time":6,"i_lat":-6.314823},{"line":6,"station_name":"Serpong","is_transit":false,"distance":2413,"i_lat":-6.319871,"i_long":106.66566,"station_id":"SRP","time":4,"transit":false},{"i_lat":-6.32484,"line":3,"i_long":106.640411,"station_id":"CSK","is_transit":false,"time":4,"transit":false,"distance":1784,"station_name":"Cisauk"}]]}