{"data":[[{"time":0,"line":2,"station_name":"Tebet","i_lat":-6.226659,"station_id":"TEB","i_long":106.857948,"transit":false,"distance":0,"is_transit":false},{"line":2,"station_id":"MRI","is_transit":true,"i_long":106.84912,"distance":2610,"transit":true,"i_lat":-6.209883,"station_name":"Manggarai","time":4},{"i_long":106.858896,"line":1,"i_lat":-6.212485,"transit":false,"station_name":"Matraman","time":2,"station_id":"MTR","distance":1275,"is_transit":false},{"station_id":"JNG","is_transit":false,"line":1,"transit":false,"station_name":"Jatinegara","i_lat":-6.215091,"distance":1377,"i_long":106.86807400000001,"time":8},{"is_transit":false,"station_name":"Klender","i_long":106.899548,"time":3,"i_lat":-6.2135,"line":1,"transit":false,"distance":3395,"station_id":"KLD"},{"is_transit":false,"station_id":"BUA","line":1,"i_long":106.922662,"time":2,"distance":3100,"transit":false,"station_name":"Buaran","i_lat":-6.215568},{"time":1,"is_transit":false,"i_lat":-6.217455,"i_long":106.939679,"station_name":"Klenderbaru","distance":1305,"transit":false,"station_id":"KLDB","line":1},{"is_transit":false,"line":1,"station_id":"CUK","i_long":106.951283,"distance":1385,"time":8,"i_lat":-6.219053,"transit":false,"station_name":"Cakung"},{"is_transit":false,"time":3,"transit":false,"station_id":"KRI","distance":3097,"i_lat":-6.224515,"i_long":106.977657,"line":1,"station_name":"Kranji"},{"i_lat":-6.236616,"time":4,"distance":2520,"is_transit":false,"station_name":"Bekasi","line":1,"i_long":106.997013,"transit":false,"station_id":"BKS"},{"transit":false,"i_long":107.016735,"station_name":"Bekasi Timur","line":1,"i_lat":-6.248029,"time":2,"station_id":"BKST","is_transit":false,"distance":2368},{"transit":false,"i_long":107.055722,"distance":4460,"is_transit":false,"station_name":"Tambun","time":7,"i_lat":-6.258864,"line":1,"station_id":"TB"},{"station_id":"CIT","i_long":107.083084,"line":1,"time":3,"distance":3420,"is_transit":false,"station_name":"Cibitung","i_lat":-6.261877,"transit":false}],[{"is_transit":false,"time":0,"station_id":"TEB","i_long":106.857948,"distance":0,"transit":false,"station_name":"Tebet","i_lat":-6.226659,"line":2},{"time":4,"transit":true,"i_lat":-6.209883,"line":2,"is_transit":true,"station_id":"MRI","distance":2610,"station_name":"Manggarai","i_long":106.84912},{"line":1,"is_transit":false,"i_long":106.822649,"time":4,"station_id":"SUD","distance":3186,"transit":false,"i_lat":-6.202263,"station_name":"Sudirman"},{"i_lat":-6.201433,"i_long":106.819881,"distance":280,"line":1,"is_transit":false,"station_id":"SUDB","transit":false,"station_name":"Sudirman Baru","time":1},{"i_lat":-6.20132,"transit":false,"line":1,"station_id":"KAT","distance":471,"station_name":"Karet","is_transit":false,"i_long":106.816351,"time":1},{"station_id":"THB","is_transit":false,"station_name":"Tanah Abang","i_lat":-6.185545,"line":1,"distance":2029,"transit":false,"time":5,"i_long":106.811091},{"i_lat":-6.155215,"station_name":"Duri","station_id":"DU","time":8,"distance":3632,"transit":false,"line":1,"is_transit":false,"i_long":106.800832},{"station_id":"AK","transit":false,"is_transit":false,"i_lat":-6.144674,"i_long":106.79867,"distance":1230,"line":1,"time":4,"station_name":"Angke"},{"distance":4102,"station_name":"Kampung Bandan","i_long":106.826365,"line":4,"i_lat":-6.132549,"station_id":"KPB","transit":true,"is_transit":true,"time":9},{"station_id":"RJW","time":3,"is_transit":false,"station_name":"Rajawali","line":11,"distance":1444,"i_lat":-6.14505,"transit":false,"i_long":106.836569},{"distance":1901,"time":5,"i_long":106.839204,"line":11,"is_transit":false,"station_name":"Kemayoran","i_lat":-6.161728,"transit":false,"station_id":"KMO"},{"i_long":106.84368,"transit":false,"time":4,"station_id":"PSE","station_name":"Pasar Senen","line":11,"i_lat":-6.174784,"distance":1436,"is_transit":false},{"station_name":"Gang Sentiong","time":8,"transit":false,"i_lat":-6.185975,"i_long":106.850107,"distance":1567,"line":11,"is_transit":false,"station_id":"GST"},{"is_transit":false,"line":11,"i_long":106.855437,"distance":973,"station_id":"KMT","time":1,"transit":false,"station_name":"Kramat","i_lat":-6.193792},{"i_long":106.861737,"transit":false,"station_name":"Pondok Jati","line":11,"time":2,"station_id":"POK","distance":1829,"is_transit":false,"i_lat":-6.209188},{"i_lat":-6.215091,"line":1,"distance":1236,"time":9,"is_transit":true,"station_name":"Jatinegara","station_id":"JNG","i_long":106.86807400000001,"transit":true},{"station_name":"Klender","transit":false,"station_id":"KLD","is_transit":false,"line":1,"i_long":106.899548,"i_lat":-6.2135,"distance":3395,"time":3},{"station_id":"BUA","is_transit":false,"line":1,"transit":false,"i_long":106.922662,"i_lat":-6.215568,"station_name":"Buaran","distance":3100,"time":2},{"transit":false,"station_id":"KLDB","is_transit":false,"i_lat":-6.217455,"i_long":106.939679,"time":1,"line":1,"station_name":"Klenderbaru","distance":1305},{"station_id":"CUK","i_long":106.951283,"time":8,"line":1,"station_name":"Cakung","transit":false,"i_lat":-6.219053,"distance":1385,"is_transit":false},{"transit":false,"is_transit":false,"i_lat":-6.224515,"i_long":106.977657,"time":3,"station_name":"Kranji","distance":3097,"station_id":"KRI","line":1},{"line":1,"time":4,"distance":2520,"i_long":106.997013,"transit":false,"station_name":"Bekasi","i_lat":-6.236616,"station_id":"BKS","is_transit":false},{"station_id":"BKST","transit":false,"distance":2368,"station_name":"Bekasi Timur","time":2,"is_transit":false,"line":1,"i_lat":-6.248029,"i_long":107.016735},{"time":7,"station_id":"TB","i_lat":-6.258864,"i_long":107.055722,"line":1,"transit":false,"station_name":"Tambun","distance":4460,"is_transit":false},{"i_lat":-6.261877,"transit":false,"time":3,"is_transit":false,"station_name":"Cibitung","distance":3420,"station_id":"CIT","i_long":107.083084,"line":1}],[{"is_transit":false,"line":2,"distance":0,"i_lat":-6.226659,"transit":false,"station_name":"Tebet","station_id":"TEB","time":0,"i_long":106.857948},{"i_lat":-6.209883,"station_name":"Manggarai","station_id":"MRI","distance":2610,"time":4,"is_transit":false,"i_long":106.84912,"line":2,"transit":false},{"station_name":"Cikini","time":4,"is_transit":false,"i_long":106.840169,"line":2,"transit":false,"station_id":"CKI","distance":1590,"i_lat":-6.198556},{"distance":1750,"station_name":"Gondangdia","station_id":"GDD","time":3,"line":2,"i_lat":-6.186295,"is_transit":false,"i_long":106.832183,"transit":false},{"transit":false,"time":4,"is_transit":false,"station_name":"Juanda","i_long":106.828284,"station_id":"JUA","i_lat":-6.166716,"line":2,"distance":2015},{"time":2,"transit":false,"station_id":"SW","distance":1149,"station_name":"Sawah Besar","is_transit":false,"i_long":106.827103,"i_lat":-6.160725,"line":2},{"transit":false,"line":2,"i_long":106.82482,"i_lat":-6.149769,"station_id":"MGB","distance":906,"is_transit":false,"time":2,"station_name":"Manggabesar"},{"i_long":106.820901,"i_lat":-6.141205,"line":2,"transit":false,"time":2,"station_name":"Jayakarta","station_id":"JAY","distance":1080,"is_transit":false},{"i_lat":-6.137569,"i_long":106.812439,"distance":1264,"line":2,"station_name":"Jakarta Kota","station_id":"JAKK","time":4,"is_transit":true,"transit":true},{"station_id":"KPB","i_long":106.826365,"i_lat":-6.132549,"time":3,"transit":true,"distance":1364,"is_transit":true,"line":4,"station_name":"Kampung Bandan"},{"station_name":"Rajawali","station_id":"RJW","time":3,"i_long":106.836569,"transit":false,"distance":1444,"i_lat":-6.14505,"is_transit":false,"line":11},{"station_id":"KMO","time":5,"line":11,"transit":false,"i_long":106.839204,"station_name":"Kemayoran","distance":1901,"i_lat":-6.161728,"is_transit":false},{"is_transit":false,"station_name":"Pasar Senen","line":11,"i_lat":-6.174784,"distance":1436,"i_long":106.84368,"station_id":"PSE","transit":false,"time":4},{"distance":1567,"transit":false,"is_transit":false,"i_long":106.850107,"station_name":"Gang Sentiong","station_id":"GST","time":8,"i_lat":-6.185975,"line":11},{"station_id":"KMT","time":1,"transit":false,"station_name":"Kramat","is_transit":false,"i_lat":-6.193792,"i_long":106.855437,"line":11,"distance":973},{"station_name":"Pondok Jati","distance":1829,"station_id":"POK","is_transit":false,"line":11,"time":2,"transit":false,"i_long":106.861737,"i_lat":-6.209188},{"i_long":106.86807400000001,"line":1,"station_id":"JNG","transit":true,"time":9,"station_name":"Jatinegara","is_transit":true,"i_lat":-6.215091,"distance":1236},{"is_transit":false,"i_long":106.899548,"line":1,"transit":false,"station_name":"Klender","distance":3395,"time":3,"i_lat":-6.2135,"station_id":"KLD"},{"line":1,"station_id":"BUA","distance":3100,"i_long":106.922662,"time":2,"i_lat":-6.215568,"transit":false,"is_transit":false,"station_name":"Buaran"},{"i_lat":-6.217455,"time":1,"is_transit":false,"transit":false,"distance":1305,"station_id":"KLDB","station_name":"Klenderbaru","i_long":106.939679,"line":1},{"station_name":"Cakung","station_id":"CUK","i_lat":-6.219053,"i_long":106.951283,"distance":1385,"time":8,"line":1,"transit":false,"is_transit":false},{"transit":false,"time":3,"is_transit":false,"distance":3097,"station_id":"KRI","i_lat":-6.224515,"i_long":106.977657,"station_name":"Kranji","line":1},{"transit":false,"distance":2520,"i_lat":-6.236616,"time":4,"i_long":106.997013,"station_id":"BKS","is_transit":false,"station_name":"Bekasi","line":1},{"station_name":"Bekasi Timur","time":2,"i_lat":-6.248029,"station_id":"BKST","transit":false,"distance":2368,"is_transit":false,"i_long":107.016735,"line":1},{"station_name":"Tambun","transit":false,"is_transit":false,"station_id":"TB","i_lat":-6.258864,"i_long":107.055722,"distance":4460,"line":1,"time":7},{"line":1,"time":3,"station_name":"Cibitung","station_id":"CIT","i_lat":-6.261877,"i_long":107.083084,"is_transit":false,"distance":3420,"transit":false}]]}