{"data":[[{"station_name":"Tebet","is_transit":false,"line":2,"station_id":"TEB","time":0,"transit":false,"i_lat":-6.226659,"distance":0,"i_long":106.857948},{"transit":true,"is_transit":true,"i_lat":-6.209883,"distance":2610,"station_id":"MRI","i_long":106.84912,"line":2,"time":4,"station_name":"Manggarai"},{"station_id":"MTR","time":2,"transit":false,"station_name":"Matraman","line":1,"is_transit":false,"distance":1275,"i_lat":-6.212485,"i_long":106.858896},{"station_id":"JNG","i_lat":-6.215091,"transit":false,"i_long":106.86807400000001,"distance":1377,"line":1,"is_transit":false,"time":8,"station_name":"Jatinegara"},{"distance":3395,"transit":false,"is_transit":false,"i_lat":-6.2135,"i_long":106.899548,"line":1,"station_name":"Klender","station_id":"KLD","time":3},{"line":1,"time":2,"is_transit":false,"transit":false,"station_name":"Buaran","distance":3100,"i_long":106.922662,"station_id":"BUA","i_lat":-6.215568},{"line":1,"time":1,"distance":1305,"transit":false,"i_long":106.939679,"station_name":"Klenderbaru","is_transit":false,"station_id":"KLDB","i_lat":-6.217455}],[{"distance":0,"time":0,"station_name":"Tebet","transit":false,"line":2,"i_long":106.857948,"i_lat":-6.226659,"is_transit":false,"station_id":"TEB"},{"station_id":"MRI","is_transit":true,"time":4,"transit":true,"i_lat":-6.209883,"i_long":106.84912,"distance":2610,"line":2,"station_name":"Manggarai"},{"line":1,"transit":false,"station_id":"SUD","is_transit":false,"distance":3186,"station_name":"Sudirman","i_lat":-6.202263,"i_long":106.822649,"time":4},{"i_lat":-6.201433,"station_id":"SUDB","transit":false,"i_long":106.819881,"distance":280,"line":1,"time":1,"station_name":"Sudirman Baru","is_transit":false},{"i_long":106.816351,"time":1,"line":1,"station_name":"Karet","station_id":"KAT","transit":false,"i_lat":-6.20132,"is_transit":false,"distance":471},{"station_id":"THB","i_lat":-6.185545,"i_long":106.811091,"time":5,"station_name":"Tanah Abang","distance":2029,"is_transit":false,"line":1,"transit":false},{"distance":3632,"station_name":"Duri","i_lat":-6.155215,"is_transit":false,"line":1,"i_long":106.800832,"time":8,"station_id":"DU","transit":false},{"time":4,"i_lat":-6.144674,"station_name":"Angke","is_transit":false,"transit":false,"i_long":106.79867,"distance":1230,"station_id":"AK","line":1},{"station_id":"KPB","is_transit":true,"line":4,"transit":true,"i_long":106.826365,"distance":4102,"station_name":"Kampung Bandan","i_lat":-6.132549,"time":9},{"station_name":"Rajawali","time":3,"i_lat":-6.14505,"is_transit":false,"i_long":106.836569,"line":11,"transit":false,"distance":1444,"station_id":"RJW"},{"is_transit":false,"station_id":"KMO","station_name":"Kemayoran","line":11,"transit":false,"i_lat":-6.161728,"distance":1901,"i_long":106.839204,"time":5},{"time":4,"transit":false,"i_long":106.84368,"station_id":"PSE","i_lat":-6.174784,"station_name":"Pasar Senen","distance":1436,"is_transit":false,"line":11},{"line":11,"distance":1567,"station_name":"Gang Sentiong","transit":false,"i_long":106.850107,"time":8,"i_lat":-6.185975,"is_transit":false,"station_id":"GST"},{"line":11,"is_transit":false,"time":1,"i_lat":-6.193792,"distance":973,"station_id":"KMT","station_name":"Kramat","transit":false,"i_long":106.855437},{"line":11,"distance":1829,"is_transit":false,"i_long":106.861737,"station_id":"POK","time":2,"station_name":"Pondok Jati","transit":false,"i_lat":-6.209188},{"station_id":"JNG","time":9,"i_long":106.86807400000001,"is_transit":true,"line":1,"station_name":"Jatinegara","distance":1236,"i_lat":-6.215091,"transit":true},{"transit":false,"is_transit":false,"i_lat":-6.2135,"distance":3395,"station_name":"Klender","i_long":106.899548,"station_id":"KLD","time":3,"line":1},{"i_lat":-6.215568,"station_name":"Buaran","time":2,"transit":false,"i_long":106.922662,"is_transit":false,"line":1,"station_id":"BUA","distance":3100},{"station_id":"KLDB","i_lat":-6.217455,"transit":false,"line":1,"distance":1305,"i_long":106.939679,"time":1,"station_name":"Klenderbaru","is_transit":false}],[{"time":0,"distance":0,"transit":false,"station_id":"TEB","i_long":106.857948,"line":2,"is_transit":false,"i_lat":-6.226659,"station_name":"Tebet"},{"i_lat":-6.209883,"line":2,"is_transit":false,"station_id":"MRI","i_long":106.84912,"time":4,"distance":2610,"station_name":"Manggarai","transit":false},{"station_id":"CKI","i_long":106.840169,"line":2,"distance":1590,"station_name":"Cikini","time":4,"is_transit":false,"transit":false,"i_lat":-6.198556},{"i_long":106.832183,"distance":1750,"station_name":"Gondangdia","transit":false,"line":2,"is_transit":false,"station_id":"GDD","i_lat":-6.186295,"time":3},{"time":4,"distance":2015,"line":2,"is_transit":false,"station_name":"Juanda","i_lat":-6.166716,"i_long":106.828284,"transit":false,"station_id":"JUA"},{"is_transit":false,"time":2,"i_long":106.827103,"i_lat":-6.160725,"station_name":"Sawah Besar","transit":false,"line":2,"station_id":"SW","distance":1149},{"distance":906,"station_name":"Manggabesar","i_lat":-6.149769,"i_long":106.82482,"line":2,"is_transit":false,"transit":false,"station_id":"MGB","time":2},{"is_transit":false,"line":2,"i_long":106.820901,"i_lat":-6.141205,"station_name":"Jayakarta","station_id":"JAY","distance":1080,"time":2,"transit":false},{"transit":true,"time":4,"station_id":"JAKK","is_transit":true,"distance":1264,"station_name":"Jakarta Kota","i_long":106.812439,"i_lat":-6.137569,"line":2},{"distance":1364,"i_long":106.826365,"time":3,"i_lat":-6.132549,"is_transit":true,"line":4,"transit":true,"station_name":"Kampung Bandan","station_id":"KPB"},{"line":11,"distance":1444,"time":3,"station_id":"RJW","i_lat":-6.14505,"i_long":106.836569,"transit":false,"is_transit":false,"station_name":"Rajawali"},{"time":5,"is_transit":false,"line":11,"transit":false,"station_name":"Kemayoran","i_lat":-6.161728,"distance":1901,"i_long":106.839204,"station_id":"KMO"},{"i_lat":-6.174784,"time":4,"transit":false,"line":11,"station_name":"Pasar Senen","station_id":"PSE","i_long":106.84368,"is_transit":false,"distance":1436},{"station_name":"Gang Sentiong","distance":1567,"line":11,"transit":false,"i_lat":-6.185975,"is_transit":false,"station_id":"GST","time":8,"i_long":106.850107},{"time":1,"line":11,"transit":false,"station_id":"KMT","is_transit":false,"station_name":"Kramat","distance":973,"i_lat":-6.193792,"i_long":106.855437},{"station_name":"Pondok Jati","line":11,"station_id":"POK","is_transit":false,"distance":1829,"i_long":106.861737,"transit":false,"time":2,"i_lat":-6.209188},{"i_lat":-6.215091,"i_long":106.86807400000001,"time":9,"line":1,"distance":1236,"station_id":"JNG","station_name":"Jatinegara","is_transit":true,"transit":true},{"time":3,"station_id":"KLD","i_long":106.899548,"is_transit":false,"line":1,"transit":false,"distance":3395,"i_lat":-6.2135,"station_name":"Klender"},{"line":1,"transit":false,"station_name":"Buaran","station_id":"BUA","is_transit":false,"time":2,"i_lat":-6.215568,"i_long":106.922662,"distance":3100},{"time":1,"station_name":"Klenderbaru","station_id":"KLDB","distance":1305,"line":1,"transit":false,"i_long":106.939679,"i_lat":-6.217455,"is_transit":false}]]}