{"data":[[{"transit":false,"i_long":106.857948,"time":0,"distance":0,"station_name":"Tebet","i_lat":-6.226659,"line":2,"station_id":"TEB","is_transit":false},{"transit":true,"i_lat":-6.209883,"line":0,"station_name":"Manggarai","time":4,"distance":2610,"i_long":106.84912,"is_transit":true,"station_id":"MRI"},{"i_lat":-6.202263,"transit":false,"is_transit":false,"distance":3186,"station_name":"Sudirman","time":4,"line":1,"i_long":106.822649,"station_id":"SUD"},{"time":1,"distance":280,"i_lat":-6.201433,"station_id":"SUDB","transit":false,"station_name":"Sudirman Baru","i_long":106.819881,"is_transit":false,"line":1},{"time":1,"i_long":106.816351,"station_id":"KAT","transit":false,"i_lat":-6.20132,"station_name":"Karet","distance":471,"is_transit":false,"line":1},{"station_id":"THB","i_lat":-6.185545,"station_name":"Tanah Abang","time":5,"i_long":106.811091,"distance":2029,"line":1,"is_transit":true,"transit":false},{"is_transit":true,"station_name":"Duri","distance":3632,"time":8,"transit":true,"i_lat":-6.155215,"i_long":106.800832,"line":1,"station_id":"DU"},{"i_long":106.788277,"station_name":"Grogol","line":5,"distance":1700,"is_transit":false,"station_id":"GGL","transit":false,"time":3,"i_lat":-6.162021},{"distance":2036,"i_lat":-6.161433,"i_long":106.771379,"transit":false,"line":5,"time":2,"is_transit":false,"station_id":"PSG","station_name":"Pesing"}],[{"time":0,"station_name":"Tebet","i_lat":-6.226659,"line":2,"is_transit":false,"distance":0,"station_id":"TEB","i_long":106.857948,"transit":false},{"line":0,"is_transit":true,"station_id":"MRI","station_name":"Manggarai","time":4,"distance":2610,"i_lat":-6.209883,"i_long":106.84912,"transit":true},{"is_transit":false,"distance":1590,"station_id":"CKI","time":4,"i_lat":-6.198556,"line":0,"transit":false,"i_long":106.840169,"station_name":"Cikini"},{"transit":false,"is_transit":false,"time":3,"distance":1750,"station_name":"Gondangdia","station_id":"GDD","i_lat":-6.186295,"i_long":106.832183,"line":2},{"i_lat":-6.166716,"time":4,"transit":false,"is_transit":false,"station_id":"JUA","station_name":"Juanda","i_long":106.828284,"distance":2015,"line":2},{"time":2,"is_transit":false,"station_name":"Sawah Besar","line":2,"transit":false,"i_lat":-6.160725,"distance":1149,"station_id":"SW","i_long":106.827103},{"transit":false,"station_name":"Manggabesar","time":2,"line":2,"distance":906,"is_transit":false,"i_long":106.82482,"i_lat":-6.149769,"station_id":"MGB"},{"is_transit":false,"i_lat":-6.141205,"transit":false,"time":2,"line":7,"station_id":"JAY","station_name":"Jayakarta","i_long":106.820901,"distance":1080},{"i_lat":-6.137569,"distance":1264,"time":4,"station_id":"JAKK","is_transit":true,"line":0,"i_long":106.812439,"transit":true,"station_name":"Jakarta Kota"},{"line":0,"distance":1364,"i_long":106.826365,"station_name":"Kampung Bandan","time":3,"station_id":"KPB","is_transit":true,"transit":false,"i_lat":-6.132549},{"i_long":106.79867,"station_id":"AK","station_name":"Angke","is_transit":false,"transit":false,"distance":4102,"line":0,"i_lat":-6.144674,"time":9},{"transit":true,"distance":1230,"station_id":"DU","is_transit":true,"i_lat":-6.155215,"line":1,"station_name":"Duri","i_long":106.800832,"time":4},{"station_id":"GGL","station_name":"Grogol","time":3,"line":5,"i_lat":-6.162021,"i_long":106.788277,"transit":false,"distance":1700,"is_transit":false},{"time":2,"distance":2036,"transit":false,"station_id":"PSG","is_transit":false,"i_lat":-6.161433,"line":5,"i_long":106.771379,"station_name":"Pesing"}],[{"distance":0,"station_id":"TEB","station_name":"Tebet","i_lat":-6.226659,"i_long":106.857948,"line":2,"time":0,"transit":false,"is_transit":false},{"station_id":"MRI","distance":2610,"transit":true,"i_lat":-6.209883,"is_transit":true,"line":0,"station_name":"Manggarai","time":4,"i_long":106.84912},{"i_lat":-6.212485,"line":1,"is_transit":false,"i_long":106.858896,"distance":1275,"transit":false,"station_name":"Matraman","time":2,"station_id":"MTR"},{"i_long":106.86807400000001,"line":0,"time":8,"distance":1377,"transit":true,"is_transit":true,"station_id":"JNG","station_name":"Jatinegara","i_lat":-6.215091},{"time":2,"is_transit":false,"distance":1236,"line":11,"station_name":"Pondok Jati","i_long":106.861737,"i_lat":-6.209188,"station_id":"POK","transit":false},{"time":2,"station_name":"Kramat","line":11,"distance":1829,"station_id":"KMT","i_long":106.855437,"is_transit":false,"transit":false,"i_lat":-6.193792},{"distance":973,"transit":false,"line":11,"is_transit":false,"i_lat":-6.185975,"time":1,"i_long":106.850107,"station_name":"Gang Sentiong","station_id":"GST"},{"time":8,"station_id":"PSE","is_transit":false,"station_name":"Pasar Senen","i_lat":-6.174784,"line":11,"i_long":106.84368,"transit":false,"distance":1567},{"station_id":"KMO","i_long":106.839204,"distance":1436,"station_name":"Kemayoran","time":4,"i_lat":-6.161728,"transit":false,"is_transit":false,"line":11},{"time":5,"transit":false,"station_id":"RJW","i_lat":-6.14505,"line":11,"i_long":106.836569,"is_transit":false,"station_name":"Rajawali","distance":1901},{"distance":1444,"time":3,"station_id":"KPB","station_name":"Kampung Bandan","line":0,"is_transit":true,"i_lat":-6.132549,"transit":true,"i_long":106.826365},{"i_lat":-6.144674,"i_long":106.79867,"line":0,"is_transit":false,"time":9,"distance":4102,"station_name":"Angke","station_id":"AK","transit":false},{"distance":1230,"time":4,"line":1,"station_id":"DU","station_name":"Duri","i_lat":-6.155215,"transit":true,"is_transit":true,"i_long":106.800832},{"distance":1700,"station_name":"Grogol","line":5,"station_id":"GGL","i_lat":-6.162021,"i_long":106.788277,"time":3,"transit":false,"is_transit":false},{"transit":false,"i_lat":-6.161433,"station_name":"Pesing","line":5,"is_transit":false,"time":2,"distance":2036,"i_long":106.771379,"station_id":"PSG"}]]}