{"data":[[{"station_id":"TEB","i_long":106.857948,"time":0,"transit":false,"i_lat":-6.226659,"line":2,"is_transit":false,"distance":0,"station_name":"Tebet"},{"time":4,"station_name":"Manggarai","i_lat":-6.209883,"transit":true,"station_id":"MRI","line":2,"is_transit":true,"distance":2610,"i_long":106.84912},{"station_name":"Sudirman","transit":false,"distance":3186,"is_transit":false,"station_id":"SUD","line":1,"i_long":106.822649,"i_lat":-6.202263,"time":4},{"time":1,"distance":280,"transit":false,"station_id":"SUDB","station_name":"Sudirman Baru","i_lat":-6.201433,"line":1,"is_transit":false,"i_long":106.819881},{"transit":false,"i_lat":-6.20132,"i_long":106.816351,"time":1,"is_transit":false,"station_name":"Karet","distance":471,"station_id":"KAT","line":1},{"time":5,"transit":false,"is_transit":false,"i_long":106.811091,"line":1,"i_lat":-6.185545,"distance":2029,"station_name":"Tanah Abang","station_id":"THB"},{"distance":3632,"is_transit":true,"station_name":"Duri","station_id":"DU","time":8,"line":1,"transit":true,"i_long":106.800832,"i_lat":-6.155215},{"station_id":"GGL","station_name":"Grogol","is_transit":false,"line":5,"time":3,"transit":false,"i_long":106.788277,"distance":1700,"i_lat":-6.162021},{"distance":2036,"line":5,"station_id":"PSG","station_name":"Pesing","is_transit":false,"i_lat":-6.161433,"transit":false,"time":2,"i_long":106.771379},{"distance":1614,"station_name":"Taman Kota","time":2,"is_transit":false,"line":5,"transit":false,"station_id":"TKO","i_lat":-6.1587309999999995,"i_long":106.756522},{"distance":2334,"transit":false,"i_long":106.737035,"line":5,"station_id":"BOI","is_transit":false,"i_lat":-6.159876,"time":2,"station_name":"Bojongindah"},{"distance":1152,"time":4,"i_long":106.723064,"is_transit":false,"station_name":"Rawa Buaya","i_lat":-6.162758,"station_id":"RW","transit":false,"line":5},{"is_transit":false,"station_id":"KDS","station_name":"Kalideres","time":3,"line":5,"distance":2504,"i_lat":-6.166068,"i_long":106.701612,"transit":false}],[{"transit":false,"station_id":"TEB","distance":0,"time":0,"i_long":106.857948,"is_transit":false,"line":2,"i_lat":-6.226659,"station_name":"Tebet"},{"i_long":106.84912,"is_transit":false,"distance":2610,"i_lat":-6.209883,"line":2,"station_id":"MRI","transit":false,"station_name":"Manggarai","time":4},{"line":2,"station_name":"Cikini","i_long":106.840169,"is_transit":false,"station_id":"CKI","transit":false,"i_lat":-6.198556,"distance":1590,"time":4},{"station_id":"GDD","station_name":"Gondangdia","is_transit":false,"transit":false,"distance":1750,"time":3,"line":2,"i_lat":-6.186295,"i_long":106.832183},{"i_long":106.828284,"distance":2015,"transit":false,"time":4,"is_transit":false,"station_name":"Juanda","line":2,"i_lat":-6.166716,"station_id":"JUA"},{"station_name":"Sawah Besar","i_lat":-6.160725,"station_id":"SW","distance":1149,"time":2,"line":2,"is_transit":false,"transit":false,"i_long":106.827103},{"time":2,"distance":906,"i_long":106.82482,"line":2,"i_lat":-6.149769,"is_transit":false,"station_name":"Manggabesar","station_id":"MGB","transit":false},{"station_name":"Jayakarta","transit":false,"line":2,"distance":1080,"station_id":"JAY","time":2,"i_long":106.820901,"is_transit":false,"i_lat":-6.141205},{"line":2,"i_lat":-6.137569,"station_id":"JAKK","transit":true,"is_transit":true,"distance":1264,"i_long":106.812439,"time":4,"station_name":"Jakarta Kota"},{"line":4,"is_transit":true,"i_lat":-6.132549,"distance":1364,"i_long":106.826365,"station_name":"Kampung Bandan","transit":true,"station_id":"KPB","time":3},{"i_lat":-6.144674,"is_transit":false,"transit":false,"time":9,"i_long":106.79867,"station_id":"AK","line":1,"station_name":"Angke","distance":4102},{"station_id":"DU","station_name":"Duri","line":1,"is_transit":true,"time":4,"i_long":106.800832,"distance":1230,"i_lat":-6.155215,"transit":true},{"line":5,"transit":false,"distance":1700,"i_lat":-6.162021,"time":3,"station_name":"Grogol","i_long":106.788277,"is_transit":false,"station_id":"GGL"},{"station_name":"Pesing","transit":false,"station_id":"PSG","i_long":106.771379,"i_lat":-6.161433,"line":5,"is_transit":false,"time":2,"distance":2036},{"i_long":106.756522,"i_lat":-6.1587309999999995,"time":2,"distance":1614,"is_transit":false,"station_name":"Taman Kota","transit":false,"line":5,"station_id":"TKO"},{"i_long":106.737035,"transit":false,"i_lat":-6.159876,"line":5,"is_transit":false,"distance":2334,"time":2,"station_name":"Bojongindah","station_id":"BOI"},{"transit":false,"i_lat":-6.162758,"i_long":106.723064,"time":4,"distance":1152,"is_transit":false,"line":5,"station_name":"Rawa Buaya","station_id":"RW"},{"transit":false,"is_transit":false,"time":3,"i_long":106.701612,"line":5,"station_name":"Kalideres","station_id":"KDS","distance":2504,"i_lat":-6.166068}],[{"is_transit":false,"time":0,"i_long":106.857948,"distance":0,"station_name":"Tebet","station_id":"TEB","line":2,"transit":false,"i_lat":-6.226659},{"i_long":106.84912,"station_name":"Manggarai","distance":2610,"station_id":"MRI","transit":true,"line":2,"is_transit":true,"time":4,"i_lat":-6.209883},{"time":2,"station_name":"Matraman","station_id":"MTR","transit":false,"i_long":106.858896,"line":1,"distance":1275,"i_lat":-6.212485,"is_transit":false},{"is_transit":true,"distance":1377,"transit":true,"time":8,"i_long":106.86807400000001,"station_name":"Jatinegara","line":1,"i_lat":-6.215091,"station_id":"JNG"},{"is_transit":false,"time":2,"distance":1236,"station_name":"Pondok Jati","i_long":106.861737,"i_lat":-6.209188,"transit":false,"station_id":"POK","line":11},{"i_lat":-6.193792,"station_name":"Kramat","time":2,"station_id":"KMT","line":11,"i_long":106.855437,"is_transit":false,"distance":1829,"transit":false},{"is_transit":false,"station_name":"Gang Sentiong","distance":973,"transit":false,"time":1,"i_lat":-6.185975,"i_long":106.850107,"station_id":"GST","line":11},{"i_lat":-6.174784,"is_transit":false,"line":11,"i_long":106.84368,"time":8,"distance":1567,"transit":false,"station_id":"PSE","station_name":"Pasar Senen"},{"station_id":"KMO","i_long":106.839204,"line":11,"transit":false,"is_transit":false,"i_lat":-6.161728,"distance":1436,"station_name":"Kemayoran","time":4},{"is_transit":false,"i_lat":-6.14505,"i_long":106.836569,"distance":1901,"station_id":"RJW","time":5,"transit":false,"station_name":"Rajawali","line":11},{"is_transit":true,"transit":true,"station_id":"KPB","distance":1444,"time":3,"i_lat":-6.132549,"station_name":"Kampung Bandan","i_long":106.826365,"line":4},{"i_long":106.79867,"line":1,"distance":4102,"transit":false,"station_name":"Angke","i_lat":-6.144674,"station_id":"AK","time":9,"is_transit":false},{"time":4,"i_long":106.800832,"station_name":"Duri","transit":true,"i_lat":-6.155215,"line":1,"distance":1230,"is_transit":true,"station_id":"DU"},{"time":3,"is_transit":false,"station_name":"Grogol","station_id":"GGL","i_lat":-6.162021,"distance":1700,"transit":false,"i_long":106.788277,"line":5},{"distance":2036,"time":2,"i_long":106.771379,"station_name":"Pesing","is_transit":false,"i_lat":-6.161433,"station_id":"PSG","transit":false,"line":5},{"station_name":"Taman Kota","i_lat":-6.1587309999999995,"transit":false,"line":5,"i_long":106.756522,"distance":1614,"station_id":"TKO","is_transit":false,"time":2},{"station_id":"BOI","transit":false,"time":2,"is_transit":false,"i_long":106.737035,"i_lat":-6.159876,"distance":2334,"station_name":"Bojongindah","line":5},{"distance":1152,"transit":false,"is_transit":false,"time":4,"line":5,"station_id":"RW","i_lat":-6.162758,"station_name":"Rawa Buaya","i_long":106.723064},{"is_transit":false,"time":3,"i_long":106.701612,"line":5,"distance":2504,"station_id":"KDS","station_name":"Kalideres","transit":false,"i_lat":-6.166068}]]}