{"data":[[{"i_lat":-6.226659,"line":2,"transit":false,"distance":0,"i_long":106.857948,"station_name":"Tebet","station_id":"TEB","time":0,"is_transit":false},{"is_transit":true,"distance":2610,"station_id":"MRI","i_lat":-6.209883,"time":4,"transit":true,"i_long":106.84912,"station_name":"Manggarai","line":0},{"station_id":"SUD","time":4,"station_name":"Sudirman","distance":3186,"is_transit":false,"transit":false,"i_lat":-6.202263,"i_long":106.822649,"line":1},{"station_id":"SUDB","i_long":106.819881,"station_name":"Sudirman Baru","i_lat":-6.201433,"time":1,"distance":280,"line":1,"is_transit":false,"transit":false},{"station_name":"Karet","i_lat":-6.20132,"i_long":106.816351,"distance":471,"line":1,"is_transit":false,"transit":false,"time":1,"station_id":"KAT"},{"time":5,"station_id":"THB","i_long":106.811091,"transit":true,"is_transit":true,"i_lat":-6.185545,"distance":2029,"station_name":"Tanah Abang","line":1},{"is_transit":false,"station_id":"PLM","i_long":106.79689,"line":6,"transit":false,"distance":3191,"station_name":"Palmerah","i_lat":-6.207404,"time":6},{"distance":3737,"station_id":"KBY","is_transit":false,"time":7,"i_long":106.780334,"line":6,"station_name":"Kebayoran","i_lat":-6.237242,"transit":false}],[{"time":0,"is_transit":false,"distance":0,"line":2,"station_name":"Tebet","transit":false,"i_long":106.857948,"i_lat":-6.226659,"station_id":"TEB"},{"distance":2610,"transit":true,"is_transit":true,"station_id":"MRI","time":4,"station_name":"Manggarai","line":0,"i_lat":-6.209883,"i_long":106.84912},{"time":4,"station_id":"CKI","i_long":106.840169,"line":0,"transit":false,"is_transit":false,"distance":1590,"station_name":"Cikini","i_lat":-6.198556},{"station_name":"Gondangdia","distance":1750,"is_transit":false,"station_id":"GDD","i_long":106.832183,"transit":false,"line":2,"i_lat":-6.186295,"time":3},{"distance":2015,"transit":false,"time":4,"station_id":"JUA","line":2,"station_name":"Juanda","is_transit":false,"i_lat":-6.166716,"i_long":106.828284},{"transit":false,"i_lat":-6.160725,"distance":1149,"is_transit":false,"station_id":"SW","station_name":"Sawah Besar","time":2,"i_long":106.827103,"line":2},{"station_name":"Manggabesar","transit":false,"station_id":"MGB","distance":906,"time":2,"i_lat":-6.149769,"i_long":106.82482,"line":2,"is_transit":false},{"transit":false,"i_lat":-6.141205,"distance":1080,"station_id":"JAY","line":7,"time":2,"i_long":106.820901,"station_name":"Jayakarta","is_transit":false},{"is_transit":true,"distance":1264,"station_name":"Jakarta Kota","time":4,"line":0,"i_lat":-6.137569,"station_id":"JAKK","i_long":106.812439,"transit":true},{"station_name":"Kampung Bandan","distance":1364,"i_long":106.826365,"is_transit":true,"line":0,"time":3,"station_id":"KPB","transit":false,"i_lat":-6.132549},{"station_id":"AK","transit":false,"line":0,"station_name":"Angke","time":9,"i_lat":-6.144674,"is_transit":false,"i_long":106.79867,"distance":4102},{"transit":true,"distance":1230,"station_name":"Duri","time":4,"is_transit":true,"i_lat":-6.155215,"i_long":106.800832,"line":1,"station_id":"DU"},{"i_long":106.811091,"transit":true,"distance":3632,"line":1,"i_lat":-6.185545,"time":8,"is_transit":true,"station_id":"THB","station_name":"Tanah Abang"},{"distance":3191,"is_transit":false,"station_id":"PLM","transit":false,"line":6,"station_name":"Palmerah","i_lat":-6.207404,"i_long":106.79689,"time":6},{"station_id":"KBY","distance":3737,"i_long":106.780334,"transit":false,"time":7,"i_lat":-6.237242,"is_transit":false,"line":6,"station_name":"Kebayoran"}],[{"distance":0,"time":0,"transit":false,"i_long":106.857948,"station_name":"Tebet","line":2,"i_lat":-6.226659,"station_id":"TEB","is_transit":false},{"transit":true,"time":4,"line":0,"distance":2610,"station_id":"MRI","station_name":"Manggarai","i_lat":-6.209883,"is_transit":true,"i_long":106.84912},{"is_transit":false,"distance":1275,"station_name":"Matraman","station_id":"MTR","transit":false,"i_lat":-6.212485,"i_long":106.858896,"line":1,"time":2},{"station_id":"JNG","time":8,"station_name":"Jatinegara","transit":true,"i_lat":-6.215091,"is_transit":true,"line":0,"distance":1377,"i_long":106.86807400000001},{"line":11,"station_name":"Pondok Jati","transit":false,"i_lat":-6.209188,"time":2,"i_long":106.861737,"distance":1236,"is_transit":false,"station_id":"POK"},{"station_id":"KMT","i_lat":-6.193792,"distance":1829,"is_transit":false,"transit":false,"i_long":106.855437,"time":2,"line":11,"station_name":"Kramat"},{"station_id":"GST","station_name":"Gang Sentiong","time":1,"i_long":106.850107,"i_lat":-6.185975,"distance":973,"transit":false,"is_transit":false,"line":11},{"station_name":"Pasar Senen","transit":false,"i_long":106.84368,"station_id":"PSE","is_transit":false,"distance":1567,"i_lat":-6.174784,"line":11,"time":8},{"is_transit":false,"distance":1436,"time":4,"i_lat":-6.161728,"line":11,"i_long":106.839204,"transit":false,"station_name":"Kemayoran","station_id":"KMO"},{"line":11,"distance":1901,"is_transit":false,"station_id":"RJW","station_name":"Rajawali","transit":false,"i_long":106.836569,"time":5,"i_lat":-6.14505},{"i_long":106.826365,"is_transit":true,"transit":true,"distance":1444,"station_name":"Kampung Bandan","time":3,"i_lat":-6.132549,"line":0,"station_id":"KPB"},{"transit":false,"station_id":"AK","i_lat":-6.144674,"line":0,"distance":4102,"station_name":"Angke","i_long":106.79867,"time":9,"is_transit":false},{"transit":true,"line":1,"station_name":"Duri","distance":1230,"is_transit":true,"station_id":"DU","time":4,"i_long":106.800832,"i_lat":-6.155215},{"i_long":106.811091,"time":8,"station_id":"THB","station_name":"Tanah Abang","i_lat":-6.185545,"line":1,"distance":3632,"transit":true,"is_transit":true},{"i_lat":-6.207404,"transit":false,"station_name":"Palmerah","distance":3191,"i_long":106.79689,"line":6,"is_transit":false,"station_id":"PLM","time":6},{"i_long":106.780334,"line":6,"transit":false,"time":7,"i_lat":-6.237242,"distance":3737,"station_name":"Kebayoran","is_transit":false,"station_id":"KBY"}]]}