{"data":[[{"station_id":"TEB","is_transit":false,"distance":0,"i_long":106.857948,"transit":false,"time":0,"line":2,"station_name":"Tebet","i_lat":-6.226659},{"transit":false,"distance":1230,"is_transit":false,"i_lat":-6.242512,"line":2,"i_long":106.856607,"station_id":"CW","time":2,"station_name":"Cawang"},{"i_long":106.85449,"distance":1546,"time":3,"station_id":"DRN","transit":false,"line":2,"i_lat":-6.255332,"station_name":"Duren Kalibata","is_transit":false},{"station_name":"Pasar Minggu Baru","i_lat":-6.263214,"line":2,"transit":false,"time":2,"is_transit":false,"distance":824,"i_long":106.851577,"station_id":"PSMB"},{"is_transit":false,"time":2,"transit":false,"station_name":"Pasar Minggu","station_id":"PSM","line":2,"i_long":106.843999,"distance":2380,"i_lat":-6.2842400000000005},{"distance":2820,"time":4,"i_lat":-6.3080680000000005,"line":2,"station_id":"TNT","is_transit":false,"station_name":"Tanjung Barat","transit":false,"i_long":106.838896},{"distance":2671,"station_id":"LNA","i_long":106.832616,"station_name":"Lenteng Agung","time":3,"transit":false,"line":2,"is_transit":false,"i_lat":-6.330363},{"time":2,"station_name":"Univ. Pancasila","is_transit":false,"i_long":106.834175,"distance":1029,"station_id":"UP","line":2,"transit":false,"i_lat":-6.339291},{"distance":2264,"is_transit":false,"time":3,"transit":false,"line":2,"station_id":"UI","i_long":106.831474,"i_lat":-6.360749,"station_name":"Univ. Indonesia"},{"line":2,"station_id":"POC","transit":false,"i_long":106.831114,"time":2,"distance":1109,"i_lat":-6.369073,"is_transit":false,"station_name":"Pondok Cina"},{"i_lat":-6.391065,"is_transit":false,"i_long":106.819451,"line":2,"distance":2727,"station_id":"DPB","transit":false,"station_name":"Depokbaru","time":4},{"line":2,"time":3,"i_lat":-6.405256,"i_long":106.816926,"transit":false,"is_transit":false,"distance":1584,"station_id":"DP","station_name":"Depok"},{"i_long":106.800298,"line":2,"is_transit":false,"distance":5084,"station_id":"CTA","transit":false,"station_name":"Citayam","time":6,"i_lat":-6.448811},{"i_lat":-6.493243,"distance":5197,"time":5,"station_name":"Bojonggede","i_long":106.792719,"is_transit":false,"transit":false,"line":2,"station_id":"BJD"},{"i_long":106.800016,"time":5,"is_transit":false,"station_name":"Cilebut","transit":false,"station_id":"CLT","i_lat":-6.530544,"distance":4331,"line":2},{"transit":false,"station_id":"BOO","line":2,"i_lat":-6.594596,"is_transit":false,"i_long":106.790574,"distance":7514,"station_name":"Bogor","time":9}]]}