{"data":[[{"time":0,"i_long":106.857948,"station_name":"Tebet","station_id":"TEB","i_lat":-6.226659,"distance":0,"line":2,"transit":false,"is_transit":false},{"station_name":"Manggarai","distance":2610,"is_transit":true,"line":2,"transit":true,"station_id":"MRI","i_long":106.84912,"i_lat":-6.209883,"time":4},{"i_lat":-6.212485,"transit":false,"distance":1275,"line":1,"station_id":"MTR","station_name":"Matraman","is_transit":false,"i_long":106.858896,"time":2},{"distance":1377,"transit":false,"time":8,"i_lat":-6.215091,"i_long":106.86807400000001,"station_id":"JNG","is_transit":false,"line":1,"station_name":"Jatinegara"},{"is_transit":false,"station_id":"KLD","i_lat":-6.2135,"time":3,"line":1,"station_name":"Klender","i_long":106.899548,"transit":false,"distance":3395},{"station_name":"Buaran","transit":false,"station_id":"BUA","is_transit":false,"i_lat":-6.215568,"line":1,"i_long":106.922662,"distance":3100,"time":2},{"transit":false,"station_name":"Klenderbaru","i_long":106.939679,"distance":1305,"i_lat":-6.217455,"is_transit":false,"time":1,"station_id":"KLDB","line":1},{"transit":false,"line":1,"is_transit":false,"station_name":"Cakung","station_id":"CUK","time":8,"distance":1385,"i_lat":-6.219053,"i_long":106.951283},{"time":3,"station_name":"Kranji","transit":false,"distance":3097,"line":1,"is_transit":false,"i_long":106.977657,"i_lat":-6.224515,"station_id":"KRI"},{"time":4,"distance":2520,"station_name":"Bekasi","is_transit":false,"i_long":106.997013,"line":1,"transit":false,"i_lat":-6.236616,"station_id":"BKS"},{"time":2,"distance":2368,"station_id":"BKST","transit":false,"i_lat":-6.248029,"i_long":107.016735,"is_transit":false,"station_name":"Bekasi Timur","line":1},{"station_id":"TB","distance":4460,"station_name":"Tambun","time":7,"transit":false,"is_transit":false,"i_long":107.055722,"line":1,"i_lat":-6.258864},{"time":3,"line":1,"station_id":"CIT","is_transit":false,"i_lat":-6.261877,"transit":false,"i_long":107.083084,"station_name":"Cibitung","distance":3420}],[{"station_id":"TEB","line":2,"station_name":"Tebet","i_lat":-6.226659,"is_transit":false,"i_long":106.857948,"time":0,"distance":0,"transit":false},{"i_lat":-6.209883,"line":2,"distance":2610,"time":4,"station_id":"MRI","i_long":106.84912,"is_transit":true,"station_name":"Manggarai","transit":true},{"station_id":"SUD","transit":false,"i_long":106.822649,"time":4,"station_name":"Sudirman","i_lat":-6.202263,"is_transit":false,"line":1,"distance":3186},{"line":1,"time":1,"i_long":106.819881,"station_id":"SUDB","distance":280,"is_transit":false,"station_name":"Sudirman Baru","transit":false,"i_lat":-6.201433},{"line":1,"station_name":"Karet","transit":false,"time":1,"is_transit":false,"i_lat":-6.20132,"distance":471,"station_id":"KAT","i_long":106.816351},{"station_name":"Tanah Abang","is_transit":false,"distance":2029,"i_lat":-6.185545,"transit":false,"time":5,"station_id":"THB","i_long":106.811091,"line":1},{"distance":3632,"i_lat":-6.155215,"line":1,"station_id":"DU","time":8,"is_transit":false,"transit":false,"station_name":"Duri","i_long":106.800832},{"i_lat":-6.144674,"station_id":"AK","distance":1230,"transit":false,"time":4,"is_transit":false,"i_long":106.79867,"line":1,"station_name":"Angke"},{"is_transit":true,"i_lat":-6.132549,"transit":true,"i_long":106.826365,"station_id":"KPB","line":4,"time":9,"station_name":"Kampung Bandan","distance":4102},{"time":3,"i_lat":-6.14505,"station_name":"Rajawali","station_id":"RJW","is_transit":false,"i_long":106.836569,"transit":false,"line":11,"distance":1444},{"distance":1901,"station_id":"KMO","transit":false,"line":11,"station_name":"Kemayoran","i_long":106.839204,"i_lat":-6.161728,"is_transit":false,"time":5},{"i_lat":-6.174784,"station_name":"Pasar Senen","distance":1436,"transit":false,"i_long":106.84368,"station_id":"PSE","is_transit":false,"time":4,"line":11},{"is_transit":false,"time":8,"i_long":106.850107,"i_lat":-6.185975,"transit":false,"station_id":"GST","line":11,"station_name":"Gang Sentiong","distance":1567},{"distance":973,"station_name":"Kramat","transit":false,"line":11,"i_lat":-6.193792,"is_transit":false,"i_long":106.855437,"time":1,"station_id":"KMT"},{"distance":1829,"time":2,"i_lat":-6.209188,"station_id":"POK","is_transit":false,"transit":false,"station_name":"Pondok Jati","line":11,"i_long":106.861737},{"station_name":"Jatinegara","i_long":106.86807400000001,"distance":1236,"line":1,"is_transit":true,"transit":true,"i_lat":-6.215091,"time":9,"station_id":"JNG"},{"transit":false,"time":3,"station_id":"KLD","distance":3395,"is_transit":false,"i_long":106.899548,"i_lat":-6.2135,"line":1,"station_name":"Klender"},{"transit":false,"line":1,"distance":3100,"time":2,"i_long":106.922662,"is_transit":false,"station_id":"BUA","station_name":"Buaran","i_lat":-6.215568},{"distance":1305,"line":1,"transit":false,"is_transit":false,"i_lat":-6.217455,"i_long":106.939679,"time":1,"station_name":"Klenderbaru","station_id":"KLDB"},{"i_lat":-6.219053,"line":1,"time":8,"distance":1385,"station_name":"Cakung","is_transit":false,"station_id":"CUK","transit":false,"i_long":106.951283},{"time":3,"station_id":"KRI","i_lat":-6.224515,"i_long":106.977657,"line":1,"is_transit":false,"distance":3097,"transit":false,"station_name":"Kranji"},{"distance":2520,"station_id":"BKS","line":1,"transit":false,"station_name":"Bekasi","i_lat":-6.236616,"time":4,"is_transit":false,"i_long":106.997013},{"station_id":"BKST","i_lat":-6.248029,"time":2,"station_name":"Bekasi Timur","i_long":107.016735,"distance":2368,"line":1,"transit":false,"is_transit":false},{"time":7,"is_transit":false,"station_name":"Tambun","i_lat":-6.258864,"line":1,"station_id":"TB","transit":false,"distance":4460,"i_long":107.055722},{"distance":3420,"time":3,"i_lat":-6.261877,"is_transit":false,"line":1,"transit":false,"station_id":"CIT","i_long":107.083084,"station_name":"Cibitung"}],[{"transit":false,"station_name":"Tebet","i_long":106.857948,"i_lat":-6.226659,"is_transit":false,"line":2,"time":0,"station_id":"TEB","distance":0},{"station_id":"MRI","distance":2610,"i_lat":-6.209883,"line":2,"is_transit":false,"i_long":106.84912,"time":4,"station_name":"Manggarai","transit":false},{"station_id":"CKI","i_long":106.840169,"line":2,"time":4,"i_lat":-6.198556,"distance":1590,"is_transit":false,"transit":false,"station_name":"Cikini"},{"i_long":106.832183,"station_id":"GDD","time":3,"distance":1750,"line":2,"is_transit":false,"station_name":"Gondangdia","i_lat":-6.186295,"transit":false},{"transit":false,"station_id":"JUA","i_lat":-6.166716,"distance":2015,"time":4,"i_long":106.828284,"is_transit":false,"line":2,"station_name":"Juanda"},{"transit":false,"i_long":106.827103,"line":2,"station_id":"SW","station_name":"Sawah Besar","distance":1149,"i_lat":-6.160725,"is_transit":false,"time":2},{"station_name":"Manggabesar","i_lat":-6.149769,"time":2,"distance":906,"station_id":"MGB","transit":false,"line":2,"i_long":106.82482,"is_transit":false},{"distance":1080,"station_id":"JAY","i_long":106.820901,"i_lat":-6.141205,"station_name":"Jayakarta","time":2,"transit":false,"line":2,"is_transit":false},{"transit":true,"line":2,"station_id":"JAKK","station_name":"Jakarta Kota","is_transit":true,"i_long":106.812439,"time":4,"distance":1264,"i_lat":-6.137569},{"station_name":"Kampung Bandan","is_transit":true,"i_long":106.826365,"station_id":"KPB","time":3,"distance":1364,"line":4,"i_lat":-6.132549,"transit":true},{"i_long":106.836569,"line":11,"time":3,"station_id":"RJW","is_transit":false,"i_lat":-6.14505,"transit":false,"distance":1444,"station_name":"Rajawali"},{"station_id":"KMO","time":5,"i_lat":-6.161728,"distance":1901,"transit":false,"i_long":106.839204,"is_transit":false,"station_name":"Kemayoran","line":11},{"is_transit":false,"i_lat":-6.174784,"line":11,"distance":1436,"station_id":"PSE","transit":false,"time":4,"station_name":"Pasar Senen","i_long":106.84368},{"transit":false,"i_lat":-6.185975,"distance":1567,"time":8,"i_long":106.850107,"line":11,"is_transit":false,"station_name":"Gang Sentiong","station_id":"GST"},{"distance":973,"i_lat":-6.193792,"line":11,"station_name":"Kramat","time":1,"i_long":106.855437,"station_id":"KMT","is_transit":false,"transit":false},{"time":2,"i_lat":-6.209188,"is_transit":false,"station_name":"Pondok Jati","station_id":"POK","line":11,"i_long":106.861737,"transit":false,"distance":1829},{"line":1,"i_long":106.86807400000001,"is_transit":true,"station_id":"JNG","time":9,"station_name":"Jatinegara","transit":true,"i_lat":-6.215091,"distance":1236},{"time":3,"is_transit":false,"distance":3395,"station_name":"Klender","i_lat":-6.2135,"line":1,"station_id":"KLD","transit":false,"i_long":106.899548},{"station_name":"Buaran","transit":false,"time":2,"station_id":"BUA","distance":3100,"is_transit":false,"i_lat":-6.215568,"line":1,"i_long":106.922662},{"is_transit":false,"line":1,"i_lat":-6.217455,"transit":false,"station_id":"KLDB","i_long":106.939679,"station_name":"Klenderbaru","time":1,"distance":1305},{"line":1,"i_lat":-6.219053,"station_name":"Cakung","time":8,"distance":1385,"is_transit":false,"i_long":106.951283,"transit":false,"station_id":"CUK"},{"transit":false,"station_id":"KRI","station_name":"Kranji","is_transit":false,"i_lat":-6.224515,"i_long":106.977657,"line":1,"time":3,"distance":3097},{"station_name":"Bekasi","line":1,"transit":false,"distance":2520,"is_transit":false,"time":4,"station_id":"BKS","i_lat":-6.236616,"i_long":106.997013},{"distance":2368,"transit":false,"i_long":107.016735,"station_id":"BKST","line":1,"i_lat":-6.248029,"time":2,"is_transit":false,"station_name":"Bekasi Timur"},{"i_long":107.055722,"station_id":"TB","time":7,"transit":false,"station_name":"Tambun","i_lat":-6.258864,"distance":4460,"line":1,"is_transit":false},{"station_name":"Cibitung","i_long":107.083084,"distance":3420,"i_lat":-6.261877,"transit":false,"line":1,"time":3,"is_transit":false,"station_id":"CIT"}]]}