{"data":[[{"distance":0,"i_long":106.857948,"transit":false,"station_id":"TEB","is_transit":false,"station_name":"Tebet","line":2,"i_lat":-6.226659,"time":0},{"is_transit":false,"time":4,"i_lat":-6.209883,"line":2,"transit":false,"station_name":"Manggarai","station_id":"MRI","distance":2610,"i_long":106.84912},{"station_name":"Cikini","distance":1590,"transit":false,"station_id":"CKI","i_long":106.840169,"is_transit":false,"time":4,"i_lat":-6.198556,"line":2},{"is_transit":false,"time":3,"i_lat":-6.186295,"station_name":"Gondangdia","transit":false,"station_id":"GDD","distance":1750,"line":2,"i_long":106.832183},{"transit":false,"is_transit":false,"station_name":"Juanda","station_id":"JUA","time":4,"line":2,"distance":2015,"i_lat":-6.166716,"i_long":106.828284},{"station_id":"SW","station_name":"Sawah Besar","is_transit":false,"distance":1149,"i_lat":-6.160725,"i_long":106.827103,"time":2,"transit":false,"line":2}],[{"i_lat":-6.226659,"station_name":"Tebet","i_long":106.857948,"is_transit":false,"time":0,"station_id":"TEB","transit":false,"distance":0,"line":2},{"station_name":"Manggarai","station_id":"MRI","i_lat":-6.209883,"transit":true,"is_transit":true,"i_long":106.84912,"time":4,"distance":2610,"line":2},{"time":4,"distance":3186,"i_lat":-6.202263,"line":1,"transit":false,"station_id":"SUD","station_name":"Sudirman","is_transit":false,"i_long":106.822649},{"transit":false,"i_lat":-6.201433,"line":1,"time":1,"distance":280,"station_id":"SUDB","station_name":"Sudirman Baru","is_transit":false,"i_long":106.819881},{"line":1,"time":1,"i_lat":-6.20132,"station_id":"KAT","station_name":"Karet","is_transit":false,"distance":471,"transit":false,"i_long":106.816351},{"station_name":"Tanah Abang","is_transit":false,"transit":false,"time":5,"distance":2029,"i_lat":-6.185545,"i_long":106.811091,"line":1,"station_id":"THB"},{"i_lat":-6.155215,"transit":false,"station_id":"DU","station_name":"Duri","is_transit":false,"time":8,"line":1,"distance":3632,"i_long":106.800832},{"line":1,"is_transit":false,"station_name":"Angke","i_long":106.79867,"station_id":"AK","transit":false,"i_lat":-6.144674,"time":4,"distance":1230},{"i_lat":-6.132549,"distance":4102,"i_long":106.826365,"line":4,"station_id":"KPB","station_name":"Kampung Bandan","transit":true,"time":9,"is_transit":true},{"time":3,"distance":1364,"transit":true,"station_name":"Jakarta Kota","i_lat":-6.137569,"station_id":"JAKK","i_long":106.812439,"line":2,"is_transit":true},{"line":2,"i_lat":-6.141205,"station_id":"JAY","time":4,"station_name":"Jayakarta","is_transit":false,"distance":1264,"i_long":106.820901,"transit":false},{"is_transit":false,"station_id":"MGB","i_long":106.82482,"transit":false,"time":2,"i_lat":-6.149769,"line":2,"station_name":"Manggabesar","distance":1080},{"station_name":"Sawah Besar","distance":906,"time":2,"i_lat":-6.160725,"line":2,"i_long":106.827103,"station_id":"SW","is_transit":false,"transit":false}],[{"time":0,"line":2,"is_transit":false,"station_id":"TEB","station_name":"Tebet","distance":0,"transit":false,"i_lat":-6.226659,"i_long":106.857948},{"i_long":106.84912,"line":2,"station_id":"MRI","is_transit":true,"station_name":"Manggarai","i_lat":-6.209883,"time":4,"distance":2610,"transit":true},{"station_name":"Matraman","time":2,"i_long":106.858896,"transit":false,"line":1,"distance":1275,"i_lat":-6.212485,"station_id":"MTR","is_transit":false},{"station_id":"JNG","time":8,"line":1,"station_name":"Jatinegara","distance":1377,"i_long":106.86807400000001,"is_transit":true,"i_lat":-6.215091,"transit":true},{"i_lat":-6.209188,"station_name":"Pondok Jati","time":2,"i_long":106.861737,"line":11,"station_id":"POK","is_transit":false,"transit":false,"distance":1236},{"station_name":"Kramat","time":2,"transit":false,"i_lat":-6.193792,"is_transit":false,"distance":1829,"station_id":"KMT","i_long":106.855437,"line":11},{"transit":false,"is_transit":false,"i_long":106.850107,"time":1,"distance":973,"station_name":"Gang Sentiong","station_id":"GST","line":11,"i_lat":-6.185975},{"i_lat":-6.174784,"i_long":106.84368,"station_id":"PSE","station_name":"Pasar Senen","distance":1567,"line":11,"transit":false,"time":8,"is_transit":false},{"i_lat":-6.161728,"distance":1436,"line":11,"time":4,"i_long":106.839204,"is_transit":false,"station_name":"Kemayoran","station_id":"KMO","transit":false},{"line":11,"station_name":"Rajawali","is_transit":false,"station_id":"RJW","transit":false,"i_lat":-6.14505,"i_long":106.836569,"time":5,"distance":1901},{"line":4,"distance":1444,"transit":true,"time":3,"i_lat":-6.132549,"i_long":106.826365,"station_name":"Kampung Bandan","station_id":"KPB","is_transit":true},{"line":2,"station_name":"Jakarta Kota","is_transit":true,"time":3,"station_id":"JAKK","transit":true,"i_lat":-6.137569,"i_long":106.812439,"distance":1364},{"transit":false,"time":4,"i_lat":-6.141205,"station_name":"Jayakarta","line":2,"is_transit":false,"distance":1264,"i_long":106.820901,"station_id":"JAY"},{"station_name":"Manggabesar","station_id":"MGB","distance":1080,"line":2,"i_lat":-6.149769,"is_transit":false,"transit":false,"time":2,"i_long":106.82482},{"time":2,"is_transit":false,"transit":false,"i_long":106.827103,"line":2,"i_lat":-6.160725,"distance":906,"station_name":"Sawah Besar","station_id":"SW"}]]}