{"data":[[{"is_transit":false,"line":2,"i_long":106.857948,"i_lat":-6.226659,"station_name":"Tebet","distance":0,"transit":false,"time":0,"station_id":"TEB"},{"i_long":106.84912,"transit":true,"station_name":"Manggarai","is_transit":true,"line":0,"time":4,"i_lat":-6.209883,"station_id":"MRI","distance":2610},{"station_name":"Sudirman","station_id":"SUD","time":4,"i_long":106.822649,"i_lat":-6.202263,"line":1,"transit":false,"distance":3186,"is_transit":false},{"distance":280,"time":1,"transit":false,"i_long":106.819881,"line":1,"station_id":"SUDB","i_lat":-6.201433,"is_transit":false,"station_name":"Sudirman Baru"},{"i_long":106.816351,"station_name":"Karet","time":1,"transit":false,"i_lat":-6.20132,"line":1,"distance":471,"station_id":"KAT","is_transit":false},{"i_long":106.811091,"is_transit":true,"station_id":"THB","station_name":"Tanah Abang","distance":2029,"time":5,"line":1,"transit":true,"i_lat":-6.185545},{"i_lat":-6.207404,"i_long":106.79689,"station_id":"PLM","line":6,"transit":false,"time":6,"is_transit":false,"station_name":"Palmerah","distance":3191},{"distance":3737,"is_transit":false,"transit":false,"station_name":"Kebayoran","line":6,"station_id":"KBY","time":7,"i_lat":-6.237242,"i_long":106.780334},{"distance":6218,"is_transit":false,"transit":false,"line":6,"time":8,"i_lat":-6.276362,"i_long":106.74273,"station_id":"PDJ","station_name":"Pondokranji"},{"i_long":106.728916,"is_transit":false,"station_name":"Jurangmangu","distance":2179,"station_id":"JMU","transit":false,"time":3,"line":6,"i_lat":-6.288927},{"time":4,"distance":1994,"i_lat":-6.296963,"line":6,"station_name":"Sudimara","station_id":"SDM","is_transit":false,"transit":false,"i_long":106.712277},{"line":6,"distance":4566,"transit":false,"is_transit":false,"time":6,"station_id":"RU","station_name":"Rawa Buntu","i_lat":-6.314823,"i_long":106.675475},{"is_transit":false,"i_lat":-6.319871,"time":4,"transit":false,"station_id":"SRP","distance":2413,"i_long":106.66566,"line":6,"station_name":"Serpong"},{"is_transit":false,"station_name":"Cisauk","line":0,"transit":false,"distance":1784,"time":4,"i_lat":-6.32484,"i_long":106.640411,"station_id":"CSK"},{"is_transit":false,"time":4,"transit":false,"i_long":106.617853,"distance":2519,"station_id":"CC","station_name":"Cicayur","line":0,"i_lat":-6.329547},{"time":8,"transit":false,"i_long":106.568863,"distance":5968,"line":6,"is_transit":false,"i_lat":-6.3441410000000005,"station_id":"PRP","station_name":"Parung Panjang"},{"is_transit":false,"station_id":"CJT","i_lat":-6.354349,"transit":false,"distance":7025,"time":9,"i_long":106.508482,"line":0,"station_name":"Cilejit"}],[{"transit":false,"i_long":106.857948,"station_name":"Tebet","distance":0,"station_id":"TEB","time":0,"i_lat":-6.226659,"line":2,"is_transit":false},{"line":0,"distance":2610,"time":4,"station_id":"MRI","i_lat":-6.209883,"transit":true,"is_transit":true,"station_name":"Manggarai","i_long":106.84912},{"transit":false,"time":4,"station_id":"CKI","is_transit":false,"station_name":"Cikini","distance":1590,"i_lat":-6.198556,"i_long":106.840169,"line":0},{"time":3,"distance":1750,"transit":false,"station_id":"GDD","is_transit":false,"station_name":"Gondangdia","i_lat":-6.186295,"i_long":106.832183,"line":2},{"distance":2015,"is_transit":false,"i_lat":-6.166716,"time":4,"station_name":"Juanda","station_id":"JUA","transit":false,"i_long":106.828284,"line":2},{"distance":1149,"time":2,"is_transit":false,"station_id":"SW","i_lat":-6.160725,"i_long":106.827103,"station_name":"Sawah Besar","transit":false,"line":2},{"distance":906,"station_id":"MGB","i_lat":-6.149769,"time":2,"line":2,"is_transit":false,"i_long":106.82482,"station_name":"Manggabesar","transit":false},{"station_id":"JAY","station_name":"Jayakarta","i_long":106.820901,"line":7,"i_lat":-6.141205,"transit":false,"time":2,"is_transit":false,"distance":1080},{"time":4,"line":0,"distance":1264,"is_transit":true,"station_id":"JAKK","station_name":"Jakarta Kota","i_long":106.812439,"i_lat":-6.137569,"transit":true},{"station_name":"Kampung Bandan","i_long":106.826365,"line":0,"distance":1364,"is_transit":true,"station_id":"KPB","transit":false,"time":3,"i_lat":-6.132549},{"station_name":"Angke","transit":false,"time":9,"station_id":"AK","line":0,"is_transit":false,"i_lat":-6.144674,"i_long":106.79867,"distance":4102},{"line":1,"i_lat":-6.155215,"distance":1230,"station_id":"DU","transit":true,"i_long":106.800832,"time":4,"is_transit":true,"station_name":"Duri"},{"i_long":106.811091,"line":1,"distance":3632,"i_lat":-6.185545,"transit":true,"station_id":"THB","station_name":"Tanah Abang","time":8,"is_transit":true},{"time":6,"station_name":"Palmerah","i_lat":-6.207404,"transit":false,"is_transit":false,"station_id":"PLM","line":6,"i_long":106.79689,"distance":3191},{"transit":false,"i_lat":-6.237242,"time":7,"i_long":106.780334,"distance":3737,"is_transit":false,"station_id":"KBY","station_name":"Kebayoran","line":6},{"transit":false,"time":8,"line":6,"i_long":106.74273,"distance":6218,"is_transit":false,"i_lat":-6.276362,"station_id":"PDJ","station_name":"Pondokranji"},{"station_name":"Jurangmangu","time":3,"distance":2179,"i_long":106.728916,"is_transit":false,"i_lat":-6.288927,"transit":false,"station_id":"JMU","line":6},{"i_lat":-6.296963,"transit":false,"distance":1994,"time":4,"line":6,"station_name":"Sudimara","i_long":106.712277,"station_id":"SDM","is_transit":false},{"time":6,"transit":false,"station_name":"Rawa Buntu","i_lat":-6.314823,"distance":4566,"i_long":106.675475,"line":6,"is_transit":false,"station_id":"RU"},{"transit":false,"distance":2413,"station_name":"Serpong","line":6,"station_id":"SRP","i_lat":-6.319871,"time":4,"is_transit":false,"i_long":106.66566},{"is_transit":false,"station_name":"Cisauk","transit":false,"time":4,"i_lat":-6.32484,"station_id":"CSK","line":0,"distance":1784,"i_long":106.640411},{"line":0,"station_name":"Cicayur","distance":2519,"time":4,"i_long":106.617853,"is_transit":false,"station_id":"CC","i_lat":-6.329547,"transit":false},{"station_name":"Parung Panjang","is_transit":false,"station_id":"PRP","transit":false,"time":8,"distance":5968,"i_long":106.568863,"line":6,"i_lat":-6.3441410000000005},{"station_id":"CJT","time":9,"distance":7025,"line":0,"i_lat":-6.354349,"is_transit":false,"station_name":"Cilejit","transit":false,"i_long":106.508482}],[{"line":2,"distance":0,"is_transit":false,"i_long":106.857948,"station_id":"TEB","station_name":"Tebet","time":0,"transit":false,"i_lat":-6.226659},{"transit":true,"distance":2610,"i_lat":-6.209883,"i_long":106.84912,"station_name":"Manggarai","station_id":"MRI","is_transit":true,"line":0,"time":4},{"distance":1275,"time":2,"station_id":"MTR","i_long":106.858896,"is_transit":false,"transit":false,"line":1,"station_name":"Matraman","i_lat":-6.212485},{"is_transit":true,"station_name":"Jatinegara","transit":true,"i_long":106.86807400000001,"station_id":"JNG","distance":1377,"i_lat":-6.215091,"time":8,"line":0},{"is_transit":false,"i_long":106.861737,"station_name":"Pondok Jati","time":2,"line":11,"distance":1236,"station_id":"POK","transit":false,"i_lat":-6.209188},{"station_id":"KMT","i_lat":-6.193792,"transit":false,"line":11,"i_long":106.855437,"distance":1829,"station_name":"Kramat","is_transit":false,"time":2},{"time":1,"station_name":"Gang Sentiong","is_transit":false,"transit":false,"station_id":"GST","line":11,"i_lat":-6.185975,"i_long":106.850107,"distance":973},{"is_transit":false,"transit":false,"distance":1567,"time":8,"line":11,"station_id":"PSE","i_long":106.84368,"i_lat":-6.174784,"station_name":"Pasar Senen"},{"i_long":106.839204,"station_id":"KMO","time":4,"is_transit":false,"distance":1436,"station_name":"Kemayoran","i_lat":-6.161728,"line":11,"transit":false},{"time":5,"i_long":106.836569,"distance":1901,"station_name":"Rajawali","is_transit":false,"transit":false,"i_lat":-6.14505,"station_id":"RJW","line":11},{"distance":1444,"time":3,"is_transit":true,"transit":true,"i_lat":-6.132549,"i_long":106.826365,"station_name":"Kampung Bandan","station_id":"KPB","line":0},{"is_transit":false,"i_long":106.79867,"station_id":"AK","transit":false,"line":0,"distance":4102,"time":9,"station_name":"Angke","i_lat":-6.144674},{"station_name":"Duri","station_id":"DU","line":1,"time":4,"i_long":106.800832,"distance":1230,"is_transit":true,"transit":true,"i_lat":-6.155215},{"line":1,"distance":3632,"station_id":"THB","time":8,"station_name":"Tanah Abang","transit":true,"i_long":106.811091,"is_transit":true,"i_lat":-6.185545},{"is_transit":false,"i_long":106.79689,"transit":false,"station_name":"Palmerah","time":6,"line":6,"station_id":"PLM","i_lat":-6.207404,"distance":3191},{"line":6,"i_long":106.780334,"station_id":"KBY","is_transit":false,"distance":3737,"station_name":"Kebayoran","time":7,"i_lat":-6.237242,"transit":false},{"station_name":"Pondokranji","is_transit":false,"line":6,"time":8,"i_lat":-6.276362,"transit":false,"distance":6218,"station_id":"PDJ","i_long":106.74273},{"i_long":106.728916,"station_name":"Jurangmangu","station_id":"JMU","transit":false,"time":3,"distance":2179,"line":6,"is_transit":false,"i_lat":-6.288927},{"station_id":"SDM","distance":1994,"is_transit":false,"transit":false,"i_long":106.712277,"station_name":"Sudimara","line":6,"time":4,"i_lat":-6.296963},{"line":6,"station_id":"RU","i_lat":-6.314823,"transit":false,"is_transit":false,"i_long":106.675475,"station_name":"Rawa Buntu","distance":4566,"time":6},{"line":6,"distance":2413,"station_name":"Serpong","i_lat":-6.319871,"station_id":"SRP","i_long":106.66566,"is_transit":false,"transit":false,"time":4},{"transit":false,"station_name":"Cisauk","station_id":"CSK","i_lat":-6.32484,"i_long":106.640411,"line":0,"distance":1784,"time":4,"is_transit":false},{"i_lat":-6.329547,"is_transit":false,"station_name":"Cicayur","station_id":"CC","line":0,"time":4,"distance":2519,"transit":false,"i_long":106.617853},{"distance":5968,"station_id":"PRP","transit":false,"time":8,"station_name":"Parung Panjang","i_lat":-6.3441410000000005,"is_transit":false,"i_long":106.568863,"line":6},{"i_long":106.508482,"station_id":"CJT","station_name":"Cilejit","line":0,"i_lat":-6.354349,"is_transit":false,"transit":false,"distance":7025,"time":9}]]}