{"data":[[{"station_id":"TEB","station_name":"Tebet","i_lat":-6.226659,"i_long":106.857948,"time":0,"transit":false,"line":2,"is_transit":false,"distance":0},{"is_transit":true,"station_id":"MRI","station_name":"Manggarai","distance":2610,"i_lat":-6.209883,"time":4,"line":2,"transit":true,"i_long":106.84912},{"is_transit":false,"station_id":"MTR","station_name":"Matraman","distance":1275,"i_long":106.858896,"transit":false,"time":2,"i_lat":-6.212485,"line":1},{"is_transit":true,"station_name":"Jatinegara","transit":true,"station_id":"JNG","i_lat":-6.215091,"i_long":106.86807400000001,"distance":1377,"line":1,"time":8},{"distance":1236,"transit":false,"i_lat":-6.209188,"time":2,"station_id":"POK","is_transit":false,"station_name":"Pondok Jati","i_long":106.861737,"line":11},{"distance":1829,"station_name":"Kramat","i_lat":-6.193792,"i_long":106.855437,"line":11,"time":2,"station_id":"KMT","transit":false,"is_transit":false}],[{"distance":0,"time":0,"station_id":"TEB","transit":false,"line":2,"is_transit":false,"station_name":"Tebet","i_lat":-6.226659,"i_long":106.857948},{"distance":2610,"station_name":"Manggarai","i_lat":-6.209883,"i_long":106.84912,"time":4,"transit":true,"station_id":"MRI","line":2,"is_transit":true},{"station_id":"SUD","line":1,"is_transit":false,"time":4,"station_name":"Sudirman","i_lat":-6.202263,"distance":3186,"transit":false,"i_long":106.822649},{"station_name":"Sudirman Baru","distance":280,"i_long":106.819881,"station_id":"SUDB","is_transit":false,"line":1,"i_lat":-6.201433,"transit":false,"time":1},{"station_id":"KAT","distance":471,"transit":false,"time":1,"i_lat":-6.20132,"line":1,"is_transit":false,"station_name":"Karet","i_long":106.816351},{"is_transit":false,"i_lat":-6.185545,"i_long":106.811091,"transit":false,"distance":2029,"line":1,"station_name":"Tanah Abang","time":5,"station_id":"THB"},{"transit":false,"i_lat":-6.155215,"line":1,"station_id":"DU","is_transit":false,"i_long":106.800832,"time":8,"station_name":"Duri","distance":3632},{"station_name":"Angke","distance":1230,"time":4,"i_long":106.79867,"is_transit":false,"transit":false,"line":1,"station_id":"AK","i_lat":-6.144674},{"i_long":106.826365,"i_lat":-6.132549,"line":4,"time":9,"transit":true,"is_transit":true,"station_id":"KPB","station_name":"Kampung Bandan","distance":4102},{"station_id":"RJW","is_transit":false,"i_lat":-6.14505,"line":11,"transit":false,"time":3,"distance":1444,"station_name":"Rajawali","i_long":106.836569},{"line":11,"time":5,"station_id":"KMO","transit":false,"i_long":106.839204,"distance":1901,"is_transit":false,"i_lat":-6.161728,"station_name":"Kemayoran"},{"i_long":106.84368,"i_lat":-6.174784,"line":11,"distance":1436,"station_id":"PSE","time":4,"station_name":"Pasar Senen","transit":false,"is_transit":false},{"line":11,"station_name":"Gang Sentiong","time":8,"distance":1567,"i_long":106.850107,"transit":false,"is_transit":false,"i_lat":-6.185975,"station_id":"GST"},{"station_id":"KMT","i_long":106.855437,"station_name":"Kramat","distance":973,"is_transit":false,"i_lat":-6.193792,"time":1,"line":11,"transit":false}],[{"transit":false,"distance":0,"station_name":"Tebet","i_lat":-6.226659,"time":0,"line":2,"station_id":"TEB","is_transit":false,"i_long":106.857948},{"is_transit":false,"station_id":"MRI","i_long":106.84912,"transit":false,"time":4,"distance":2610,"i_lat":-6.209883,"line":2,"station_name":"Manggarai"},{"i_long":106.840169,"distance":1590,"transit":false,"is_transit":false,"station_name":"Cikini","station_id":"CKI","i_lat":-6.198556,"time":4,"line":2},{"is_transit":false,"i_long":106.832183,"line":2,"distance":1750,"i_lat":-6.186295,"station_name":"Gondangdia","station_id":"GDD","time":3,"transit":false},{"station_name":"Juanda","i_long":106.828284,"station_id":"JUA","is_transit":false,"line":2,"time":4,"transit":false,"distance":2015,"i_lat":-6.166716},{"line":2,"transit":false,"distance":1149,"time":2,"station_name":"Sawah Besar","station_id":"SW","i_long":106.827103,"is_transit":false,"i_lat":-6.160725},{"is_transit":false,"station_id":"MGB","i_lat":-6.149769,"time":2,"distance":906,"i_long":106.82482,"transit":false,"station_name":"Manggabesar","line":2},{"station_name":"Jayakarta","is_transit":false,"i_lat":-6.141205,"time":2,"station_id":"JAY","distance":1080,"i_long":106.820901,"line":2,"transit":false},{"distance":1264,"is_transit":true,"transit":true,"line":2,"time":4,"station_id":"JAKK","station_name":"Jakarta Kota","i_lat":-6.137569,"i_long":106.812439},{"time":3,"i_lat":-6.132549,"line":4,"transit":true,"station_id":"KPB","distance":1364,"is_transit":true,"station_name":"Kampung Bandan","i_long":106.826365},{"time":3,"transit":false,"i_lat":-6.14505,"i_long":106.836569,"line":11,"station_id":"RJW","is_transit":false,"distance":1444,"station_name":"Rajawali"},{"line":11,"i_long":106.839204,"transit":false,"station_name":"Kemayoran","i_lat":-6.161728,"distance":1901,"time":5,"is_transit":false,"station_id":"KMO"},{"i_long":106.84368,"distance":1436,"i_lat":-6.174784,"is_transit":false,"station_name":"Pasar Senen","time":4,"transit":false,"station_id":"PSE","line":11},{"station_name":"Gang Sentiong","station_id":"GST","line":11,"i_lat":-6.185975,"transit":false,"i_long":106.850107,"distance":1567,"time":8,"is_transit":false},{"station_id":"KMT","is_transit":false,"distance":973,"time":1,"transit":false,"station_name":"Kramat","i_lat":-6.193792,"i_long":106.855437,"line":11}]]}