{"data":[[{"time":0,"i_long":106.857948,"line":2,"i_lat":-6.226659,"transit":false,"is_transit":false,"distance":0,"station_id":"TEB","station_name":"Tebet"},{"station_name":"Manggarai","time":4,"i_lat":-6.209883,"line":0,"is_transit":true,"i_long":106.84912,"station_id":"MRI","transit":true,"distance":2610},{"time":4,"transit":false,"line":1,"is_transit":false,"distance":3186,"i_lat":-6.202263,"i_long":106.822649,"station_name":"Sudirman","station_id":"SUD"},{"i_lat":-6.201433,"is_transit":false,"i_long":106.819881,"time":1,"line":1,"distance":280,"transit":false,"station_name":"Sudirman Baru","station_id":"SUDB"},{"station_name":"Karet","is_transit":false,"station_id":"KAT","i_lat":-6.20132,"i_long":106.816351,"distance":471,"line":1,"time":1,"transit":false},{"line":1,"i_lat":-6.185545,"distance":2029,"time":5,"i_long":106.811091,"station_name":"Tanah Abang","transit":true,"is_transit":true,"station_id":"THB"},{"distance":3191,"transit":false,"station_name":"Palmerah","station_id":"PLM","time":6,"i_long":106.79689,"is_transit":false,"line":6,"i_lat":-6.207404},{"line":6,"distance":3737,"station_name":"Kebayoran","is_transit":false,"station_id":"KBY","time":7,"i_long":106.780334,"transit":false,"i_lat":-6.237242},{"transit":false,"i_long":106.74273,"time":8,"i_lat":-6.276362,"station_id":"PDJ","station_name":"Pondokranji","is_transit":false,"line":6,"distance":6218},{"i_lat":-6.288927,"is_transit":false,"distance":2179,"time":3,"station_id":"JMU","transit":false,"station_name":"Jurangmangu","line":6,"i_long":106.728916},{"station_id":"SDM","is_transit":false,"transit":false,"i_lat":-6.296963,"line":6,"i_long":106.712277,"distance":1994,"time":4,"station_name":"Sudimara"},{"transit":false,"is_transit":false,"station_name":"Rawa Buntu","line":6,"station_id":"RU","i_lat":-6.314823,"distance":4566,"time":6,"i_long":106.675475},{"i_long":106.66566,"station_id":"SRP","station_name":"Serpong","i_lat":-6.319871,"distance":2413,"is_transit":false,"time":4,"line":6,"transit":false},{"distance":1784,"station_id":"CSK","line":0,"time":4,"i_lat":-6.32484,"station_name":"Cisauk","i_long":106.640411,"is_transit":false,"transit":false}],[{"time":0,"line":2,"station_id":"TEB","i_long":106.857948,"is_transit":false,"transit":false,"distance":0,"station_name":"Tebet","i_lat":-6.226659},{"i_long":106.84912,"is_transit":true,"station_id":"MRI","station_name":"Manggarai","distance":2610,"transit":true,"time":4,"i_lat":-6.209883,"line":0},{"distance":1590,"is_transit":false,"time":4,"i_lat":-6.198556,"transit":false,"line":0,"i_long":106.840169,"station_id":"CKI","station_name":"Cikini"},{"i_lat":-6.186295,"time":3,"line":2,"station_name":"Gondangdia","station_id":"GDD","transit":false,"is_transit":false,"i_long":106.832183,"distance":1750},{"i_long":106.828284,"station_id":"JUA","i_lat":-6.166716,"is_transit":false,"station_name":"Juanda","distance":2015,"time":4,"transit":false,"line":2},{"station_name":"Sawah Besar","is_transit":false,"time":2,"line":2,"station_id":"SW","distance":1149,"transit":false,"i_lat":-6.160725,"i_long":106.827103},{"i_long":106.82482,"line":2,"station_name":"Manggabesar","station_id":"MGB","i_lat":-6.149769,"distance":906,"is_transit":false,"time":2,"transit":false},{"distance":1080,"is_transit":false,"transit":false,"i_lat":-6.141205,"station_id":"JAY","station_name":"Jayakarta","line":7,"time":2,"i_long":106.820901},{"i_lat":-6.137569,"time":4,"i_long":106.812439,"distance":1264,"station_id":"JAKK","transit":true,"line":0,"is_transit":true,"station_name":"Jakarta Kota"},{"is_transit":true,"station_id":"KPB","station_name":"Kampung Bandan","transit":false,"i_lat":-6.132549,"i_long":106.826365,"distance":1364,"line":0,"time":3},{"transit":false,"station_name":"Angke","station_id":"AK","i_lat":-6.144674,"time":9,"i_long":106.79867,"is_transit":false,"line":0,"distance":4102},{"line":1,"transit":true,"i_long":106.800832,"station_id":"DU","i_lat":-6.155215,"is_transit":true,"distance":1230,"station_name":"Duri","time":4},{"i_lat":-6.185545,"transit":true,"station_id":"THB","station_name":"Tanah Abang","time":8,"i_long":106.811091,"distance":3632,"line":1,"is_transit":true},{"transit":false,"line":6,"distance":3191,"is_transit":false,"station_name":"Palmerah","i_long":106.79689,"station_id":"PLM","i_lat":-6.207404,"time":6},{"station_id":"KBY","i_lat":-6.237242,"i_long":106.780334,"distance":3737,"line":6,"is_transit":false,"transit":false,"time":7,"station_name":"Kebayoran"},{"i_lat":-6.276362,"time":8,"distance":6218,"station_id":"PDJ","station_name":"Pondokranji","i_long":106.74273,"is_transit":false,"line":6,"transit":false},{"line":6,"i_lat":-6.288927,"station_name":"Jurangmangu","time":3,"is_transit":false,"station_id":"JMU","i_long":106.728916,"distance":2179,"transit":false},{"time":4,"transit":false,"i_long":106.712277,"station_name":"Sudimara","line":6,"i_lat":-6.296963,"station_id":"SDM","distance":1994,"is_transit":false},{"i_long":106.675475,"is_transit":false,"distance":4566,"line":6,"time":6,"i_lat":-6.314823,"station_id":"RU","station_name":"Rawa Buntu","transit":false},{"distance":2413,"is_transit":false,"station_id":"SRP","i_long":106.66566,"line":6,"i_lat":-6.319871,"transit":false,"station_name":"Serpong","time":4},{"distance":1784,"is_transit":false,"station_id":"CSK","i_long":106.640411,"station_name":"Cisauk","transit":false,"time":4,"line":0,"i_lat":-6.32484}],[{"station_id":"TEB","time":0,"station_name":"Tebet","transit":false,"i_long":106.857948,"i_lat":-6.226659,"line":2,"is_transit":false,"distance":0},{"line":0,"i_lat":-6.209883,"is_transit":true,"distance":2610,"station_id":"MRI","station_name":"Manggarai","transit":true,"time":4,"i_long":106.84912},{"is_transit":false,"distance":1275,"i_long":106.858896,"line":1,"station_name":"Matraman","transit":false,"time":2,"station_id":"MTR","i_lat":-6.212485},{"transit":true,"i_long":106.86807400000001,"i_lat":-6.215091,"line":0,"station_name":"Jatinegara","time":8,"station_id":"JNG","distance":1377,"is_transit":true},{"transit":false,"distance":1236,"station_name":"Pondok Jati","i_lat":-6.209188,"line":11,"station_id":"POK","i_long":106.861737,"time":2,"is_transit":false},{"distance":1829,"transit":false,"line":11,"station_name":"Kramat","time":2,"station_id":"KMT","is_transit":false,"i_long":106.855437,"i_lat":-6.193792},{"line":11,"transit":false,"station_name":"Gang Sentiong","is_transit":false,"distance":973,"time":1,"i_lat":-6.185975,"station_id":"GST","i_long":106.850107},{"is_transit":false,"time":8,"i_lat":-6.174784,"station_name":"Pasar Senen","station_id":"PSE","distance":1567,"transit":false,"i_long":106.84368,"line":11},{"station_name":"Kemayoran","station_id":"KMO","distance":1436,"is_transit":false,"transit":false,"time":4,"i_lat":-6.161728,"i_long":106.839204,"line":11},{"time":5,"i_long":106.836569,"station_id":"RJW","transit":false,"line":11,"i_lat":-6.14505,"station_name":"Rajawali","distance":1901,"is_transit":false},{"time":3,"line":0,"is_transit":true,"i_long":106.826365,"distance":1444,"station_id":"KPB","i_lat":-6.132549,"transit":true,"station_name":"Kampung Bandan"},{"distance":4102,"time":9,"i_long":106.79867,"station_id":"AK","station_name":"Angke","is_transit":false,"transit":false,"i_lat":-6.144674,"line":0},{"time":4,"i_lat":-6.155215,"i_long":106.800832,"distance":1230,"is_transit":true,"station_name":"Duri","station_id":"DU","transit":true,"line":1},{"time":8,"i_long":106.811091,"distance":3632,"transit":true,"i_lat":-6.185545,"line":1,"is_transit":true,"station_id":"THB","station_name":"Tanah Abang"},{"distance":3191,"station_id":"PLM","station_name":"Palmerah","i_long":106.79689,"line":6,"time":6,"is_transit":false,"i_lat":-6.207404,"transit":false},{"line":6,"is_transit":false,"distance":3737,"transit":false,"i_lat":-6.237242,"station_id":"KBY","station_name":"Kebayoran","i_long":106.780334,"time":7},{"i_lat":-6.276362,"transit":false,"distance":6218,"station_id":"PDJ","station_name":"Pondokranji","time":8,"i_long":106.74273,"is_transit":false,"line":6},{"station_name":"Jurangmangu","station_id":"JMU","transit":false,"i_long":106.728916,"line":6,"is_transit":false,"i_lat":-6.288927,"distance":2179,"time":3},{"station_id":"SDM","time":4,"i_long":106.712277,"station_name":"Sudimara","line":6,"transit":false,"distance":1994,"is_transit":false,"i_lat":-6.296963},{"station_name":"Rawa Buntu","transit":false,"station_id":"RU","line":6,"distance":4566,"is_transit":false,"time":6,"i_lat":-6.314823,"i_long":106.675475},{"time":4,"line":6,"distance":2413,"station_id":"SRP","station_name":"Serpong","i_long":106.66566,"is_transit":false,"transit":false,"i_lat":-6.319871},{"is_transit":false,"station_id":"CSK","i_lat":-6.32484,"station_name":"Cisauk","time":4,"distance":1784,"transit":false,"i_long":106.640411,"line":0}]]}