{"data":[[{"transit":false,"station_id":"TEB","line":2,"time":0,"i_lat":-6.226659,"station_name":"Tebet","is_transit":false,"i_long":106.857948,"distance":0},{"transit":true,"time":4,"is_transit":true,"station_name":"Manggarai","i_long":106.84912,"distance":2610,"line":2,"i_lat":-6.209883,"station_id":"MRI"},{"is_transit":false,"station_id":"SUD","station_name":"Sudirman","distance":3186,"time":4,"i_lat":-6.202263,"transit":false,"line":1,"i_long":106.822649},{"i_long":106.819881,"is_transit":false,"time":1,"station_name":"Sudirman Baru","i_lat":-6.201433,"distance":280,"station_id":"SUDB","transit":false,"line":1},{"station_id":"KAT","distance":471,"station_name":"Karet","i_lat":-6.20132,"line":1,"i_long":106.816351,"time":1,"transit":false,"is_transit":false},{"time":5,"is_transit":true,"transit":true,"station_name":"Tanah Abang","i_lat":-6.185545,"station_id":"THB","i_long":106.811091,"line":1,"distance":2029},{"time":6,"station_id":"PLM","transit":false,"is_transit":false,"i_lat":-6.207404,"distance":3191,"station_name":"Palmerah","line":6,"i_long":106.79689},{"station_name":"Kebayoran","distance":3737,"line":6,"i_long":106.780334,"time":7,"is_transit":false,"station_id":"KBY","transit":false,"i_lat":-6.237242}],[{"time":0,"transit":false,"station_id":"TEB","distance":0,"line":2,"is_transit":false,"station_name":"Tebet","i_lat":-6.226659,"i_long":106.857948},{"transit":false,"distance":2610,"station_id":"MRI","line":2,"time":4,"is_transit":false,"station_name":"Manggarai","i_long":106.84912,"i_lat":-6.209883},{"distance":1590,"transit":false,"station_name":"Cikini","time":4,"is_transit":false,"i_long":106.840169,"i_lat":-6.198556,"line":2,"station_id":"CKI"},{"i_long":106.832183,"time":3,"station_name":"Gondangdia","i_lat":-6.186295,"line":2,"distance":1750,"station_id":"GDD","is_transit":false,"transit":false},{"station_name":"Juanda","line":2,"i_long":106.828284,"station_id":"JUA","distance":2015,"time":4,"is_transit":false,"transit":false,"i_lat":-6.166716},{"i_long":106.827103,"time":2,"distance":1149,"line":2,"is_transit":false,"i_lat":-6.160725,"station_id":"SW","transit":false,"station_name":"Sawah Besar"},{"i_lat":-6.149769,"station_id":"MGB","distance":906,"line":2,"i_long":106.82482,"time":2,"transit":false,"is_transit":false,"station_name":"Manggabesar"},{"transit":false,"i_lat":-6.141205,"station_name":"Jayakarta","i_long":106.820901,"is_transit":false,"distance":1080,"station_id":"JAY","line":2,"time":2},{"i_long":106.812439,"i_lat":-6.137569,"is_transit":true,"distance":1264,"station_id":"JAKK","time":4,"station_name":"Jakarta Kota","line":2,"transit":true},{"distance":1364,"time":3,"station_name":"Kampung Bandan","i_lat":-6.132549,"transit":true,"line":4,"is_transit":true,"station_id":"KPB","i_long":106.826365},{"i_lat":-6.144674,"i_long":106.79867,"transit":false,"distance":4102,"station_name":"Angke","line":1,"is_transit":false,"time":9,"station_id":"AK"},{"i_long":106.800832,"distance":1230,"line":1,"station_id":"DU","transit":false,"station_name":"Duri","is_transit":false,"i_lat":-6.155215,"time":4},{"transit":true,"time":8,"i_long":106.811091,"i_lat":-6.185545,"distance":3632,"station_id":"THB","line":1,"station_name":"Tanah Abang","is_transit":true},{"transit":false,"i_lat":-6.207404,"is_transit":false,"i_long":106.79689,"station_id":"PLM","distance":3191,"line":6,"time":6,"station_name":"Palmerah"},{"distance":3737,"time":7,"station_id":"KBY","i_long":106.780334,"is_transit":false,"i_lat":-6.237242,"transit":false,"station_name":"Kebayoran","line":6}],[{"i_lat":-6.226659,"distance":0,"is_transit":false,"line":2,"transit":false,"i_long":106.857948,"station_id":"TEB","time":0,"station_name":"Tebet"},{"station_id":"MRI","i_lat":-6.209883,"time":4,"transit":true,"distance":2610,"station_name":"Manggarai","i_long":106.84912,"line":2,"is_transit":true},{"transit":false,"is_transit":false,"time":2,"station_name":"Matraman","distance":1275,"station_id":"MTR","i_long":106.858896,"line":1,"i_lat":-6.212485},{"distance":1377,"i_lat":-6.215091,"line":1,"station_name":"Jatinegara","station_id":"JNG","is_transit":true,"transit":true,"i_long":106.86807400000001,"time":8},{"time":2,"transit":false,"i_lat":-6.209188,"station_name":"Pondok Jati","distance":1236,"station_id":"POK","is_transit":false,"i_long":106.861737,"line":11},{"station_name":"Kramat","i_long":106.855437,"time":2,"is_transit":false,"station_id":"KMT","transit":false,"i_lat":-6.193792,"line":11,"distance":1829},{"transit":false,"time":1,"is_transit":false,"i_long":106.850107,"station_id":"GST","distance":973,"i_lat":-6.185975,"station_name":"Gang Sentiong","line":11},{"station_name":"Pasar Senen","transit":false,"is_transit":false,"i_lat":-6.174784,"station_id":"PSE","distance":1567,"i_long":106.84368,"line":11,"time":8},{"transit":false,"i_lat":-6.161728,"distance":1436,"line":11,"is_transit":false,"i_long":106.839204,"station_id":"KMO","time":4,"station_name":"Kemayoran"},{"is_transit":false,"i_long":106.836569,"line":11,"transit":false,"station_name":"Rajawali","distance":1901,"time":5,"i_lat":-6.14505,"station_id":"RJW"},{"line":4,"station_id":"KPB","distance":1444,"i_long":106.826365,"time":3,"i_lat":-6.132549,"transit":true,"is_transit":true,"station_name":"Kampung Bandan"},{"i_lat":-6.144674,"time":9,"is_transit":false,"distance":4102,"station_id":"AK","transit":false,"station_name":"Angke","i_long":106.79867,"line":1},{"station_id":"DU","station_name":"Duri","i_lat":-6.155215,"i_long":106.800832,"distance":1230,"time":4,"line":1,"transit":false,"is_transit":false},{"transit":true,"time":8,"is_transit":true,"distance":3632,"station_id":"THB","i_lat":-6.185545,"i_long":106.811091,"station_name":"Tanah Abang","line":1},{"distance":3191,"transit":false,"i_lat":-6.207404,"time":6,"i_long":106.79689,"station_id":"PLM","is_transit":false,"station_name":"Palmerah","line":6},{"station_name":"Kebayoran","time":7,"i_lat":-6.237242,"station_id":"KBY","is_transit":false,"distance":3737,"transit":false,"i_long":106.780334,"line":6}]]}