{"data":[[{"time":0,"station_name":"Tebet","distance":0,"i_lat":-6.226659,"is_transit":false,"i_long":106.857948,"line":2,"transit":false,"station_id":"TEB"},{"station_name":"Manggarai","distance":2610,"time":4,"i_lat":-6.209883,"station_id":"MRI","transit":true,"i_long":106.84912,"is_transit":true,"line":2},{"transit":false,"is_transit":false,"station_id":"SUD","distance":3186,"i_lat":-6.202263,"line":1,"i_long":106.822649,"time":4,"station_name":"Sudirman"},{"time":1,"i_lat":-6.201433,"transit":false,"distance":280,"line":1,"station_id":"SUDB","is_transit":false,"i_long":106.819881,"station_name":"Sudirman Baru"},{"is_transit":false,"transit":false,"i_lat":-6.20132,"line":1,"station_id":"KAT","distance":471,"station_name":"Karet","i_long":106.816351,"time":1},{"time":5,"is_transit":true,"station_name":"Tanah Abang","station_id":"THB","i_lat":-6.185545,"transit":true,"distance":2029,"i_long":106.811091,"line":1},{"line":6,"station_id":"PLM","i_long":106.79689,"transit":false,"is_transit":false,"station_name":"Palmerah","distance":3191,"i_lat":-6.207404,"time":6},{"i_long":106.780334,"station_name":"Kebayoran","station_id":"KBY","is_transit":false,"i_lat":-6.237242,"time":7,"transit":false,"distance":3737,"line":6},{"is_transit":false,"i_long":106.74273,"station_name":"Pondokranji","line":6,"distance":6218,"transit":false,"station_id":"PDJ","time":8,"i_lat":-6.276362},{"transit":false,"station_id":"JMU","distance":2179,"i_lat":-6.288927,"time":3,"i_long":106.728916,"line":6,"is_transit":false,"station_name":"Jurangmangu"},{"i_lat":-6.296963,"station_id":"SDM","station_name":"Sudimara","i_long":106.712277,"time":4,"distance":1994,"is_transit":false,"transit":false,"line":6},{"line":6,"is_transit":false,"station_name":"Rawa Buntu","transit":false,"i_long":106.675475,"time":6,"distance":4566,"i_lat":-6.314823,"station_id":"RU"},{"station_id":"SRP","i_lat":-6.319871,"station_name":"Serpong","transit":false,"line":6,"i_long":106.66566,"distance":2413,"is_transit":false,"time":4},{"distance":1784,"is_transit":false,"time":4,"line":3,"station_name":"Cisauk","i_lat":-6.32484,"station_id":"CSK","transit":false,"i_long":106.640411},{"i_long":106.617853,"i_lat":-6.329547,"station_name":"Cicayur","line":3,"distance":2519,"station_id":"CC","time":4,"is_transit":false,"transit":false},{"station_name":"Parung Panjang","time":8,"station_id":"PRP","transit":false,"distance":5968,"i_lat":-6.3441410000000005,"i_long":106.568863,"line":6,"is_transit":false},{"distance":7025,"station_name":"Cilejit","is_transit":false,"transit":false,"i_lat":-6.354349,"time":9,"line":3,"i_long":106.508482,"station_id":"CJT"},{"station_id":"DAR","i_lat":-6.338021,"i_long":106.491338,"time":6,"line":0,"transit":false,"station_name":"Daru","distance":2675,"is_transit":false}],[{"station_name":"Tebet","time":0,"is_transit":false,"distance":0,"transit":false,"i_lat":-6.226659,"i_long":106.857948,"station_id":"TEB","line":2},{"line":2,"station_name":"Manggarai","distance":2610,"time":4,"is_transit":false,"i_lat":-6.209883,"transit":false,"station_id":"MRI","i_long":106.84912},{"station_id":"CKI","i_long":106.840169,"station_name":"Cikini","line":2,"transit":false,"distance":1590,"time":4,"is_transit":false,"i_lat":-6.198556},{"distance":1750,"i_lat":-6.186295,"transit":false,"station_id":"GDD","i_long":106.832183,"is_transit":false,"line":2,"station_name":"Gondangdia","time":3},{"station_id":"JUA","line":2,"station_name":"Juanda","distance":2015,"i_lat":-6.166716,"i_long":106.828284,"time":4,"is_transit":false,"transit":false},{"i_long":106.827103,"station_id":"SW","distance":1149,"station_name":"Sawah Besar","i_lat":-6.160725,"is_transit":false,"line":2,"transit":false,"time":2},{"distance":906,"station_name":"Manggabesar","is_transit":false,"i_lat":-6.149769,"i_long":106.82482,"time":2,"transit":false,"line":2,"station_id":"MGB"},{"time":2,"is_transit":false,"station_id":"JAY","i_lat":-6.141205,"distance":1080,"line":2,"i_long":106.820901,"station_name":"Jayakarta","transit":false},{"station_id":"JAKK","i_long":106.812439,"transit":true,"time":4,"line":2,"station_name":"Jakarta Kota","i_lat":-6.137569,"distance":1264,"is_transit":true},{"station_name":"Kampung Bandan","transit":true,"time":3,"i_lat":-6.132549,"line":4,"distance":1364,"is_transit":true,"i_long":106.826365,"station_id":"KPB"},{"transit":false,"station_name":"Angke","time":9,"distance":4102,"is_transit":false,"station_id":"AK","i_long":106.79867,"line":1,"i_lat":-6.144674},{"i_long":106.800832,"station_id":"DU","station_name":"Duri","time":4,"is_transit":false,"transit":false,"distance":1230,"line":1,"i_lat":-6.155215},{"station_name":"Tanah Abang","time":8,"station_id":"THB","i_long":106.811091,"i_lat":-6.185545,"line":1,"transit":true,"is_transit":true,"distance":3632},{"distance":3191,"station_id":"PLM","station_name":"Palmerah","i_lat":-6.207404,"line":6,"time":6,"is_transit":false,"transit":false,"i_long":106.79689},{"transit":false,"i_lat":-6.237242,"distance":3737,"station_id":"KBY","i_long":106.780334,"station_name":"Kebayoran","time":7,"line":6,"is_transit":false},{"time":8,"distance":6218,"i_lat":-6.276362,"station_name":"Pondokranji","is_transit":false,"transit":false,"i_long":106.74273,"station_id":"PDJ","line":6},{"distance":2179,"transit":false,"i_long":106.728916,"time":3,"station_id":"JMU","is_transit":false,"station_name":"Jurangmangu","i_lat":-6.288927,"line":6},{"station_id":"SDM","time":4,"i_lat":-6.296963,"line":6,"station_name":"Sudimara","is_transit":false,"i_long":106.712277,"transit":false,"distance":1994},{"i_long":106.675475,"station_id":"RU","line":6,"time":6,"transit":false,"distance":4566,"is_transit":false,"station_name":"Rawa Buntu","i_lat":-6.314823},{"distance":2413,"station_id":"SRP","station_name":"Serpong","is_transit":false,"i_lat":-6.319871,"time":4,"transit":false,"line":6,"i_long":106.66566},{"line":3,"i_long":106.640411,"time":4,"station_id":"CSK","is_transit":false,"transit":false,"distance":1784,"i_lat":-6.32484,"station_name":"Cisauk"},{"is_transit":false,"station_id":"CC","distance":2519,"transit":false,"station_name":"Cicayur","time":4,"i_lat":-6.329547,"i_long":106.617853,"line":3},{"station_id":"PRP","is_transit":false,"line":6,"distance":5968,"i_lat":-6.3441410000000005,"station_name":"Parung Panjang","i_long":106.568863,"transit":false,"time":8},{"is_transit":false,"time":9,"i_lat":-6.354349,"transit":false,"station_id":"CJT","distance":7025,"station_name":"Cilejit","i_long":106.508482,"line":3},{"i_long":106.491338,"transit":false,"line":0,"station_name":"Daru","is_transit":false,"i_lat":-6.338021,"station_id":"DAR","distance":2675,"time":6}],[{"station_id":"TEB","line":2,"transit":false,"time":0,"i_lat":-6.226659,"station_name":"Tebet","distance":0,"is_transit":false,"i_long":106.857948},{"is_transit":true,"station_name":"Manggarai","station_id":"MRI","distance":2610,"transit":true,"i_lat":-6.209883,"i_long":106.84912,"time":4,"line":2},{"is_transit":false,"transit":false,"station_name":"Matraman","i_lat":-6.212485,"line":1,"station_id":"MTR","time":2,"distance":1275,"i_long":106.858896},{"i_lat":-6.215091,"station_name":"Jatinegara","time":8,"is_transit":true,"station_id":"JNG","transit":true,"distance":1377,"i_long":106.86807400000001,"line":1},{"distance":1236,"line":11,"i_long":106.861737,"i_lat":-6.209188,"station_name":"Pondok Jati","is_transit":false,"time":2,"transit":false,"station_id":"POK"},{"is_transit":false,"distance":1829,"station_name":"Kramat","line":11,"station_id":"KMT","transit":false,"i_long":106.855437,"time":2,"i_lat":-6.193792},{"i_long":106.850107,"station_id":"GST","distance":973,"i_lat":-6.185975,"station_name":"Gang Sentiong","time":1,"is_transit":false,"transit":false,"line":11},{"station_name":"Pasar Senen","distance":1567,"i_long":106.84368,"transit":false,"is_transit":false,"line":11,"time":8,"station_id":"PSE","i_lat":-6.174784},{"station_id":"KMO","station_name":"Kemayoran","time":4,"distance":1436,"i_long":106.839204,"line":11,"transit":false,"is_transit":false,"i_lat":-6.161728},{"i_long":106.836569,"station_id":"RJW","transit":false,"i_lat":-6.14505,"line":11,"is_transit":false,"time":5,"distance":1901,"station_name":"Rajawali"},{"station_id":"KPB","distance":1444,"line":4,"is_transit":true,"i_long":106.826365,"time":3,"i_lat":-6.132549,"station_name":"Kampung Bandan","transit":true},{"distance":4102,"transit":false,"is_transit":false,"station_id":"AK","station_name":"Angke","i_long":106.79867,"i_lat":-6.144674,"line":1,"time":9},{"line":1,"i_lat":-6.155215,"i_long":106.800832,"transit":false,"is_transit":false,"distance":1230,"time":4,"station_name":"Duri","station_id":"DU"},{"station_name":"Tanah Abang","station_id":"THB","time":8,"i_lat":-6.185545,"is_transit":true,"i_long":106.811091,"line":1,"transit":true,"distance":3632},{"i_long":106.79689,"time":6,"transit":false,"i_lat":-6.207404,"is_transit":false,"line":6,"distance":3191,"station_name":"Palmerah","station_id":"PLM"},{"station_name":"Kebayoran","i_long":106.780334,"is_transit":false,"time":7,"station_id":"KBY","distance":3737,"line":6,"transit":false,"i_lat":-6.237242},{"is_transit":false,"i_lat":-6.276362,"time":8,"distance":6218,"station_name":"Pondokranji","line":6,"transit":false,"station_id":"PDJ","i_long":106.74273},{"transit":false,"station_name":"Jurangmangu","station_id":"JMU","line":6,"is_transit":false,"i_long":106.728916,"time":3,"distance":2179,"i_lat":-6.288927},{"station_id":"SDM","i_lat":-6.296963,"transit":false,"station_name":"Sudimara","time":4,"line":6,"is_transit":false,"distance":1994,"i_long":106.712277},{"station_id":"RU","distance":4566,"i_lat":-6.314823,"time":6,"is_transit":false,"station_name":"Rawa Buntu","i_long":106.675475,"transit":false,"line":6},{"station_id":"SRP","distance":2413,"station_name":"Serpong","line":6,"i_lat":-6.319871,"i_long":106.66566,"transit":false,"time":4,"is_transit":false},{"i_lat":-6.32484,"time":4,"transit":false,"is_transit":false,"station_id":"CSK","i_long":106.640411,"distance":1784,"station_name":"Cisauk","line":3},{"transit":false,"is_transit":false,"i_long":106.617853,"distance":2519,"line":3,"i_lat":-6.329547,"station_name":"Cicayur","time":4,"station_id":"CC"},{"is_transit":false,"station_name":"Parung Panjang","station_id":"PRP","line":6,"i_lat":-6.3441410000000005,"i_long":106.568863,"time":8,"distance":5968,"transit":false},{"is_transit":false,"distance":7025,"transit":false,"line":3,"station_name":"Cilejit","station_id":"CJT","i_lat":-6.354349,"time":9,"i_long":106.508482},{"i_lat":-6.338021,"i_long":106.491338,"distance":2675,"is_transit":false,"time":6,"station_name":"Daru","line":0,"station_id":"DAR","transit":false}]]}