{"data":[[{"is_transit":false,"line":2,"time":0,"station_id":"TEB","station_name":"Tebet","i_long":106.857948,"i_lat":-6.226659,"transit":false,"distance":0},{"is_transit":true,"line":2,"i_long":106.84912,"station_name":"Manggarai","time":4,"station_id":"MRI","transit":true,"i_lat":-6.209883,"distance":2610},{"i_long":106.822649,"distance":3186,"time":4,"station_name":"Sudirman","is_transit":false,"line":1,"station_id":"SUD","transit":false,"i_lat":-6.202263},{"line":1,"station_name":"Sudirman Baru","distance":280,"time":1,"transit":false,"station_id":"SUDB","is_transit":false,"i_lat":-6.201433,"i_long":106.819881},{"station_name":"Karet","transit":false,"i_long":106.816351,"is_transit":false,"distance":471,"i_lat":-6.20132,"line":1,"station_id":"KAT","time":1},{"i_lat":-6.185545,"line":1,"time":5,"distance":2029,"station_id":"THB","is_transit":true,"transit":true,"i_long":106.811091,"station_name":"Tanah Abang"},{"i_long":106.79689,"line":6,"is_transit":false,"station_name":"Palmerah","transit":false,"station_id":"PLM","distance":3191,"i_lat":-6.207404,"time":6},{"transit":false,"line":6,"is_transit":false,"time":7,"distance":3737,"i_long":106.780334,"i_lat":-6.237242,"station_name":"Kebayoran","station_id":"KBY"},{"station_name":"Pondokranji","distance":6218,"line":6,"i_long":106.74273,"station_id":"PDJ","is_transit":false,"time":8,"transit":false,"i_lat":-6.276362},{"station_id":"JMU","is_transit":false,"line":6,"distance":2179,"time":3,"transit":false,"station_name":"Jurangmangu","i_lat":-6.288927,"i_long":106.728916},{"i_lat":-6.296963,"is_transit":false,"transit":false,"i_long":106.712277,"distance":1994,"line":6,"station_id":"SDM","station_name":"Sudimara","time":4},{"distance":4566,"time":6,"is_transit":false,"i_lat":-6.314823,"i_long":106.675475,"line":6,"station_name":"Rawa Buntu","station_id":"RU","transit":false},{"transit":false,"time":4,"station_name":"Serpong","line":6,"i_lat":-6.319871,"is_transit":false,"i_long":106.66566,"station_id":"SRP","distance":2413},{"i_long":106.640411,"time":4,"station_name":"Cisauk","line":3,"is_transit":false,"i_lat":-6.32484,"distance":1784,"station_id":"CSK","transit":false},{"is_transit":false,"distance":2519,"station_name":"Cicayur","i_lat":-6.329547,"line":3,"time":4,"transit":false,"i_long":106.617853,"station_id":"CC"},{"is_transit":false,"distance":5968,"i_long":106.568863,"line":6,"time":8,"i_lat":-6.3441410000000005,"transit":false,"station_name":"Parung Panjang","station_id":"PRP"},{"station_name":"Cilejit","distance":7025,"station_id":"CJT","i_lat":-6.354349,"transit":false,"i_long":106.508482,"time":9,"line":3,"is_transit":false}],[{"distance":0,"i_long":106.857948,"i_lat":-6.226659,"transit":false,"line":2,"is_transit":false,"station_id":"TEB","station_name":"Tebet","time":0},{"i_lat":-6.209883,"line":2,"time":4,"station_name":"Manggarai","i_long":106.84912,"transit":false,"station_id":"MRI","is_transit":false,"distance":2610},{"distance":1590,"station_id":"CKI","station_name":"Cikini","i_long":106.840169,"is_transit":false,"time":4,"transit":false,"i_lat":-6.198556,"line":2},{"is_transit":false,"station_name":"Gondangdia","line":2,"i_lat":-6.186295,"distance":1750,"station_id":"GDD","transit":false,"i_long":106.832183,"time":3},{"time":4,"distance":2015,"station_id":"JUA","is_transit":false,"transit":false,"i_lat":-6.166716,"i_long":106.828284,"line":2,"station_name":"Juanda"},{"i_long":106.827103,"time":2,"station_id":"SW","distance":1149,"is_transit":false,"transit":false,"i_lat":-6.160725,"line":2,"station_name":"Sawah Besar"},{"i_long":106.82482,"line":2,"time":2,"station_name":"Manggabesar","station_id":"MGB","transit":false,"i_lat":-6.149769,"distance":906,"is_transit":false},{"transit":false,"time":2,"i_lat":-6.141205,"line":2,"i_long":106.820901,"distance":1080,"is_transit":false,"station_name":"Jayakarta","station_id":"JAY"},{"distance":1264,"station_id":"JAKK","transit":true,"line":2,"i_long":106.812439,"i_lat":-6.137569,"station_name":"Jakarta Kota","is_transit":true,"time":4},{"distance":1364,"line":4,"i_lat":-6.132549,"time":3,"i_long":106.826365,"station_name":"Kampung Bandan","transit":true,"station_id":"KPB","is_transit":true},{"station_name":"Angke","is_transit":false,"time":9,"i_lat":-6.144674,"line":1,"distance":4102,"transit":false,"i_long":106.79867,"station_id":"AK"},{"line":1,"station_id":"DU","is_transit":false,"transit":false,"distance":1230,"i_lat":-6.155215,"station_name":"Duri","time":4,"i_long":106.800832},{"distance":3632,"station_name":"Tanah Abang","time":8,"line":1,"is_transit":true,"station_id":"THB","transit":true,"i_lat":-6.185545,"i_long":106.811091},{"station_name":"Palmerah","distance":3191,"line":6,"i_long":106.79689,"time":6,"is_transit":false,"transit":false,"station_id":"PLM","i_lat":-6.207404},{"distance":3737,"is_transit":false,"i_long":106.780334,"line":6,"time":7,"station_id":"KBY","i_lat":-6.237242,"transit":false,"station_name":"Kebayoran"},{"transit":false,"station_id":"PDJ","i_lat":-6.276362,"distance":6218,"line":6,"time":8,"station_name":"Pondokranji","is_transit":false,"i_long":106.74273},{"i_long":106.728916,"line":6,"time":3,"distance":2179,"station_id":"JMU","i_lat":-6.288927,"station_name":"Jurangmangu","transit":false,"is_transit":false},{"station_name":"Sudimara","station_id":"SDM","i_long":106.712277,"i_lat":-6.296963,"line":6,"time":4,"is_transit":false,"distance":1994,"transit":false},{"is_transit":false,"transit":false,"station_name":"Rawa Buntu","i_long":106.675475,"line":6,"distance":4566,"time":6,"i_lat":-6.314823,"station_id":"RU"},{"station_id":"SRP","i_long":106.66566,"station_name":"Serpong","is_transit":false,"i_lat":-6.319871,"time":4,"distance":2413,"line":6,"transit":false},{"transit":false,"station_id":"CSK","i_long":106.640411,"line":3,"time":4,"station_name":"Cisauk","is_transit":false,"distance":1784,"i_lat":-6.32484},{"line":3,"is_transit":false,"station_name":"Cicayur","i_lat":-6.329547,"transit":false,"distance":2519,"time":4,"station_id":"CC","i_long":106.617853},{"station_id":"PRP","i_long":106.568863,"line":6,"is_transit":false,"distance":5968,"time":8,"station_name":"Parung Panjang","transit":false,"i_lat":-6.3441410000000005},{"station_id":"CJT","i_lat":-6.354349,"distance":7025,"i_long":106.508482,"line":3,"is_transit":false,"time":9,"station_name":"Cilejit","transit":false}],[{"station_name":"Tebet","distance":0,"line":2,"station_id":"TEB","i_lat":-6.226659,"time":0,"transit":false,"i_long":106.857948,"is_transit":false},{"is_transit":true,"distance":2610,"station_id":"MRI","station_name":"Manggarai","transit":true,"i_long":106.84912,"line":2,"time":4,"i_lat":-6.209883},{"i_lat":-6.212485,"i_long":106.858896,"distance":1275,"transit":false,"time":2,"line":1,"station_id":"MTR","station_name":"Matraman","is_transit":false},{"is_transit":true,"distance":1377,"station_id":"JNG","time":8,"transit":true,"i_lat":-6.215091,"station_name":"Jatinegara","i_long":106.86807400000001,"line":1},{"station_id":"POK","line":11,"distance":1236,"i_long":106.861737,"time":2,"is_transit":false,"station_name":"Pondok Jati","transit":false,"i_lat":-6.209188},{"station_name":"Kramat","is_transit":false,"i_lat":-6.193792,"distance":1829,"line":11,"i_long":106.855437,"transit":false,"time":2,"station_id":"KMT"},{"station_id":"GST","line":11,"station_name":"Gang Sentiong","distance":973,"time":1,"transit":false,"is_transit":false,"i_lat":-6.185975,"i_long":106.850107},{"time":8,"station_id":"PSE","i_long":106.84368,"i_lat":-6.174784,"distance":1567,"transit":false,"line":11,"is_transit":false,"station_name":"Pasar Senen"},{"time":4,"distance":1436,"is_transit":false,"i_long":106.839204,"station_id":"KMO","transit":false,"i_lat":-6.161728,"station_name":"Kemayoran","line":11},{"transit":false,"is_transit":false,"line":11,"distance":1901,"time":5,"i_lat":-6.14505,"station_name":"Rajawali","i_long":106.836569,"station_id":"RJW"},{"i_lat":-6.132549,"line":4,"is_transit":true,"distance":1444,"station_name":"Kampung Bandan","i_long":106.826365,"transit":true,"station_id":"KPB","time":3},{"distance":4102,"time":9,"station_name":"Angke","line":1,"is_transit":false,"i_lat":-6.144674,"i_long":106.79867,"station_id":"AK","transit":false},{"station_id":"DU","is_transit":false,"transit":false,"i_lat":-6.155215,"station_name":"Duri","distance":1230,"line":1,"time":4,"i_long":106.800832},{"is_transit":true,"station_id":"THB","station_name":"Tanah Abang","distance":3632,"line":1,"i_lat":-6.185545,"time":8,"i_long":106.811091,"transit":true},{"transit":false,"i_lat":-6.207404,"line":6,"time":6,"distance":3191,"i_long":106.79689,"is_transit":false,"station_id":"PLM","station_name":"Palmerah"},{"i_lat":-6.237242,"i_long":106.780334,"is_transit":false,"station_name":"Kebayoran","line":6,"distance":3737,"time":7,"transit":false,"station_id":"KBY"},{"transit":false,"i_lat":-6.276362,"time":8,"line":6,"station_name":"Pondokranji","is_transit":false,"i_long":106.74273,"station_id":"PDJ","distance":6218},{"transit":false,"i_long":106.728916,"is_transit":false,"distance":2179,"time":3,"line":6,"i_lat":-6.288927,"station_name":"Jurangmangu","station_id":"JMU"},{"station_id":"SDM","i_lat":-6.296963,"i_long":106.712277,"line":6,"station_name":"Sudimara","transit":false,"time":4,"distance":1994,"is_transit":false},{"station_name":"Rawa Buntu","is_transit":false,"i_lat":-6.314823,"time":6,"distance":4566,"station_id":"RU","i_long":106.675475,"line":6,"transit":false},{"station_name":"Serpong","is_transit":false,"time":4,"line":6,"transit":false,"station_id":"SRP","i_lat":-6.319871,"i_long":106.66566,"distance":2413},{"i_long":106.640411,"line":3,"is_transit":false,"station_id":"CSK","transit":false,"time":4,"distance":1784,"i_lat":-6.32484,"station_name":"Cisauk"},{"transit":false,"i_lat":-6.329547,"i_long":106.617853,"is_transit":false,"station_name":"Cicayur","station_id":"CC","distance":2519,"line":3,"time":4},{"station_name":"Parung Panjang","time":8,"station_id":"PRP","line":6,"transit":false,"i_long":106.568863,"distance":5968,"i_lat":-6.3441410000000005,"is_transit":false},{"i_lat":-6.354349,"line":3,"i_long":106.508482,"time":9,"distance":7025,"station_name":"Cilejit","is_transit":false,"station_id":"CJT","transit":false}]]}