{"data":[[{"i_lat":-6.226659,"is_transit":false,"distance":0,"transit":false,"station_name":"Tebet","station_id":"TEB","time":0,"i_long":106.857948,"line":2},{"transit":false,"is_transit":false,"time":2,"station_name":"Cawang","distance":1230,"station_id":"CW","i_lat":-6.242512,"i_long":106.856607,"line":0},{"station_id":"DRN","station_name":"Duren Kalibata","transit":false,"is_transit":false,"time":3,"i_long":106.85449,"line":0,"i_lat":-6.255332,"distance":1546},{"line":2,"is_transit":false,"transit":false,"distance":824,"station_id":"PSMB","i_lat":-6.263214,"i_long":106.851577,"time":2,"station_name":"Pasar Minggu Baru"},{"station_name":"Pasar Minggu","i_lat":-6.2842400000000005,"i_long":106.843999,"line":2,"distance":2380,"station_id":"PSM","transit":false,"time":2,"is_transit":false},{"i_lat":-6.3080680000000005,"station_name":"Tanjung Barat","is_transit":false,"i_long":106.838896,"distance":2820,"transit":false,"time":4,"station_id":"TNT","line":2},{"is_transit":false,"station_name":"Lenteng Agung","line":2,"station_id":"LNA","i_lat":-6.330363,"distance":2671,"transit":false,"i_long":106.832616,"time":3},{"station_name":"Univ. Pancasila","transit":false,"station_id":"UP","i_long":106.834175,"time":2,"distance":1029,"i_lat":-6.339291,"line":2,"is_transit":false},{"distance":2264,"station_name":"Univ. Indonesia","i_long":106.831474,"line":2,"station_id":"UI","transit":false,"time":3,"is_transit":false,"i_lat":-6.360749},{"i_lat":-6.369073,"time":2,"i_long":106.831114,"line":2,"distance":1109,"is_transit":false,"station_id":"POC","transit":false,"station_name":"Pondok Cina"},{"station_name":"Depokbaru","transit":false,"time":4,"i_lat":-6.391065,"is_transit":false,"line":0,"station_id":"DPB","i_long":106.819451,"distance":2727},{"i_lat":-6.405256,"transit":false,"station_name":"Depok","i_long":106.816926,"is_transit":false,"line":0,"time":3,"station_id":"DP","distance":1584},{"distance":5084,"station_id":"CTA","transit":false,"station_name":"Citayam","time":6,"i_lat":-6.448811,"i_long":106.800298,"line":1,"is_transit":true},{"distance":5197,"station_name":"Bojonggede","transit":false,"station_id":"BJD","i_long":106.792719,"line":0,"is_transit":false,"i_lat":-6.493243,"time":5},{"i_long":106.800016,"station_name":"Cilebut","station_id":"CLT","transit":false,"is_transit":false,"i_lat":-6.530544,"time":5,"distance":4331,"line":0},{"distance":7514,"line":1,"time":9,"is_transit":true,"transit":false,"station_id":"BOO","station_name":"Bogor","i_lat":-6.594596,"i_long":106.790574}]]}