{"data":[[{"line":2,"time":0,"distance":0,"i_long":106.857948,"station_id":"TEB","station_name":"Tebet","transit":false,"is_transit":false,"i_lat":-6.226659},{"is_transit":false,"station_name":"Cawang","i_lat":-6.242512,"distance":1230,"line":2,"i_long":106.856607,"station_id":"CW","transit":false,"time":2},{"transit":false,"time":3,"line":2,"i_long":106.85449,"is_transit":false,"i_lat":-6.255332,"station_id":"DRN","station_name":"Duren Kalibata","distance":1546},{"station_name":"Pasar Minggu Baru","line":2,"distance":824,"station_id":"PSMB","i_lat":-6.263214,"time":2,"is_transit":false,"i_long":106.851577,"transit":false},{"is_transit":false,"station_id":"PSM","distance":2380,"line":2,"time":2,"station_name":"Pasar Minggu","i_lat":-6.2842400000000005,"transit":false,"i_long":106.843999},{"station_id":"TNT","station_name":"Tanjung Barat","transit":false,"distance":2820,"line":2,"i_long":106.838896,"i_lat":-6.3080680000000005,"is_transit":false,"time":4},{"station_id":"LNA","transit":false,"line":2,"time":3,"i_long":106.832616,"is_transit":false,"i_lat":-6.330363,"station_name":"Lenteng Agung","distance":2671},{"i_lat":-6.339291,"i_long":106.834175,"station_name":"Univ. Pancasila","time":2,"line":2,"is_transit":false,"distance":1029,"transit":false,"station_id":"UP"},{"time":3,"station_name":"Univ. Indonesia","line":2,"is_transit":false,"distance":2264,"i_long":106.831474,"i_lat":-6.360749,"transit":false,"station_id":"UI"},{"time":2,"is_transit":false,"transit":false,"station_name":"Pondok Cina","i_long":106.831114,"station_id":"POC","line":2,"distance":1109,"i_lat":-6.369073},{"station_name":"Depokbaru","station_id":"DPB","is_transit":false,"time":4,"distance":2727,"line":2,"i_lat":-6.391065,"i_long":106.819451,"transit":false},{"line":2,"station_id":"DP","is_transit":false,"transit":false,"station_name":"Depok","distance":1584,"i_long":106.816926,"time":3,"i_lat":-6.405256},{"transit":false,"station_name":"Citayam","is_transit":false,"station_id":"CTA","time":6,"i_lat":-6.448811,"i_long":106.800298,"line":2,"distance":5084},{"station_name":"Bojonggede","station_id":"BJD","is_transit":false,"time":5,"i_long":106.792719,"transit":false,"line":2,"i_lat":-6.493243,"distance":5197},{"transit":false,"distance":4331,"station_name":"Cilebut","time":5,"i_lat":-6.530544,"line":2,"i_long":106.800016,"is_transit":false,"station_id":"CLT"},{"i_long":106.790574,"i_lat":-6.594596,"is_transit":false,"line":2,"time":9,"station_id":"BOO","transit":false,"distance":7514,"station_name":"Bogor"}]]}