{"data":[[{"line":2,"station_name":"Tebet","station_id":"TEB","distance":0,"time":0,"is_transit":false,"transit":false,"i_long":106.857948,"i_lat":-6.226659},{"time":2,"station_name":"Cawang","station_id":"CW","transit":false,"distance":1230,"i_lat":-6.242512,"line":2,"is_transit":false,"i_long":106.856607},{"i_lat":-6.255332,"is_transit":false,"transit":false,"line":2,"time":3,"station_name":"Duren Kalibata","distance":1546,"i_long":106.85449,"station_id":"DRN"},{"time":2,"transit":false,"station_id":"PSMB","station_name":"Pasar Minggu Baru","is_transit":false,"i_lat":-6.263214,"line":2,"i_long":106.851577,"distance":824},{"time":2,"station_name":"Pasar Minggu","distance":2380,"transit":false,"line":2,"station_id":"PSM","is_transit":false,"i_lat":-6.2842400000000005,"i_long":106.843999},{"line":2,"time":4,"transit":false,"is_transit":false,"i_long":106.838896,"station_id":"TNT","station_name":"Tanjung Barat","distance":2820,"i_lat":-6.3080680000000005},{"line":2,"time":3,"distance":2671,"transit":false,"station_name":"Lenteng Agung","is_transit":false,"station_id":"LNA","i_lat":-6.330363,"i_long":106.832616}]]}