{"data":[[{"time":0,"station_name":"Tebet","transit":false,"distance":0,"i_lat":-6.226659,"line":2,"is_transit":false,"i_long":106.857948,"station_id":"TEB"},{"transit":true,"is_transit":true,"i_long":106.84912,"time":4,"i_lat":-6.209883,"distance":2610,"line":2,"station_name":"Manggarai","station_id":"MRI"},{"station_name":"Sudirman","is_transit":false,"time":4,"i_lat":-6.202263,"i_long":106.822649,"transit":false,"distance":3186,"line":1,"station_id":"SUD"},{"i_lat":-6.201433,"station_name":"Sudirman Baru","transit":false,"is_transit":false,"line":1,"time":1,"distance":280,"station_id":"SUDB","i_long":106.819881},{"i_lat":-6.20132,"station_name":"Karet","is_transit":false,"i_long":106.816351,"distance":471,"transit":false,"line":1,"station_id":"KAT","time":1},{"station_name":"Tanah Abang","is_transit":true,"time":5,"station_id":"THB","line":1,"i_lat":-6.185545,"transit":true,"i_long":106.811091,"distance":2029},{"i_long":106.79689,"transit":false,"line":6,"i_lat":-6.207404,"station_id":"PLM","distance":3191,"is_transit":false,"time":6,"station_name":"Palmerah"},{"station_id":"KBY","i_long":106.780334,"transit":false,"station_name":"Kebayoran","i_lat":-6.237242,"time":7,"is_transit":false,"distance":3737,"line":6},{"station_id":"PDJ","transit":false,"distance":6218,"i_long":106.74273,"line":6,"station_name":"Pondokranji","time":8,"i_lat":-6.276362,"is_transit":false},{"line":6,"transit":false,"distance":2179,"is_transit":false,"i_lat":-6.288927,"station_id":"JMU","station_name":"Jurangmangu","i_long":106.728916,"time":3},{"station_name":"Sudimara","i_lat":-6.296963,"is_transit":false,"line":6,"transit":false,"station_id":"SDM","i_long":106.712277,"distance":1994,"time":4},{"distance":4566,"station_name":"Rawa Buntu","line":6,"i_long":106.675475,"time":6,"is_transit":false,"station_id":"RU","transit":false,"i_lat":-6.314823},{"station_id":"SRP","i_lat":-6.319871,"distance":2413,"station_name":"Serpong","is_transit":false,"transit":false,"i_long":106.66566,"time":4,"line":6},{"time":4,"distance":1784,"station_id":"CSK","transit":false,"i_long":106.640411,"i_lat":-6.32484,"line":3,"station_name":"Cisauk","is_transit":false},{"station_id":"CC","time":4,"transit":false,"station_name":"Cicayur","i_lat":-6.329547,"is_transit":false,"distance":2519,"line":3,"i_long":106.617853},{"line":6,"i_long":106.568863,"is_transit":false,"transit":false,"station_id":"PRP","time":8,"distance":5968,"i_lat":-6.3441410000000005,"station_name":"Parung Panjang"},{"line":3,"distance":7025,"station_name":"Cilejit","time":9,"i_lat":-6.354349,"i_long":106.508482,"is_transit":false,"station_id":"CJT","transit":false},{"i_lat":-6.338021,"i_long":106.491338,"station_name":"Daru","transit":false,"station_id":"DAR","is_transit":false,"distance":2675,"line":0,"time":6},{"transit":false,"i_lat":-6.327251,"i_long":106.460812,"station_name":"Tenjo","is_transit":false,"time":5,"station_id":"TEJ","line":6,"distance":3902}],[{"transit":false,"i_long":106.857948,"line":2,"i_lat":-6.226659,"time":0,"distance":0,"station_name":"Tebet","station_id":"TEB","is_transit":false},{"i_long":106.84912,"station_id":"MRI","distance":2610,"time":4,"transit":false,"is_transit":false,"station_name":"Manggarai","line":2,"i_lat":-6.209883},{"i_lat":-6.198556,"i_long":106.840169,"transit":false,"distance":1590,"station_name":"Cikini","line":2,"is_transit":false,"time":4,"station_id":"CKI"},{"station_name":"Gondangdia","is_transit":false,"i_long":106.832183,"station_id":"GDD","distance":1750,"i_lat":-6.186295,"time":3,"line":2,"transit":false},{"station_id":"JUA","line":2,"distance":2015,"i_lat":-6.166716,"transit":false,"i_long":106.828284,"time":4,"is_transit":false,"station_name":"Juanda"},{"is_transit":false,"time":2,"distance":1149,"station_name":"Sawah Besar","i_long":106.827103,"i_lat":-6.160725,"station_id":"SW","transit":false,"line":2},{"transit":false,"is_transit":false,"station_name":"Manggabesar","i_long":106.82482,"time":2,"i_lat":-6.149769,"line":2,"distance":906,"station_id":"MGB"},{"station_name":"Jayakarta","time":2,"distance":1080,"is_transit":false,"i_lat":-6.141205,"transit":false,"line":2,"station_id":"JAY","i_long":106.820901},{"station_id":"JAKK","station_name":"Jakarta Kota","i_lat":-6.137569,"time":4,"distance":1264,"is_transit":true,"transit":true,"i_long":106.812439,"line":2},{"transit":true,"line":4,"station_name":"Kampung Bandan","station_id":"KPB","is_transit":true,"i_long":106.826365,"i_lat":-6.132549,"time":3,"distance":1364},{"i_lat":-6.144674,"i_long":106.79867,"line":1,"station_id":"AK","time":9,"station_name":"Angke","distance":4102,"is_transit":false,"transit":false},{"is_transit":false,"station_id":"DU","distance":1230,"station_name":"Duri","i_lat":-6.155215,"i_long":106.800832,"line":1,"time":4,"transit":false},{"line":1,"station_name":"Tanah Abang","i_long":106.811091,"time":8,"distance":3632,"transit":true,"station_id":"THB","i_lat":-6.185545,"is_transit":true},{"line":6,"station_name":"Palmerah","time":6,"is_transit":false,"transit":false,"station_id":"PLM","distance":3191,"i_lat":-6.207404,"i_long":106.79689},{"is_transit":false,"station_id":"KBY","transit":false,"i_long":106.780334,"time":7,"station_name":"Kebayoran","i_lat":-6.237242,"distance":3737,"line":6},{"transit":false,"station_id":"PDJ","line":6,"time":8,"is_transit":false,"i_lat":-6.276362,"i_long":106.74273,"distance":6218,"station_name":"Pondokranji"},{"i_long":106.728916,"station_id":"JMU","time":3,"transit":false,"i_lat":-6.288927,"line":6,"distance":2179,"station_name":"Jurangmangu","is_transit":false},{"i_long":106.712277,"distance":1994,"time":4,"station_id":"SDM","station_name":"Sudimara","is_transit":false,"transit":false,"line":6,"i_lat":-6.296963},{"is_transit":false,"i_long":106.675475,"station_id":"RU","time":6,"transit":false,"distance":4566,"station_name":"Rawa Buntu","line":6,"i_lat":-6.314823},{"time":4,"distance":2413,"transit":false,"line":6,"i_lat":-6.319871,"i_long":106.66566,"station_id":"SRP","station_name":"Serpong","is_transit":false},{"is_transit":false,"i_long":106.640411,"time":4,"transit":false,"line":3,"station_id":"CSK","distance":1784,"station_name":"Cisauk","i_lat":-6.32484},{"is_transit":false,"distance":2519,"time":4,"i_lat":-6.329547,"station_id":"CC","station_name":"Cicayur","transit":false,"line":3,"i_long":106.617853},{"transit":false,"i_lat":-6.3441410000000005,"time":8,"line":6,"is_transit":false,"station_id":"PRP","distance":5968,"station_name":"Parung Panjang","i_long":106.568863},{"is_transit":false,"i_long":106.508482,"distance":7025,"station_name":"Cilejit","transit":false,"station_id":"CJT","i_lat":-6.354349,"time":9,"line":3},{"time":6,"line":0,"is_transit":false,"distance":2675,"i_long":106.491338,"station_id":"DAR","station_name":"Daru","transit":false,"i_lat":-6.338021},{"is_transit":false,"line":6,"station_name":"Tenjo","i_lat":-6.327251,"time":5,"station_id":"TEJ","i_long":106.460812,"distance":3902,"transit":false}],[{"is_transit":false,"distance":0,"time":0,"station_name":"Tebet","transit":false,"station_id":"TEB","line":2,"i_long":106.857948,"i_lat":-6.226659},{"i_long":106.84912,"time":4,"transit":true,"i_lat":-6.209883,"station_id":"MRI","station_name":"Manggarai","line":2,"is_transit":true,"distance":2610},{"i_long":106.858896,"line":1,"station_name":"Matraman","distance":1275,"is_transit":false,"time":2,"transit":false,"station_id":"MTR","i_lat":-6.212485},{"i_long":106.86807400000001,"is_transit":true,"time":8,"station_id":"JNG","station_name":"Jatinegara","transit":true,"line":1,"i_lat":-6.215091,"distance":1377},{"i_lat":-6.209188,"distance":1236,"is_transit":false,"transit":false,"i_long":106.861737,"time":2,"station_id":"POK","station_name":"Pondok Jati","line":11},{"is_transit":false,"line":11,"station_id":"KMT","station_name":"Kramat","i_lat":-6.193792,"distance":1829,"transit":false,"i_long":106.855437,"time":2},{"i_long":106.850107,"station_id":"GST","distance":973,"is_transit":false,"transit":false,"station_name":"Gang Sentiong","time":1,"i_lat":-6.185975,"line":11},{"time":8,"line":11,"transit":false,"station_id":"PSE","distance":1567,"station_name":"Pasar Senen","i_lat":-6.174784,"i_long":106.84368,"is_transit":false},{"i_lat":-6.161728,"time":4,"line":11,"station_id":"KMO","station_name":"Kemayoran","distance":1436,"i_long":106.839204,"is_transit":false,"transit":false},{"is_transit":false,"i_lat":-6.14505,"transit":false,"i_long":106.836569,"station_id":"RJW","line":11,"station_name":"Rajawali","time":5,"distance":1901},{"i_long":106.826365,"transit":true,"line":4,"i_lat":-6.132549,"is_transit":true,"station_name":"Kampung Bandan","station_id":"KPB","distance":1444,"time":3},{"i_lat":-6.144674,"i_long":106.79867,"distance":4102,"line":1,"is_transit":false,"time":9,"station_name":"Angke","station_id":"AK","transit":false},{"transit":false,"i_long":106.800832,"line":1,"i_lat":-6.155215,"distance":1230,"station_id":"DU","station_name":"Duri","is_transit":false,"time":4},{"i_long":106.811091,"i_lat":-6.185545,"distance":3632,"line":1,"station_name":"Tanah Abang","time":8,"is_transit":true,"station_id":"THB","transit":true},{"line":6,"distance":3191,"i_long":106.79689,"i_lat":-6.207404,"is_transit":false,"transit":false,"station_id":"PLM","station_name":"Palmerah","time":6},{"time":7,"distance":3737,"station_id":"KBY","transit":false,"station_name":"Kebayoran","i_long":106.780334,"is_transit":false,"line":6,"i_lat":-6.237242},{"station_id":"PDJ","line":6,"i_long":106.74273,"is_transit":false,"i_lat":-6.276362,"station_name":"Pondokranji","transit":false,"time":8,"distance":6218},{"station_name":"Jurangmangu","is_transit":false,"transit":false,"station_id":"JMU","i_lat":-6.288927,"line":6,"distance":2179,"time":3,"i_long":106.728916},{"line":6,"i_long":106.712277,"is_transit":false,"i_lat":-6.296963,"station_id":"SDM","time":4,"station_name":"Sudimara","distance":1994,"transit":false},{"line":6,"is_transit":false,"distance":4566,"transit":false,"station_name":"Rawa Buntu","station_id":"RU","time":6,"i_lat":-6.314823,"i_long":106.675475},{"station_id":"SRP","is_transit":false,"time":4,"transit":false,"i_long":106.66566,"station_name":"Serpong","i_lat":-6.319871,"distance":2413,"line":6},{"i_lat":-6.32484,"i_long":106.640411,"line":3,"station_name":"Cisauk","is_transit":false,"time":4,"distance":1784,"transit":false,"station_id":"CSK"},{"station_name":"Cicayur","i_lat":-6.329547,"line":3,"station_id":"CC","time":4,"is_transit":false,"distance":2519,"transit":false,"i_long":106.617853},{"time":8,"line":6,"distance":5968,"station_name":"Parung Panjang","station_id":"PRP","i_lat":-6.3441410000000005,"transit":false,"i_long":106.568863,"is_transit":false},{"station_name":"Cilejit","is_transit":false,"transit":false,"distance":7025,"station_id":"CJT","i_lat":-6.354349,"time":9,"i_long":106.508482,"line":3},{"line":0,"station_name":"Daru","time":6,"i_lat":-6.338021,"distance":2675,"transit":false,"station_id":"DAR","i_long":106.491338,"is_transit":false},{"i_lat":-6.327251,"transit":false,"i_long":106.460812,"station_name":"Tenjo","is_transit":false,"distance":3902,"station_id":"TEJ","line":6,"time":5}]]}