{"data":[[{"transit":false,"station_id":"TEB","time":0,"i_lat":-6.226659,"line":2,"i_long":106.857948,"station_name":"Tebet","is_transit":false,"distance":0},{"station_id":"MRI","transit":true,"line":2,"is_transit":true,"i_long":106.84912,"station_name":"Manggarai","time":4,"i_lat":-6.209883,"distance":2610},{"time":4,"distance":3186,"i_lat":-6.202263,"line":1,"station_name":"Sudirman","i_long":106.822649,"transit":false,"station_id":"SUD","is_transit":false},{"transit":false,"station_id":"SUDB","distance":280,"i_lat":-6.201433,"line":1,"is_transit":false,"time":1,"station_name":"Sudirman Baru","i_long":106.819881},{"station_name":"Karet","is_transit":false,"station_id":"KAT","time":1,"transit":false,"distance":471,"i_lat":-6.20132,"line":1,"i_long":106.816351},{"i_long":106.811091,"line":1,"station_id":"THB","station_name":"Tanah Abang","transit":true,"time":5,"i_lat":-6.185545,"distance":2029,"is_transit":true},{"transit":false,"station_name":"Palmerah","is_transit":false,"time":6,"distance":3191,"i_long":106.79689,"i_lat":-6.207404,"station_id":"PLM","line":6},{"time":7,"transit":false,"station_id":"KBY","is_transit":false,"i_lat":-6.237242,"i_long":106.780334,"distance":3737,"station_name":"Kebayoran","line":6},{"line":6,"station_id":"PDJ","transit":false,"i_lat":-6.276362,"i_long":106.74273,"distance":6218,"station_name":"Pondokranji","is_transit":false,"time":8},{"transit":false,"time":3,"i_long":106.728916,"is_transit":false,"line":6,"distance":2179,"station_name":"Jurangmangu","station_id":"JMU","i_lat":-6.288927},{"distance":1994,"station_name":"Sudimara","station_id":"SDM","is_transit":false,"time":4,"transit":false,"i_long":106.712277,"line":6,"i_lat":-6.296963},{"station_id":"RU","station_name":"Rawa Buntu","i_long":106.675475,"time":6,"is_transit":false,"line":6,"i_lat":-6.314823,"transit":false,"distance":4566},{"is_transit":false,"station_name":"Serpong","i_long":106.66566,"line":6,"station_id":"SRP","distance":2413,"transit":false,"i_lat":-6.319871,"time":4},{"station_name":"Cisauk","is_transit":false,"i_lat":-6.32484,"station_id":"CSK","distance":1784,"i_long":106.640411,"line":3,"transit":false,"time":4},{"is_transit":false,"distance":2519,"i_lat":-6.329547,"time":4,"i_long":106.617853,"line":3,"station_name":"Cicayur","station_id":"CC","transit":false},{"distance":5968,"i_long":106.568863,"line":6,"transit":false,"station_name":"Parung Panjang","station_id":"PRP","i_lat":-6.3441410000000005,"time":8,"is_transit":false},{"i_long":106.508482,"time":9,"transit":false,"station_name":"Cilejit","station_id":"CJT","i_lat":-6.354349,"line":3,"is_transit":false,"distance":7025},{"transit":false,"i_lat":-6.338021,"line":0,"is_transit":false,"time":6,"distance":2675,"station_id":"DAR","station_name":"Daru","i_long":106.491338},{"distance":3902,"i_lat":-6.327251,"station_id":"TEJ","i_long":106.460812,"line":6,"station_name":"Tenjo","time":5,"transit":false,"is_transit":false}],[{"station_id":"TEB","time":0,"transit":false,"distance":0,"i_lat":-6.226659,"station_name":"Tebet","i_long":106.857948,"is_transit":false,"line":2},{"distance":2610,"i_long":106.84912,"station_name":"Manggarai","station_id":"MRI","i_lat":-6.209883,"time":4,"transit":false,"is_transit":false,"line":2},{"station_name":"Cikini","station_id":"CKI","distance":1590,"is_transit":false,"time":4,"line":2,"i_lat":-6.198556,"transit":false,"i_long":106.840169},{"transit":false,"station_id":"GDD","distance":1750,"i_long":106.832183,"i_lat":-6.186295,"time":3,"station_name":"Gondangdia","is_transit":false,"line":2},{"i_long":106.828284,"transit":false,"station_id":"JUA","station_name":"Juanda","is_transit":false,"time":4,"distance":2015,"i_lat":-6.166716,"line":2},{"distance":1149,"transit":false,"station_name":"Sawah Besar","time":2,"line":2,"i_long":106.827103,"is_transit":false,"station_id":"SW","i_lat":-6.160725},{"is_transit":false,"line":2,"distance":906,"i_long":106.82482,"transit":false,"station_name":"Manggabesar","station_id":"MGB","time":2,"i_lat":-6.149769},{"i_long":106.820901,"i_lat":-6.141205,"station_id":"JAY","time":2,"distance":1080,"transit":false,"station_name":"Jayakarta","is_transit":false,"line":2},{"station_id":"JAKK","is_transit":true,"i_lat":-6.137569,"line":2,"i_long":106.812439,"time":4,"distance":1264,"transit":true,"station_name":"Jakarta Kota"},{"is_transit":true,"transit":true,"station_id":"KPB","distance":1364,"i_lat":-6.132549,"time":3,"i_long":106.826365,"line":4,"station_name":"Kampung Bandan"},{"transit":false,"station_name":"Angke","is_transit":false,"time":9,"line":1,"i_long":106.79867,"station_id":"AK","distance":4102,"i_lat":-6.144674},{"transit":false,"distance":1230,"i_lat":-6.155215,"i_long":106.800832,"is_transit":false,"time":4,"line":1,"station_id":"DU","station_name":"Duri"},{"is_transit":true,"transit":true,"i_lat":-6.185545,"station_id":"THB","i_long":106.811091,"distance":3632,"time":8,"line":1,"station_name":"Tanah Abang"},{"i_lat":-6.207404,"is_transit":false,"time":6,"station_id":"PLM","transit":false,"distance":3191,"i_long":106.79689,"line":6,"station_name":"Palmerah"},{"line":6,"station_name":"Kebayoran","transit":false,"time":7,"distance":3737,"is_transit":false,"i_lat":-6.237242,"i_long":106.780334,"station_id":"KBY"},{"i_lat":-6.276362,"is_transit":false,"time":8,"i_long":106.74273,"station_id":"PDJ","transit":false,"distance":6218,"station_name":"Pondokranji","line":6},{"station_id":"JMU","station_name":"Jurangmangu","distance":2179,"transit":false,"is_transit":false,"time":3,"i_lat":-6.288927,"i_long":106.728916,"line":6},{"transit":false,"station_name":"Sudimara","station_id":"SDM","distance":1994,"i_lat":-6.296963,"line":6,"i_long":106.712277,"is_transit":false,"time":4},{"line":6,"station_name":"Rawa Buntu","i_lat":-6.314823,"i_long":106.675475,"distance":4566,"time":6,"station_id":"RU","transit":false,"is_transit":false},{"station_id":"SRP","is_transit":false,"transit":false,"distance":2413,"station_name":"Serpong","i_long":106.66566,"line":6,"i_lat":-6.319871,"time":4},{"station_name":"Cisauk","line":3,"i_long":106.640411,"distance":1784,"i_lat":-6.32484,"transit":false,"time":4,"is_transit":false,"station_id":"CSK"},{"is_transit":false,"time":4,"station_name":"Cicayur","distance":2519,"i_lat":-6.329547,"i_long":106.617853,"transit":false,"station_id":"CC","line":3},{"distance":5968,"i_lat":-6.3441410000000005,"line":6,"transit":false,"i_long":106.568863,"station_name":"Parung Panjang","is_transit":false,"station_id":"PRP","time":8},{"time":9,"i_lat":-6.354349,"line":3,"station_name":"Cilejit","distance":7025,"is_transit":false,"i_long":106.508482,"transit":false,"station_id":"CJT"},{"i_long":106.491338,"is_transit":false,"station_name":"Daru","time":6,"distance":2675,"transit":false,"i_lat":-6.338021,"station_id":"DAR","line":0},{"time":5,"i_lat":-6.327251,"i_long":106.460812,"transit":false,"station_id":"TEJ","is_transit":false,"station_name":"Tenjo","line":6,"distance":3902}],[{"transit":false,"line":2,"distance":0,"i_lat":-6.226659,"is_transit":false,"station_id":"TEB","time":0,"i_long":106.857948,"station_name":"Tebet"},{"station_name":"Manggarai","time":4,"i_long":106.84912,"line":2,"station_id":"MRI","is_transit":true,"i_lat":-6.209883,"distance":2610,"transit":true},{"i_lat":-6.212485,"station_name":"Matraman","line":1,"is_transit":false,"time":2,"distance":1275,"i_long":106.858896,"station_id":"MTR","transit":false},{"i_long":106.86807400000001,"station_id":"JNG","line":1,"i_lat":-6.215091,"transit":true,"is_transit":true,"station_name":"Jatinegara","distance":1377,"time":8},{"distance":1236,"line":11,"is_transit":false,"time":2,"i_long":106.861737,"station_name":"Pondok Jati","transit":false,"station_id":"POK","i_lat":-6.209188},{"distance":1829,"i_long":106.855437,"transit":false,"line":11,"station_name":"Kramat","station_id":"KMT","time":2,"is_transit":false,"i_lat":-6.193792},{"time":1,"station_name":"Gang Sentiong","is_transit":false,"distance":973,"i_lat":-6.185975,"line":11,"transit":false,"station_id":"GST","i_long":106.850107},{"transit":false,"i_lat":-6.174784,"line":11,"is_transit":false,"station_id":"PSE","distance":1567,"i_long":106.84368,"time":8,"station_name":"Pasar Senen"},{"station_name":"Kemayoran","i_lat":-6.161728,"i_long":106.839204,"transit":false,"is_transit":false,"distance":1436,"station_id":"KMO","time":4,"line":11},{"i_lat":-6.14505,"line":11,"station_name":"Rajawali","station_id":"RJW","transit":false,"is_transit":false,"i_long":106.836569,"distance":1901,"time":5},{"is_transit":true,"time":3,"i_long":106.826365,"transit":true,"line":4,"distance":1444,"station_name":"Kampung Bandan","i_lat":-6.132549,"station_id":"KPB"},{"i_lat":-6.144674,"is_transit":false,"i_long":106.79867,"station_id":"AK","station_name":"Angke","distance":4102,"transit":false,"time":9,"line":1},{"time":4,"station_id":"DU","is_transit":false,"line":1,"transit":false,"i_lat":-6.155215,"station_name":"Duri","distance":1230,"i_long":106.800832},{"time":8,"transit":true,"distance":3632,"station_name":"Tanah Abang","line":1,"i_lat":-6.185545,"i_long":106.811091,"station_id":"THB","is_transit":true},{"line":6,"i_lat":-6.207404,"is_transit":false,"transit":false,"station_id":"PLM","time":6,"distance":3191,"i_long":106.79689,"station_name":"Palmerah"},{"station_name":"Kebayoran","time":7,"distance":3737,"i_lat":-6.237242,"i_long":106.780334,"is_transit":false,"station_id":"KBY","line":6,"transit":false},{"i_lat":-6.276362,"transit":false,"distance":6218,"time":8,"station_id":"PDJ","station_name":"Pondokranji","i_long":106.74273,"line":6,"is_transit":false},{"time":3,"transit":false,"station_name":"Jurangmangu","station_id":"JMU","distance":2179,"line":6,"i_long":106.728916,"i_lat":-6.288927,"is_transit":false},{"distance":1994,"time":4,"line":6,"transit":false,"station_name":"Sudimara","i_long":106.712277,"station_id":"SDM","is_transit":false,"i_lat":-6.296963},{"i_long":106.675475,"station_id":"RU","line":6,"station_name":"Rawa Buntu","time":6,"i_lat":-6.314823,"distance":4566,"transit":false,"is_transit":false},{"distance":2413,"time":4,"transit":false,"line":6,"is_transit":false,"i_long":106.66566,"station_id":"SRP","i_lat":-6.319871,"station_name":"Serpong"},{"station_id":"CSK","distance":1784,"is_transit":false,"transit":false,"station_name":"Cisauk","i_long":106.640411,"line":3,"time":4,"i_lat":-6.32484},{"i_lat":-6.329547,"is_transit":false,"distance":2519,"i_long":106.617853,"transit":false,"station_name":"Cicayur","line":3,"station_id":"CC","time":4},{"time":8,"station_name":"Parung Panjang","distance":5968,"i_long":106.568863,"is_transit":false,"i_lat":-6.3441410000000005,"line":6,"station_id":"PRP","transit":false},{"line":3,"time":9,"is_transit":false,"station_id":"CJT","i_lat":-6.354349,"distance":7025,"i_long":106.508482,"station_name":"Cilejit","transit":false},{"time":6,"transit":false,"station_name":"Daru","distance":2675,"i_lat":-6.338021,"i_long":106.491338,"station_id":"DAR","line":0,"is_transit":false},{"transit":false,"i_long":106.460812,"time":5,"distance":3902,"i_lat":-6.327251,"station_name":"Tenjo","station_id":"TEJ","is_transit":false,"line":6}]]}