{"data":[[{"line":2,"station_id":"TEB","time":0,"station_name":"Tebet","is_transit":false,"transit":false,"i_lat":-6.226659,"i_long":106.857948,"distance":0},{"distance":2610,"station_name":"Manggarai","is_transit":false,"transit":false,"time":4,"i_lat":-6.209883,"station_id":"MRI","i_long":106.84912,"line":2},{"transit":false,"station_name":"Cikini","is_transit":false,"i_long":106.840169,"time":4,"station_id":"CKI","i_lat":-6.198556,"line":2,"distance":1590}],[{"station_name":"Tebet","is_transit":false,"i_lat":-6.226659,"line":2,"i_long":106.857948,"time":0,"distance":0,"station_id":"TEB","transit":false},{"is_transit":true,"time":4,"line":2,"distance":2610,"i_long":106.84912,"transit":true,"station_id":"MRI","i_lat":-6.209883,"station_name":"Manggarai"},{"distance":3186,"is_transit":false,"station_name":"Sudirman","i_lat":-6.202263,"station_id":"SUD","time":4,"transit":false,"line":1,"i_long":106.822649},{"transit":false,"is_transit":false,"station_id":"SUDB","station_name":"Sudirman Baru","time":1,"i_long":106.819881,"line":1,"distance":280,"i_lat":-6.201433},{"transit":false,"station_name":"Karet","i_lat":-6.20132,"station_id":"KAT","i_long":106.816351,"line":1,"time":1,"is_transit":false,"distance":471},{"line":1,"is_transit":false,"distance":2029,"time":5,"station_name":"Tanah Abang","i_lat":-6.185545,"i_long":106.811091,"station_id":"THB","transit":false},{"transit":false,"distance":3632,"is_transit":false,"i_lat":-6.155215,"i_long":106.800832,"time":8,"line":1,"station_id":"DU","station_name":"Duri"},{"is_transit":false,"i_long":106.79867,"time":4,"distance":1230,"station_id":"AK","transit":false,"i_lat":-6.144674,"station_name":"Angke","line":1},{"transit":true,"line":4,"time":9,"i_lat":-6.132549,"distance":4102,"is_transit":true,"i_long":106.826365,"station_id":"KPB","station_name":"Kampung Bandan"},{"distance":1364,"i_long":106.812439,"station_id":"JAKK","transit":true,"station_name":"Jakarta Kota","line":2,"time":3,"is_transit":true,"i_lat":-6.137569},{"line":2,"transit":false,"station_name":"Jayakarta","time":4,"is_transit":false,"i_long":106.820901,"station_id":"JAY","distance":1264,"i_lat":-6.141205},{"time":2,"is_transit":false,"transit":false,"station_id":"MGB","i_lat":-6.149769,"i_long":106.82482,"distance":1080,"station_name":"Manggabesar","line":2},{"is_transit":false,"station_id":"SW","transit":false,"i_lat":-6.160725,"i_long":106.827103,"distance":906,"station_name":"Sawah Besar","line":2,"time":2},{"i_long":106.828284,"distance":1149,"transit":false,"is_transit":false,"i_lat":-6.166716,"station_name":"Juanda","line":2,"time":2,"station_id":"JUA"},{"distance":2015,"is_transit":false,"time":4,"line":2,"station_id":"GDD","i_lat":-6.186295,"i_long":106.832183,"station_name":"Gondangdia","transit":false},{"line":2,"i_lat":-6.198556,"time":3,"station_id":"CKI","is_transit":false,"distance":1750,"i_long":106.840169,"transit":false,"station_name":"Cikini"}],[{"i_lat":-6.226659,"i_long":106.857948,"line":2,"station_id":"TEB","distance":0,"transit":false,"station_name":"Tebet","is_transit":false,"time":0},{"is_transit":true,"distance":2610,"i_long":106.84912,"station_name":"Manggarai","time":4,"i_lat":-6.209883,"station_id":"MRI","transit":true,"line":2},{"i_lat":-6.212485,"time":2,"transit":false,"line":1,"is_transit":false,"station_name":"Matraman","station_id":"MTR","i_long":106.858896,"distance":1275},{"line":1,"station_id":"JNG","transit":true,"is_transit":true,"distance":1377,"time":8,"station_name":"Jatinegara","i_lat":-6.215091,"i_long":106.86807400000001},{"station_name":"Pondok Jati","line":11,"is_transit":false,"station_id":"POK","time":2,"transit":false,"distance":1236,"i_long":106.861737,"i_lat":-6.209188},{"line":11,"station_name":"Kramat","distance":1829,"transit":false,"time":2,"is_transit":false,"i_lat":-6.193792,"station_id":"KMT","i_long":106.855437},{"transit":false,"time":1,"distance":973,"station_id":"GST","station_name":"Gang Sentiong","i_lat":-6.185975,"is_transit":false,"i_long":106.850107,"line":11},{"time":8,"transit":false,"distance":1567,"is_transit":false,"line":11,"i_long":106.84368,"station_id":"PSE","station_name":"Pasar Senen","i_lat":-6.174784},{"transit":false,"i_lat":-6.161728,"station_id":"KMO","station_name":"Kemayoran","i_long":106.839204,"time":4,"is_transit":false,"line":11,"distance":1436},{"station_name":"Rajawali","line":11,"is_transit":false,"distance":1901,"i_lat":-6.14505,"station_id":"RJW","transit":false,"time":5,"i_long":106.836569},{"line":4,"transit":true,"station_id":"KPB","i_lat":-6.132549,"time":3,"distance":1444,"station_name":"Kampung Bandan","is_transit":true,"i_long":106.826365},{"line":2,"time":3,"distance":1364,"station_id":"JAKK","i_lat":-6.137569,"is_transit":true,"station_name":"Jakarta Kota","transit":true,"i_long":106.812439},{"i_long":106.820901,"line":2,"i_lat":-6.141205,"transit":false,"station_name":"Jayakarta","distance":1264,"time":4,"is_transit":false,"station_id":"JAY"},{"i_lat":-6.149769,"station_name":"Manggabesar","station_id":"MGB","i_long":106.82482,"time":2,"line":2,"distance":1080,"transit":false,"is_transit":false},{"is_transit":false,"i_lat":-6.160725,"time":2,"i_long":106.827103,"transit":false,"station_name":"Sawah Besar","line":2,"distance":906,"station_id":"SW"},{"transit":false,"is_transit":false,"i_long":106.828284,"line":2,"i_lat":-6.166716,"time":2,"distance":1149,"station_id":"JUA","station_name":"Juanda"},{"station_name":"Gondangdia","station_id":"GDD","i_lat":-6.186295,"transit":false,"i_long":106.832183,"line":2,"distance":2015,"is_transit":false,"time":4},{"line":2,"is_transit":false,"time":3,"transit":false,"station_id":"CKI","i_lat":-6.198556,"i_long":106.840169,"station_name":"Cikini","distance":1750}]]}