{"data":[[{"distance":0,"is_transit":false,"station_name":"Tebet","line":2,"i_long":106.857948,"transit":false,"station_id":"TEB","i_lat":-6.226659,"time":0},{"station_name":"Manggarai","distance":2610,"time":4,"line":2,"transit":true,"i_long":106.84912,"station_id":"MRI","i_lat":-6.209883,"is_transit":true},{"distance":3186,"station_name":"Sudirman","line":1,"station_id":"SUD","time":4,"is_transit":false,"transit":false,"i_lat":-6.202263,"i_long":106.822649},{"distance":280,"station_name":"Sudirman Baru","i_lat":-6.201433,"i_long":106.819881,"line":1,"station_id":"SUDB","transit":false,"is_transit":false,"time":1},{"is_transit":false,"i_lat":-6.20132,"line":1,"station_id":"KAT","distance":471,"transit":false,"i_long":106.816351,"station_name":"Karet","time":1},{"station_id":"THB","transit":false,"station_name":"Tanah Abang","distance":2029,"i_long":106.811091,"is_transit":false,"i_lat":-6.185545,"time":5,"line":1},{"time":8,"distance":3632,"is_transit":true,"i_long":106.800832,"line":1,"transit":true,"i_lat":-6.155215,"station_id":"DU","station_name":"Duri"},{"distance":1700,"station_name":"Grogol","i_long":106.788277,"i_lat":-6.162021,"line":5,"time":3,"is_transit":false,"transit":false,"station_id":"GGL"},{"transit":false,"time":2,"is_transit":false,"distance":2036,"station_name":"Pesing","line":5,"i_lat":-6.161433,"station_id":"PSG","i_long":106.771379}],[{"i_lat":-6.226659,"is_transit":false,"i_long":106.857948,"distance":0,"station_name":"Tebet","line":2,"transit":false,"station_id":"TEB","time":0},{"transit":false,"is_transit":false,"station_name":"Manggarai","distance":2610,"station_id":"MRI","i_lat":-6.209883,"time":4,"line":2,"i_long":106.84912},{"i_lat":-6.198556,"station_name":"Cikini","i_long":106.840169,"line":2,"station_id":"CKI","is_transit":false,"distance":1590,"time":4,"transit":false},{"is_transit":false,"distance":1750,"i_long":106.832183,"time":3,"station_id":"GDD","station_name":"Gondangdia","i_lat":-6.186295,"line":2,"transit":false},{"i_long":106.828284,"distance":2015,"time":4,"station_id":"JUA","is_transit":false,"line":2,"station_name":"Juanda","transit":false,"i_lat":-6.166716},{"is_transit":false,"i_lat":-6.160725,"distance":1149,"line":2,"station_id":"SW","time":2,"station_name":"Sawah Besar","transit":false,"i_long":106.827103},{"time":2,"station_name":"Manggabesar","i_lat":-6.149769,"distance":906,"is_transit":false,"station_id":"MGB","transit":false,"line":2,"i_long":106.82482},{"distance":1080,"line":2,"transit":false,"i_long":106.820901,"i_lat":-6.141205,"is_transit":false,"time":2,"station_id":"JAY","station_name":"Jayakarta"},{"station_id":"JAKK","transit":true,"line":2,"i_long":106.812439,"station_name":"Jakarta Kota","i_lat":-6.137569,"time":4,"is_transit":true,"distance":1264},{"time":3,"station_id":"KPB","i_lat":-6.132549,"line":4,"transit":true,"is_transit":true,"station_name":"Kampung Bandan","distance":1364,"i_long":106.826365},{"i_lat":-6.144674,"is_transit":false,"station_id":"AK","line":1,"station_name":"Angke","distance":4102,"transit":false,"i_long":106.79867,"time":9},{"i_lat":-6.155215,"time":4,"station_name":"Duri","i_long":106.800832,"station_id":"DU","transit":true,"is_transit":true,"line":1,"distance":1230},{"distance":1700,"time":3,"i_long":106.788277,"line":5,"i_lat":-6.162021,"station_id":"GGL","station_name":"Grogol","is_transit":false,"transit":false},{"station_name":"Pesing","line":5,"i_long":106.771379,"station_id":"PSG","i_lat":-6.161433,"time":2,"distance":2036,"is_transit":false,"transit":false}],[{"distance":0,"time":0,"is_transit":false,"i_lat":-6.226659,"station_name":"Tebet","station_id":"TEB","transit":false,"line":2,"i_long":106.857948},{"i_lat":-6.209883,"i_long":106.84912,"line":2,"distance":2610,"station_name":"Manggarai","time":4,"is_transit":true,"transit":true,"station_id":"MRI"},{"is_transit":false,"time":2,"station_name":"Matraman","line":1,"transit":false,"i_long":106.858896,"i_lat":-6.212485,"station_id":"MTR","distance":1275},{"i_lat":-6.215091,"line":1,"i_long":106.86807400000001,"distance":1377,"station_id":"JNG","time":8,"station_name":"Jatinegara","is_transit":true,"transit":true},{"i_long":106.861737,"station_name":"Pondok Jati","is_transit":false,"transit":false,"distance":1236,"time":2,"station_id":"POK","i_lat":-6.209188,"line":11},{"i_lat":-6.193792,"time":2,"transit":false,"station_name":"Kramat","i_long":106.855437,"line":11,"station_id":"KMT","is_transit":false,"distance":1829},{"transit":false,"i_lat":-6.185975,"station_name":"Gang Sentiong","station_id":"GST","time":1,"distance":973,"is_transit":false,"i_long":106.850107,"line":11},{"transit":false,"is_transit":false,"time":8,"station_id":"PSE","line":11,"i_long":106.84368,"i_lat":-6.174784,"distance":1567,"station_name":"Pasar Senen"},{"station_name":"Kemayoran","time":4,"distance":1436,"station_id":"KMO","line":11,"i_lat":-6.161728,"is_transit":false,"transit":false,"i_long":106.839204},{"time":5,"station_name":"Rajawali","i_long":106.836569,"line":11,"i_lat":-6.14505,"station_id":"RJW","transit":false,"distance":1901,"is_transit":false},{"station_name":"Kampung Bandan","station_id":"KPB","time":3,"transit":true,"i_long":106.826365,"is_transit":true,"i_lat":-6.132549,"line":4,"distance":1444},{"line":1,"distance":4102,"transit":false,"time":9,"i_long":106.79867,"is_transit":false,"i_lat":-6.144674,"station_name":"Angke","station_id":"AK"},{"transit":true,"i_lat":-6.155215,"is_transit":true,"time":4,"station_id":"DU","i_long":106.800832,"distance":1230,"station_name":"Duri","line":1},{"is_transit":false,"station_name":"Grogol","i_long":106.788277,"time":3,"distance":1700,"line":5,"i_lat":-6.162021,"station_id":"GGL","transit":false},{"distance":2036,"is_transit":false,"station_id":"PSG","i_lat":-6.161433,"time":2,"transit":false,"station_name":"Pesing","line":5,"i_long":106.771379}]]}