{"data":[[{"station_id":"TEB","transit":false,"time":0,"station_name":"Tebet","is_transit":false,"distance":0,"i_lat":-6.226659,"i_long":106.857948,"line":2},{"time":4,"distance":2610,"line":2,"is_transit":false,"station_id":"MRI","transit":false,"i_lat":-6.209883,"station_name":"Manggarai","i_long":106.84912},{"is_transit":false,"i_long":106.840169,"line":2,"time":4,"station_id":"CKI","station_name":"Cikini","i_lat":-6.198556,"distance":1590,"transit":false},{"transit":false,"is_transit":false,"i_lat":-6.186295,"distance":1750,"station_name":"Gondangdia","station_id":"GDD","time":3,"i_long":106.832183,"line":2},{"time":4,"station_name":"Juanda","transit":false,"station_id":"JUA","i_lat":-6.166716,"line":2,"distance":2015,"is_transit":false,"i_long":106.828284},{"transit":false,"station_id":"SW","is_transit":false,"i_long":106.827103,"i_lat":-6.160725,"time":2,"distance":1149,"station_name":"Sawah Besar","line":2}],[{"distance":0,"is_transit":false,"station_name":"Tebet","line":2,"i_long":106.857948,"time":0,"i_lat":-6.226659,"station_id":"TEB","transit":false},{"i_long":106.84912,"station_name":"Manggarai","distance":2610,"is_transit":true,"i_lat":-6.209883,"transit":true,"station_id":"MRI","time":4,"line":2},{"i_long":106.822649,"i_lat":-6.202263,"transit":false,"time":4,"station_name":"Sudirman","station_id":"SUD","is_transit":false,"distance":3186,"line":1},{"transit":false,"line":1,"time":1,"station_id":"SUDB","is_transit":false,"distance":280,"station_name":"Sudirman Baru","i_lat":-6.201433,"i_long":106.819881},{"is_transit":false,"line":1,"time":1,"distance":471,"i_lat":-6.20132,"transit":false,"i_long":106.816351,"station_id":"KAT","station_name":"Karet"},{"station_name":"Tanah Abang","i_long":106.811091,"is_transit":false,"time":5,"line":1,"transit":false,"distance":2029,"i_lat":-6.185545,"station_id":"THB"},{"station_name":"Duri","line":1,"station_id":"DU","is_transit":false,"i_lat":-6.155215,"time":8,"transit":false,"distance":3632,"i_long":106.800832},{"i_lat":-6.144674,"station_id":"AK","distance":1230,"is_transit":false,"station_name":"Angke","i_long":106.79867,"line":1,"transit":false,"time":4},{"i_lat":-6.132549,"station_id":"KPB","i_long":106.826365,"distance":4102,"line":4,"time":9,"transit":true,"station_name":"Kampung Bandan","is_transit":true},{"station_name":"Jakarta Kota","is_transit":true,"i_long":106.812439,"transit":true,"time":3,"line":2,"i_lat":-6.137569,"station_id":"JAKK","distance":1364},{"i_lat":-6.141205,"i_long":106.820901,"station_name":"Jayakarta","station_id":"JAY","time":4,"transit":false,"is_transit":false,"line":2,"distance":1264},{"i_long":106.82482,"i_lat":-6.149769,"line":2,"transit":false,"distance":1080,"station_name":"Manggabesar","station_id":"MGB","time":2,"is_transit":false},{"time":2,"station_id":"SW","line":2,"i_lat":-6.160725,"is_transit":false,"station_name":"Sawah Besar","distance":906,"i_long":106.827103,"transit":false}],[{"line":2,"is_transit":false,"station_id":"TEB","station_name":"Tebet","i_lat":-6.226659,"time":0,"transit":false,"distance":0,"i_long":106.857948},{"line":2,"transit":true,"time":4,"station_name":"Manggarai","station_id":"MRI","distance":2610,"i_lat":-6.209883,"is_transit":true,"i_long":106.84912},{"transit":false,"is_transit":false,"distance":1275,"time":2,"station_name":"Matraman","i_long":106.858896,"i_lat":-6.212485,"line":1,"station_id":"MTR"},{"is_transit":true,"distance":1377,"station_id":"JNG","i_lat":-6.215091,"station_name":"Jatinegara","transit":true,"line":1,"time":8,"i_long":106.86807400000001},{"time":2,"line":11,"i_lat":-6.209188,"i_long":106.861737,"is_transit":false,"station_name":"Pondok Jati","station_id":"POK","transit":false,"distance":1236},{"distance":1829,"station_name":"Kramat","time":2,"is_transit":false,"transit":false,"i_long":106.855437,"station_id":"KMT","line":11,"i_lat":-6.193792},{"i_long":106.850107,"time":1,"station_id":"GST","station_name":"Gang Sentiong","i_lat":-6.185975,"transit":false,"line":11,"is_transit":false,"distance":973},{"i_long":106.84368,"time":8,"i_lat":-6.174784,"distance":1567,"transit":false,"line":11,"station_id":"PSE","station_name":"Pasar Senen","is_transit":false},{"station_name":"Kemayoran","distance":1436,"i_long":106.839204,"transit":false,"time":4,"is_transit":false,"line":11,"station_id":"KMO","i_lat":-6.161728},{"time":5,"distance":1901,"i_lat":-6.14505,"station_name":"Rajawali","station_id":"RJW","i_long":106.836569,"is_transit":false,"transit":false,"line":11},{"transit":true,"time":3,"i_lat":-6.132549,"station_name":"Kampung Bandan","i_long":106.826365,"line":4,"is_transit":true,"station_id":"KPB","distance":1444},{"distance":1364,"i_lat":-6.137569,"i_long":106.812439,"station_id":"JAKK","time":3,"transit":true,"is_transit":true,"station_name":"Jakarta Kota","line":2},{"i_lat":-6.141205,"i_long":106.820901,"line":2,"distance":1264,"transit":false,"station_id":"JAY","time":4,"is_transit":false,"station_name":"Jayakarta"},{"is_transit":false,"distance":1080,"station_name":"Manggabesar","i_lat":-6.149769,"i_long":106.82482,"line":2,"station_id":"MGB","transit":false,"time":2},{"station_id":"SW","station_name":"Sawah Besar","line":2,"transit":false,"time":2,"is_transit":false,"i_long":106.827103,"i_lat":-6.160725,"distance":906}]]}