{"data":[[{"distance":0,"i_lat":-6.226659,"time":0,"station_id":"TEB","station_name":"Tebet","i_long":106.857948,"is_transit":false,"transit":false,"line":2},{"is_transit":true,"station_name":"Manggarai","station_id":"MRI","transit":true,"distance":2610,"i_lat":-6.209883,"time":4,"i_long":106.84912,"line":0},{"station_name":"Sudirman","distance":3186,"line":1,"i_lat":-6.202263,"time":4,"station_id":"SUD","transit":false,"i_long":106.822649,"is_transit":false},{"station_id":"SUDB","line":1,"transit":false,"i_lat":-6.201433,"distance":280,"station_name":"Sudirman Baru","time":1,"is_transit":false,"i_long":106.819881},{"transit":false,"station_id":"KAT","distance":471,"i_lat":-6.20132,"i_long":106.816351,"line":1,"is_transit":false,"station_name":"Karet","time":1},{"time":5,"transit":true,"line":1,"station_id":"THB","i_long":106.811091,"is_transit":true,"distance":2029,"station_name":"Tanah Abang","i_lat":-6.185545},{"is_transit":false,"time":6,"i_long":106.79689,"i_lat":-6.207404,"station_name":"Palmerah","distance":3191,"line":6,"station_id":"PLM","transit":false},{"distance":3737,"station_id":"KBY","i_long":106.780334,"time":7,"i_lat":-6.237242,"is_transit":false,"station_name":"Kebayoran","line":6,"transit":false},{"is_transit":false,"station_name":"Pondokranji","time":8,"station_id":"PDJ","i_long":106.74273,"transit":false,"i_lat":-6.276362,"distance":6218,"line":6},{"transit":false,"distance":2179,"i_lat":-6.288927,"station_name":"Jurangmangu","i_long":106.728916,"line":6,"time":3,"is_transit":false,"station_id":"JMU"},{"station_name":"Sudimara","i_long":106.712277,"i_lat":-6.296963,"time":4,"station_id":"SDM","is_transit":false,"transit":false,"distance":1994,"line":6},{"i_lat":-6.314823,"is_transit":false,"station_name":"Rawa Buntu","time":6,"i_long":106.675475,"line":6,"station_id":"RU","transit":false,"distance":4566},{"time":4,"i_lat":-6.319871,"is_transit":false,"station_id":"SRP","transit":false,"station_name":"Serpong","line":6,"distance":2413,"i_long":106.66566},{"station_name":"Cisauk","station_id":"CSK","time":4,"distance":1784,"i_lat":-6.32484,"is_transit":false,"transit":false,"i_long":106.640411,"line":0},{"station_name":"Cicayur","distance":2519,"i_lat":-6.329547,"line":0,"transit":false,"i_long":106.617853,"is_transit":false,"station_id":"CC","time":4},{"transit":false,"station_name":"Parung Panjang","station_id":"PRP","distance":5968,"line":6,"time":8,"i_lat":-6.3441410000000005,"is_transit":false,"i_long":106.568863},{"i_lat":-6.354349,"line":0,"time":9,"distance":7025,"station_name":"Cilejit","is_transit":false,"i_long":106.508482,"station_id":"CJT","transit":false},{"time":6,"station_id":"DAR","distance":2675,"station_name":"Daru","i_lat":-6.338021,"i_long":106.491338,"transit":false,"is_transit":false,"line":0},{"station_id":"TEJ","distance":3902,"time":5,"line":6,"station_name":"Tenjo","i_lat":-6.327251,"is_transit":false,"i_long":106.460812,"transit":false}],[{"i_lat":-6.226659,"distance":0,"station_id":"TEB","is_transit":false,"station_name":"Tebet","i_long":106.857948,"line":2,"transit":false,"time":0},{"station_id":"MRI","transit":true,"i_lat":-6.209883,"i_long":106.84912,"distance":2610,"is_transit":true,"line":0,"station_name":"Manggarai","time":4},{"is_transit":false,"station_id":"CKI","time":4,"line":0,"station_name":"Cikini","i_long":106.840169,"distance":1590,"i_lat":-6.198556,"transit":false},{"station_id":"GDD","transit":false,"is_transit":false,"distance":1750,"i_lat":-6.186295,"time":3,"i_long":106.832183,"station_name":"Gondangdia","line":2},{"i_lat":-6.166716,"i_long":106.828284,"distance":2015,"station_name":"Juanda","is_transit":false,"transit":false,"station_id":"JUA","time":4,"line":2},{"time":2,"transit":false,"distance":1149,"station_name":"Sawah Besar","i_long":106.827103,"is_transit":false,"line":2,"station_id":"SW","i_lat":-6.160725},{"is_transit":false,"station_name":"Manggabesar","time":2,"station_id":"MGB","line":2,"i_long":106.82482,"distance":906,"i_lat":-6.149769,"transit":false},{"line":7,"time":2,"distance":1080,"is_transit":false,"station_id":"JAY","station_name":"Jayakarta","transit":false,"i_lat":-6.141205,"i_long":106.820901},{"is_transit":true,"time":4,"station_id":"JAKK","distance":1264,"transit":true,"i_lat":-6.137569,"i_long":106.812439,"station_name":"Jakarta Kota","line":0},{"i_long":106.826365,"station_id":"KPB","transit":false,"station_name":"Kampung Bandan","time":3,"line":0,"is_transit":true,"distance":1364,"i_lat":-6.132549},{"time":9,"distance":4102,"station_name":"Angke","is_transit":false,"i_long":106.79867,"line":0,"transit":false,"i_lat":-6.144674,"station_id":"AK"},{"is_transit":true,"transit":true,"i_long":106.800832,"line":1,"i_lat":-6.155215,"station_id":"DU","station_name":"Duri","distance":1230,"time":4},{"transit":true,"time":8,"i_lat":-6.185545,"i_long":106.811091,"line":1,"station_id":"THB","distance":3632,"is_transit":true,"station_name":"Tanah Abang"},{"line":6,"i_lat":-6.207404,"time":6,"station_name":"Palmerah","i_long":106.79689,"transit":false,"distance":3191,"station_id":"PLM","is_transit":false},{"station_id":"KBY","station_name":"Kebayoran","transit":false,"distance":3737,"i_lat":-6.237242,"time":7,"line":6,"is_transit":false,"i_long":106.780334},{"transit":false,"time":8,"i_lat":-6.276362,"i_long":106.74273,"distance":6218,"line":6,"station_name":"Pondokranji","station_id":"PDJ","is_transit":false},{"i_lat":-6.288927,"is_transit":false,"distance":2179,"time":3,"station_name":"Jurangmangu","station_id":"JMU","transit":false,"line":6,"i_long":106.728916},{"line":6,"distance":1994,"time":4,"i_long":106.712277,"is_transit":false,"i_lat":-6.296963,"transit":false,"station_id":"SDM","station_name":"Sudimara"},{"transit":false,"i_lat":-6.314823,"station_id":"RU","is_transit":false,"station_name":"Rawa Buntu","line":6,"time":6,"i_long":106.675475,"distance":4566},{"i_lat":-6.319871,"i_long":106.66566,"station_name":"Serpong","station_id":"SRP","is_transit":false,"transit":false,"line":6,"time":4,"distance":2413},{"line":0,"i_long":106.640411,"time":4,"i_lat":-6.32484,"distance":1784,"station_id":"CSK","transit":false,"is_transit":false,"station_name":"Cisauk"},{"i_long":106.617853,"line":0,"distance":2519,"station_name":"Cicayur","time":4,"is_transit":false,"station_id":"CC","transit":false,"i_lat":-6.329547},{"station_id":"PRP","station_name":"Parung Panjang","time":8,"transit":false,"i_lat":-6.3441410000000005,"line":6,"is_transit":false,"i_long":106.568863,"distance":5968},{"is_transit":false,"line":0,"station_name":"Cilejit","i_lat":-6.354349,"distance":7025,"transit":false,"time":9,"i_long":106.508482,"station_id":"CJT"},{"transit":false,"i_lat":-6.338021,"time":6,"i_long":106.491338,"is_transit":false,"line":0,"station_id":"DAR","station_name":"Daru","distance":2675},{"time":5,"is_transit":false,"i_lat":-6.327251,"distance":3902,"i_long":106.460812,"station_name":"Tenjo","line":6,"transit":false,"station_id":"TEJ"}],[{"is_transit":false,"transit":false,"station_id":"TEB","station_name":"Tebet","distance":0,"i_lat":-6.226659,"i_long":106.857948,"line":2,"time":0},{"time":4,"station_id":"MRI","station_name":"Manggarai","transit":true,"i_lat":-6.209883,"line":0,"is_transit":true,"distance":2610,"i_long":106.84912},{"is_transit":false,"station_name":"Matraman","i_lat":-6.212485,"i_long":106.858896,"distance":1275,"line":1,"station_id":"MTR","transit":false,"time":2},{"station_name":"Jatinegara","time":8,"i_lat":-6.215091,"distance":1377,"i_long":106.86807400000001,"line":0,"station_id":"JNG","transit":true,"is_transit":true},{"i_long":106.861737,"distance":1236,"transit":false,"is_transit":false,"station_name":"Pondok Jati","time":2,"i_lat":-6.209188,"line":11,"station_id":"POK"},{"station_id":"KMT","time":2,"transit":false,"i_lat":-6.193792,"i_long":106.855437,"distance":1829,"is_transit":false,"station_name":"Kramat","line":11},{"time":1,"i_long":106.850107,"line":11,"i_lat":-6.185975,"station_id":"GST","station_name":"Gang Sentiong","is_transit":false,"distance":973,"transit":false},{"transit":false,"distance":1567,"station_id":"PSE","time":8,"line":11,"station_name":"Pasar Senen","i_long":106.84368,"is_transit":false,"i_lat":-6.174784},{"station_id":"KMO","distance":1436,"station_name":"Kemayoran","transit":false,"i_long":106.839204,"time":4,"line":11,"is_transit":false,"i_lat":-6.161728},{"transit":false,"time":5,"i_lat":-6.14505,"station_name":"Rajawali","i_long":106.836569,"line":11,"station_id":"RJW","is_transit":false,"distance":1901},{"time":3,"line":0,"transit":true,"i_long":106.826365,"station_id":"KPB","distance":1444,"i_lat":-6.132549,"is_transit":true,"station_name":"Kampung Bandan"},{"transit":false,"is_transit":false,"time":9,"station_name":"Angke","distance":4102,"i_lat":-6.144674,"line":0,"i_long":106.79867,"station_id":"AK"},{"distance":1230,"transit":true,"i_long":106.800832,"station_name":"Duri","station_id":"DU","is_transit":true,"line":1,"time":4,"i_lat":-6.155215},{"is_transit":true,"i_long":106.811091,"time":8,"i_lat":-6.185545,"line":1,"station_name":"Tanah Abang","distance":3632,"station_id":"THB","transit":true},{"distance":3191,"line":6,"transit":false,"is_transit":false,"station_id":"PLM","time":6,"i_lat":-6.207404,"station_name":"Palmerah","i_long":106.79689},{"i_lat":-6.237242,"is_transit":false,"time":7,"transit":false,"station_name":"Kebayoran","station_id":"KBY","distance":3737,"line":6,"i_long":106.780334},{"i_lat":-6.276362,"transit":false,"time":8,"distance":6218,"station_id":"PDJ","i_long":106.74273,"station_name":"Pondokranji","is_transit":false,"line":6},{"time":3,"is_transit":false,"i_lat":-6.288927,"i_long":106.728916,"transit":false,"line":6,"station_name":"Jurangmangu","station_id":"JMU","distance":2179},{"distance":1994,"station_id":"SDM","i_long":106.712277,"station_name":"Sudimara","line":6,"is_transit":false,"i_lat":-6.296963,"transit":false,"time":4},{"station_id":"RU","time":6,"is_transit":false,"station_name":"Rawa Buntu","i_lat":-6.314823,"line":6,"i_long":106.675475,"distance":4566,"transit":false},{"i_lat":-6.319871,"line":6,"is_transit":false,"transit":false,"station_id":"SRP","station_name":"Serpong","time":4,"distance":2413,"i_long":106.66566},{"is_transit":false,"i_lat":-6.32484,"distance":1784,"station_id":"CSK","time":4,"line":0,"i_long":106.640411,"transit":false,"station_name":"Cisauk"},{"i_long":106.617853,"i_lat":-6.329547,"distance":2519,"line":0,"time":4,"transit":false,"station_name":"Cicayur","station_id":"CC","is_transit":false},{"station_name":"Parung Panjang","distance":5968,"line":6,"time":8,"i_lat":-6.3441410000000005,"is_transit":false,"station_id":"PRP","transit":false,"i_long":106.568863},{"time":9,"line":0,"is_transit":false,"i_lat":-6.354349,"transit":false,"station_id":"CJT","station_name":"Cilejit","i_long":106.508482,"distance":7025},{"transit":false,"station_name":"Daru","time":6,"i_lat":-6.338021,"station_id":"DAR","i_long":106.491338,"line":0,"distance":2675,"is_transit":false},{"distance":3902,"station_id":"TEJ","station_name":"Tenjo","line":6,"transit":false,"i_lat":-6.327251,"time":5,"is_transit":false,"i_long":106.460812}]]}