{"data":[[{"line":2,"station_id":"TEB","transit":false,"is_transit":false,"distance":0,"station_name":"Tebet","i_lat":-6.226659,"time":0,"i_long":106.857948},{"line":2,"i_long":106.84912,"distance":2610,"station_id":"MRI","transit":true,"time":4,"is_transit":true,"station_name":"Manggarai","i_lat":-6.209883},{"is_transit":false,"i_long":106.858896,"line":1,"time":2,"station_name":"Matraman","transit":false,"station_id":"MTR","distance":1275,"i_lat":-6.212485},{"i_long":106.86807400000001,"is_transit":false,"i_lat":-6.215091,"station_id":"JNG","distance":1377,"line":1,"time":8,"station_name":"Jatinegara","transit":false},{"i_long":106.899548,"transit":false,"station_name":"Klender","time":3,"station_id":"KLD","distance":3395,"line":1,"is_transit":false,"i_lat":-6.2135},{"transit":false,"station_id":"BUA","i_lat":-6.215568,"i_long":106.922662,"time":2,"is_transit":false,"distance":3100,"line":1,"station_name":"Buaran"},{"time":1,"distance":1305,"station_id":"KLDB","transit":false,"line":1,"is_transit":false,"i_lat":-6.217455,"station_name":"Klenderbaru","i_long":106.939679},{"i_lat":-6.219053,"line":1,"station_id":"CUK","is_transit":false,"station_name":"Cakung","i_long":106.951283,"transit":false,"distance":1385,"time":8},{"i_long":106.977657,"is_transit":false,"transit":false,"distance":3097,"line":1,"station_id":"KRI","station_name":"Kranji","time":3,"i_lat":-6.224515},{"transit":false,"station_id":"BKS","is_transit":false,"time":4,"distance":2520,"i_long":106.997013,"i_lat":-6.236616,"station_name":"Bekasi","line":1},{"distance":2368,"i_long":107.016735,"station_name":"Bekasi Timur","line":1,"transit":false,"station_id":"BKST","is_transit":false,"time":2,"i_lat":-6.248029}],[{"i_long":106.857948,"station_name":"Tebet","is_transit":false,"distance":0,"i_lat":-6.226659,"transit":false,"time":0,"station_id":"TEB","line":2},{"station_name":"Manggarai","i_long":106.84912,"is_transit":true,"transit":true,"time":4,"distance":2610,"i_lat":-6.209883,"line":2,"station_id":"MRI"},{"i_lat":-6.202263,"is_transit":false,"time":4,"distance":3186,"line":1,"station_id":"SUD","transit":false,"i_long":106.822649,"station_name":"Sudirman"},{"i_long":106.819881,"i_lat":-6.201433,"transit":false,"station_name":"Sudirman Baru","time":1,"is_transit":false,"line":1,"distance":280,"station_id":"SUDB"},{"time":1,"distance":471,"i_long":106.816351,"transit":false,"station_name":"Karet","station_id":"KAT","i_lat":-6.20132,"line":1,"is_transit":false},{"station_id":"THB","time":5,"distance":2029,"is_transit":false,"station_name":"Tanah Abang","i_lat":-6.185545,"line":1,"i_long":106.811091,"transit":false},{"station_id":"DU","time":8,"distance":3632,"line":1,"is_transit":false,"transit":false,"i_long":106.800832,"station_name":"Duri","i_lat":-6.155215},{"i_lat":-6.144674,"station_id":"AK","distance":1230,"i_long":106.79867,"station_name":"Angke","is_transit":false,"transit":false,"time":4,"line":1},{"transit":true,"distance":4102,"station_id":"KPB","i_lat":-6.132549,"line":4,"is_transit":true,"time":9,"i_long":106.826365,"station_name":"Kampung Bandan"},{"is_transit":false,"time":3,"station_name":"Rajawali","i_lat":-6.14505,"i_long":106.836569,"line":11,"distance":1444,"station_id":"RJW","transit":false},{"transit":false,"distance":1901,"is_transit":false,"line":11,"i_long":106.839204,"time":5,"station_name":"Kemayoran","i_lat":-6.161728,"station_id":"KMO"},{"station_name":"Pasar Senen","is_transit":false,"distance":1436,"i_lat":-6.174784,"station_id":"PSE","line":11,"i_long":106.84368,"time":4,"transit":false},{"time":8,"transit":false,"station_id":"GST","station_name":"Gang Sentiong","distance":1567,"line":11,"i_lat":-6.185975,"is_transit":false,"i_long":106.850107},{"station_name":"Kramat","line":11,"i_lat":-6.193792,"transit":false,"time":1,"station_id":"KMT","distance":973,"i_long":106.855437,"is_transit":false},{"time":2,"is_transit":false,"line":11,"i_lat":-6.209188,"station_id":"POK","station_name":"Pondok Jati","i_long":106.861737,"transit":false,"distance":1829},{"i_lat":-6.215091,"i_long":106.86807400000001,"time":9,"station_name":"Jatinegara","line":1,"is_transit":true,"transit":true,"station_id":"JNG","distance":1236},{"transit":false,"is_transit":false,"station_id":"KLD","i_long":106.899548,"station_name":"Klender","distance":3395,"line":1,"i_lat":-6.2135,"time":3},{"distance":3100,"i_lat":-6.215568,"line":1,"station_id":"BUA","transit":false,"station_name":"Buaran","time":2,"i_long":106.922662,"is_transit":false},{"i_lat":-6.217455,"station_id":"KLDB","line":1,"distance":1305,"i_long":106.939679,"transit":false,"time":1,"station_name":"Klenderbaru","is_transit":false},{"station_name":"Cakung","time":8,"i_long":106.951283,"transit":false,"i_lat":-6.219053,"is_transit":false,"distance":1385,"station_id":"CUK","line":1},{"station_name":"Kranji","time":3,"i_long":106.977657,"transit":false,"distance":3097,"i_lat":-6.224515,"is_transit":false,"station_id":"KRI","line":1},{"time":4,"i_lat":-6.236616,"station_name":"Bekasi","i_long":106.997013,"distance":2520,"transit":false,"line":1,"station_id":"BKS","is_transit":false},{"time":2,"i_long":107.016735,"transit":false,"line":1,"station_name":"Bekasi Timur","station_id":"BKST","distance":2368,"is_transit":false,"i_lat":-6.248029}],[{"is_transit":false,"i_lat":-6.226659,"station_name":"Tebet","distance":0,"time":0,"line":2,"i_long":106.857948,"station_id":"TEB","transit":false},{"is_transit":false,"time":4,"transit":false,"i_lat":-6.209883,"station_name":"Manggarai","distance":2610,"i_long":106.84912,"station_id":"MRI","line":2},{"station_id":"CKI","i_long":106.840169,"i_lat":-6.198556,"line":2,"transit":false,"time":4,"distance":1590,"is_transit":false,"station_name":"Cikini"},{"time":3,"transit":false,"line":2,"i_long":106.832183,"is_transit":false,"station_name":"Gondangdia","i_lat":-6.186295,"station_id":"GDD","distance":1750},{"i_lat":-6.166716,"station_name":"Juanda","time":4,"line":2,"station_id":"JUA","i_long":106.828284,"transit":false,"is_transit":false,"distance":2015},{"i_lat":-6.160725,"station_name":"Sawah Besar","line":2,"station_id":"SW","distance":1149,"time":2,"transit":false,"is_transit":false,"i_long":106.827103},{"i_lat":-6.149769,"station_name":"Manggabesar","is_transit":false,"i_long":106.82482,"line":2,"station_id":"MGB","time":2,"distance":906,"transit":false},{"line":2,"distance":1080,"transit":false,"station_name":"Jayakarta","time":2,"i_long":106.820901,"is_transit":false,"i_lat":-6.141205,"station_id":"JAY"},{"station_name":"Jakarta Kota","station_id":"JAKK","is_transit":true,"time":4,"line":2,"transit":true,"i_long":106.812439,"i_lat":-6.137569,"distance":1264},{"station_name":"Kampung Bandan","station_id":"KPB","i_lat":-6.132549,"i_long":106.826365,"is_transit":true,"distance":1364,"line":4,"time":3,"transit":true},{"i_long":106.836569,"i_lat":-6.14505,"is_transit":false,"station_name":"Rajawali","time":3,"transit":false,"station_id":"RJW","distance":1444,"line":11},{"distance":1901,"time":5,"line":11,"i_lat":-6.161728,"station_name":"Kemayoran","station_id":"KMO","i_long":106.839204,"is_transit":false,"transit":false},{"station_id":"PSE","transit":false,"is_transit":false,"station_name":"Pasar Senen","i_lat":-6.174784,"line":11,"time":4,"i_long":106.84368,"distance":1436},{"time":8,"distance":1567,"i_lat":-6.185975,"transit":false,"station_id":"GST","station_name":"Gang Sentiong","is_transit":false,"i_long":106.850107,"line":11},{"transit":false,"distance":973,"line":11,"station_name":"Kramat","is_transit":false,"station_id":"KMT","i_lat":-6.193792,"time":1,"i_long":106.855437},{"line":11,"i_lat":-6.209188,"station_name":"Pondok Jati","time":2,"is_transit":false,"i_long":106.861737,"transit":false,"station_id":"POK","distance":1829},{"line":1,"is_transit":true,"i_lat":-6.215091,"i_long":106.86807400000001,"distance":1236,"station_id":"JNG","station_name":"Jatinegara","transit":true,"time":9},{"time":3,"i_long":106.899548,"line":1,"i_lat":-6.2135,"is_transit":false,"transit":false,"station_id":"KLD","distance":3395,"station_name":"Klender"},{"station_id":"BUA","is_transit":false,"distance":3100,"i_lat":-6.215568,"i_long":106.922662,"transit":false,"station_name":"Buaran","time":2,"line":1},{"time":1,"station_id":"KLDB","station_name":"Klenderbaru","distance":1305,"is_transit":false,"transit":false,"i_long":106.939679,"i_lat":-6.217455,"line":1},{"transit":false,"station_id":"CUK","is_transit":false,"i_lat":-6.219053,"station_name":"Cakung","distance":1385,"time":8,"i_long":106.951283,"line":1},{"distance":3097,"i_long":106.977657,"station_name":"Kranji","station_id":"KRI","is_transit":false,"line":1,"transit":false,"time":3,"i_lat":-6.224515},{"line":1,"time":4,"station_name":"Bekasi","i_lat":-6.236616,"transit":false,"distance":2520,"i_long":106.997013,"station_id":"BKS","is_transit":false},{"i_lat":-6.248029,"station_name":"Bekasi Timur","is_transit":false,"distance":2368,"i_long":107.016735,"transit":false,"time":2,"line":1,"station_id":"BKST"}]]}