{"data":[[{"i_long":106.857948,"is_transit":false,"i_lat":-6.226659,"line":2,"station_id":"TEB","transit":false,"distance":0,"station_name":"Tebet","time":0},{"line":0,"station_name":"Manggarai","transit":true,"is_transit":true,"time":4,"station_id":"MRI","i_lat":-6.209883,"i_long":106.84912,"distance":2610},{"i_long":106.858896,"station_id":"MTR","i_lat":-6.212485,"time":2,"line":1,"station_name":"Matraman","distance":1275,"transit":false,"is_transit":false},{"transit":false,"station_name":"Jatinegara","station_id":"JNG","time":8,"i_lat":-6.215091,"distance":1377,"i_long":106.86807400000001,"line":0,"is_transit":true},{"station_name":"Klender","is_transit":false,"line":1,"distance":3395,"station_id":"KLD","i_lat":-6.2135,"i_long":106.899548,"time":3,"transit":false},{"station_name":"Buaran","distance":3100,"i_lat":-6.215568,"line":0,"i_long":106.922662,"is_transit":false,"station_id":"BUA","time":2,"transit":false},{"line":1,"i_long":106.939679,"station_id":"KLDB","i_lat":-6.217455,"distance":1305,"time":1,"station_name":"Klenderbaru","transit":false,"is_transit":false},{"is_transit":false,"line":0,"station_name":"Cakung","i_long":106.951283,"transit":false,"i_lat":-6.219053,"distance":1385,"station_id":"CUK","time":8},{"i_long":106.977657,"time":3,"is_transit":false,"transit":false,"station_name":"Kranji","station_id":"KRI","i_lat":-6.224515,"distance":3097,"line":1},{"station_id":"BKS","is_transit":false,"line":0,"transit":false,"station_name":"Bekasi","time":4,"distance":2520,"i_long":106.997013,"i_lat":-6.236616},{"time":2,"station_name":"Bekasi Timur","is_transit":false,"transit":false,"i_long":107.016735,"line":0,"i_lat":-6.248029,"distance":2368,"station_id":"BKST"}],[{"transit":false,"line":2,"station_id":"TEB","time":0,"is_transit":false,"station_name":"Tebet","i_lat":-6.226659,"i_long":106.857948,"distance":0},{"transit":true,"distance":2610,"is_transit":true,"time":4,"i_lat":-6.209883,"line":0,"station_name":"Manggarai","station_id":"MRI","i_long":106.84912},{"distance":3186,"station_id":"SUD","time":4,"i_lat":-6.202263,"i_long":106.822649,"is_transit":false,"station_name":"Sudirman","transit":false,"line":1},{"is_transit":false,"i_long":106.819881,"transit":false,"station_id":"SUDB","station_name":"Sudirman Baru","distance":280,"time":1,"i_lat":-6.201433,"line":1},{"distance":471,"is_transit":false,"station_id":"KAT","station_name":"Karet","transit":false,"time":1,"line":1,"i_lat":-6.20132,"i_long":106.816351},{"i_lat":-6.185545,"time":5,"station_id":"THB","distance":2029,"station_name":"Tanah Abang","i_long":106.811091,"line":1,"transit":false,"is_transit":true},{"station_id":"DU","time":8,"i_lat":-6.155215,"distance":3632,"i_long":106.800832,"line":1,"station_name":"Duri","is_transit":true,"transit":true},{"i_lat":-6.144674,"line":0,"transit":false,"is_transit":false,"distance":1230,"station_id":"AK","i_long":106.79867,"station_name":"Angke","time":4},{"transit":true,"time":9,"is_transit":true,"station_id":"KPB","line":0,"station_name":"Kampung Bandan","distance":4102,"i_long":106.826365,"i_lat":-6.132549},{"transit":false,"station_id":"RJW","station_name":"Rajawali","distance":1444,"i_lat":-6.14505,"is_transit":false,"i_long":106.836569,"time":3,"line":11},{"i_long":106.839204,"transit":false,"line":11,"station_name":"Kemayoran","distance":1901,"time":5,"is_transit":false,"station_id":"KMO","i_lat":-6.161728},{"distance":1436,"is_transit":false,"transit":false,"time":4,"station_id":"PSE","i_long":106.84368,"line":11,"station_name":"Pasar Senen","i_lat":-6.174784},{"line":11,"i_lat":-6.185975,"is_transit":false,"station_id":"GST","station_name":"Gang Sentiong","time":8,"distance":1567,"transit":false,"i_long":106.850107},{"is_transit":false,"station_id":"KMT","time":1,"line":11,"station_name":"Kramat","i_long":106.855437,"i_lat":-6.193792,"transit":false,"distance":973},{"transit":false,"station_id":"POK","station_name":"Pondok Jati","time":2,"is_transit":false,"i_lat":-6.209188,"line":11,"distance":1829,"i_long":106.861737},{"station_id":"JNG","station_name":"Jatinegara","i_long":106.86807400000001,"time":9,"line":0,"i_lat":-6.215091,"is_transit":true,"transit":true,"distance":1236},{"i_long":106.899548,"transit":false,"is_transit":false,"i_lat":-6.2135,"line":1,"time":3,"station_name":"Klender","station_id":"KLD","distance":3395},{"station_id":"BUA","time":2,"i_long":106.922662,"station_name":"Buaran","i_lat":-6.215568,"line":0,"is_transit":false,"transit":false,"distance":3100},{"station_id":"KLDB","distance":1305,"i_long":106.939679,"transit":false,"i_lat":-6.217455,"station_name":"Klenderbaru","time":1,"is_transit":false,"line":1},{"distance":1385,"transit":false,"time":8,"i_lat":-6.219053,"i_long":106.951283,"line":0,"station_name":"Cakung","station_id":"CUK","is_transit":false},{"distance":3097,"i_lat":-6.224515,"line":1,"station_id":"KRI","station_name":"Kranji","i_long":106.977657,"is_transit":false,"transit":false,"time":3},{"distance":2520,"i_lat":-6.236616,"transit":false,"time":4,"station_name":"Bekasi","line":0,"is_transit":false,"i_long":106.997013,"station_id":"BKS"},{"line":0,"i_long":107.016735,"station_id":"BKST","distance":2368,"station_name":"Bekasi Timur","time":2,"transit":false,"i_lat":-6.248029,"is_transit":false}],[{"station_name":"Tebet","i_long":106.857948,"line":2,"time":0,"is_transit":false,"i_lat":-6.226659,"transit":false,"station_id":"TEB","distance":0},{"i_lat":-6.209883,"time":4,"station_name":"Manggarai","is_transit":true,"transit":true,"i_long":106.84912,"distance":2610,"station_id":"MRI","line":0},{"time":4,"transit":false,"station_id":"CKI","distance":1590,"is_transit":false,"i_long":106.840169,"line":0,"station_name":"Cikini","i_lat":-6.198556},{"is_transit":false,"station_id":"GDD","transit":false,"line":2,"i_lat":-6.186295,"i_long":106.832183,"station_name":"Gondangdia","time":3,"distance":1750},{"time":4,"i_long":106.828284,"line":2,"distance":2015,"station_name":"Juanda","is_transit":false,"station_id":"JUA","transit":false,"i_lat":-6.166716},{"i_lat":-6.160725,"i_long":106.827103,"transit":false,"station_id":"SW","distance":1149,"line":2,"time":2,"is_transit":false,"station_name":"Sawah Besar"},{"distance":906,"transit":false,"time":2,"i_lat":-6.149769,"line":2,"i_long":106.82482,"station_id":"MGB","station_name":"Manggabesar","is_transit":false},{"station_name":"Jayakarta","transit":false,"distance":1080,"station_id":"JAY","i_lat":-6.141205,"line":7,"is_transit":false,"time":2,"i_long":106.820901},{"station_name":"Jakarta Kota","i_lat":-6.137569,"station_id":"JAKK","i_long":106.812439,"is_transit":true,"distance":1264,"transit":true,"time":4,"line":0},{"time":3,"i_long":106.826365,"line":0,"station_id":"KPB","station_name":"Kampung Bandan","is_transit":true,"transit":true,"distance":1364,"i_lat":-6.132549},{"transit":false,"i_long":106.836569,"line":11,"i_lat":-6.14505,"distance":1444,"is_transit":false,"time":3,"station_id":"RJW","station_name":"Rajawali"},{"i_long":106.839204,"station_id":"KMO","line":11,"is_transit":false,"time":5,"i_lat":-6.161728,"station_name":"Kemayoran","distance":1901,"transit":false},{"i_long":106.84368,"is_transit":false,"station_id":"PSE","distance":1436,"time":4,"station_name":"Pasar Senen","transit":false,"i_lat":-6.174784,"line":11},{"transit":false,"station_id":"GST","time":8,"station_name":"Gang Sentiong","i_long":106.850107,"is_transit":false,"line":11,"distance":1567,"i_lat":-6.185975},{"i_long":106.855437,"distance":973,"transit":false,"station_id":"KMT","i_lat":-6.193792,"is_transit":false,"station_name":"Kramat","time":1,"line":11},{"line":11,"is_transit":false,"station_name":"Pondok Jati","i_long":106.861737,"i_lat":-6.209188,"time":2,"transit":false,"distance":1829,"station_id":"POK"},{"i_lat":-6.215091,"distance":1236,"time":9,"i_long":106.86807400000001,"line":0,"station_id":"JNG","transit":true,"is_transit":true,"station_name":"Jatinegara"},{"line":1,"time":3,"station_name":"Klender","station_id":"KLD","i_long":106.899548,"transit":false,"i_lat":-6.2135,"distance":3395,"is_transit":false},{"station_name":"Buaran","line":0,"station_id":"BUA","time":2,"distance":3100,"transit":false,"i_long":106.922662,"i_lat":-6.215568,"is_transit":false},{"distance":1305,"i_lat":-6.217455,"i_long":106.939679,"is_transit":false,"line":1,"station_name":"Klenderbaru","transit":false,"station_id":"KLDB","time":1},{"is_transit":false,"station_id":"CUK","time":8,"line":0,"distance":1385,"transit":false,"i_lat":-6.219053,"station_name":"Cakung","i_long":106.951283},{"is_transit":false,"transit":false,"station_name":"Kranji","distance":3097,"i_lat":-6.224515,"i_long":106.977657,"time":3,"station_id":"KRI","line":1},{"distance":2520,"is_transit":false,"station_id":"BKS","station_name":"Bekasi","transit":false,"line":0,"i_lat":-6.236616,"i_long":106.997013,"time":4},{"transit":false,"distance":2368,"line":0,"station_name":"Bekasi Timur","is_transit":false,"i_lat":-6.248029,"time":2,"station_id":"BKST","i_long":107.016735}]]}