{"data":[[{"line":2,"station_name":"Tebet","time":0,"i_lat":-6.226659,"distance":0,"station_id":"TEB","i_long":106.857948,"is_transit":false,"transit":false},{"i_long":106.84912,"distance":2610,"is_transit":false,"station_name":"Manggarai","station_id":"MRI","line":2,"transit":false,"time":4,"i_lat":-6.209883},{"i_lat":-6.198556,"line":2,"station_id":"CKI","station_name":"Cikini","i_long":106.840169,"distance":1590,"transit":false,"time":4,"is_transit":false},{"distance":1750,"i_lat":-6.186295,"station_name":"Gondangdia","time":3,"transit":false,"i_long":106.832183,"line":2,"station_id":"GDD","is_transit":false},{"transit":false,"time":4,"i_lat":-6.166716,"distance":2015,"station_name":"Juanda","i_long":106.828284,"line":2,"is_transit":false,"station_id":"JUA"},{"distance":1149,"line":2,"time":2,"station_name":"Sawah Besar","transit":false,"i_long":106.827103,"station_id":"SW","is_transit":false,"i_lat":-6.160725}],[{"distance":0,"line":2,"station_name":"Tebet","station_id":"TEB","i_long":106.857948,"is_transit":false,"i_lat":-6.226659,"time":0,"transit":false},{"line":2,"i_long":106.84912,"is_transit":true,"time":4,"station_id":"MRI","i_lat":-6.209883,"distance":2610,"station_name":"Manggarai","transit":true},{"i_long":106.822649,"transit":false,"i_lat":-6.202263,"station_name":"Sudirman","distance":3186,"station_id":"SUD","time":4,"is_transit":false,"line":1},{"i_lat":-6.201433,"transit":false,"i_long":106.819881,"is_transit":false,"time":1,"line":1,"station_id":"SUDB","station_name":"Sudirman Baru","distance":280},{"station_name":"Karet","distance":471,"line":1,"station_id":"KAT","transit":false,"i_lat":-6.20132,"i_long":106.816351,"is_transit":false,"time":1},{"is_transit":false,"time":5,"i_lat":-6.185545,"i_long":106.811091,"distance":2029,"station_name":"Tanah Abang","transit":false,"line":1,"station_id":"THB"},{"transit":false,"i_long":106.800832,"distance":3632,"line":1,"station_name":"Duri","is_transit":false,"time":8,"i_lat":-6.155215,"station_id":"DU"},{"station_id":"AK","is_transit":false,"line":1,"distance":1230,"transit":false,"i_long":106.79867,"i_lat":-6.144674,"time":4,"station_name":"Angke"},{"is_transit":true,"station_name":"Kampung Bandan","i_long":106.826365,"station_id":"KPB","transit":true,"time":9,"i_lat":-6.132549,"line":4,"distance":4102},{"station_id":"JAKK","is_transit":true,"time":3,"distance":1364,"transit":true,"station_name":"Jakarta Kota","i_lat":-6.137569,"i_long":106.812439,"line":2},{"station_name":"Jayakarta","station_id":"JAY","is_transit":false,"transit":false,"i_long":106.820901,"i_lat":-6.141205,"distance":1264,"time":4,"line":2},{"is_transit":false,"station_id":"MGB","time":2,"i_long":106.82482,"i_lat":-6.149769,"line":2,"transit":false,"distance":1080,"station_name":"Manggabesar"},{"time":2,"distance":906,"transit":false,"is_transit":false,"i_lat":-6.160725,"station_id":"SW","station_name":"Sawah Besar","i_long":106.827103,"line":2}],[{"time":0,"line":2,"station_id":"TEB","distance":0,"station_name":"Tebet","i_long":106.857948,"i_lat":-6.226659,"transit":false,"is_transit":false},{"station_id":"MRI","distance":2610,"i_long":106.84912,"is_transit":true,"i_lat":-6.209883,"station_name":"Manggarai","line":2,"time":4,"transit":true},{"i_long":106.858896,"time":2,"transit":false,"station_id":"MTR","i_lat":-6.212485,"is_transit":false,"line":1,"distance":1275,"station_name":"Matraman"},{"distance":1377,"i_long":106.86807400000001,"station_id":"JNG","station_name":"Jatinegara","i_lat":-6.215091,"transit":true,"line":1,"is_transit":true,"time":8},{"is_transit":false,"transit":false,"distance":1236,"i_long":106.861737,"station_name":"Pondok Jati","station_id":"POK","i_lat":-6.209188,"time":2,"line":11},{"time":2,"i_lat":-6.193792,"is_transit":false,"distance":1829,"station_name":"Kramat","station_id":"KMT","line":11,"transit":false,"i_long":106.855437},{"i_lat":-6.185975,"distance":973,"station_id":"GST","is_transit":false,"station_name":"Gang Sentiong","transit":false,"i_long":106.850107,"line":11,"time":1},{"i_lat":-6.174784,"line":11,"time":8,"distance":1567,"i_long":106.84368,"station_name":"Pasar Senen","is_transit":false,"station_id":"PSE","transit":false},{"line":11,"distance":1436,"station_id":"KMO","i_lat":-6.161728,"station_name":"Kemayoran","transit":false,"is_transit":false,"time":4,"i_long":106.839204},{"transit":false,"line":11,"i_long":106.836569,"station_id":"RJW","is_transit":false,"time":5,"distance":1901,"station_name":"Rajawali","i_lat":-6.14505},{"i_lat":-6.132549,"line":4,"is_transit":true,"station_name":"Kampung Bandan","transit":true,"i_long":106.826365,"time":3,"distance":1444,"station_id":"KPB"},{"distance":1364,"i_lat":-6.137569,"time":3,"transit":true,"station_id":"JAKK","line":2,"i_long":106.812439,"is_transit":true,"station_name":"Jakarta Kota"},{"station_id":"JAY","station_name":"Jayakarta","i_lat":-6.141205,"is_transit":false,"distance":1264,"line":2,"time":4,"i_long":106.820901,"transit":false},{"station_id":"MGB","transit":false,"i_lat":-6.149769,"is_transit":false,"distance":1080,"time":2,"i_long":106.82482,"station_name":"Manggabesar","line":2},{"distance":906,"i_lat":-6.160725,"transit":false,"station_id":"SW","is_transit":false,"i_long":106.827103,"line":2,"station_name":"Sawah Besar","time":2}]]}