{"data":[[{"transit":false,"line":2,"station_name":"Tebet","is_transit":false,"station_id":"TEB","i_lat":-6.226659,"i_long":106.857948,"time":0,"distance":0},{"line":0,"station_name":"Manggarai","station_id":"MRI","i_lat":-6.209883,"distance":2610,"i_long":106.84912,"is_transit":true,"transit":true,"time":4},{"station_id":"MTR","i_lat":-6.212485,"transit":false,"i_long":106.858896,"line":1,"time":2,"station_name":"Matraman","is_transit":false,"distance":1275},{"time":8,"i_long":106.86807400000001,"line":0,"station_id":"JNG","i_lat":-6.215091,"transit":false,"is_transit":true,"distance":1377,"station_name":"Jatinegara"},{"time":3,"is_transit":false,"station_name":"Klender","i_long":106.899548,"transit":false,"station_id":"KLD","i_lat":-6.2135,"distance":3395,"line":1},{"time":2,"i_lat":-6.215568,"line":0,"station_name":"Buaran","station_id":"BUA","distance":3100,"i_long":106.922662,"is_transit":false,"transit":false},{"station_name":"Klenderbaru","station_id":"KLDB","transit":false,"time":1,"i_long":106.939679,"is_transit":false,"line":1,"distance":1305,"i_lat":-6.217455},{"is_transit":false,"distance":1385,"station_name":"Cakung","i_long":106.951283,"line":0,"station_id":"CUK","transit":false,"time":8,"i_lat":-6.219053},{"i_long":106.977657,"is_transit":false,"i_lat":-6.224515,"station_name":"Kranji","distance":3097,"transit":false,"time":3,"station_id":"KRI","line":1},{"is_transit":false,"time":4,"i_long":106.997013,"i_lat":-6.236616,"transit":false,"station_id":"BKS","distance":2520,"station_name":"Bekasi","line":0},{"station_id":"BKST","is_transit":false,"transit":false,"i_long":107.016735,"distance":2368,"station_name":"Bekasi Timur","time":2,"line":0,"i_lat":-6.248029},{"distance":4460,"is_transit":false,"station_name":"Tambun","line":1,"i_lat":-6.258864,"transit":false,"i_long":107.055722,"station_id":"TB","time":7},{"distance":3420,"station_id":"CIT","i_long":107.083084,"line":0,"is_transit":false,"station_name":"Cibitung","transit":false,"time":3,"i_lat":-6.261877}],[{"time":0,"is_transit":false,"i_lat":-6.226659,"i_long":106.857948,"line":2,"station_id":"TEB","distance":0,"station_name":"Tebet","transit":false},{"line":0,"transit":true,"time":4,"i_lat":-6.209883,"station_id":"MRI","station_name":"Manggarai","distance":2610,"is_transit":true,"i_long":106.84912},{"transit":false,"i_long":106.822649,"is_transit":false,"i_lat":-6.202263,"time":4,"distance":3186,"line":1,"station_id":"SUD","station_name":"Sudirman"},{"i_long":106.819881,"line":1,"i_lat":-6.201433,"time":1,"is_transit":false,"distance":280,"station_id":"SUDB","station_name":"Sudirman Baru","transit":false},{"i_lat":-6.20132,"station_id":"KAT","i_long":106.816351,"transit":false,"station_name":"Karet","line":1,"time":1,"distance":471,"is_transit":false},{"i_lat":-6.185545,"i_long":106.811091,"time":5,"distance":2029,"is_transit":true,"station_name":"Tanah Abang","transit":false,"line":1,"station_id":"THB"},{"i_long":106.800832,"station_id":"DU","station_name":"Duri","i_lat":-6.155215,"distance":3632,"transit":true,"is_transit":true,"line":1,"time":8},{"i_long":106.79867,"transit":false,"station_id":"AK","station_name":"Angke","line":0,"time":4,"is_transit":false,"distance":1230,"i_lat":-6.144674},{"transit":true,"distance":4102,"is_transit":true,"i_lat":-6.132549,"line":0,"time":9,"station_id":"KPB","station_name":"Kampung Bandan","i_long":106.826365},{"line":11,"is_transit":false,"i_long":106.836569,"distance":1444,"station_name":"Rajawali","station_id":"RJW","transit":false,"time":3,"i_lat":-6.14505},{"station_id":"KMO","is_transit":false,"i_lat":-6.161728,"time":5,"distance":1901,"line":11,"transit":false,"station_name":"Kemayoran","i_long":106.839204},{"line":11,"transit":false,"station_name":"Pasar Senen","i_long":106.84368,"is_transit":false,"i_lat":-6.174784,"station_id":"PSE","distance":1436,"time":4},{"is_transit":false,"transit":false,"station_id":"GST","i_lat":-6.185975,"line":11,"station_name":"Gang Sentiong","time":8,"distance":1567,"i_long":106.850107},{"time":1,"station_name":"Kramat","distance":973,"i_lat":-6.193792,"is_transit":false,"i_long":106.855437,"line":11,"transit":false,"station_id":"KMT"},{"time":2,"is_transit":false,"station_id":"POK","station_name":"Pondok Jati","i_lat":-6.209188,"distance":1829,"line":11,"transit":false,"i_long":106.861737},{"i_long":106.86807400000001,"station_name":"Jatinegara","distance":1236,"is_transit":true,"line":0,"time":9,"station_id":"JNG","transit":true,"i_lat":-6.215091},{"station_id":"KLD","station_name":"Klender","i_lat":-6.2135,"distance":3395,"time":3,"i_long":106.899548,"is_transit":false,"line":1,"transit":false},{"station_name":"Buaran","i_long":106.922662,"time":2,"transit":false,"i_lat":-6.215568,"line":0,"distance":3100,"is_transit":false,"station_id":"BUA"},{"i_long":106.939679,"is_transit":false,"time":1,"line":1,"station_id":"KLDB","station_name":"Klenderbaru","distance":1305,"transit":false,"i_lat":-6.217455},{"is_transit":false,"station_name":"Cakung","i_lat":-6.219053,"i_long":106.951283,"transit":false,"distance":1385,"station_id":"CUK","time":8,"line":0},{"time":3,"i_lat":-6.224515,"station_id":"KRI","i_long":106.977657,"is_transit":false,"distance":3097,"line":1,"station_name":"Kranji","transit":false},{"is_transit":false,"i_long":106.997013,"transit":false,"distance":2520,"time":4,"station_name":"Bekasi","i_lat":-6.236616,"station_id":"BKS","line":0},{"station_id":"BKST","time":2,"station_name":"Bekasi Timur","transit":false,"i_long":107.016735,"is_transit":false,"line":0,"i_lat":-6.248029,"distance":2368},{"i_lat":-6.258864,"time":7,"distance":4460,"station_id":"TB","line":1,"transit":false,"station_name":"Tambun","is_transit":false,"i_long":107.055722},{"is_transit":false,"station_name":"Cibitung","time":3,"i_long":107.083084,"transit":false,"i_lat":-6.261877,"distance":3420,"line":0,"station_id":"CIT"}],[{"distance":0,"i_long":106.857948,"line":2,"is_transit":false,"station_name":"Tebet","station_id":"TEB","transit":false,"time":0,"i_lat":-6.226659},{"i_long":106.84912,"time":4,"distance":2610,"station_name":"Manggarai","station_id":"MRI","transit":true,"i_lat":-6.209883,"line":0,"is_transit":true},{"i_lat":-6.198556,"station_id":"CKI","distance":1590,"station_name":"Cikini","transit":false,"is_transit":false,"line":0,"i_long":106.840169,"time":4},{"distance":1750,"station_name":"Gondangdia","line":2,"i_long":106.832183,"station_id":"GDD","transit":false,"is_transit":false,"time":3,"i_lat":-6.186295},{"time":4,"i_lat":-6.166716,"i_long":106.828284,"distance":2015,"is_transit":false,"line":2,"station_name":"Juanda","transit":false,"station_id":"JUA"},{"station_id":"SW","is_transit":false,"time":2,"transit":false,"distance":1149,"line":2,"i_lat":-6.160725,"i_long":106.827103,"station_name":"Sawah Besar"},{"i_lat":-6.149769,"is_transit":false,"station_name":"Manggabesar","transit":false,"line":2,"distance":906,"station_id":"MGB","i_long":106.82482,"time":2},{"station_id":"JAY","i_long":106.820901,"transit":false,"distance":1080,"station_name":"Jayakarta","i_lat":-6.141205,"is_transit":false,"time":2,"line":7},{"is_transit":true,"station_id":"JAKK","time":4,"i_lat":-6.137569,"transit":true,"i_long":106.812439,"line":0,"distance":1264,"station_name":"Jakarta Kota"},{"station_id":"KPB","is_transit":true,"i_long":106.826365,"station_name":"Kampung Bandan","transit":true,"i_lat":-6.132549,"distance":1364,"time":3,"line":0},{"station_id":"RJW","time":3,"i_lat":-6.14505,"transit":false,"distance":1444,"i_long":106.836569,"line":11,"station_name":"Rajawali","is_transit":false},{"distance":1901,"station_name":"Kemayoran","transit":false,"i_long":106.839204,"time":5,"line":11,"is_transit":false,"station_id":"KMO","i_lat":-6.161728},{"line":11,"distance":1436,"is_transit":false,"time":4,"transit":false,"i_lat":-6.174784,"station_name":"Pasar Senen","station_id":"PSE","i_long":106.84368},{"i_long":106.850107,"time":8,"distance":1567,"i_lat":-6.185975,"line":11,"transit":false,"station_name":"Gang Sentiong","is_transit":false,"station_id":"GST"},{"distance":973,"line":11,"transit":false,"i_long":106.855437,"station_id":"KMT","is_transit":false,"station_name":"Kramat","time":1,"i_lat":-6.193792},{"station_id":"POK","line":11,"is_transit":false,"time":2,"distance":1829,"transit":false,"station_name":"Pondok Jati","i_lat":-6.209188,"i_long":106.861737},{"i_lat":-6.215091,"is_transit":true,"distance":1236,"time":9,"station_id":"JNG","station_name":"Jatinegara","line":0,"transit":true,"i_long":106.86807400000001},{"is_transit":false,"i_long":106.899548,"station_name":"Klender","i_lat":-6.2135,"station_id":"KLD","transit":false,"distance":3395,"time":3,"line":1},{"is_transit":false,"i_long":106.922662,"station_name":"Buaran","transit":false,"i_lat":-6.215568,"time":2,"distance":3100,"line":0,"station_id":"BUA"},{"distance":1305,"is_transit":false,"station_id":"KLDB","station_name":"Klenderbaru","time":1,"i_long":106.939679,"transit":false,"line":1,"i_lat":-6.217455},{"station_id":"CUK","transit":false,"station_name":"Cakung","distance":1385,"i_long":106.951283,"time":8,"i_lat":-6.219053,"is_transit":false,"line":0},{"transit":false,"time":3,"is_transit":false,"station_name":"Kranji","station_id":"KRI","i_lat":-6.224515,"line":1,"distance":3097,"i_long":106.977657},{"i_lat":-6.236616,"is_transit":false,"i_long":106.997013,"time":4,"line":0,"station_id":"BKS","distance":2520,"station_name":"Bekasi","transit":false},{"transit":false,"time":2,"i_lat":-6.248029,"is_transit":false,"station_id":"BKST","i_long":107.016735,"station_name":"Bekasi Timur","line":0,"distance":2368},{"distance":4460,"i_long":107.055722,"time":7,"is_transit":false,"station_name":"Tambun","i_lat":-6.258864,"transit":false,"line":1,"station_id":"TB"},{"transit":false,"time":3,"station_name":"Cibitung","i_long":107.083084,"line":0,"i_lat":-6.261877,"distance":3420,"is_transit":false,"station_id":"CIT"}]]}