{"data":[[{"transit":false,"line":2,"time":0,"station_id":"TEB","station_name":"Tebet","i_lat":-6.226659,"i_long":106.857948,"is_transit":false,"distance":0},{"distance":2610,"station_name":"Manggarai","is_transit":true,"transit":true,"i_lat":-6.209883,"line":2,"i_long":106.84912,"station_id":"MRI","time":4},{"i_long":106.858896,"line":1,"i_lat":-6.212485,"station_id":"MTR","distance":1275,"time":2,"is_transit":false,"transit":false,"station_name":"Matraman"}],[{"is_transit":false,"distance":0,"i_long":106.857948,"i_lat":-6.226659,"transit":false,"time":0,"station_id":"TEB","line":2,"station_name":"Tebet"},{"distance":2610,"station_id":"MRI","transit":true,"i_lat":-6.209883,"line":2,"station_name":"Manggarai","i_long":106.84912,"is_transit":true,"time":4},{"is_transit":false,"station_name":"Sudirman","transit":false,"i_lat":-6.202263,"distance":3186,"station_id":"SUD","i_long":106.822649,"time":4,"line":1},{"line":1,"is_transit":false,"time":1,"station_id":"SUDB","station_name":"Sudirman Baru","transit":false,"distance":280,"i_lat":-6.201433,"i_long":106.819881},{"i_lat":-6.20132,"station_id":"KAT","i_long":106.816351,"transit":false,"time":1,"distance":471,"line":1,"is_transit":false,"station_name":"Karet"},{"i_lat":-6.185545,"is_transit":false,"station_id":"THB","station_name":"Tanah Abang","transit":false,"time":5,"i_long":106.811091,"line":1,"distance":2029},{"distance":3632,"transit":false,"time":8,"is_transit":false,"i_lat":-6.155215,"station_id":"DU","station_name":"Duri","line":1,"i_long":106.800832},{"station_id":"AK","station_name":"Angke","transit":false,"line":1,"i_lat":-6.144674,"distance":1230,"time":4,"is_transit":false,"i_long":106.79867},{"i_lat":-6.132549,"transit":true,"is_transit":true,"time":9,"station_id":"KPB","station_name":"Kampung Bandan","distance":4102,"i_long":106.826365,"line":4},{"station_name":"Rajawali","transit":false,"i_lat":-6.14505,"line":11,"distance":1444,"i_long":106.836569,"time":3,"station_id":"RJW","is_transit":false},{"i_long":106.839204,"line":11,"transit":false,"station_name":"Kemayoran","station_id":"KMO","distance":1901,"is_transit":false,"time":5,"i_lat":-6.161728},{"is_transit":false,"station_name":"Pasar Senen","time":4,"station_id":"PSE","i_long":106.84368,"transit":false,"i_lat":-6.174784,"line":11,"distance":1436},{"is_transit":false,"station_id":"GST","transit":false,"i_long":106.850107,"i_lat":-6.185975,"station_name":"Gang Sentiong","distance":1567,"line":11,"time":8},{"station_id":"KMT","i_lat":-6.193792,"i_long":106.855437,"is_transit":false,"transit":false,"time":1,"distance":973,"line":11,"station_name":"Kramat"},{"station_id":"POK","i_lat":-6.209188,"i_long":106.861737,"line":11,"is_transit":false,"distance":1829,"station_name":"Pondok Jati","time":2,"transit":false},{"line":1,"is_transit":true,"distance":1236,"transit":true,"i_long":106.86807400000001,"time":9,"station_name":"Jatinegara","station_id":"JNG","i_lat":-6.215091},{"i_lat":-6.212485,"time":2,"transit":false,"is_transit":false,"distance":1377,"station_id":"MTR","i_long":106.858896,"station_name":"Matraman","line":1}],[{"time":0,"is_transit":false,"i_long":106.857948,"distance":0,"transit":false,"station_id":"TEB","station_name":"Tebet","line":2,"i_lat":-6.226659},{"distance":2610,"transit":false,"station_id":"MRI","i_lat":-6.209883,"is_transit":false,"i_long":106.84912,"time":4,"station_name":"Manggarai","line":2},{"i_lat":-6.198556,"i_long":106.840169,"is_transit":false,"distance":1590,"transit":false,"station_name":"Cikini","time":4,"station_id":"CKI","line":2},{"distance":1750,"time":3,"transit":false,"station_id":"GDD","i_lat":-6.186295,"line":2,"is_transit":false,"station_name":"Gondangdia","i_long":106.832183},{"is_transit":false,"distance":2015,"station_name":"Juanda","i_lat":-6.166716,"station_id":"JUA","i_long":106.828284,"line":2,"time":4,"transit":false},{"station_id":"SW","distance":1149,"transit":false,"station_name":"Sawah Besar","line":2,"i_lat":-6.160725,"time":2,"is_transit":false,"i_long":106.827103},{"station_id":"MGB","is_transit":false,"i_long":106.82482,"transit":false,"distance":906,"i_lat":-6.149769,"time":2,"line":2,"station_name":"Manggabesar"},{"line":2,"is_transit":false,"time":2,"transit":false,"distance":1080,"station_name":"Jayakarta","i_long":106.820901,"station_id":"JAY","i_lat":-6.141205},{"line":2,"distance":1264,"time":4,"transit":true,"station_name":"Jakarta Kota","is_transit":true,"i_long":106.812439,"i_lat":-6.137569,"station_id":"JAKK"},{"time":3,"station_name":"Kampung Bandan","i_long":106.826365,"line":4,"i_lat":-6.132549,"distance":1364,"is_transit":true,"transit":true,"station_id":"KPB"},{"i_lat":-6.14505,"time":3,"station_name":"Rajawali","line":11,"i_long":106.836569,"transit":false,"station_id":"RJW","is_transit":false,"distance":1444},{"time":5,"is_transit":false,"i_lat":-6.161728,"transit":false,"station_id":"KMO","distance":1901,"station_name":"Kemayoran","line":11,"i_long":106.839204},{"station_id":"PSE","i_long":106.84368,"i_lat":-6.174784,"transit":false,"time":4,"distance":1436,"is_transit":false,"station_name":"Pasar Senen","line":11},{"time":8,"distance":1567,"is_transit":false,"transit":false,"i_lat":-6.185975,"i_long":106.850107,"station_id":"GST","line":11,"station_name":"Gang Sentiong"},{"distance":973,"line":11,"station_name":"Kramat","station_id":"KMT","is_transit":false,"transit":false,"i_long":106.855437,"time":1,"i_lat":-6.193792},{"distance":1829,"transit":false,"station_id":"POK","is_transit":false,"time":2,"line":11,"i_lat":-6.209188,"station_name":"Pondok Jati","i_long":106.861737},{"i_lat":-6.215091,"line":1,"transit":true,"distance":1236,"i_long":106.86807400000001,"station_name":"Jatinegara","station_id":"JNG","time":9,"is_transit":true},{"station_name":"Matraman","i_long":106.858896,"station_id":"MTR","line":1,"i_lat":-6.212485,"time":2,"distance":1377,"transit":false,"is_transit":false}]]}