{"data":[[{"i_long":106.857948,"line":2,"station_name":"Tebet","transit":false,"time":0,"distance":0,"station_id":"TEB","i_lat":-6.226659,"is_transit":false},{"i_long":106.84912,"distance":2610,"line":2,"i_lat":-6.209883,"is_transit":true,"transit":true,"time":4,"station_id":"MRI","station_name":"Manggarai"},{"distance":3186,"station_name":"Sudirman","i_lat":-6.202263,"i_long":106.822649,"time":4,"line":1,"station_id":"SUD","is_transit":false,"transit":false},{"i_long":106.819881,"distance":280,"time":1,"transit":false,"station_name":"Sudirman Baru","is_transit":false,"i_lat":-6.201433,"station_id":"SUDB","line":1},{"i_long":106.816351,"transit":false,"line":1,"distance":471,"station_name":"Karet","station_id":"KAT","time":1,"i_lat":-6.20132,"is_transit":false},{"station_id":"THB","i_lat":-6.185545,"line":1,"distance":2029,"transit":false,"station_name":"Tanah Abang","i_long":106.811091,"time":5,"is_transit":false},{"station_name":"Duri","is_transit":true,"i_lat":-6.155215,"distance":3632,"time":8,"line":1,"station_id":"DU","i_long":106.800832,"transit":true},{"transit":false,"distance":1700,"i_lat":-6.162021,"station_id":"GGL","line":5,"station_name":"Grogol","i_long":106.788277,"is_transit":false,"time":3},{"distance":2036,"station_name":"Pesing","time":2,"station_id":"PSG","transit":false,"i_long":106.771379,"line":5,"i_lat":-6.161433,"is_transit":false},{"station_id":"TKO","i_lat":-6.1587309999999995,"time":2,"transit":false,"distance":1614,"i_long":106.756522,"line":5,"is_transit":false,"station_name":"Taman Kota"}],[{"i_long":106.857948,"time":0,"line":2,"is_transit":false,"i_lat":-6.226659,"station_id":"TEB","transit":false,"station_name":"Tebet","distance":0},{"distance":2610,"time":4,"station_id":"MRI","line":2,"transit":false,"is_transit":false,"i_lat":-6.209883,"station_name":"Manggarai","i_long":106.84912},{"i_long":106.840169,"i_lat":-6.198556,"distance":1590,"time":4,"is_transit":false,"line":2,"station_name":"Cikini","station_id":"CKI","transit":false},{"distance":1750,"is_transit":false,"line":2,"station_id":"GDD","time":3,"transit":false,"i_lat":-6.186295,"i_long":106.832183,"station_name":"Gondangdia"},{"line":2,"time":4,"station_id":"JUA","i_lat":-6.166716,"is_transit":false,"transit":false,"station_name":"Juanda","distance":2015,"i_long":106.828284},{"i_long":106.827103,"line":2,"distance":1149,"transit":false,"i_lat":-6.160725,"time":2,"station_id":"SW","is_transit":false,"station_name":"Sawah Besar"},{"line":2,"i_long":106.82482,"time":2,"i_lat":-6.149769,"distance":906,"station_id":"MGB","is_transit":false,"transit":false,"station_name":"Manggabesar"},{"is_transit":false,"distance":1080,"i_long":106.820901,"station_id":"JAY","i_lat":-6.141205,"station_name":"Jayakarta","time":2,"transit":false,"line":2},{"station_name":"Jakarta Kota","time":4,"transit":true,"i_lat":-6.137569,"line":2,"i_long":106.812439,"is_transit":true,"station_id":"JAKK","distance":1264},{"is_transit":true,"time":3,"i_lat":-6.132549,"station_id":"KPB","line":4,"i_long":106.826365,"distance":1364,"transit":true,"station_name":"Kampung Bandan"},{"transit":false,"i_lat":-6.144674,"i_long":106.79867,"line":1,"station_name":"Angke","time":9,"station_id":"AK","distance":4102,"is_transit":false},{"time":4,"is_transit":true,"station_id":"DU","station_name":"Duri","i_lat":-6.155215,"line":1,"transit":true,"i_long":106.800832,"distance":1230},{"transit":false,"station_id":"GGL","is_transit":false,"station_name":"Grogol","i_long":106.788277,"i_lat":-6.162021,"distance":1700,"line":5,"time":3},{"station_name":"Pesing","distance":2036,"time":2,"line":5,"is_transit":false,"i_lat":-6.161433,"i_long":106.771379,"station_id":"PSG","transit":false},{"transit":false,"line":5,"station_id":"TKO","station_name":"Taman Kota","i_long":106.756522,"is_transit":false,"i_lat":-6.1587309999999995,"time":2,"distance":1614}],[{"line":2,"distance":0,"is_transit":false,"transit":false,"station_name":"Tebet","i_lat":-6.226659,"i_long":106.857948,"station_id":"TEB","time":0},{"transit":true,"time":4,"station_name":"Manggarai","line":2,"is_transit":true,"i_long":106.84912,"distance":2610,"station_id":"MRI","i_lat":-6.209883},{"station_name":"Matraman","line":1,"transit":false,"i_long":106.858896,"time":2,"distance":1275,"is_transit":false,"i_lat":-6.212485,"station_id":"MTR"},{"transit":true,"line":1,"station_name":"Jatinegara","station_id":"JNG","time":8,"i_lat":-6.215091,"distance":1377,"is_transit":true,"i_long":106.86807400000001},{"time":2,"line":11,"transit":false,"i_lat":-6.209188,"station_name":"Pondok Jati","distance":1236,"station_id":"POK","is_transit":false,"i_long":106.861737},{"station_id":"KMT","transit":false,"distance":1829,"i_lat":-6.193792,"i_long":106.855437,"line":11,"station_name":"Kramat","is_transit":false,"time":2},{"time":1,"transit":false,"i_long":106.850107,"station_name":"Gang Sentiong","line":11,"distance":973,"station_id":"GST","is_transit":false,"i_lat":-6.185975},{"is_transit":false,"i_lat":-6.174784,"line":11,"station_id":"PSE","i_long":106.84368,"time":8,"distance":1567,"station_name":"Pasar Senen","transit":false},{"transit":false,"station_name":"Kemayoran","i_lat":-6.161728,"is_transit":false,"i_long":106.839204,"time":4,"distance":1436,"station_id":"KMO","line":11},{"i_lat":-6.14505,"i_long":106.836569,"station_name":"Rajawali","line":11,"time":5,"station_id":"RJW","distance":1901,"is_transit":false,"transit":false},{"transit":true,"distance":1444,"i_long":106.826365,"station_id":"KPB","station_name":"Kampung Bandan","time":3,"i_lat":-6.132549,"is_transit":true,"line":4},{"is_transit":false,"time":9,"i_long":106.79867,"i_lat":-6.144674,"transit":false,"line":1,"station_id":"AK","distance":4102,"station_name":"Angke"},{"time":4,"i_long":106.800832,"transit":true,"station_name":"Duri","line":1,"distance":1230,"station_id":"DU","is_transit":true,"i_lat":-6.155215},{"line":5,"is_transit":false,"i_lat":-6.162021,"transit":false,"distance":1700,"time":3,"station_name":"Grogol","i_long":106.788277,"station_id":"GGL"},{"transit":false,"i_lat":-6.161433,"i_long":106.771379,"line":5,"is_transit":false,"station_id":"PSG","station_name":"Pesing","distance":2036,"time":2},{"i_long":106.756522,"is_transit":false,"distance":1614,"time":2,"transit":false,"station_name":"Taman Kota","station_id":"TKO","line":5,"i_lat":-6.1587309999999995}]]}