{"data":[[{"time":0,"i_lat":-6.226659,"station_id":"TEB","i_long":106.857948,"is_transit":false,"distance":0,"line":2,"station_name":"Tebet","transit":false},{"is_transit":true,"i_long":106.84912,"transit":true,"distance":2610,"time":4,"station_name":"Manggarai","i_lat":-6.209883,"station_id":"MRI","line":0},{"station_id":"SUD","time":4,"station_name":"Sudirman","transit":false,"i_long":106.822649,"is_transit":false,"line":1,"i_lat":-6.202263,"distance":3186},{"i_lat":-6.201433,"time":1,"distance":280,"station_id":"SUDB","line":1,"transit":false,"station_name":"Sudirman Baru","is_transit":false,"i_long":106.819881},{"is_transit":false,"station_name":"Karet","time":1,"i_long":106.816351,"transit":false,"i_lat":-6.20132,"distance":471,"line":1,"station_id":"KAT"},{"distance":2029,"i_long":106.811091,"line":1,"is_transit":true,"station_name":"Tanah Abang","station_id":"THB","transit":false,"time":5,"i_lat":-6.185545},{"i_long":106.800832,"time":8,"distance":3632,"station_name":"Duri","station_id":"DU","transit":true,"i_lat":-6.155215,"line":1,"is_transit":true},{"i_lat":-6.162021,"station_id":"GGL","distance":1700,"station_name":"Grogol","transit":false,"is_transit":false,"line":5,"i_long":106.788277,"time":3},{"distance":2036,"station_name":"Pesing","line":5,"i_long":106.771379,"station_id":"PSG","transit":false,"is_transit":false,"time":2,"i_lat":-6.161433},{"time":2,"i_lat":-6.1587309999999995,"i_long":106.756522,"distance":1614,"is_transit":false,"line":5,"station_name":"Taman Kota","transit":false,"station_id":"TKO"},{"station_id":"BOI","is_transit":false,"time":2,"transit":false,"distance":2334,"line":0,"i_lat":-6.159876,"i_long":106.737035,"station_name":"Bojongindah"},{"i_lat":-6.162758,"is_transit":false,"station_name":"Rawa Buaya","transit":false,"line":5,"distance":1152,"station_id":"RW","i_long":106.723064,"time":4},{"station_id":"KDS","i_long":106.701612,"transit":false,"distance":2504,"station_name":"Kalideres","i_lat":-6.166068,"is_transit":false,"time":3,"line":5}],[{"is_transit":false,"station_id":"TEB","time":0,"i_lat":-6.226659,"transit":false,"i_long":106.857948,"line":2,"distance":0,"station_name":"Tebet"},{"station_id":"MRI","is_transit":true,"i_long":106.84912,"station_name":"Manggarai","transit":true,"i_lat":-6.209883,"distance":2610,"time":4,"line":0},{"station_id":"CKI","time":4,"i_lat":-6.198556,"transit":false,"distance":1590,"i_long":106.840169,"line":0,"station_name":"Cikini","is_transit":false},{"distance":1750,"station_name":"Gondangdia","transit":false,"i_long":106.832183,"time":3,"line":2,"is_transit":false,"station_id":"GDD","i_lat":-6.186295},{"line":2,"distance":2015,"is_transit":false,"time":4,"transit":false,"i_lat":-6.166716,"station_name":"Juanda","station_id":"JUA","i_long":106.828284},{"i_long":106.827103,"time":2,"distance":1149,"i_lat":-6.160725,"line":2,"transit":false,"station_name":"Sawah Besar","is_transit":false,"station_id":"SW"},{"distance":906,"line":2,"transit":false,"i_long":106.82482,"station_id":"MGB","is_transit":false,"station_name":"Manggabesar","time":2,"i_lat":-6.149769},{"station_id":"JAY","line":7,"is_transit":false,"time":2,"distance":1080,"transit":false,"station_name":"Jayakarta","i_lat":-6.141205,"i_long":106.820901},{"i_lat":-6.137569,"is_transit":true,"distance":1264,"time":4,"station_id":"JAKK","station_name":"Jakarta Kota","line":0,"transit":true,"i_long":106.812439},{"transit":false,"distance":1364,"station_name":"Kampung Bandan","is_transit":true,"station_id":"KPB","time":3,"i_lat":-6.132549,"line":0,"i_long":106.826365},{"distance":4102,"time":9,"i_long":106.79867,"station_id":"AK","is_transit":false,"station_name":"Angke","transit":false,"i_lat":-6.144674,"line":0},{"transit":true,"time":4,"i_lat":-6.155215,"is_transit":true,"line":1,"distance":1230,"station_id":"DU","i_long":106.800832,"station_name":"Duri"},{"transit":false,"is_transit":false,"time":3,"line":5,"distance":1700,"station_id":"GGL","station_name":"Grogol","i_long":106.788277,"i_lat":-6.162021},{"line":5,"is_transit":false,"station_name":"Pesing","distance":2036,"station_id":"PSG","transit":false,"i_long":106.771379,"i_lat":-6.161433,"time":2},{"station_id":"TKO","time":2,"transit":false,"i_lat":-6.1587309999999995,"line":5,"station_name":"Taman Kota","distance":1614,"i_long":106.756522,"is_transit":false},{"i_lat":-6.159876,"station_id":"BOI","station_name":"Bojongindah","transit":false,"is_transit":false,"time":2,"i_long":106.737035,"line":0,"distance":2334},{"is_transit":false,"distance":1152,"station_id":"RW","transit":false,"station_name":"Rawa Buaya","time":4,"i_lat":-6.162758,"line":5,"i_long":106.723064},{"transit":false,"time":3,"station_name":"Kalideres","i_long":106.701612,"line":5,"i_lat":-6.166068,"distance":2504,"is_transit":false,"station_id":"KDS"}],[{"station_name":"Tebet","time":0,"distance":0,"is_transit":false,"transit":false,"i_lat":-6.226659,"i_long":106.857948,"line":2,"station_id":"TEB"},{"station_name":"Manggarai","is_transit":true,"station_id":"MRI","transit":true,"time":4,"i_long":106.84912,"line":0,"i_lat":-6.209883,"distance":2610},{"station_id":"MTR","distance":1275,"time":2,"transit":false,"i_long":106.858896,"i_lat":-6.212485,"station_name":"Matraman","line":1,"is_transit":false},{"line":0,"distance":1377,"is_transit":true,"station_name":"Jatinegara","transit":true,"time":8,"station_id":"JNG","i_long":106.86807400000001,"i_lat":-6.215091},{"distance":1236,"transit":false,"station_id":"POK","line":11,"station_name":"Pondok Jati","i_lat":-6.209188,"time":2,"is_transit":false,"i_long":106.861737},{"time":2,"i_long":106.855437,"is_transit":false,"station_name":"Kramat","station_id":"KMT","i_lat":-6.193792,"transit":false,"line":11,"distance":1829},{"station_name":"Gang Sentiong","is_transit":false,"station_id":"GST","distance":973,"time":1,"transit":false,"i_lat":-6.185975,"i_long":106.850107,"line":11},{"i_long":106.84368,"is_transit":false,"distance":1567,"time":8,"line":11,"i_lat":-6.174784,"station_name":"Pasar Senen","transit":false,"station_id":"PSE"},{"time":4,"station_id":"KMO","i_lat":-6.161728,"i_long":106.839204,"distance":1436,"station_name":"Kemayoran","line":11,"is_transit":false,"transit":false},{"time":5,"is_transit":false,"station_name":"Rajawali","i_long":106.836569,"station_id":"RJW","distance":1901,"transit":false,"i_lat":-6.14505,"line":11},{"time":3,"i_long":106.826365,"distance":1444,"station_id":"KPB","transit":true,"line":0,"i_lat":-6.132549,"is_transit":true,"station_name":"Kampung Bandan"},{"distance":4102,"line":0,"i_lat":-6.144674,"time":9,"transit":false,"station_name":"Angke","i_long":106.79867,"is_transit":false,"station_id":"AK"},{"is_transit":true,"i_long":106.800832,"distance":1230,"time":4,"i_lat":-6.155215,"station_id":"DU","transit":true,"station_name":"Duri","line":1},{"transit":false,"is_transit":false,"station_name":"Grogol","i_long":106.788277,"line":5,"station_id":"GGL","time":3,"distance":1700,"i_lat":-6.162021},{"transit":false,"line":5,"is_transit":false,"station_id":"PSG","distance":2036,"time":2,"i_lat":-6.161433,"i_long":106.771379,"station_name":"Pesing"},{"line":5,"i_long":106.756522,"time":2,"transit":false,"distance":1614,"is_transit":false,"station_id":"TKO","station_name":"Taman Kota","i_lat":-6.1587309999999995},{"distance":2334,"station_id":"BOI","transit":false,"line":0,"i_long":106.737035,"i_lat":-6.159876,"station_name":"Bojongindah","is_transit":false,"time":2},{"distance":1152,"transit":false,"i_lat":-6.162758,"station_id":"RW","i_long":106.723064,"time":4,"is_transit":false,"line":5,"station_name":"Rawa Buaya"},{"i_long":106.701612,"transit":false,"is_transit":false,"station_name":"Kalideres","station_id":"KDS","distance":2504,"time":3,"i_lat":-6.166068,"line":5}]]}