{"data":[[{"i_lat":-6.226659,"transit":false,"is_transit":false,"time":0,"distance":0,"line":2,"i_long":106.857948,"station_id":"TEB","station_name":"Tebet"},{"time":4,"is_transit":true,"transit":true,"distance":2610,"station_name":"Manggarai","station_id":"MRI","line":2,"i_lat":-6.209883,"i_long":106.84912},{"time":2,"station_name":"Matraman","i_long":106.858896,"transit":false,"station_id":"MTR","distance":1275,"i_lat":-6.212485,"is_transit":false,"line":1},{"i_lat":-6.215091,"line":1,"i_long":106.86807400000001,"is_transit":true,"time":8,"distance":1377,"station_id":"JNG","station_name":"Jatinegara","transit":true},{"station_name":"Pondok Jati","i_lat":-6.209188,"distance":1236,"i_long":106.861737,"line":11,"is_transit":false,"time":2,"station_id":"POK","transit":false},{"station_id":"KMT","i_long":106.855437,"time":2,"line":11,"distance":1829,"is_transit":false,"i_lat":-6.193792,"station_name":"Kramat","transit":false},{"i_long":106.850107,"i_lat":-6.185975,"time":1,"station_id":"GST","line":11,"distance":973,"station_name":"Gang Sentiong","is_transit":false,"transit":false},{"i_lat":-6.174784,"time":8,"distance":1567,"transit":false,"line":11,"i_long":106.84368,"station_id":"PSE","station_name":"Pasar Senen","is_transit":false}],[{"i_long":106.857948,"distance":0,"is_transit":false,"station_name":"Tebet","i_lat":-6.226659,"transit":false,"line":2,"time":0,"station_id":"TEB"},{"station_name":"Manggarai","time":4,"station_id":"MRI","i_lat":-6.209883,"i_long":106.84912,"line":2,"transit":true,"distance":2610,"is_transit":true},{"i_long":106.822649,"transit":false,"line":1,"station_name":"Sudirman","distance":3186,"is_transit":false,"i_lat":-6.202263,"time":4,"station_id":"SUD"},{"i_long":106.819881,"time":1,"is_transit":false,"i_lat":-6.201433,"distance":280,"station_id":"SUDB","transit":false,"line":1,"station_name":"Sudirman Baru"},{"station_id":"KAT","distance":471,"i_lat":-6.20132,"station_name":"Karet","is_transit":false,"line":1,"i_long":106.816351,"transit":false,"time":1},{"distance":2029,"time":5,"station_name":"Tanah Abang","transit":false,"i_lat":-6.185545,"i_long":106.811091,"is_transit":false,"line":1,"station_id":"THB"},{"line":1,"is_transit":false,"time":8,"station_id":"DU","i_long":106.800832,"i_lat":-6.155215,"distance":3632,"transit":false,"station_name":"Duri"},{"line":1,"i_long":106.79867,"transit":false,"is_transit":false,"time":4,"distance":1230,"station_id":"AK","i_lat":-6.144674,"station_name":"Angke"},{"is_transit":true,"distance":4102,"i_long":106.826365,"station_id":"KPB","line":4,"i_lat":-6.132549,"station_name":"Kampung Bandan","transit":true,"time":9},{"station_name":"Rajawali","transit":false,"time":3,"i_lat":-6.14505,"distance":1444,"is_transit":false,"line":11,"station_id":"RJW","i_long":106.836569},{"i_long":106.839204,"transit":false,"is_transit":false,"line":11,"time":5,"station_id":"KMO","distance":1901,"station_name":"Kemayoran","i_lat":-6.161728},{"distance":1436,"i_lat":-6.174784,"i_long":106.84368,"station_id":"PSE","station_name":"Pasar Senen","time":4,"transit":false,"line":11,"is_transit":false}],[{"i_lat":-6.226659,"station_name":"Tebet","line":2,"station_id":"TEB","i_long":106.857948,"time":0,"is_transit":false,"distance":0,"transit":false},{"i_lat":-6.209883,"line":2,"station_id":"MRI","time":4,"station_name":"Manggarai","transit":false,"is_transit":false,"distance":2610,"i_long":106.84912},{"distance":1590,"line":2,"i_lat":-6.198556,"station_id":"CKI","station_name":"Cikini","transit":false,"i_long":106.840169,"time":4,"is_transit":false},{"is_transit":false,"i_long":106.832183,"transit":false,"station_name":"Gondangdia","station_id":"GDD","i_lat":-6.186295,"time":3,"distance":1750,"line":2},{"transit":false,"station_name":"Juanda","is_transit":false,"station_id":"JUA","i_lat":-6.166716,"i_long":106.828284,"distance":2015,"time":4,"line":2},{"station_name":"Sawah Besar","station_id":"SW","time":2,"i_long":106.827103,"is_transit":false,"distance":1149,"transit":false,"i_lat":-6.160725,"line":2},{"is_transit":false,"i_lat":-6.149769,"time":2,"distance":906,"i_long":106.82482,"station_id":"MGB","transit":false,"station_name":"Manggabesar","line":2},{"i_lat":-6.141205,"i_long":106.820901,"line":2,"station_name":"Jayakarta","time":2,"distance":1080,"station_id":"JAY","is_transit":false,"transit":false},{"i_long":106.812439,"time":4,"distance":1264,"is_transit":true,"line":2,"station_name":"Jakarta Kota","transit":true,"station_id":"JAKK","i_lat":-6.137569},{"line":4,"i_long":106.826365,"transit":true,"time":3,"distance":1364,"station_name":"Kampung Bandan","i_lat":-6.132549,"is_transit":true,"station_id":"KPB"},{"station_id":"RJW","time":3,"distance":1444,"station_name":"Rajawali","is_transit":false,"i_long":106.836569,"line":11,"i_lat":-6.14505,"transit":false},{"station_id":"KMO","i_long":106.839204,"i_lat":-6.161728,"time":5,"transit":false,"distance":1901,"station_name":"Kemayoran","is_transit":false,"line":11},{"line":11,"i_lat":-6.174784,"transit":false,"is_transit":false,"time":4,"distance":1436,"i_long":106.84368,"station_id":"PSE","station_name":"Pasar Senen"}]]}