{"data":[[{"station_name":"Tebet","is_transit":false,"time":0,"line":2,"station_id":"TEB","distance":0,"i_lat":-6.226659,"i_long":106.857948,"transit":false},{"transit":true,"time":4,"distance":2610,"station_name":"Manggarai","line":2,"i_lat":-6.209883,"station_id":"MRI","i_long":106.84912,"is_transit":true},{"line":1,"station_name":"Sudirman","time":4,"distance":3186,"i_long":106.822649,"station_id":"SUD","is_transit":false,"transit":false,"i_lat":-6.202263},{"distance":280,"station_id":"SUDB","station_name":"Sudirman Baru","transit":false,"i_lat":-6.201433,"is_transit":false,"i_long":106.819881,"time":1,"line":1},{"i_long":106.816351,"line":1,"station_name":"Karet","transit":false,"time":1,"i_lat":-6.20132,"station_id":"KAT","distance":471,"is_transit":false},{"station_name":"Tanah Abang","transit":true,"station_id":"THB","time":5,"is_transit":true,"i_lat":-6.185545,"line":1,"distance":2029,"i_long":106.811091},{"station_name":"Palmerah","is_transit":false,"time":6,"i_lat":-6.207404,"line":6,"distance":3191,"transit":false,"station_id":"PLM","i_long":106.79689},{"station_id":"KBY","is_transit":false,"distance":3737,"line":6,"i_lat":-6.237242,"i_long":106.780334,"time":7,"transit":false,"station_name":"Kebayoran"},{"line":6,"i_lat":-6.276362,"station_id":"PDJ","distance":6218,"time":8,"is_transit":false,"transit":false,"i_long":106.74273,"station_name":"Pondokranji"},{"station_name":"Jurangmangu","i_lat":-6.288927,"is_transit":false,"transit":false,"time":3,"i_long":106.728916,"station_id":"JMU","line":6,"distance":2179},{"transit":false,"time":4,"line":6,"station_name":"Sudimara","station_id":"SDM","is_transit":false,"i_lat":-6.296963,"distance":1994,"i_long":106.712277},{"station_id":"RU","transit":false,"i_lat":-6.314823,"time":6,"distance":4566,"station_name":"Rawa Buntu","is_transit":false,"i_long":106.675475,"line":6},{"distance":2413,"station_id":"SRP","transit":false,"i_long":106.66566,"i_lat":-6.319871,"line":6,"station_name":"Serpong","is_transit":false,"time":4},{"i_lat":-6.32484,"i_long":106.640411,"time":4,"line":3,"distance":1784,"station_id":"CSK","station_name":"Cisauk","transit":false,"is_transit":false},{"distance":2519,"is_transit":false,"time":4,"i_long":106.617853,"line":3,"transit":false,"i_lat":-6.329547,"station_id":"CC","station_name":"Cicayur"},{"transit":false,"time":8,"is_transit":false,"distance":5968,"i_lat":-6.3441410000000005,"station_id":"PRP","line":6,"station_name":"Parung Panjang","i_long":106.568863},{"line":3,"distance":7025,"station_name":"Cilejit","station_id":"CJT","is_transit":false,"time":9,"i_lat":-6.354349,"i_long":106.508482,"transit":false}],[{"is_transit":false,"distance":0,"transit":false,"time":0,"station_id":"TEB","i_long":106.857948,"line":2,"station_name":"Tebet","i_lat":-6.226659},{"station_name":"Manggarai","line":2,"distance":2610,"time":4,"i_lat":-6.209883,"station_id":"MRI","i_long":106.84912,"is_transit":false,"transit":false},{"time":4,"line":2,"station_id":"CKI","distance":1590,"transit":false,"station_name":"Cikini","i_lat":-6.198556,"is_transit":false,"i_long":106.840169},{"distance":1750,"i_long":106.832183,"time":3,"is_transit":false,"station_id":"GDD","transit":false,"i_lat":-6.186295,"station_name":"Gondangdia","line":2},{"station_name":"Juanda","line":2,"i_long":106.828284,"distance":2015,"time":4,"i_lat":-6.166716,"transit":false,"station_id":"JUA","is_transit":false},{"transit":false,"is_transit":false,"station_id":"SW","i_lat":-6.160725,"line":2,"station_name":"Sawah Besar","time":2,"i_long":106.827103,"distance":1149},{"i_long":106.82482,"is_transit":false,"distance":906,"station_name":"Manggabesar","i_lat":-6.149769,"line":2,"station_id":"MGB","time":2,"transit":false},{"is_transit":false,"i_long":106.820901,"time":2,"line":2,"station_id":"JAY","transit":false,"distance":1080,"i_lat":-6.141205,"station_name":"Jayakarta"},{"is_transit":true,"distance":1264,"transit":true,"i_long":106.812439,"station_name":"Jakarta Kota","station_id":"JAKK","time":4,"line":2,"i_lat":-6.137569},{"station_name":"Kampung Bandan","i_long":106.826365,"station_id":"KPB","i_lat":-6.132549,"transit":true,"time":3,"distance":1364,"is_transit":true,"line":4},{"station_name":"Angke","station_id":"AK","distance":4102,"line":1,"i_long":106.79867,"transit":false,"time":9,"is_transit":false,"i_lat":-6.144674},{"i_lat":-6.155215,"transit":false,"line":1,"time":4,"distance":1230,"station_id":"DU","is_transit":false,"station_name":"Duri","i_long":106.800832},{"time":8,"station_name":"Tanah Abang","station_id":"THB","transit":true,"i_long":106.811091,"i_lat":-6.185545,"line":1,"distance":3632,"is_transit":true},{"station_id":"PLM","is_transit":false,"i_lat":-6.207404,"i_long":106.79689,"distance":3191,"time":6,"station_name":"Palmerah","transit":false,"line":6},{"station_id":"KBY","distance":3737,"is_transit":false,"time":7,"station_name":"Kebayoran","i_long":106.780334,"line":6,"transit":false,"i_lat":-6.237242},{"transit":false,"station_name":"Pondokranji","i_lat":-6.276362,"is_transit":false,"distance":6218,"time":8,"station_id":"PDJ","i_long":106.74273,"line":6},{"distance":2179,"transit":false,"i_long":106.728916,"is_transit":false,"i_lat":-6.288927,"time":3,"station_name":"Jurangmangu","station_id":"JMU","line":6},{"i_lat":-6.296963,"station_name":"Sudimara","i_long":106.712277,"station_id":"SDM","time":4,"transit":false,"distance":1994,"is_transit":false,"line":6},{"i_lat":-6.314823,"distance":4566,"is_transit":false,"line":6,"station_id":"RU","transit":false,"station_name":"Rawa Buntu","time":6,"i_long":106.675475},{"i_long":106.66566,"line":6,"transit":false,"distance":2413,"station_name":"Serpong","time":4,"is_transit":false,"i_lat":-6.319871,"station_id":"SRP"},{"transit":false,"distance":1784,"is_transit":false,"line":3,"station_name":"Cisauk","station_id":"CSK","i_long":106.640411,"time":4,"i_lat":-6.32484},{"line":3,"station_name":"Cicayur","transit":false,"station_id":"CC","is_transit":false,"i_long":106.617853,"distance":2519,"time":4,"i_lat":-6.329547},{"transit":false,"distance":5968,"station_id":"PRP","i_lat":-6.3441410000000005,"time":8,"is_transit":false,"line":6,"station_name":"Parung Panjang","i_long":106.568863},{"is_transit":false,"station_id":"CJT","i_lat":-6.354349,"transit":false,"line":3,"station_name":"Cilejit","i_long":106.508482,"time":9,"distance":7025}],[{"i_long":106.857948,"distance":0,"station_name":"Tebet","station_id":"TEB","transit":false,"time":0,"is_transit":false,"i_lat":-6.226659,"line":2},{"distance":2610,"is_transit":true,"station_id":"MRI","station_name":"Manggarai","line":2,"time":4,"transit":true,"i_long":106.84912,"i_lat":-6.209883},{"line":1,"station_name":"Matraman","distance":1275,"time":2,"i_lat":-6.212485,"is_transit":false,"i_long":106.858896,"transit":false,"station_id":"MTR"},{"is_transit":true,"i_lat":-6.215091,"distance":1377,"i_long":106.86807400000001,"line":1,"station_name":"Jatinegara","time":8,"transit":true,"station_id":"JNG"},{"line":11,"i_lat":-6.209188,"station_name":"Pondok Jati","distance":1236,"time":2,"transit":false,"station_id":"POK","is_transit":false,"i_long":106.861737},{"transit":false,"is_transit":false,"distance":1829,"i_lat":-6.193792,"line":11,"i_long":106.855437,"station_id":"KMT","time":2,"station_name":"Kramat"},{"time":1,"transit":false,"station_id":"GST","distance":973,"station_name":"Gang Sentiong","is_transit":false,"i_lat":-6.185975,"i_long":106.850107,"line":11},{"distance":1567,"is_transit":false,"line":11,"station_name":"Pasar Senen","time":8,"transit":false,"i_lat":-6.174784,"i_long":106.84368,"station_id":"PSE"},{"time":4,"transit":false,"i_long":106.839204,"distance":1436,"station_name":"Kemayoran","station_id":"KMO","is_transit":false,"line":11,"i_lat":-6.161728},{"time":5,"distance":1901,"i_long":106.836569,"station_id":"RJW","is_transit":false,"line":11,"i_lat":-6.14505,"station_name":"Rajawali","transit":false},{"i_lat":-6.132549,"time":3,"i_long":106.826365,"station_name":"Kampung Bandan","line":4,"transit":true,"station_id":"KPB","distance":1444,"is_transit":true},{"station_name":"Angke","is_transit":false,"i_long":106.79867,"station_id":"AK","i_lat":-6.144674,"line":1,"time":9,"transit":false,"distance":4102},{"station_name":"Duri","i_long":106.800832,"line":1,"is_transit":false,"station_id":"DU","transit":false,"time":4,"i_lat":-6.155215,"distance":1230},{"transit":true,"station_id":"THB","time":8,"station_name":"Tanah Abang","is_transit":true,"distance":3632,"i_long":106.811091,"i_lat":-6.185545,"line":1},{"i_lat":-6.207404,"line":6,"station_name":"Palmerah","is_transit":false,"station_id":"PLM","i_long":106.79689,"distance":3191,"time":6,"transit":false},{"distance":3737,"line":6,"time":7,"station_id":"KBY","transit":false,"i_lat":-6.237242,"i_long":106.780334,"station_name":"Kebayoran","is_transit":false},{"time":8,"station_id":"PDJ","line":6,"transit":false,"i_long":106.74273,"station_name":"Pondokranji","distance":6218,"i_lat":-6.276362,"is_transit":false},{"time":3,"station_id":"JMU","is_transit":false,"transit":false,"station_name":"Jurangmangu","i_lat":-6.288927,"line":6,"i_long":106.728916,"distance":2179},{"i_lat":-6.296963,"is_transit":false,"line":6,"distance":1994,"station_name":"Sudimara","station_id":"SDM","time":4,"transit":false,"i_long":106.712277},{"is_transit":false,"station_name":"Rawa Buntu","transit":false,"station_id":"RU","i_lat":-6.314823,"i_long":106.675475,"line":6,"time":6,"distance":4566},{"i_lat":-6.319871,"station_id":"SRP","time":4,"i_long":106.66566,"station_name":"Serpong","distance":2413,"line":6,"is_transit":false,"transit":false},{"station_name":"Cisauk","distance":1784,"time":4,"is_transit":false,"transit":false,"station_id":"CSK","i_lat":-6.32484,"line":3,"i_long":106.640411},{"transit":false,"station_id":"CC","i_lat":-6.329547,"is_transit":false,"station_name":"Cicayur","time":4,"i_long":106.617853,"line":3,"distance":2519},{"time":8,"i_lat":-6.3441410000000005,"station_id":"PRP","transit":false,"is_transit":false,"i_long":106.568863,"line":6,"station_name":"Parung Panjang","distance":5968},{"transit":false,"i_lat":-6.354349,"is_transit":false,"i_long":106.508482,"distance":7025,"line":3,"time":9,"station_id":"CJT","station_name":"Cilejit"}]]}