{"data":[[{"station_id":"TEB","distance":0,"time":0,"i_lat":-6.226659,"is_transit":false,"station_name":"Tebet","i_long":106.857948,"transit":false,"line":2},{"time":4,"is_transit":true,"transit":true,"distance":2610,"station_name":"Manggarai","i_lat":-6.209883,"i_long":106.84912,"station_id":"MRI","line":0},{"i_long":106.858896,"is_transit":false,"line":1,"station_name":"Matraman","transit":false,"distance":1275,"i_lat":-6.212485,"station_id":"MTR","time":2},{"transit":true,"station_name":"Jatinegara","time":8,"line":0,"station_id":"JNG","is_transit":true,"i_long":106.86807400000001,"distance":1377,"i_lat":-6.215091},{"i_long":106.861737,"station_id":"POK","transit":false,"line":11,"time":2,"i_lat":-6.209188,"station_name":"Pondok Jati","distance":1236,"is_transit":false},{"i_long":106.855437,"line":11,"distance":1829,"station_id":"KMT","is_transit":false,"transit":false,"station_name":"Kramat","i_lat":-6.193792,"time":2},{"station_id":"GST","transit":false,"time":1,"i_lat":-6.185975,"is_transit":false,"station_name":"Gang Sentiong","i_long":106.850107,"line":11,"distance":973},{"distance":1567,"station_name":"Pasar Senen","is_transit":false,"line":11,"transit":false,"i_lat":-6.174784,"station_id":"PSE","i_long":106.84368,"time":8},{"time":4,"distance":1436,"is_transit":false,"transit":false,"station_name":"Kemayoran","station_id":"KMO","i_lat":-6.161728,"line":11,"i_long":106.839204}],[{"time":0,"station_id":"TEB","distance":0,"transit":false,"i_long":106.857948,"i_lat":-6.226659,"line":2,"is_transit":false,"station_name":"Tebet"},{"line":0,"station_id":"MRI","station_name":"Manggarai","distance":2610,"time":4,"is_transit":true,"transit":true,"i_lat":-6.209883,"i_long":106.84912},{"distance":3186,"is_transit":false,"i_long":106.822649,"i_lat":-6.202263,"station_name":"Sudirman","transit":false,"station_id":"SUD","time":4,"line":1},{"i_long":106.819881,"distance":280,"line":1,"transit":false,"station_name":"Sudirman Baru","is_transit":false,"time":1,"station_id":"SUDB","i_lat":-6.201433},{"is_transit":false,"station_id":"KAT","time":1,"station_name":"Karet","i_lat":-6.20132,"i_long":106.816351,"distance":471,"transit":false,"line":1},{"time":5,"distance":2029,"is_transit":true,"i_lat":-6.185545,"transit":false,"station_id":"THB","i_long":106.811091,"station_name":"Tanah Abang","line":1},{"distance":3632,"time":8,"station_name":"Duri","is_transit":true,"transit":true,"i_lat":-6.155215,"i_long":106.800832,"line":1,"station_id":"DU"},{"station_name":"Angke","time":4,"i_lat":-6.144674,"i_long":106.79867,"line":0,"transit":false,"distance":1230,"is_transit":false,"station_id":"AK"},{"transit":true,"i_lat":-6.132549,"i_long":106.826365,"station_name":"Kampung Bandan","station_id":"KPB","is_transit":true,"line":0,"distance":4102,"time":9},{"i_long":106.836569,"transit":false,"i_lat":-6.14505,"time":3,"station_name":"Rajawali","station_id":"RJW","is_transit":false,"distance":1444,"line":11},{"transit":false,"i_lat":-6.161728,"distance":1901,"is_transit":false,"i_long":106.839204,"line":11,"time":5,"station_id":"KMO","station_name":"Kemayoran"}],[{"station_name":"Tebet","distance":0,"station_id":"TEB","is_transit":false,"i_long":106.857948,"line":2,"transit":false,"i_lat":-6.226659,"time":0},{"station_id":"MRI","line":0,"i_lat":-6.209883,"i_long":106.84912,"time":4,"is_transit":true,"distance":2610,"transit":true,"station_name":"Manggarai"},{"distance":1590,"i_lat":-6.198556,"i_long":106.840169,"line":0,"time":4,"is_transit":false,"station_id":"CKI","station_name":"Cikini","transit":false},{"station_name":"Gondangdia","is_transit":false,"transit":false,"station_id":"GDD","time":3,"i_lat":-6.186295,"line":2,"i_long":106.832183,"distance":1750},{"distance":2015,"station_id":"JUA","station_name":"Juanda","transit":false,"i_long":106.828284,"line":2,"time":4,"is_transit":false,"i_lat":-6.166716},{"distance":1149,"line":2,"station_id":"SW","i_long":106.827103,"station_name":"Sawah Besar","i_lat":-6.160725,"transit":false,"is_transit":false,"time":2},{"line":2,"is_transit":false,"i_lat":-6.149769,"station_name":"Manggabesar","station_id":"MGB","time":2,"i_long":106.82482,"distance":906,"transit":false},{"is_transit":false,"transit":false,"i_long":106.820901,"time":2,"i_lat":-6.141205,"station_name":"Jayakarta","distance":1080,"station_id":"JAY","line":7},{"station_id":"JAKK","transit":true,"line":0,"station_name":"Jakarta Kota","i_lat":-6.137569,"distance":1264,"is_transit":true,"time":4,"i_long":106.812439},{"is_transit":true,"station_id":"KPB","i_lat":-6.132549,"station_name":"Kampung Bandan","time":3,"i_long":106.826365,"distance":1364,"line":0,"transit":true},{"station_id":"RJW","time":3,"transit":false,"i_lat":-6.14505,"distance":1444,"line":11,"is_transit":false,"station_name":"Rajawali","i_long":106.836569},{"is_transit":false,"station_name":"Kemayoran","i_long":106.839204,"station_id":"KMO","time":5,"distance":1901,"i_lat":-6.161728,"line":11,"transit":false}]]}