{"data":[[{"station_id":"TEB","distance":0,"time":0,"i_long":106.857948,"i_lat":-6.226659,"line":2,"is_transit":false,"transit":false,"station_name":"Tebet"},{"distance":2610,"i_lat":-6.209883,"is_transit":true,"transit":true,"station_id":"MRI","station_name":"Manggarai","time":4,"i_long":106.84912,"line":0},{"is_transit":false,"distance":1590,"line":0,"time":4,"transit":false,"i_lat":-6.198556,"i_long":106.840169,"station_id":"CKI","station_name":"Cikini"}],[{"transit":false,"station_id":"TEB","time":0,"line":2,"distance":0,"i_long":106.857948,"is_transit":false,"station_name":"Tebet","i_lat":-6.226659},{"line":0,"station_name":"Manggarai","i_lat":-6.209883,"distance":2610,"is_transit":true,"i_long":106.84912,"station_id":"MRI","transit":true,"time":4},{"station_id":"SUD","i_lat":-6.202263,"distance":3186,"time":4,"i_long":106.822649,"line":1,"station_name":"Sudirman","transit":false,"is_transit":false},{"transit":false,"station_name":"Sudirman Baru","distance":280,"time":1,"line":1,"i_lat":-6.201433,"is_transit":false,"i_long":106.819881,"station_id":"SUDB"},{"station_id":"KAT","is_transit":false,"time":1,"station_name":"Karet","transit":false,"distance":471,"line":1,"i_long":106.816351,"i_lat":-6.20132},{"distance":2029,"transit":false,"i_lat":-6.185545,"station_id":"THB","time":5,"is_transit":true,"i_long":106.811091,"station_name":"Tanah Abang","line":1},{"station_id":"DU","distance":3632,"station_name":"Duri","transit":true,"i_lat":-6.155215,"line":1,"i_long":106.800832,"time":8,"is_transit":true},{"transit":false,"is_transit":false,"i_lat":-6.144674,"station_name":"Angke","distance":1230,"time":4,"i_long":106.79867,"line":0,"station_id":"AK"},{"time":9,"transit":false,"i_lat":-6.132549,"line":0,"station_name":"Kampung Bandan","i_long":106.826365,"distance":4102,"station_id":"KPB","is_transit":true},{"i_long":106.812439,"line":0,"transit":true,"is_transit":true,"station_name":"Jakarta Kota","time":3,"i_lat":-6.137569,"distance":1364,"station_id":"JAKK"},{"distance":1264,"time":4,"is_transit":false,"station_name":"Jayakarta","transit":false,"i_long":106.820901,"i_lat":-6.141205,"station_id":"JAY","line":7},{"i_lat":-6.149769,"station_id":"MGB","distance":1080,"i_long":106.82482,"is_transit":false,"line":2,"time":2,"transit":false,"station_name":"Manggabesar"},{"i_lat":-6.160725,"line":2,"is_transit":false,"station_name":"Sawah Besar","i_long":106.827103,"time":2,"distance":906,"station_id":"SW","transit":false},{"station_name":"Juanda","transit":false,"time":2,"is_transit":false,"distance":1149,"line":2,"station_id":"JUA","i_long":106.828284,"i_lat":-6.166716},{"station_name":"Gondangdia","transit":false,"i_long":106.832183,"time":4,"distance":2015,"is_transit":false,"i_lat":-6.186295,"line":2,"station_id":"GDD"},{"line":0,"transit":false,"i_long":106.840169,"is_transit":false,"station_id":"CKI","i_lat":-6.198556,"distance":1750,"station_name":"Cikini","time":3}],[{"time":0,"i_long":106.857948,"line":2,"station_name":"Tebet","i_lat":-6.226659,"is_transit":false,"distance":0,"station_id":"TEB","transit":false},{"i_long":106.84912,"transit":true,"distance":2610,"time":4,"i_lat":-6.209883,"line":0,"station_id":"MRI","is_transit":true,"station_name":"Manggarai"},{"line":1,"time":2,"station_id":"MTR","i_long":106.858896,"transit":false,"distance":1275,"station_name":"Matraman","is_transit":false,"i_lat":-6.212485},{"station_id":"JNG","transit":true,"line":0,"distance":1377,"time":8,"is_transit":true,"station_name":"Jatinegara","i_lat":-6.215091,"i_long":106.86807400000001},{"transit":false,"distance":1236,"i_lat":-6.209188,"station_name":"Pondok Jati","time":2,"line":11,"is_transit":false,"i_long":106.861737,"station_id":"POK"},{"station_id":"KMT","time":2,"i_lat":-6.193792,"distance":1829,"transit":false,"line":11,"is_transit":false,"station_name":"Kramat","i_long":106.855437},{"distance":973,"station_id":"GST","time":1,"station_name":"Gang Sentiong","is_transit":false,"i_lat":-6.185975,"i_long":106.850107,"line":11,"transit":false},{"station_id":"PSE","transit":false,"is_transit":false,"line":11,"time":8,"station_name":"Pasar Senen","i_lat":-6.174784,"i_long":106.84368,"distance":1567},{"time":4,"i_lat":-6.161728,"transit":false,"line":11,"i_long":106.839204,"station_name":"Kemayoran","distance":1436,"is_transit":false,"station_id":"KMO"},{"is_transit":false,"line":11,"i_lat":-6.14505,"time":5,"station_id":"RJW","distance":1901,"station_name":"Rajawali","transit":false,"i_long":106.836569},{"is_transit":true,"station_id":"KPB","station_name":"Kampung Bandan","transit":true,"distance":1444,"time":3,"i_lat":-6.132549,"i_long":106.826365,"line":0},{"line":0,"i_long":106.812439,"transit":true,"i_lat":-6.137569,"station_name":"Jakarta Kota","is_transit":true,"distance":1364,"time":3,"station_id":"JAKK"},{"transit":false,"station_id":"JAY","station_name":"Jayakarta","i_lat":-6.141205,"line":7,"time":4,"is_transit":false,"i_long":106.820901,"distance":1264},{"distance":1080,"transit":false,"time":2,"station_name":"Manggabesar","i_lat":-6.149769,"i_long":106.82482,"is_transit":false,"station_id":"MGB","line":2},{"station_id":"SW","is_transit":false,"distance":906,"transit":false,"time":2,"i_long":106.827103,"station_name":"Sawah Besar","i_lat":-6.160725,"line":2},{"distance":1149,"time":2,"line":2,"station_name":"Juanda","i_long":106.828284,"station_id":"JUA","is_transit":false,"transit":false,"i_lat":-6.166716},{"distance":2015,"i_long":106.832183,"station_id":"GDD","i_lat":-6.186295,"is_transit":false,"station_name":"Gondangdia","transit":false,"time":4,"line":2},{"is_transit":false,"i_lat":-6.198556,"station_id":"CKI","distance":1750,"transit":false,"i_long":106.840169,"time":3,"line":0,"station_name":"Cikini"}]]}