{"data":[[{"time":0,"is_transit":false,"station_name":"Tebet","i_long":106.857948,"i_lat":-6.226659,"distance":0,"station_id":"TEB","transit":false,"line":2},{"time":4,"is_transit":true,"i_lat":-6.209883,"line":2,"i_long":106.84912,"distance":2610,"transit":true,"station_name":"Manggarai","station_id":"MRI"},{"i_lat":-6.202263,"station_id":"SUD","time":4,"transit":false,"line":1,"i_long":106.822649,"is_transit":false,"distance":3186,"station_name":"Sudirman"},{"time":1,"distance":280,"transit":false,"i_long":106.819881,"line":1,"is_transit":false,"i_lat":-6.201433,"station_id":"SUDB","station_name":"Sudirman Baru"},{"transit":false,"i_lat":-6.20132,"station_id":"KAT","distance":471,"is_transit":false,"station_name":"Karet","i_long":106.816351,"line":1,"time":1},{"station_id":"THB","distance":2029,"i_lat":-6.185545,"time":5,"station_name":"Tanah Abang","i_long":106.811091,"transit":true,"line":1,"is_transit":true},{"time":6,"i_lat":-6.207404,"is_transit":false,"station_name":"Palmerah","distance":3191,"i_long":106.79689,"station_id":"PLM","transit":false,"line":6},{"station_name":"Kebayoran","i_lat":-6.237242,"time":7,"station_id":"KBY","i_long":106.780334,"is_transit":false,"distance":3737,"transit":false,"line":6},{"line":6,"station_id":"PDJ","station_name":"Pondokranji","i_long":106.74273,"transit":false,"time":8,"is_transit":false,"i_lat":-6.276362,"distance":6218},{"distance":2179,"station_name":"Jurangmangu","line":6,"is_transit":false,"time":3,"station_id":"JMU","transit":false,"i_long":106.728916,"i_lat":-6.288927},{"time":4,"station_id":"SDM","is_transit":false,"i_long":106.712277,"line":6,"station_name":"Sudimara","distance":1994,"i_lat":-6.296963,"transit":false},{"time":6,"transit":false,"i_lat":-6.314823,"is_transit":false,"i_long":106.675475,"line":6,"station_name":"Rawa Buntu","distance":4566,"station_id":"RU"},{"transit":false,"time":4,"is_transit":false,"station_id":"SRP","station_name":"Serpong","i_lat":-6.319871,"distance":2413,"i_long":106.66566,"line":6},{"i_long":106.640411,"i_lat":-6.32484,"time":4,"is_transit":false,"distance":1784,"station_id":"CSK","station_name":"Cisauk","line":3,"transit":false}],[{"time":0,"station_id":"TEB","transit":false,"i_long":106.857948,"is_transit":false,"i_lat":-6.226659,"line":2,"station_name":"Tebet","distance":0},{"time":4,"distance":2610,"station_name":"Manggarai","transit":false,"i_lat":-6.209883,"is_transit":false,"station_id":"MRI","i_long":106.84912,"line":2},{"i_long":106.840169,"distance":1590,"station_id":"CKI","time":4,"i_lat":-6.198556,"line":2,"is_transit":false,"transit":false,"station_name":"Cikini"},{"transit":false,"is_transit":false,"time":3,"line":2,"station_id":"GDD","i_lat":-6.186295,"station_name":"Gondangdia","i_long":106.832183,"distance":1750},{"i_lat":-6.166716,"station_name":"Juanda","i_long":106.828284,"station_id":"JUA","transit":false,"is_transit":false,"distance":2015,"time":4,"line":2},{"time":2,"station_name":"Sawah Besar","distance":1149,"line":2,"transit":false,"i_long":106.827103,"is_transit":false,"station_id":"SW","i_lat":-6.160725},{"line":2,"distance":906,"time":2,"station_name":"Manggabesar","transit":false,"i_long":106.82482,"station_id":"MGB","i_lat":-6.149769,"is_transit":false},{"is_transit":false,"station_id":"JAY","time":2,"line":2,"distance":1080,"transit":false,"i_lat":-6.141205,"station_name":"Jayakarta","i_long":106.820901},{"i_lat":-6.137569,"distance":1264,"time":4,"is_transit":true,"i_long":106.812439,"station_id":"JAKK","line":2,"transit":true,"station_name":"Jakarta Kota"},{"station_id":"KPB","transit":true,"i_lat":-6.132549,"time":3,"is_transit":true,"i_long":106.826365,"station_name":"Kampung Bandan","line":4,"distance":1364},{"i_lat":-6.144674,"time":9,"transit":false,"is_transit":false,"station_id":"AK","line":1,"i_long":106.79867,"distance":4102,"station_name":"Angke"},{"station_id":"DU","line":1,"i_long":106.800832,"i_lat":-6.155215,"transit":false,"time":4,"distance":1230,"station_name":"Duri","is_transit":false},{"distance":3632,"station_name":"Tanah Abang","time":8,"transit":true,"i_long":106.811091,"line":1,"is_transit":true,"i_lat":-6.185545,"station_id":"THB"},{"i_lat":-6.207404,"station_id":"PLM","time":6,"station_name":"Palmerah","is_transit":false,"transit":false,"line":6,"distance":3191,"i_long":106.79689},{"i_long":106.780334,"station_name":"Kebayoran","transit":false,"is_transit":false,"time":7,"i_lat":-6.237242,"station_id":"KBY","distance":3737,"line":6},{"line":6,"distance":6218,"i_long":106.74273,"station_id":"PDJ","i_lat":-6.276362,"is_transit":false,"time":8,"transit":false,"station_name":"Pondokranji"},{"station_id":"JMU","i_lat":-6.288927,"is_transit":false,"station_name":"Jurangmangu","line":6,"i_long":106.728916,"transit":false,"time":3,"distance":2179},{"distance":1994,"is_transit":false,"transit":false,"line":6,"i_long":106.712277,"i_lat":-6.296963,"time":4,"station_name":"Sudimara","station_id":"SDM"},{"distance":4566,"line":6,"is_transit":false,"time":6,"transit":false,"station_id":"RU","station_name":"Rawa Buntu","i_lat":-6.314823,"i_long":106.675475},{"i_long":106.66566,"station_name":"Serpong","distance":2413,"i_lat":-6.319871,"transit":false,"line":6,"is_transit":false,"station_id":"SRP","time":4},{"station_name":"Cisauk","i_long":106.640411,"time":4,"distance":1784,"is_transit":false,"i_lat":-6.32484,"line":3,"transit":false,"station_id":"CSK"}],[{"station_name":"Tebet","station_id":"TEB","i_long":106.857948,"i_lat":-6.226659,"is_transit":false,"line":2,"time":0,"distance":0,"transit":false},{"time":4,"is_transit":true,"transit":true,"i_lat":-6.209883,"station_name":"Manggarai","distance":2610,"line":2,"i_long":106.84912,"station_id":"MRI"},{"i_long":106.858896,"distance":1275,"is_transit":false,"transit":false,"time":2,"station_id":"MTR","station_name":"Matraman","i_lat":-6.212485,"line":1},{"is_transit":true,"station_id":"JNG","time":8,"line":1,"transit":true,"distance":1377,"station_name":"Jatinegara","i_lat":-6.215091,"i_long":106.86807400000001},{"distance":1236,"transit":false,"time":2,"line":11,"station_name":"Pondok Jati","i_lat":-6.209188,"i_long":106.861737,"is_transit":false,"station_id":"POK"},{"station_id":"KMT","distance":1829,"line":11,"transit":false,"station_name":"Kramat","i_long":106.855437,"is_transit":false,"time":2,"i_lat":-6.193792},{"time":1,"station_id":"GST","is_transit":false,"transit":false,"i_lat":-6.185975,"line":11,"i_long":106.850107,"distance":973,"station_name":"Gang Sentiong"},{"time":8,"station_id":"PSE","i_lat":-6.174784,"is_transit":false,"i_long":106.84368,"line":11,"distance":1567,"station_name":"Pasar Senen","transit":false},{"transit":false,"line":11,"i_long":106.839204,"distance":1436,"station_name":"Kemayoran","station_id":"KMO","is_transit":false,"time":4,"i_lat":-6.161728},{"is_transit":false,"station_name":"Rajawali","time":5,"i_lat":-6.14505,"line":11,"distance":1901,"station_id":"RJW","transit":false,"i_long":106.836569},{"i_long":106.826365,"line":4,"station_name":"Kampung Bandan","station_id":"KPB","distance":1444,"time":3,"i_lat":-6.132549,"is_transit":true,"transit":true},{"transit":false,"time":9,"line":1,"distance":4102,"station_name":"Angke","is_transit":false,"station_id":"AK","i_lat":-6.144674,"i_long":106.79867},{"transit":false,"line":1,"is_transit":false,"i_lat":-6.155215,"station_name":"Duri","distance":1230,"time":4,"i_long":106.800832,"station_id":"DU"},{"time":8,"transit":true,"distance":3632,"station_name":"Tanah Abang","station_id":"THB","i_lat":-6.185545,"i_long":106.811091,"is_transit":true,"line":1},{"i_lat":-6.207404,"distance":3191,"line":6,"station_name":"Palmerah","i_long":106.79689,"time":6,"is_transit":false,"transit":false,"station_id":"PLM"},{"transit":false,"station_id":"KBY","i_lat":-6.237242,"i_long":106.780334,"distance":3737,"is_transit":false,"station_name":"Kebayoran","line":6,"time":7},{"transit":false,"line":6,"station_id":"PDJ","i_lat":-6.276362,"station_name":"Pondokranji","i_long":106.74273,"distance":6218,"time":8,"is_transit":false},{"station_name":"Jurangmangu","time":3,"station_id":"JMU","line":6,"i_lat":-6.288927,"is_transit":false,"distance":2179,"transit":false,"i_long":106.728916},{"station_name":"Sudimara","distance":1994,"transit":false,"station_id":"SDM","time":4,"i_long":106.712277,"line":6,"is_transit":false,"i_lat":-6.296963},{"transit":false,"distance":4566,"time":6,"i_lat":-6.314823,"station_id":"RU","line":6,"station_name":"Rawa Buntu","i_long":106.675475,"is_transit":false},{"transit":false,"station_name":"Serpong","is_transit":false,"time":4,"i_lat":-6.319871,"distance":2413,"line":6,"i_long":106.66566,"station_id":"SRP"},{"is_transit":false,"station_name":"Cisauk","i_lat":-6.32484,"station_id":"CSK","line":3,"distance":1784,"time":4,"transit":false,"i_long":106.640411}]]}