{"data":[[{"time":0,"station_id":"TEB","transit":false,"i_lat":-6.226659,"station_name":"Tebet","i_long":106.857948,"line":2,"is_transit":false,"distance":0},{"station_id":"MRI","station_name":"Manggarai","i_long":106.84912,"is_transit":true,"line":2,"i_lat":-6.209883,"time":4,"transit":true,"distance":2610},{"i_lat":-6.202263,"transit":false,"station_id":"SUD","distance":3186,"line":1,"i_long":106.822649,"is_transit":false,"station_name":"Sudirman","time":4},{"station_name":"Sudirman Baru","i_long":106.819881,"station_id":"SUDB","line":1,"distance":280,"i_lat":-6.201433,"is_transit":false,"time":1,"transit":false},{"distance":471,"i_long":106.816351,"station_id":"KAT","time":1,"is_transit":false,"line":1,"transit":false,"station_name":"Karet","i_lat":-6.20132},{"i_lat":-6.185545,"i_long":106.811091,"distance":2029,"station_id":"THB","time":5,"transit":true,"station_name":"Tanah Abang","line":1,"is_transit":true},{"i_long":106.79689,"line":6,"is_transit":false,"station_name":"Palmerah","transit":false,"i_lat":-6.207404,"time":6,"distance":3191,"station_id":"PLM"},{"is_transit":false,"transit":false,"i_lat":-6.237242,"station_name":"Kebayoran","line":6,"distance":3737,"time":7,"station_id":"KBY","i_long":106.780334},{"station_name":"Pondokranji","i_lat":-6.276362,"distance":6218,"transit":false,"line":6,"is_transit":false,"i_long":106.74273,"time":8,"station_id":"PDJ"},{"transit":false,"i_lat":-6.288927,"i_long":106.728916,"time":3,"station_id":"JMU","is_transit":false,"line":6,"station_name":"Jurangmangu","distance":2179},{"transit":false,"i_long":106.712277,"i_lat":-6.296963,"is_transit":false,"distance":1994,"time":4,"station_id":"SDM","station_name":"Sudimara","line":6},{"is_transit":false,"i_lat":-6.314823,"line":6,"time":6,"station_name":"Rawa Buntu","i_long":106.675475,"distance":4566,"station_id":"RU","transit":false},{"station_name":"Serpong","time":4,"transit":false,"is_transit":false,"line":6,"distance":2413,"station_id":"SRP","i_long":106.66566,"i_lat":-6.319871},{"station_id":"CSK","transit":false,"line":3,"time":4,"i_lat":-6.32484,"i_long":106.640411,"is_transit":false,"distance":1784,"station_name":"Cisauk"},{"transit":false,"i_long":106.617853,"line":3,"is_transit":false,"station_id":"CC","distance":2519,"time":4,"i_lat":-6.329547,"station_name":"Cicayur"},{"is_transit":false,"distance":5968,"line":6,"time":8,"i_lat":-6.3441410000000005,"station_name":"Parung Panjang","station_id":"PRP","i_long":106.568863,"transit":false},{"i_long":106.508482,"line":3,"station_name":"Cilejit","distance":7025,"is_transit":false,"station_id":"CJT","time":9,"transit":false,"i_lat":-6.354349},{"transit":false,"distance":2675,"is_transit":false,"station_name":"Daru","time":6,"station_id":"DAR","line":0,"i_long":106.491338,"i_lat":-6.338021},{"time":5,"station_id":"TEJ","transit":false,"station_name":"Tenjo","i_long":106.460812,"is_transit":false,"line":6,"distance":3902,"i_lat":-6.327251},{"is_transit":false,"i_lat":-6.328533,"line":6,"i_long":106.425991,"station_name":"Tigaraksa","transit":false,"distance":2974,"station_id":"TGS","time":5},{"is_transit":false,"station_id":"CKY","transit":false,"station_name":"Cikoya","i_lat":-6.33561,"distance":2651,"i_long":106.411216,"line":3,"time":3},{"transit":false,"station_id":"MJ","i_long":106.394373,"distance":1853,"is_transit":false,"line":6,"station_name":"Maja","i_lat":-6.332307,"time":4},{"i_long":106.332092,"distance":7293,"transit":false,"station_name":"Citeras","time":10,"is_transit":false,"i_lat":-6.334892,"line":3,"station_id":"CTR"}],[{"distance":0,"time":0,"line":2,"station_id":"TEB","i_lat":-6.226659,"i_long":106.857948,"transit":false,"is_transit":false,"station_name":"Tebet"},{"transit":false,"station_name":"Manggarai","time":4,"station_id":"MRI","is_transit":false,"line":2,"distance":2610,"i_lat":-6.209883,"i_long":106.84912},{"i_long":106.840169,"station_id":"CKI","station_name":"Cikini","transit":false,"time":4,"line":2,"distance":1590,"is_transit":false,"i_lat":-6.198556},{"station_name":"Gondangdia","line":2,"station_id":"GDD","transit":false,"time":3,"i_lat":-6.186295,"distance":1750,"is_transit":false,"i_long":106.832183},{"line":2,"i_lat":-6.166716,"station_id":"JUA","transit":false,"distance":2015,"station_name":"Juanda","time":4,"is_transit":false,"i_long":106.828284},{"station_id":"SW","time":2,"i_long":106.827103,"line":2,"distance":1149,"is_transit":false,"transit":false,"i_lat":-6.160725,"station_name":"Sawah Besar"},{"is_transit":false,"station_name":"Manggabesar","distance":906,"transit":false,"i_lat":-6.149769,"line":2,"i_long":106.82482,"time":2,"station_id":"MGB"},{"time":2,"line":2,"distance":1080,"i_long":106.820901,"station_name":"Jayakarta","is_transit":false,"transit":false,"i_lat":-6.141205,"station_id":"JAY"},{"station_name":"Jakarta Kota","distance":1264,"time":4,"i_lat":-6.137569,"i_long":106.812439,"transit":true,"is_transit":true,"line":2,"station_id":"JAKK"},{"i_long":106.826365,"line":4,"station_name":"Kampung Bandan","time":3,"i_lat":-6.132549,"distance":1364,"transit":true,"station_id":"KPB","is_transit":true},{"i_lat":-6.144674,"distance":4102,"i_long":106.79867,"station_id":"AK","line":1,"time":9,"is_transit":false,"transit":false,"station_name":"Angke"},{"is_transit":false,"station_name":"Duri","i_lat":-6.155215,"transit":false,"distance":1230,"i_long":106.800832,"station_id":"DU","line":1,"time":4},{"i_lat":-6.185545,"station_name":"Tanah Abang","distance":3632,"time":8,"is_transit":true,"i_long":106.811091,"station_id":"THB","line":1,"transit":true},{"distance":3191,"is_transit":false,"station_id":"PLM","station_name":"Palmerah","transit":false,"time":6,"i_lat":-6.207404,"i_long":106.79689,"line":6},{"i_long":106.780334,"station_name":"Kebayoran","i_lat":-6.237242,"transit":false,"distance":3737,"line":6,"station_id":"KBY","is_transit":false,"time":7},{"station_id":"PDJ","i_lat":-6.276362,"line":6,"is_transit":false,"distance":6218,"transit":false,"station_name":"Pondokranji","time":8,"i_long":106.74273},{"distance":2179,"i_long":106.728916,"line":6,"station_name":"Jurangmangu","time":3,"is_transit":false,"transit":false,"i_lat":-6.288927,"station_id":"JMU"},{"i_long":106.712277,"station_id":"SDM","transit":false,"time":4,"i_lat":-6.296963,"line":6,"distance":1994,"is_transit":false,"station_name":"Sudimara"},{"time":6,"line":6,"station_id":"RU","i_lat":-6.314823,"transit":false,"i_long":106.675475,"is_transit":false,"distance":4566,"station_name":"Rawa Buntu"},{"distance":2413,"line":6,"i_lat":-6.319871,"time":4,"i_long":106.66566,"station_name":"Serpong","transit":false,"station_id":"SRP","is_transit":false},{"i_long":106.640411,"station_id":"CSK","i_lat":-6.32484,"time":4,"distance":1784,"is_transit":false,"transit":false,"station_name":"Cisauk","line":3},{"distance":2519,"station_name":"Cicayur","time":4,"line":3,"transit":false,"is_transit":false,"i_long":106.617853,"i_lat":-6.329547,"station_id":"CC"},{"distance":5968,"is_transit":false,"line":6,"i_long":106.568863,"station_id":"PRP","transit":false,"station_name":"Parung Panjang","time":8,"i_lat":-6.3441410000000005},{"i_long":106.508482,"station_id":"CJT","line":3,"time":9,"is_transit":false,"distance":7025,"i_lat":-6.354349,"station_name":"Cilejit","transit":false},{"time":6,"line":0,"distance":2675,"station_id":"DAR","transit":false,"i_lat":-6.338021,"is_transit":false,"i_long":106.491338,"station_name":"Daru"},{"distance":3902,"is_transit":false,"transit":false,"station_name":"Tenjo","time":5,"station_id":"TEJ","i_long":106.460812,"line":6,"i_lat":-6.327251},{"is_transit":false,"transit":false,"i_long":106.425991,"i_lat":-6.328533,"station_id":"TGS","line":6,"distance":2974,"station_name":"Tigaraksa","time":5},{"time":3,"distance":2651,"station_name":"Cikoya","line":3,"is_transit":false,"station_id":"CKY","i_lat":-6.33561,"transit":false,"i_long":106.411216},{"transit":false,"station_name":"Maja","i_lat":-6.332307,"distance":1853,"i_long":106.394373,"station_id":"MJ","is_transit":false,"time":4,"line":6},{"station_name":"Citeras","line":3,"transit":false,"is_transit":false,"i_long":106.332092,"i_lat":-6.334892,"distance":7293,"station_id":"CTR","time":10}],[{"line":2,"distance":0,"station_name":"Tebet","i_long":106.857948,"i_lat":-6.226659,"station_id":"TEB","transit":false,"time":0,"is_transit":false},{"station_id":"MRI","station_name":"Manggarai","i_long":106.84912,"time":4,"distance":2610,"transit":true,"is_transit":true,"i_lat":-6.209883,"line":2},{"distance":1275,"transit":false,"i_lat":-6.212485,"i_long":106.858896,"station_id":"MTR","station_name":"Matraman","is_transit":false,"line":1,"time":2},{"station_id":"JNG","i_long":106.86807400000001,"transit":true,"distance":1377,"time":8,"i_lat":-6.215091,"line":1,"is_transit":true,"station_name":"Jatinegara"},{"i_lat":-6.209188,"i_long":106.861737,"line":11,"is_transit":false,"station_id":"POK","time":2,"transit":false,"station_name":"Pondok Jati","distance":1236},{"station_id":"KMT","time":2,"i_long":106.855437,"line":11,"station_name":"Kramat","i_lat":-6.193792,"distance":1829,"is_transit":false,"transit":false},{"distance":973,"line":11,"station_id":"GST","transit":false,"is_transit":false,"i_long":106.850107,"station_name":"Gang Sentiong","i_lat":-6.185975,"time":1},{"transit":false,"station_id":"PSE","distance":1567,"is_transit":false,"i_lat":-6.174784,"station_name":"Pasar Senen","time":8,"i_long":106.84368,"line":11},{"station_name":"Kemayoran","transit":false,"time":4,"line":11,"distance":1436,"i_lat":-6.161728,"station_id":"KMO","i_long":106.839204,"is_transit":false},{"i_long":106.836569,"is_transit":false,"line":11,"time":5,"i_lat":-6.14505,"distance":1901,"station_name":"Rajawali","station_id":"RJW","transit":false},{"station_id":"KPB","time":3,"distance":1444,"i_lat":-6.132549,"transit":true,"i_long":106.826365,"station_name":"Kampung Bandan","is_transit":true,"line":4},{"transit":false,"i_long":106.79867,"station_name":"Angke","time":9,"station_id":"AK","i_lat":-6.144674,"line":1,"distance":4102,"is_transit":false},{"is_transit":false,"station_name":"Duri","transit":false,"station_id":"DU","time":4,"i_long":106.800832,"distance":1230,"line":1,"i_lat":-6.155215},{"station_id":"THB","i_lat":-6.185545,"line":1,"distance":3632,"is_transit":true,"time":8,"station_name":"Tanah Abang","i_long":106.811091,"transit":true},{"distance":3191,"station_name":"Palmerah","time":6,"station_id":"PLM","i_lat":-6.207404,"transit":false,"i_long":106.79689,"is_transit":false,"line":6},{"i_lat":-6.237242,"distance":3737,"i_long":106.780334,"station_name":"Kebayoran","time":7,"line":6,"is_transit":false,"station_id":"KBY","transit":false},{"transit":false,"i_lat":-6.276362,"distance":6218,"station_id":"PDJ","i_long":106.74273,"line":6,"station_name":"Pondokranji","time":8,"is_transit":false},{"is_transit":false,"i_long":106.728916,"transit":false,"time":3,"distance":2179,"station_id":"JMU","station_name":"Jurangmangu","line":6,"i_lat":-6.288927},{"transit":false,"line":6,"is_transit":false,"station_id":"SDM","distance":1994,"station_name":"Sudimara","time":4,"i_lat":-6.296963,"i_long":106.712277},{"station_id":"RU","distance":4566,"time":6,"i_lat":-6.314823,"line":6,"transit":false,"i_long":106.675475,"station_name":"Rawa Buntu","is_transit":false},{"transit":false,"time":4,"distance":2413,"station_id":"SRP","station_name":"Serpong","line":6,"is_transit":false,"i_lat":-6.319871,"i_long":106.66566},{"time":4,"i_lat":-6.32484,"station_name":"Cisauk","distance":1784,"station_id":"CSK","i_long":106.640411,"transit":false,"is_transit":false,"line":3},{"is_transit":false,"i_lat":-6.329547,"station_id":"CC","transit":false,"station_name":"Cicayur","i_long":106.617853,"time":4,"distance":2519,"line":3},{"line":6,"station_id":"PRP","station_name":"Parung Panjang","is_transit":false,"distance":5968,"time":8,"i_lat":-6.3441410000000005,"i_long":106.568863,"transit":false},{"station_name":"Cilejit","station_id":"CJT","is_transit":false,"line":3,"i_long":106.508482,"transit":false,"time":9,"i_lat":-6.354349,"distance":7025},{"transit":false,"time":6,"is_transit":false,"station_id":"DAR","i_long":106.491338,"i_lat":-6.338021,"station_name":"Daru","line":0,"distance":2675},{"time":5,"station_name":"Tenjo","line":6,"transit":false,"is_transit":false,"distance":3902,"i_lat":-6.327251,"i_long":106.460812,"station_id":"TEJ"},{"i_long":106.425991,"station_name":"Tigaraksa","station_id":"TGS","is_transit":false,"line":6,"distance":2974,"i_lat":-6.328533,"transit":false,"time":5},{"transit":false,"station_id":"CKY","i_lat":-6.33561,"i_long":106.411216,"distance":2651,"is_transit":false,"line":3,"time":3,"station_name":"Cikoya"},{"station_id":"MJ","i_lat":-6.332307,"distance":1853,"transit":false,"time":4,"is_transit":false,"i_long":106.394373,"station_name":"Maja","line":6},{"i_lat":-6.334892,"is_transit":false,"i_long":106.332092,"station_id":"CTR","time":10,"station_name":"Citeras","line":3,"distance":7293,"transit":false}]]}