{"data":[[{"i_lat":-6.226659,"station_name":"Tebet","station_id":"TEB","is_transit":false,"transit":false,"distance":0,"time":0,"i_long":106.857948,"line":2},{"i_long":106.84912,"i_lat":-6.209883,"distance":2610,"station_id":"MRI","transit":true,"station_name":"Manggarai","time":4,"line":0,"is_transit":true},{"i_long":106.822649,"distance":3186,"transit":false,"line":1,"station_name":"Sudirman","time":4,"is_transit":false,"i_lat":-6.202263,"station_id":"SUD"},{"is_transit":false,"station_name":"Sudirman Baru","i_long":106.819881,"distance":280,"transit":false,"line":1,"station_id":"SUDB","i_lat":-6.201433,"time":1},{"is_transit":false,"station_name":"Karet","i_long":106.816351,"station_id":"KAT","transit":false,"line":1,"i_lat":-6.20132,"distance":471,"time":1},{"is_transit":true,"distance":2029,"i_lat":-6.185545,"i_long":106.811091,"time":5,"transit":true,"station_name":"Tanah Abang","station_id":"THB","line":1},{"distance":3191,"time":6,"i_long":106.79689,"line":6,"station_name":"Palmerah","station_id":"PLM","is_transit":false,"i_lat":-6.207404,"transit":false},{"i_lat":-6.237242,"station_id":"KBY","i_long":106.780334,"line":6,"is_transit":false,"distance":3737,"station_name":"Kebayoran","transit":false,"time":7},{"station_id":"PDJ","line":6,"i_long":106.74273,"distance":6218,"time":8,"station_name":"Pondokranji","is_transit":false,"i_lat":-6.276362,"transit":false},{"i_lat":-6.288927,"is_transit":false,"transit":false,"time":3,"station_name":"Jurangmangu","station_id":"JMU","i_long":106.728916,"distance":2179,"line":6},{"station_name":"Sudimara","i_long":106.712277,"distance":1994,"transit":false,"station_id":"SDM","i_lat":-6.296963,"line":6,"is_transit":false,"time":4},{"distance":4566,"station_id":"RU","station_name":"Rawa Buntu","transit":false,"i_lat":-6.314823,"time":6,"i_long":106.675475,"line":6,"is_transit":false},{"station_id":"SRP","station_name":"Serpong","i_long":106.66566,"is_transit":false,"time":4,"i_lat":-6.319871,"line":6,"distance":2413,"transit":false},{"transit":false,"line":0,"station_name":"Cisauk","time":4,"is_transit":false,"distance":1784,"station_id":"CSK","i_long":106.640411,"i_lat":-6.32484},{"time":4,"i_lat":-6.329547,"distance":2519,"station_name":"Cicayur","i_long":106.617853,"is_transit":false,"transit":false,"line":0,"station_id":"CC"},{"i_long":106.568863,"line":6,"station_id":"PRP","i_lat":-6.3441410000000005,"distance":5968,"station_name":"Parung Panjang","time":8,"is_transit":false,"transit":false}],[{"i_long":106.857948,"is_transit":false,"line":2,"transit":false,"station_name":"Tebet","station_id":"TEB","distance":0,"time":0,"i_lat":-6.226659},{"time":4,"line":0,"station_id":"MRI","station_name":"Manggarai","distance":2610,"i_long":106.84912,"transit":true,"is_transit":true,"i_lat":-6.209883},{"is_transit":false,"i_long":106.840169,"station_id":"CKI","distance":1590,"line":0,"time":4,"transit":false,"station_name":"Cikini","i_lat":-6.198556},{"line":2,"time":3,"is_transit":false,"station_id":"GDD","i_long":106.832183,"distance":1750,"transit":false,"station_name":"Gondangdia","i_lat":-6.186295},{"time":4,"station_id":"JUA","i_lat":-6.166716,"is_transit":false,"distance":2015,"line":2,"i_long":106.828284,"transit":false,"station_name":"Juanda"},{"line":2,"is_transit":false,"i_long":106.827103,"station_name":"Sawah Besar","i_lat":-6.160725,"distance":1149,"transit":false,"time":2,"station_id":"SW"},{"station_id":"MGB","time":2,"transit":false,"i_lat":-6.149769,"line":2,"i_long":106.82482,"station_name":"Manggabesar","is_transit":false,"distance":906},{"distance":1080,"i_lat":-6.141205,"i_long":106.820901,"line":7,"is_transit":false,"station_id":"JAY","station_name":"Jayakarta","time":2,"transit":false},{"is_transit":true,"i_lat":-6.137569,"line":0,"station_name":"Jakarta Kota","time":4,"distance":1264,"station_id":"JAKK","transit":true,"i_long":106.812439},{"distance":1364,"i_long":106.826365,"station_id":"KPB","is_transit":true,"station_name":"Kampung Bandan","i_lat":-6.132549,"time":3,"line":0,"transit":false},{"is_transit":false,"station_id":"AK","transit":false,"line":0,"distance":4102,"i_long":106.79867,"station_name":"Angke","time":9,"i_lat":-6.144674},{"station_id":"DU","station_name":"Duri","time":4,"i_long":106.800832,"line":1,"is_transit":true,"transit":true,"i_lat":-6.155215,"distance":1230},{"is_transit":true,"station_id":"THB","station_name":"Tanah Abang","distance":3632,"i_lat":-6.185545,"time":8,"transit":true,"i_long":106.811091,"line":1},{"i_lat":-6.207404,"is_transit":false,"station_name":"Palmerah","distance":3191,"transit":false,"station_id":"PLM","line":6,"i_long":106.79689,"time":6},{"is_transit":false,"distance":3737,"station_name":"Kebayoran","line":6,"time":7,"transit":false,"station_id":"KBY","i_lat":-6.237242,"i_long":106.780334},{"i_lat":-6.276362,"line":6,"is_transit":false,"transit":false,"i_long":106.74273,"station_id":"PDJ","station_name":"Pondokranji","distance":6218,"time":8},{"transit":false,"i_long":106.728916,"station_name":"Jurangmangu","distance":2179,"time":3,"station_id":"JMU","line":6,"is_transit":false,"i_lat":-6.288927},{"line":6,"is_transit":false,"station_name":"Sudimara","transit":false,"station_id":"SDM","i_lat":-6.296963,"distance":1994,"i_long":106.712277,"time":4},{"line":6,"distance":4566,"i_lat":-6.314823,"is_transit":false,"transit":false,"station_id":"RU","i_long":106.675475,"station_name":"Rawa Buntu","time":6},{"station_id":"SRP","distance":2413,"transit":false,"is_transit":false,"i_lat":-6.319871,"time":4,"line":6,"i_long":106.66566,"station_name":"Serpong"},{"time":4,"station_name":"Cisauk","transit":false,"line":0,"i_long":106.640411,"distance":1784,"is_transit":false,"i_lat":-6.32484,"station_id":"CSK"},{"time":4,"station_name":"Cicayur","line":0,"transit":false,"is_transit":false,"station_id":"CC","distance":2519,"i_lat":-6.329547,"i_long":106.617853},{"line":6,"i_lat":-6.3441410000000005,"distance":5968,"station_name":"Parung Panjang","is_transit":false,"time":8,"station_id":"PRP","transit":false,"i_long":106.568863}],[{"i_long":106.857948,"time":0,"distance":0,"station_name":"Tebet","station_id":"TEB","is_transit":false,"i_lat":-6.226659,"line":2,"transit":false},{"transit":true,"distance":2610,"i_long":106.84912,"i_lat":-6.209883,"time":4,"station_name":"Manggarai","line":0,"is_transit":true,"station_id":"MRI"},{"station_name":"Matraman","line":1,"time":2,"i_long":106.858896,"is_transit":false,"i_lat":-6.212485,"transit":false,"distance":1275,"station_id":"MTR"},{"station_id":"JNG","i_long":106.86807400000001,"i_lat":-6.215091,"transit":true,"station_name":"Jatinegara","line":0,"is_transit":true,"distance":1377,"time":8},{"distance":1236,"time":2,"i_long":106.861737,"line":11,"i_lat":-6.209188,"station_name":"Pondok Jati","is_transit":false,"transit":false,"station_id":"POK"},{"station_name":"Kramat","i_long":106.855437,"is_transit":false,"time":2,"station_id":"KMT","transit":false,"i_lat":-6.193792,"line":11,"distance":1829},{"line":11,"station_name":"Gang Sentiong","distance":973,"i_lat":-6.185975,"transit":false,"is_transit":false,"time":1,"station_id":"GST","i_long":106.850107},{"i_long":106.84368,"station_name":"Pasar Senen","distance":1567,"i_lat":-6.174784,"time":8,"line":11,"is_transit":false,"station_id":"PSE","transit":false},{"station_id":"KMO","i_long":106.839204,"distance":1436,"transit":false,"i_lat":-6.161728,"time":4,"line":11,"is_transit":false,"station_name":"Kemayoran"},{"transit":false,"time":5,"i_lat":-6.14505,"i_long":106.836569,"station_name":"Rajawali","line":11,"distance":1901,"is_transit":false,"station_id":"RJW"},{"station_id":"KPB","i_lat":-6.132549,"station_name":"Kampung Bandan","distance":1444,"i_long":106.826365,"time":3,"transit":true,"line":0,"is_transit":true},{"i_lat":-6.144674,"distance":4102,"time":9,"i_long":106.79867,"transit":false,"line":0,"is_transit":false,"station_name":"Angke","station_id":"AK"},{"i_lat":-6.155215,"time":4,"station_name":"Duri","station_id":"DU","transit":true,"distance":1230,"i_long":106.800832,"line":1,"is_transit":true},{"transit":true,"is_transit":true,"distance":3632,"i_lat":-6.185545,"i_long":106.811091,"line":1,"time":8,"station_name":"Tanah Abang","station_id":"THB"},{"i_long":106.79689,"station_name":"Palmerah","station_id":"PLM","line":6,"time":6,"distance":3191,"transit":false,"is_transit":false,"i_lat":-6.207404},{"distance":3737,"time":7,"station_id":"KBY","is_transit":false,"line":6,"i_lat":-6.237242,"i_long":106.780334,"station_name":"Kebayoran","transit":false},{"is_transit":false,"transit":false,"distance":6218,"time":8,"line":6,"i_long":106.74273,"i_lat":-6.276362,"station_id":"PDJ","station_name":"Pondokranji"},{"i_lat":-6.288927,"distance":2179,"transit":false,"station_id":"JMU","time":3,"i_long":106.728916,"station_name":"Jurangmangu","line":6,"is_transit":false},{"i_long":106.712277,"is_transit":false,"station_name":"Sudimara","transit":false,"distance":1994,"time":4,"i_lat":-6.296963,"station_id":"SDM","line":6},{"station_id":"RU","station_name":"Rawa Buntu","transit":false,"i_long":106.675475,"time":6,"distance":4566,"is_transit":false,"i_lat":-6.314823,"line":6},{"distance":2413,"line":6,"is_transit":false,"transit":false,"station_name":"Serpong","i_lat":-6.319871,"station_id":"SRP","time":4,"i_long":106.66566},{"line":0,"station_name":"Cisauk","station_id":"CSK","is_transit":false,"time":4,"transit":false,"i_long":106.640411,"i_lat":-6.32484,"distance":1784},{"transit":false,"station_id":"CC","time":4,"station_name":"Cicayur","is_transit":false,"distance":2519,"line":0,"i_lat":-6.329547,"i_long":106.617853},{"i_long":106.568863,"transit":false,"station_name":"Parung Panjang","is_transit":false,"i_lat":-6.3441410000000005,"distance":5968,"station_id":"PRP","line":6,"time":8}]]}