{"data":[[{"distance":0,"station_id":"TEB","i_long":106.857948,"i_lat":-6.226659,"station_name":"Tebet","time":0,"transit":false,"line":2,"is_transit":false},{"transit":true,"line":2,"station_id":"MRI","station_name":"Manggarai","is_transit":true,"i_long":106.84912,"time":4,"distance":2610,"i_lat":-6.209883},{"station_name":"Matraman","is_transit":false,"i_long":106.858896,"station_id":"MTR","time":2,"distance":1275,"line":1,"i_lat":-6.212485,"transit":false},{"i_long":106.86807400000001,"line":1,"time":8,"station_id":"JNG","is_transit":true,"i_lat":-6.215091,"station_name":"Jatinegara","distance":1377,"transit":true},{"station_id":"POK","time":2,"i_lat":-6.209188,"distance":1236,"transit":false,"i_long":106.861737,"is_transit":false,"station_name":"Pondok Jati","line":11},{"is_transit":false,"i_lat":-6.193792,"line":11,"distance":1829,"station_id":"KMT","transit":false,"time":2,"station_name":"Kramat","i_long":106.855437},{"transit":false,"i_lat":-6.185975,"distance":973,"time":1,"i_long":106.850107,"line":11,"station_name":"Gang Sentiong","is_transit":false,"station_id":"GST"},{"distance":1567,"i_lat":-6.174784,"line":11,"station_name":"Pasar Senen","time":8,"i_long":106.84368,"station_id":"PSE","is_transit":false,"transit":false},{"time":4,"i_lat":-6.161728,"is_transit":false,"station_id":"KMO","station_name":"Kemayoran","line":11,"i_long":106.839204,"transit":false,"distance":1436}],[{"line":2,"i_long":106.857948,"is_transit":false,"station_id":"TEB","time":0,"station_name":"Tebet","transit":false,"i_lat":-6.226659,"distance":0},{"distance":2610,"i_long":106.84912,"is_transit":true,"i_lat":-6.209883,"station_name":"Manggarai","time":4,"transit":true,"station_id":"MRI","line":2},{"transit":false,"distance":3186,"station_name":"Sudirman","i_lat":-6.202263,"station_id":"SUD","time":4,"line":1,"is_transit":false,"i_long":106.822649},{"is_transit":false,"i_lat":-6.201433,"distance":280,"station_id":"SUDB","i_long":106.819881,"time":1,"transit":false,"station_name":"Sudirman Baru","line":1},{"time":1,"station_id":"KAT","is_transit":false,"station_name":"Karet","transit":false,"i_lat":-6.20132,"i_long":106.816351,"line":1,"distance":471},{"i_lat":-6.185545,"i_long":106.811091,"distance":2029,"transit":false,"station_name":"Tanah Abang","line":1,"station_id":"THB","time":5,"is_transit":false},{"is_transit":false,"distance":3632,"time":8,"i_lat":-6.155215,"station_id":"DU","station_name":"Duri","transit":false,"i_long":106.800832,"line":1},{"station_id":"AK","time":4,"i_long":106.79867,"distance":1230,"line":1,"i_lat":-6.144674,"station_name":"Angke","is_transit":false,"transit":false},{"station_id":"KPB","i_lat":-6.132549,"distance":4102,"station_name":"Kampung Bandan","i_long":106.826365,"is_transit":true,"line":4,"transit":true,"time":9},{"time":3,"is_transit":false,"transit":false,"line":11,"distance":1444,"station_name":"Rajawali","i_long":106.836569,"i_lat":-6.14505,"station_id":"RJW"},{"transit":false,"station_id":"KMO","i_lat":-6.161728,"line":11,"time":5,"is_transit":false,"i_long":106.839204,"distance":1901,"station_name":"Kemayoran"}],[{"station_name":"Tebet","station_id":"TEB","i_long":106.857948,"distance":0,"line":2,"transit":false,"is_transit":false,"i_lat":-6.226659,"time":0},{"i_lat":-6.209883,"is_transit":false,"line":2,"station_id":"MRI","time":4,"transit":false,"i_long":106.84912,"distance":2610,"station_name":"Manggarai"},{"is_transit":false,"i_long":106.840169,"time":4,"station_name":"Cikini","i_lat":-6.198556,"distance":1590,"station_id":"CKI","transit":false,"line":2},{"time":3,"is_transit":false,"station_name":"Gondangdia","line":2,"i_long":106.832183,"distance":1750,"transit":false,"i_lat":-6.186295,"station_id":"GDD"},{"transit":false,"line":2,"i_lat":-6.166716,"time":4,"distance":2015,"station_id":"JUA","station_name":"Juanda","is_transit":false,"i_long":106.828284},{"line":2,"station_name":"Sawah Besar","is_transit":false,"transit":false,"i_long":106.827103,"time":2,"distance":1149,"station_id":"SW","i_lat":-6.160725},{"i_lat":-6.149769,"transit":false,"station_id":"MGB","i_long":106.82482,"line":2,"distance":906,"station_name":"Manggabesar","time":2,"is_transit":false},{"i_long":106.820901,"line":2,"station_name":"Jayakarta","distance":1080,"station_id":"JAY","transit":false,"time":2,"i_lat":-6.141205,"is_transit":false},{"i_long":106.812439,"station_name":"Jakarta Kota","i_lat":-6.137569,"transit":true,"time":4,"is_transit":true,"distance":1264,"station_id":"JAKK","line":2},{"is_transit":true,"line":4,"distance":1364,"transit":true,"i_long":106.826365,"station_id":"KPB","time":3,"station_name":"Kampung Bandan","i_lat":-6.132549},{"station_name":"Rajawali","distance":1444,"line":11,"i_long":106.836569,"is_transit":false,"i_lat":-6.14505,"time":3,"transit":false,"station_id":"RJW"},{"transit":false,"i_long":106.839204,"line":11,"station_id":"KMO","station_name":"Kemayoran","is_transit":false,"time":5,"distance":1901,"i_lat":-6.161728}]]}