{"data":[[{"is_transit":false,"i_long":106.857948,"station_id":"TEB","i_lat":-6.226659,"distance":0,"transit":false,"station_name":"Tebet","line":2,"time":0},{"i_long":106.84912,"station_name":"Manggarai","line":2,"transit":true,"is_transit":true,"distance":2610,"time":4,"i_lat":-6.209883,"station_id":"MRI"},{"transit":false,"is_transit":false,"time":4,"i_long":106.822649,"distance":3186,"station_id":"SUD","station_name":"Sudirman","line":1,"i_lat":-6.202263},{"is_transit":false,"i_long":106.819881,"time":1,"i_lat":-6.201433,"transit":false,"line":1,"station_id":"SUDB","distance":280,"station_name":"Sudirman Baru"},{"station_name":"Karet","station_id":"KAT","time":1,"i_long":106.816351,"distance":471,"line":1,"transit":false,"i_lat":-6.20132,"is_transit":false},{"station_id":"THB","is_transit":true,"distance":2029,"station_name":"Tanah Abang","i_long":106.811091,"time":5,"line":1,"transit":true,"i_lat":-6.185545},{"distance":3191,"transit":false,"is_transit":false,"time":6,"station_name":"Palmerah","i_long":106.79689,"i_lat":-6.207404,"line":6,"station_id":"PLM"},{"station_name":"Kebayoran","line":6,"i_lat":-6.237242,"i_long":106.780334,"distance":3737,"transit":false,"time":7,"station_id":"KBY","is_transit":false},{"station_name":"Pondokranji","line":6,"station_id":"PDJ","distance":6218,"time":8,"is_transit":false,"i_long":106.74273,"transit":false,"i_lat":-6.276362},{"i_lat":-6.288927,"line":6,"i_long":106.728916,"distance":2179,"station_id":"JMU","transit":false,"is_transit":false,"time":3,"station_name":"Jurangmangu"},{"i_lat":-6.296963,"i_long":106.712277,"line":6,"station_id":"SDM","time":4,"distance":1994,"is_transit":false,"transit":false,"station_name":"Sudimara"},{"distance":4566,"time":6,"station_id":"RU","station_name":"Rawa Buntu","i_lat":-6.314823,"transit":false,"i_long":106.675475,"line":6,"is_transit":false},{"transit":false,"station_name":"Serpong","is_transit":false,"distance":2413,"line":6,"i_lat":-6.319871,"station_id":"SRP","i_long":106.66566,"time":4},{"time":4,"station_id":"CSK","is_transit":false,"station_name":"Cisauk","i_lat":-6.32484,"line":3,"transit":false,"i_long":106.640411,"distance":1784}],[{"i_long":106.857948,"line":2,"station_name":"Tebet","distance":0,"is_transit":false,"time":0,"station_id":"TEB","i_lat":-6.226659,"transit":false},{"is_transit":false,"station_name":"Manggarai","i_lat":-6.209883,"time":4,"station_id":"MRI","i_long":106.84912,"distance":2610,"transit":false,"line":2},{"time":4,"line":2,"station_name":"Cikini","i_lat":-6.198556,"transit":false,"distance":1590,"station_id":"CKI","is_transit":false,"i_long":106.840169},{"station_name":"Gondangdia","station_id":"GDD","transit":false,"is_transit":false,"time":3,"line":2,"i_lat":-6.186295,"i_long":106.832183,"distance":1750},{"is_transit":false,"station_name":"Juanda","i_long":106.828284,"transit":false,"distance":2015,"time":4,"station_id":"JUA","i_lat":-6.166716,"line":2},{"line":2,"is_transit":false,"distance":1149,"station_id":"SW","transit":false,"i_long":106.827103,"time":2,"station_name":"Sawah Besar","i_lat":-6.160725},{"station_id":"MGB","station_name":"Manggabesar","distance":906,"transit":false,"i_lat":-6.149769,"i_long":106.82482,"line":2,"is_transit":false,"time":2},{"i_lat":-6.141205,"i_long":106.820901,"line":2,"distance":1080,"transit":false,"time":2,"station_id":"JAY","is_transit":false,"station_name":"Jayakarta"},{"i_long":106.812439,"distance":1264,"i_lat":-6.137569,"time":4,"transit":true,"station_id":"JAKK","station_name":"Jakarta Kota","line":2,"is_transit":true},{"distance":1364,"i_lat":-6.132549,"station_name":"Kampung Bandan","i_long":106.826365,"time":3,"is_transit":true,"line":4,"transit":true,"station_id":"KPB"},{"time":9,"line":1,"station_id":"AK","distance":4102,"is_transit":false,"i_long":106.79867,"transit":false,"station_name":"Angke","i_lat":-6.144674},{"is_transit":false,"i_lat":-6.155215,"transit":false,"station_name":"Duri","distance":1230,"i_long":106.800832,"line":1,"time":4,"station_id":"DU"},{"line":1,"is_transit":true,"i_lat":-6.185545,"station_id":"THB","transit":true,"time":8,"distance":3632,"station_name":"Tanah Abang","i_long":106.811091},{"time":6,"station_name":"Palmerah","i_lat":-6.207404,"is_transit":false,"i_long":106.79689,"station_id":"PLM","line":6,"distance":3191,"transit":false},{"i_lat":-6.237242,"i_long":106.780334,"line":6,"station_name":"Kebayoran","time":7,"is_transit":false,"station_id":"KBY","transit":false,"distance":3737},{"line":6,"station_name":"Pondokranji","is_transit":false,"i_long":106.74273,"i_lat":-6.276362,"transit":false,"distance":6218,"time":8,"station_id":"PDJ"},{"is_transit":false,"transit":false,"station_id":"JMU","line":6,"i_long":106.728916,"i_lat":-6.288927,"time":3,"distance":2179,"station_name":"Jurangmangu"},{"distance":1994,"station_name":"Sudimara","line":6,"station_id":"SDM","is_transit":false,"transit":false,"time":4,"i_lat":-6.296963,"i_long":106.712277},{"distance":4566,"time":6,"i_lat":-6.314823,"i_long":106.675475,"line":6,"station_id":"RU","transit":false,"is_transit":false,"station_name":"Rawa Buntu"},{"is_transit":false,"i_lat":-6.319871,"line":6,"station_id":"SRP","distance":2413,"transit":false,"i_long":106.66566,"station_name":"Serpong","time":4},{"station_id":"CSK","transit":false,"station_name":"Cisauk","distance":1784,"i_long":106.640411,"is_transit":false,"i_lat":-6.32484,"time":4,"line":3}],[{"time":0,"distance":0,"is_transit":false,"i_long":106.857948,"line":2,"transit":false,"i_lat":-6.226659,"station_id":"TEB","station_name":"Tebet"},{"distance":2610,"station_name":"Manggarai","i_long":106.84912,"i_lat":-6.209883,"line":2,"time":4,"is_transit":true,"transit":true,"station_id":"MRI"},{"transit":false,"time":2,"is_transit":false,"distance":1275,"station_name":"Matraman","line":1,"i_lat":-6.212485,"station_id":"MTR","i_long":106.858896},{"i_lat":-6.215091,"is_transit":true,"i_long":106.86807400000001,"distance":1377,"station_name":"Jatinegara","line":1,"transit":true,"station_id":"JNG","time":8},{"transit":false,"station_name":"Pondok Jati","is_transit":false,"distance":1236,"station_id":"POK","i_lat":-6.209188,"time":2,"line":11,"i_long":106.861737},{"i_lat":-6.193792,"station_name":"Kramat","i_long":106.855437,"line":11,"station_id":"KMT","is_transit":false,"distance":1829,"time":2,"transit":false},{"is_transit":false,"distance":973,"i_long":106.850107,"time":1,"station_id":"GST","station_name":"Gang Sentiong","i_lat":-6.185975,"line":11,"transit":false},{"i_long":106.84368,"distance":1567,"station_id":"PSE","time":8,"is_transit":false,"line":11,"station_name":"Pasar Senen","transit":false,"i_lat":-6.174784},{"is_transit":false,"i_lat":-6.161728,"distance":1436,"line":11,"station_id":"KMO","station_name":"Kemayoran","time":4,"transit":false,"i_long":106.839204},{"time":5,"station_name":"Rajawali","i_lat":-6.14505,"distance":1901,"is_transit":false,"station_id":"RJW","transit":false,"line":11,"i_long":106.836569},{"distance":1444,"line":4,"transit":true,"i_long":106.826365,"i_lat":-6.132549,"is_transit":true,"time":3,"station_id":"KPB","station_name":"Kampung Bandan"},{"station_id":"AK","transit":false,"line":1,"i_long":106.79867,"station_name":"Angke","i_lat":-6.144674,"time":9,"is_transit":false,"distance":4102},{"station_id":"DU","time":4,"i_lat":-6.155215,"line":1,"transit":false,"is_transit":false,"station_name":"Duri","distance":1230,"i_long":106.800832},{"i_lat":-6.185545,"is_transit":true,"station_id":"THB","line":1,"station_name":"Tanah Abang","distance":3632,"transit":true,"i_long":106.811091,"time":8},{"i_lat":-6.207404,"time":6,"station_name":"Palmerah","i_long":106.79689,"station_id":"PLM","transit":false,"is_transit":false,"line":6,"distance":3191},{"distance":3737,"time":7,"i_long":106.780334,"line":6,"i_lat":-6.237242,"station_id":"KBY","station_name":"Kebayoran","is_transit":false,"transit":false},{"time":8,"line":6,"i_long":106.74273,"station_id":"PDJ","i_lat":-6.276362,"station_name":"Pondokranji","distance":6218,"is_transit":false,"transit":false},{"is_transit":false,"station_id":"JMU","station_name":"Jurangmangu","distance":2179,"i_lat":-6.288927,"time":3,"line":6,"i_long":106.728916,"transit":false},{"line":6,"transit":false,"station_id":"SDM","distance":1994,"i_lat":-6.296963,"i_long":106.712277,"station_name":"Sudimara","is_transit":false,"time":4},{"i_lat":-6.314823,"i_long":106.675475,"line":6,"station_id":"RU","distance":4566,"is_transit":false,"transit":false,"time":6,"station_name":"Rawa Buntu"},{"station_name":"Serpong","i_long":106.66566,"time":4,"i_lat":-6.319871,"distance":2413,"station_id":"SRP","is_transit":false,"transit":false,"line":6},{"line":3,"distance":1784,"is_transit":false,"i_long":106.640411,"i_lat":-6.32484,"station_name":"Cisauk","transit":false,"station_id":"CSK","time":4}]]}