{"data":[[{"is_transit":false,"i_long":106.857948,"station_id":"TEB","transit":false,"station_name":"Tebet","line":2,"time":0,"distance":0,"i_lat":-6.226659},{"transit":true,"i_long":106.84912,"i_lat":-6.209883,"station_name":"Manggarai","line":0,"station_id":"MRI","is_transit":true,"distance":2610,"time":4},{"station_id":"MTR","time":2,"is_transit":false,"i_lat":-6.212485,"station_name":"Matraman","transit":false,"distance":1275,"i_long":106.858896,"line":1},{"station_name":"Jatinegara","i_lat":-6.215091,"line":0,"time":8,"transit":true,"station_id":"JNG","distance":1377,"i_long":106.86807400000001,"is_transit":true},{"station_name":"Pondok Jati","i_long":106.861737,"station_id":"POK","transit":false,"is_transit":false,"line":11,"i_lat":-6.209188,"time":2,"distance":1236},{"is_transit":false,"i_lat":-6.193792,"station_id":"KMT","transit":false,"line":11,"station_name":"Kramat","distance":1829,"i_long":106.855437,"time":2},{"distance":973,"station_id":"GST","i_long":106.850107,"is_transit":false,"line":11,"time":1,"transit":false,"i_lat":-6.185975,"station_name":"Gang Sentiong"},{"i_long":106.84368,"time":8,"station_id":"PSE","station_name":"Pasar Senen","distance":1567,"i_lat":-6.174784,"line":11,"is_transit":false,"transit":false}],[{"is_transit":false,"i_lat":-6.226659,"i_long":106.857948,"station_id":"TEB","distance":0,"station_name":"Tebet","line":2,"transit":false,"time":0},{"i_long":106.84912,"transit":true,"time":4,"i_lat":-6.209883,"line":0,"is_transit":true,"station_name":"Manggarai","station_id":"MRI","distance":2610},{"is_transit":false,"station_id":"SUD","distance":3186,"station_name":"Sudirman","i_long":106.822649,"transit":false,"i_lat":-6.202263,"line":1,"time":4},{"time":1,"station_name":"Sudirman Baru","i_long":106.819881,"station_id":"SUDB","is_transit":false,"transit":false,"line":1,"distance":280,"i_lat":-6.201433},{"time":1,"station_name":"Karet","distance":471,"transit":false,"i_lat":-6.20132,"is_transit":false,"station_id":"KAT","i_long":106.816351,"line":1},{"station_name":"Tanah Abang","i_long":106.811091,"station_id":"THB","time":5,"distance":2029,"line":1,"transit":false,"i_lat":-6.185545,"is_transit":true},{"time":8,"i_lat":-6.155215,"station_name":"Duri","transit":true,"i_long":106.800832,"station_id":"DU","distance":3632,"line":1,"is_transit":true},{"is_transit":false,"distance":1230,"station_name":"Angke","line":0,"station_id":"AK","i_lat":-6.144674,"transit":false,"time":4,"i_long":106.79867},{"line":0,"transit":true,"station_name":"Kampung Bandan","i_long":106.826365,"time":9,"distance":4102,"is_transit":true,"i_lat":-6.132549,"station_id":"KPB"},{"distance":1444,"transit":false,"station_name":"Rajawali","i_lat":-6.14505,"i_long":106.836569,"time":3,"line":11,"station_id":"RJW","is_transit":false},{"transit":false,"i_long":106.839204,"i_lat":-6.161728,"station_id":"KMO","distance":1901,"time":5,"station_name":"Kemayoran","is_transit":false,"line":11},{"i_lat":-6.174784,"i_long":106.84368,"is_transit":false,"station_id":"PSE","distance":1436,"line":11,"time":4,"transit":false,"station_name":"Pasar Senen"}],[{"station_id":"TEB","station_name":"Tebet","transit":false,"i_lat":-6.226659,"line":2,"time":0,"distance":0,"is_transit":false,"i_long":106.857948},{"time":4,"line":0,"is_transit":true,"i_long":106.84912,"station_name":"Manggarai","distance":2610,"station_id":"MRI","transit":true,"i_lat":-6.209883},{"line":0,"is_transit":false,"i_long":106.840169,"time":4,"station_id":"CKI","transit":false,"i_lat":-6.198556,"distance":1590,"station_name":"Cikini"},{"station_name":"Gondangdia","i_lat":-6.186295,"transit":false,"line":2,"is_transit":false,"station_id":"GDD","distance":1750,"i_long":106.832183,"time":3},{"station_name":"Juanda","line":2,"distance":2015,"i_lat":-6.166716,"is_transit":false,"time":4,"station_id":"JUA","transit":false,"i_long":106.828284},{"distance":1149,"time":2,"transit":false,"i_long":106.827103,"i_lat":-6.160725,"line":2,"is_transit":false,"station_name":"Sawah Besar","station_id":"SW"},{"time":2,"is_transit":false,"transit":false,"i_lat":-6.149769,"i_long":106.82482,"station_name":"Manggabesar","station_id":"MGB","line":2,"distance":906},{"transit":false,"time":2,"i_lat":-6.141205,"line":7,"station_name":"Jayakarta","station_id":"JAY","i_long":106.820901,"distance":1080,"is_transit":false},{"station_id":"JAKK","transit":true,"line":0,"time":4,"is_transit":true,"i_long":106.812439,"station_name":"Jakarta Kota","i_lat":-6.137569,"distance":1264},{"distance":1364,"is_transit":true,"station_id":"KPB","i_lat":-6.132549,"time":3,"line":0,"station_name":"Kampung Bandan","i_long":106.826365,"transit":true},{"distance":1444,"is_transit":false,"station_name":"Rajawali","i_lat":-6.14505,"i_long":106.836569,"station_id":"RJW","line":11,"time":3,"transit":false},{"time":5,"line":11,"i_lat":-6.161728,"station_id":"KMO","transit":false,"i_long":106.839204,"station_name":"Kemayoran","distance":1901,"is_transit":false},{"transit":false,"is_transit":false,"distance":1436,"i_long":106.84368,"line":11,"time":4,"station_id":"PSE","i_lat":-6.174784,"station_name":"Pasar Senen"}]]}