{"data":[[{"i_long":106.857948,"time":0,"is_transit":false,"line":2,"distance":0,"station_id":"TEB","station_name":"Tebet","transit":false,"i_lat":-6.226659},{"distance":2610,"station_id":"MRI","is_transit":true,"transit":true,"i_long":106.84912,"station_name":"Manggarai","i_lat":-6.209883,"time":4,"line":2},{"station_name":"Matraman","line":1,"distance":1275,"time":2,"i_lat":-6.212485,"i_long":106.858896,"transit":false,"station_id":"MTR","is_transit":false},{"i_lat":-6.215091,"i_long":106.86807400000001,"line":1,"transit":false,"time":8,"distance":1377,"station_id":"JNG","station_name":"Jatinegara","is_transit":false},{"time":3,"transit":false,"distance":3395,"i_long":106.899548,"station_name":"Klender","station_id":"KLD","is_transit":false,"i_lat":-6.2135,"line":1},{"i_lat":-6.215568,"distance":3100,"time":2,"station_id":"BUA","is_transit":false,"i_long":106.922662,"line":1,"station_name":"Buaran","transit":false},{"line":1,"station_id":"KLDB","station_name":"Klenderbaru","transit":false,"distance":1305,"i_long":106.939679,"is_transit":false,"time":1,"i_lat":-6.217455},{"transit":false,"i_lat":-6.219053,"line":1,"station_id":"CUK","time":8,"i_long":106.951283,"distance":1385,"station_name":"Cakung","is_transit":false},{"time":3,"distance":3097,"station_id":"KRI","transit":false,"i_lat":-6.224515,"is_transit":false,"i_long":106.977657,"station_name":"Kranji","line":1},{"is_transit":false,"station_id":"BKS","time":4,"transit":false,"i_long":106.997013,"i_lat":-6.236616,"distance":2520,"station_name":"Bekasi","line":1},{"i_lat":-6.248029,"line":1,"time":2,"i_long":107.016735,"station_id":"BKST","distance":2368,"station_name":"Bekasi Timur","transit":false,"is_transit":false},{"distance":4460,"is_transit":false,"i_long":107.055722,"time":7,"i_lat":-6.258864,"line":1,"station_name":"Tambun","transit":false,"station_id":"TB"},{"station_id":"CIT","is_transit":false,"i_long":107.083084,"line":1,"distance":3420,"transit":false,"i_lat":-6.261877,"time":3,"station_name":"Cibitung"},{"i_lat":-6.262938,"station_name":"Metland Telaga Murni","time":2,"transit":false,"is_transit":false,"line":1,"i_long":107.093313,"distance":2800,"station_id":"TLM"}],[{"i_long":106.857948,"line":2,"station_id":"TEB","distance":0,"is_transit":false,"transit":false,"station_name":"Tebet","i_lat":-6.226659,"time":0},{"line":2,"i_lat":-6.209883,"station_id":"MRI","is_transit":true,"time":4,"distance":2610,"station_name":"Manggarai","transit":true,"i_long":106.84912},{"transit":false,"station_name":"Sudirman","line":1,"i_long":106.822649,"time":4,"distance":3186,"station_id":"SUD","i_lat":-6.202263,"is_transit":false},{"station_name":"Sudirman Baru","transit":false,"i_long":106.819881,"distance":280,"time":1,"i_lat":-6.201433,"line":1,"station_id":"SUDB","is_transit":false},{"station_name":"Karet","station_id":"KAT","transit":false,"i_long":106.816351,"line":1,"time":1,"i_lat":-6.20132,"is_transit":false,"distance":471},{"i_long":106.811091,"line":1,"is_transit":false,"distance":2029,"transit":false,"station_name":"Tanah Abang","station_id":"THB","time":5,"i_lat":-6.185545},{"time":8,"i_long":106.800832,"i_lat":-6.155215,"transit":false,"line":1,"station_id":"DU","distance":3632,"station_name":"Duri","is_transit":false},{"station_id":"AK","time":4,"is_transit":false,"i_lat":-6.144674,"distance":1230,"transit":false,"i_long":106.79867,"station_name":"Angke","line":1},{"time":9,"is_transit":true,"i_lat":-6.132549,"distance":4102,"transit":true,"station_id":"KPB","station_name":"Kampung Bandan","i_long":106.826365,"line":4},{"i_lat":-6.14505,"station_name":"Rajawali","station_id":"RJW","line":11,"distance":1444,"is_transit":false,"transit":false,"i_long":106.836569,"time":3},{"time":5,"distance":1901,"station_name":"Kemayoran","transit":false,"station_id":"KMO","i_long":106.839204,"line":11,"is_transit":false,"i_lat":-6.161728},{"i_lat":-6.174784,"i_long":106.84368,"time":4,"transit":false,"station_id":"PSE","is_transit":false,"distance":1436,"station_name":"Pasar Senen","line":11},{"station_id":"GST","is_transit":false,"transit":false,"i_lat":-6.185975,"i_long":106.850107,"line":11,"time":8,"distance":1567,"station_name":"Gang Sentiong"},{"distance":973,"i_long":106.855437,"station_id":"KMT","time":1,"station_name":"Kramat","i_lat":-6.193792,"is_transit":false,"line":11,"transit":false},{"station_id":"POK","transit":false,"time":2,"line":11,"i_lat":-6.209188,"station_name":"Pondok Jati","distance":1829,"i_long":106.861737,"is_transit":false},{"transit":true,"is_transit":true,"distance":1236,"i_long":106.86807400000001,"station_name":"Jatinegara","i_lat":-6.215091,"line":1,"station_id":"JNG","time":9},{"distance":3395,"i_lat":-6.2135,"i_long":106.899548,"line":1,"station_id":"KLD","transit":false,"time":3,"station_name":"Klender","is_transit":false},{"time":2,"line":1,"station_id":"BUA","distance":3100,"transit":false,"i_lat":-6.215568,"is_transit":false,"i_long":106.922662,"station_name":"Buaran"},{"is_transit":false,"i_lat":-6.217455,"distance":1305,"line":1,"i_long":106.939679,"station_name":"Klenderbaru","station_id":"KLDB","time":1,"transit":false},{"station_id":"CUK","station_name":"Cakung","time":8,"i_long":106.951283,"transit":false,"i_lat":-6.219053,"line":1,"distance":1385,"is_transit":false},{"station_id":"KRI","is_transit":false,"transit":false,"station_name":"Kranji","time":3,"i_lat":-6.224515,"line":1,"i_long":106.977657,"distance":3097},{"station_name":"Bekasi","station_id":"BKS","is_transit":false,"transit":false,"time":4,"distance":2520,"i_lat":-6.236616,"line":1,"i_long":106.997013},{"i_long":107.016735,"time":2,"distance":2368,"station_name":"Bekasi Timur","station_id":"BKST","is_transit":false,"i_lat":-6.248029,"line":1,"transit":false},{"i_long":107.055722,"transit":false,"time":7,"station_id":"TB","distance":4460,"is_transit":false,"station_name":"Tambun","line":1,"i_lat":-6.258864},{"i_lat":-6.261877,"transit":false,"station_id":"CIT","station_name":"Cibitung","time":3,"i_long":107.083084,"line":1,"distance":3420,"is_transit":false},{"transit":false,"distance":2800,"i_lat":-6.262938,"time":2,"station_name":"Metland Telaga Murni","line":1,"station_id":"TLM","i_long":107.093313,"is_transit":false}],[{"is_transit":false,"line":2,"time":0,"distance":0,"transit":false,"i_long":106.857948,"i_lat":-6.226659,"station_id":"TEB","station_name":"Tebet"},{"transit":false,"i_long":106.84912,"station_name":"Manggarai","time":4,"is_transit":false,"i_lat":-6.209883,"distance":2610,"station_id":"MRI","line":2},{"transit":false,"i_lat":-6.198556,"station_name":"Cikini","i_long":106.840169,"is_transit":false,"distance":1590,"line":2,"station_id":"CKI","time":4},{"station_id":"GDD","time":3,"line":2,"station_name":"Gondangdia","distance":1750,"transit":false,"i_lat":-6.186295,"i_long":106.832183,"is_transit":false},{"time":4,"is_transit":false,"station_id":"JUA","distance":2015,"transit":false,"station_name":"Juanda","i_long":106.828284,"i_lat":-6.166716,"line":2},{"distance":1149,"transit":false,"is_transit":false,"i_lat":-6.160725,"time":2,"i_long":106.827103,"station_name":"Sawah Besar","line":2,"station_id":"SW"},{"time":2,"station_name":"Manggabesar","station_id":"MGB","is_transit":false,"line":2,"i_lat":-6.149769,"i_long":106.82482,"transit":false,"distance":906},{"station_id":"JAY","i_long":106.820901,"distance":1080,"line":2,"is_transit":false,"transit":false,"i_lat":-6.141205,"time":2,"station_name":"Jayakarta"},{"i_long":106.812439,"distance":1264,"transit":true,"time":4,"station_name":"Jakarta Kota","line":2,"is_transit":true,"i_lat":-6.137569,"station_id":"JAKK"},{"station_name":"Kampung Bandan","station_id":"KPB","time":3,"i_long":106.826365,"transit":true,"line":4,"is_transit":true,"distance":1364,"i_lat":-6.132549},{"station_id":"RJW","distance":1444,"transit":false,"station_name":"Rajawali","is_transit":false,"line":11,"i_lat":-6.14505,"i_long":106.836569,"time":3},{"transit":false,"i_lat":-6.161728,"line":11,"is_transit":false,"time":5,"station_id":"KMO","distance":1901,"i_long":106.839204,"station_name":"Kemayoran"},{"distance":1436,"is_transit":false,"i_long":106.84368,"station_id":"PSE","station_name":"Pasar Senen","transit":false,"i_lat":-6.174784,"time":4,"line":11},{"transit":false,"i_lat":-6.185975,"line":11,"station_id":"GST","i_long":106.850107,"is_transit":false,"time":8,"distance":1567,"station_name":"Gang Sentiong"},{"i_long":106.855437,"is_transit":false,"transit":false,"station_name":"Kramat","station_id":"KMT","i_lat":-6.193792,"time":1,"line":11,"distance":973},{"i_lat":-6.209188,"is_transit":false,"station_name":"Pondok Jati","i_long":106.861737,"transit":false,"time":2,"line":11,"station_id":"POK","distance":1829},{"distance":1236,"station_id":"JNG","transit":true,"i_long":106.86807400000001,"station_name":"Jatinegara","i_lat":-6.215091,"is_transit":true,"line":1,"time":9},{"transit":false,"is_transit":false,"station_name":"Klender","i_long":106.899548,"time":3,"i_lat":-6.2135,"line":1,"station_id":"KLD","distance":3395},{"station_name":"Buaran","time":2,"distance":3100,"is_transit":false,"i_lat":-6.215568,"transit":false,"line":1,"station_id":"BUA","i_long":106.922662},{"station_id":"KLDB","station_name":"Klenderbaru","i_lat":-6.217455,"time":1,"is_transit":false,"distance":1305,"transit":false,"i_long":106.939679,"line":1},{"distance":1385,"line":1,"station_name":"Cakung","station_id":"CUK","is_transit":false,"i_long":106.951283,"i_lat":-6.219053,"time":8,"transit":false},{"i_lat":-6.224515,"i_long":106.977657,"line":1,"station_id":"KRI","station_name":"Kranji","time":3,"distance":3097,"is_transit":false,"transit":false},{"station_id":"BKS","is_transit":false,"distance":2520,"station_name":"Bekasi","i_lat":-6.236616,"i_long":106.997013,"line":1,"time":4,"transit":false},{"line":1,"station_name":"Bekasi Timur","i_long":107.016735,"station_id":"BKST","transit":false,"time":2,"distance":2368,"i_lat":-6.248029,"is_transit":false},{"distance":4460,"i_long":107.055722,"transit":false,"i_lat":-6.258864,"time":7,"line":1,"station_id":"TB","is_transit":false,"station_name":"Tambun"},{"line":1,"station_name":"Cibitung","i_long":107.083084,"i_lat":-6.261877,"transit":false,"is_transit":false,"station_id":"CIT","time":3,"distance":3420},{"transit":false,"time":2,"station_id":"TLM","distance":2800,"is_transit":false,"line":1,"i_long":107.093313,"i_lat":-6.262938,"station_name":"Metland Telaga Murni"}]]}