{"data":[[{"is_transit":false,"station_id":"TEB","distance":0,"transit":false,"time":0,"i_lat":-6.226659,"i_long":106.857948,"station_name":"Tebet","line":2},{"distance":2610,"i_lat":-6.209883,"line":2,"transit":true,"i_long":106.84912,"station_name":"Manggarai","is_transit":true,"station_id":"MRI","time":4},{"is_transit":false,"i_lat":-6.202263,"transit":false,"i_long":106.822649,"line":1,"distance":3186,"station_name":"Sudirman","station_id":"SUD","time":4},{"distance":280,"i_lat":-6.201433,"line":1,"transit":false,"station_id":"SUDB","time":1,"i_long":106.819881,"station_name":"Sudirman Baru","is_transit":false},{"transit":false,"station_id":"KAT","distance":471,"line":1,"station_name":"Karet","i_long":106.816351,"is_transit":false,"time":1,"i_lat":-6.20132},{"distance":2029,"station_name":"Tanah Abang","time":5,"i_long":106.811091,"is_transit":true,"transit":true,"i_lat":-6.185545,"line":1,"station_id":"THB"},{"station_name":"Palmerah","distance":3191,"time":6,"i_long":106.79689,"is_transit":false,"line":6,"station_id":"PLM","transit":false,"i_lat":-6.207404},{"time":7,"distance":3737,"i_lat":-6.237242,"station_id":"KBY","i_long":106.780334,"transit":false,"is_transit":false,"station_name":"Kebayoran","line":6},{"distance":6218,"is_transit":false,"line":6,"time":8,"transit":false,"station_id":"PDJ","station_name":"Pondokranji","i_long":106.74273,"i_lat":-6.276362},{"i_long":106.728916,"station_name":"Jurangmangu","time":3,"distance":2179,"i_lat":-6.288927,"transit":false,"line":6,"is_transit":false,"station_id":"JMU"},{"i_lat":-6.296963,"transit":false,"station_id":"SDM","is_transit":false,"station_name":"Sudimara","distance":1994,"i_long":106.712277,"line":6,"time":4},{"line":6,"i_long":106.675475,"station_id":"RU","transit":false,"station_name":"Rawa Buntu","is_transit":false,"distance":4566,"i_lat":-6.314823,"time":6},{"i_long":106.66566,"transit":false,"time":4,"station_name":"Serpong","is_transit":false,"distance":2413,"station_id":"SRP","i_lat":-6.319871,"line":6},{"i_lat":-6.32484,"i_long":106.640411,"station_name":"Cisauk","time":4,"is_transit":false,"distance":1784,"transit":false,"station_id":"CSK","line":3},{"transit":false,"station_name":"Cicayur","time":4,"station_id":"CC","i_long":106.617853,"line":3,"is_transit":false,"i_lat":-6.329547,"distance":2519},{"time":8,"transit":false,"is_transit":false,"line":6,"i_lat":-6.3441410000000005,"station_name":"Parung Panjang","i_long":106.568863,"distance":5968,"station_id":"PRP"},{"transit":false,"line":3,"station_id":"CJT","i_lat":-6.354349,"distance":7025,"i_long":106.508482,"time":9,"is_transit":false,"station_name":"Cilejit"},{"transit":false,"i_long":106.491338,"distance":2675,"line":0,"time":6,"station_id":"DAR","is_transit":false,"station_name":"Daru","i_lat":-6.338021}],[{"transit":false,"is_transit":false,"i_long":106.857948,"line":2,"station_name":"Tebet","station_id":"TEB","time":0,"distance":0,"i_lat":-6.226659},{"i_lat":-6.209883,"line":2,"i_long":106.84912,"station_id":"MRI","transit":false,"distance":2610,"station_name":"Manggarai","time":4,"is_transit":false},{"is_transit":false,"distance":1590,"station_id":"CKI","time":4,"i_lat":-6.198556,"transit":false,"i_long":106.840169,"station_name":"Cikini","line":2},{"i_long":106.832183,"distance":1750,"i_lat":-6.186295,"line":2,"station_id":"GDD","time":3,"transit":false,"station_name":"Gondangdia","is_transit":false},{"station_id":"JUA","station_name":"Juanda","i_long":106.828284,"i_lat":-6.166716,"line":2,"distance":2015,"is_transit":false,"time":4,"transit":false},{"station_name":"Sawah Besar","time":2,"line":2,"station_id":"SW","transit":false,"distance":1149,"i_long":106.827103,"i_lat":-6.160725,"is_transit":false},{"line":2,"is_transit":false,"transit":false,"station_id":"MGB","distance":906,"i_lat":-6.149769,"station_name":"Manggabesar","time":2,"i_long":106.82482},{"time":2,"i_long":106.820901,"station_name":"Jayakarta","line":2,"transit":false,"i_lat":-6.141205,"station_id":"JAY","distance":1080,"is_transit":false},{"station_name":"Jakarta Kota","distance":1264,"time":4,"is_transit":true,"i_lat":-6.137569,"i_long":106.812439,"transit":true,"line":2,"station_id":"JAKK"},{"station_name":"Kampung Bandan","is_transit":true,"distance":1364,"line":4,"station_id":"KPB","i_lat":-6.132549,"time":3,"i_long":106.826365,"transit":true},{"i_long":106.79867,"station_name":"Angke","is_transit":false,"line":1,"station_id":"AK","transit":false,"i_lat":-6.144674,"time":9,"distance":4102},{"station_name":"Duri","is_transit":false,"i_long":106.800832,"transit":false,"station_id":"DU","line":1,"time":4,"i_lat":-6.155215,"distance":1230},{"i_long":106.811091,"line":1,"distance":3632,"transit":true,"time":8,"i_lat":-6.185545,"station_name":"Tanah Abang","station_id":"THB","is_transit":true},{"i_long":106.79689,"i_lat":-6.207404,"time":6,"transit":false,"is_transit":false,"line":6,"station_name":"Palmerah","station_id":"PLM","distance":3191},{"station_id":"KBY","distance":3737,"line":6,"i_lat":-6.237242,"time":7,"transit":false,"station_name":"Kebayoran","i_long":106.780334,"is_transit":false},{"i_lat":-6.276362,"line":6,"i_long":106.74273,"is_transit":false,"transit":false,"station_id":"PDJ","time":8,"distance":6218,"station_name":"Pondokranji"},{"is_transit":false,"distance":2179,"time":3,"line":6,"transit":false,"i_long":106.728916,"i_lat":-6.288927,"station_id":"JMU","station_name":"Jurangmangu"},{"transit":false,"i_lat":-6.296963,"station_id":"SDM","is_transit":false,"time":4,"distance":1994,"station_name":"Sudimara","i_long":106.712277,"line":6},{"line":6,"is_transit":false,"i_long":106.675475,"station_id":"RU","i_lat":-6.314823,"transit":false,"distance":4566,"time":6,"station_name":"Rawa Buntu"},{"station_name":"Serpong","time":4,"station_id":"SRP","line":6,"distance":2413,"i_lat":-6.319871,"transit":false,"i_long":106.66566,"is_transit":false},{"station_id":"CSK","transit":false,"i_long":106.640411,"station_name":"Cisauk","is_transit":false,"i_lat":-6.32484,"time":4,"line":3,"distance":1784},{"time":4,"station_name":"Cicayur","station_id":"CC","transit":false,"is_transit":false,"distance":2519,"i_lat":-6.329547,"i_long":106.617853,"line":3},{"station_id":"PRP","time":8,"i_lat":-6.3441410000000005,"is_transit":false,"i_long":106.568863,"station_name":"Parung Panjang","distance":5968,"line":6,"transit":false},{"station_id":"CJT","line":3,"i_lat":-6.354349,"i_long":106.508482,"is_transit":false,"station_name":"Cilejit","distance":7025,"transit":false,"time":9},{"station_name":"Daru","line":0,"i_long":106.491338,"i_lat":-6.338021,"transit":false,"distance":2675,"is_transit":false,"station_id":"DAR","time":6}],[{"station_id":"TEB","i_lat":-6.226659,"station_name":"Tebet","is_transit":false,"distance":0,"time":0,"transit":false,"i_long":106.857948,"line":2},{"i_long":106.84912,"i_lat":-6.209883,"distance":2610,"station_name":"Manggarai","time":4,"is_transit":true,"transit":true,"line":2,"station_id":"MRI"},{"station_name":"Matraman","is_transit":false,"line":1,"transit":false,"time":2,"station_id":"MTR","distance":1275,"i_lat":-6.212485,"i_long":106.858896},{"line":1,"distance":1377,"is_transit":true,"station_name":"Jatinegara","i_lat":-6.215091,"i_long":106.86807400000001,"station_id":"JNG","transit":true,"time":8},{"is_transit":false,"station_name":"Pondok Jati","station_id":"POK","i_lat":-6.209188,"time":2,"distance":1236,"transit":false,"i_long":106.861737,"line":11},{"i_long":106.855437,"is_transit":false,"distance":1829,"i_lat":-6.193792,"time":2,"station_id":"KMT","line":11,"transit":false,"station_name":"Kramat"},{"station_name":"Gang Sentiong","i_lat":-6.185975,"i_long":106.850107,"station_id":"GST","distance":973,"is_transit":false,"line":11,"time":1,"transit":false},{"station_id":"PSE","transit":false,"time":8,"is_transit":false,"i_long":106.84368,"i_lat":-6.174784,"station_name":"Pasar Senen","distance":1567,"line":11},{"time":4,"distance":1436,"station_name":"Kemayoran","i_lat":-6.161728,"i_long":106.839204,"line":11,"transit":false,"is_transit":false,"station_id":"KMO"},{"i_long":106.836569,"transit":false,"station_name":"Rajawali","i_lat":-6.14505,"is_transit":false,"time":5,"line":11,"station_id":"RJW","distance":1901},{"line":4,"i_long":106.826365,"station_id":"KPB","time":3,"station_name":"Kampung Bandan","distance":1444,"i_lat":-6.132549,"transit":true,"is_transit":true},{"time":9,"i_lat":-6.144674,"distance":4102,"i_long":106.79867,"transit":false,"station_name":"Angke","station_id":"AK","is_transit":false,"line":1},{"distance":1230,"station_name":"Duri","time":4,"station_id":"DU","i_long":106.800832,"transit":false,"line":1,"is_transit":false,"i_lat":-6.155215},{"i_long":106.811091,"station_id":"THB","line":1,"i_lat":-6.185545,"station_name":"Tanah Abang","transit":true,"time":8,"distance":3632,"is_transit":true},{"station_name":"Palmerah","time":6,"line":6,"distance":3191,"station_id":"PLM","transit":false,"i_lat":-6.207404,"is_transit":false,"i_long":106.79689},{"line":6,"i_lat":-6.237242,"is_transit":false,"time":7,"station_id":"KBY","i_long":106.780334,"distance":3737,"station_name":"Kebayoran","transit":false},{"i_long":106.74273,"station_name":"Pondokranji","station_id":"PDJ","is_transit":false,"time":8,"transit":false,"distance":6218,"i_lat":-6.276362,"line":6},{"distance":2179,"line":6,"transit":false,"station_name":"Jurangmangu","time":3,"i_long":106.728916,"station_id":"JMU","is_transit":false,"i_lat":-6.288927},{"station_name":"Sudimara","station_id":"SDM","i_lat":-6.296963,"time":4,"transit":false,"distance":1994,"line":6,"is_transit":false,"i_long":106.712277},{"station_name":"Rawa Buntu","is_transit":false,"station_id":"RU","distance":4566,"transit":false,"i_long":106.675475,"time":6,"i_lat":-6.314823,"line":6},{"transit":false,"time":4,"i_lat":-6.319871,"i_long":106.66566,"station_id":"SRP","distance":2413,"line":6,"is_transit":false,"station_name":"Serpong"},{"transit":false,"station_id":"CSK","time":4,"i_lat":-6.32484,"line":3,"i_long":106.640411,"station_name":"Cisauk","is_transit":false,"distance":1784},{"station_id":"CC","transit":false,"line":3,"is_transit":false,"i_long":106.617853,"station_name":"Cicayur","time":4,"i_lat":-6.329547,"distance":2519},{"time":8,"distance":5968,"i_lat":-6.3441410000000005,"line":6,"station_name":"Parung Panjang","i_long":106.568863,"transit":false,"station_id":"PRP","is_transit":false},{"transit":false,"station_id":"CJT","distance":7025,"i_lat":-6.354349,"line":3,"is_transit":false,"time":9,"station_name":"Cilejit","i_long":106.508482},{"station_name":"Daru","is_transit":false,"station_id":"DAR","time":6,"transit":false,"distance":2675,"i_lat":-6.338021,"line":0,"i_long":106.491338}]]}