{"data":[[{"line":2,"station_name":"Tebet","transit":false,"distance":0,"i_lat":-6.226659,"i_long":106.857948,"station_id":"TEB","time":0,"is_transit":false},{"i_long":106.856607,"i_lat":-6.242512,"station_id":"CW","line":2,"station_name":"Cawang","transit":false,"is_transit":false,"distance":1230,"time":2},{"transit":false,"time":3,"station_name":"Duren Kalibata","station_id":"DRN","i_lat":-6.255332,"distance":1546,"i_long":106.85449,"is_transit":false,"line":2},{"is_transit":false,"line":2,"time":2,"station_name":"Pasar Minggu Baru","transit":false,"station_id":"PSMB","i_lat":-6.263214,"i_long":106.851577,"distance":824},{"transit":false,"time":2,"station_name":"Pasar Minggu","i_lat":-6.2842400000000005,"i_long":106.843999,"distance":2380,"line":2,"station_id":"PSM","is_transit":false},{"time":4,"distance":2820,"i_lat":-6.3080680000000005,"line":2,"i_long":106.838896,"station_id":"TNT","transit":false,"is_transit":false,"station_name":"Tanjung Barat"},{"is_transit":false,"line":2,"station_name":"Lenteng Agung","distance":2671,"i_long":106.832616,"station_id":"LNA","i_lat":-6.330363,"time":3,"transit":false},{"transit":false,"line":2,"is_transit":false,"time":2,"distance":1029,"i_lat":-6.339291,"station_id":"UP","i_long":106.834175,"station_name":"Univ. Pancasila"},{"i_long":106.831474,"station_id":"UI","time":3,"distance":2264,"is_transit":false,"transit":false,"station_name":"Univ. Indonesia","i_lat":-6.360749,"line":2},{"i_lat":-6.369073,"distance":1109,"time":2,"transit":false,"line":2,"station_id":"POC","station_name":"Pondok Cina","i_long":106.831114,"is_transit":false},{"is_transit":false,"station_id":"DPB","time":4,"i_long":106.819451,"line":2,"transit":false,"distance":2727,"i_lat":-6.391065,"station_name":"Depokbaru"},{"station_id":"DP","i_long":106.816926,"station_name":"Depok","i_lat":-6.405256,"line":2,"is_transit":false,"transit":false,"time":3,"distance":1584},{"i_long":106.800298,"line":2,"station_name":"Citayam","is_transit":false,"station_id":"CTA","time":6,"distance":5084,"transit":false,"i_lat":-6.448811}]]}