{"data":[[{"is_transit":false,"distance":0,"time":0,"station_id":"TEB","transit":false,"i_long":106.857948,"i_lat":-6.226659,"station_name":"Tebet","line":2},{"i_lat":-6.209883,"i_long":106.84912,"line":2,"transit":true,"station_name":"Manggarai","time":4,"station_id":"MRI","distance":2610,"is_transit":true},{"is_transit":false,"transit":false,"time":4,"distance":3186,"station_id":"SUD","i_long":106.822649,"line":1,"i_lat":-6.202263,"station_name":"Sudirman"},{"time":1,"line":1,"station_id":"SUDB","is_transit":false,"i_lat":-6.201433,"station_name":"Sudirman Baru","distance":280,"transit":false,"i_long":106.819881},{"station_id":"KAT","station_name":"Karet","transit":false,"line":1,"i_long":106.816351,"i_lat":-6.20132,"distance":471,"is_transit":false,"time":1},{"transit":false,"i_lat":-6.185545,"line":1,"time":5,"distance":2029,"station_id":"THB","station_name":"Tanah Abang","i_long":106.811091,"is_transit":false},{"distance":3632,"transit":true,"time":8,"station_id":"DU","i_long":106.800832,"line":1,"station_name":"Duri","i_lat":-6.155215,"is_transit":true},{"station_id":"GGL","transit":false,"i_lat":-6.162021,"i_long":106.788277,"is_transit":false,"station_name":"Grogol","line":5,"time":3,"distance":1700},{"is_transit":false,"station_name":"Pesing","i_lat":-6.161433,"line":5,"distance":2036,"station_id":"PSG","transit":false,"i_long":106.771379,"time":2}],[{"station_name":"Tebet","transit":false,"line":2,"time":0,"is_transit":false,"i_lat":-6.226659,"i_long":106.857948,"station_id":"TEB","distance":0},{"station_id":"MRI","station_name":"Manggarai","time":4,"distance":2610,"transit":false,"is_transit":false,"i_long":106.84912,"line":2,"i_lat":-6.209883},{"line":2,"distance":1590,"station_id":"CKI","transit":false,"i_lat":-6.198556,"station_name":"Cikini","is_transit":false,"i_long":106.840169,"time":4},{"transit":false,"i_long":106.832183,"is_transit":false,"i_lat":-6.186295,"line":2,"distance":1750,"station_id":"GDD","time":3,"station_name":"Gondangdia"},{"station_id":"JUA","transit":false,"time":4,"distance":2015,"is_transit":false,"i_long":106.828284,"station_name":"Juanda","i_lat":-6.166716,"line":2},{"time":2,"station_name":"Sawah Besar","line":2,"i_long":106.827103,"station_id":"SW","is_transit":false,"transit":false,"distance":1149,"i_lat":-6.160725},{"is_transit":false,"distance":906,"time":2,"line":2,"i_lat":-6.149769,"transit":false,"i_long":106.82482,"station_name":"Manggabesar","station_id":"MGB"},{"is_transit":false,"transit":false,"station_name":"Jayakarta","station_id":"JAY","distance":1080,"i_long":106.820901,"line":2,"i_lat":-6.141205,"time":2},{"station_id":"JAKK","line":2,"time":4,"station_name":"Jakarta Kota","is_transit":true,"i_lat":-6.137569,"distance":1264,"i_long":106.812439,"transit":true},{"station_id":"KPB","line":4,"station_name":"Kampung Bandan","i_lat":-6.132549,"is_transit":true,"distance":1364,"i_long":106.826365,"transit":true,"time":3},{"i_long":106.79867,"distance":4102,"station_id":"AK","transit":false,"is_transit":false,"station_name":"Angke","i_lat":-6.144674,"line":1,"time":9},{"transit":true,"time":4,"is_transit":true,"distance":1230,"station_name":"Duri","station_id":"DU","i_lat":-6.155215,"line":1,"i_long":106.800832},{"distance":1700,"line":5,"station_name":"Grogol","is_transit":false,"transit":false,"time":3,"station_id":"GGL","i_lat":-6.162021,"i_long":106.788277},{"is_transit":false,"i_long":106.771379,"distance":2036,"station_id":"PSG","line":5,"time":2,"transit":false,"station_name":"Pesing","i_lat":-6.161433}],[{"is_transit":false,"line":2,"i_lat":-6.226659,"i_long":106.857948,"transit":false,"distance":0,"station_name":"Tebet","station_id":"TEB","time":0},{"time":4,"i_lat":-6.209883,"distance":2610,"i_long":106.84912,"line":2,"station_id":"MRI","is_transit":true,"station_name":"Manggarai","transit":true},{"i_long":106.858896,"station_id":"MTR","distance":1275,"time":2,"station_name":"Matraman","is_transit":false,"transit":false,"i_lat":-6.212485,"line":1},{"line":1,"time":8,"distance":1377,"station_id":"JNG","station_name":"Jatinegara","is_transit":true,"i_long":106.86807400000001,"transit":true,"i_lat":-6.215091},{"station_name":"Pondok Jati","i_long":106.861737,"distance":1236,"i_lat":-6.209188,"line":11,"time":2,"is_transit":false,"transit":false,"station_id":"POK"},{"i_long":106.855437,"is_transit":false,"transit":false,"time":2,"line":11,"station_id":"KMT","station_name":"Kramat","i_lat":-6.193792,"distance":1829},{"time":1,"line":11,"i_lat":-6.185975,"station_name":"Gang Sentiong","distance":973,"is_transit":false,"transit":false,"station_id":"GST","i_long":106.850107},{"distance":1567,"i_long":106.84368,"is_transit":false,"i_lat":-6.174784,"station_id":"PSE","station_name":"Pasar Senen","time":8,"transit":false,"line":11},{"station_id":"KMO","time":4,"distance":1436,"station_name":"Kemayoran","is_transit":false,"transit":false,"line":11,"i_lat":-6.161728,"i_long":106.839204},{"transit":false,"i_long":106.836569,"distance":1901,"time":5,"station_id":"RJW","station_name":"Rajawali","line":11,"is_transit":false,"i_lat":-6.14505},{"line":4,"station_id":"KPB","is_transit":true,"distance":1444,"station_name":"Kampung Bandan","transit":true,"i_lat":-6.132549,"time":3,"i_long":106.826365},{"i_long":106.79867,"line":1,"transit":false,"time":9,"distance":4102,"station_id":"AK","station_name":"Angke","i_lat":-6.144674,"is_transit":false},{"time":4,"i_long":106.800832,"distance":1230,"station_name":"Duri","is_transit":true,"transit":true,"line":1,"station_id":"DU","i_lat":-6.155215},{"is_transit":false,"station_name":"Grogol","distance":1700,"transit":false,"line":5,"i_lat":-6.162021,"time":3,"i_long":106.788277,"station_id":"GGL"},{"station_name":"Pesing","is_transit":false,"i_lat":-6.161433,"station_id":"PSG","i_long":106.771379,"time":2,"transit":false,"line":5,"distance":2036}]]}